[
  {
    "title": "High St Discount Pharmacy",
    "price": null,
    "categoryName": "Pharmacy",
    "address": "Smallwood Village Shopping Center, 30 Smallwood Village Center, Waldorf, MD 20602",
    "neighborhood": "Saint Charles",
    "street": "Smallwood Village Shopping Center, 30 Smallwood Village Center",
    "city": "Waldorf",
    "postalCode": "20602",
    "state": "Maryland",
    "countryCode": "US",
    "website": "http://www.waldorfdiscountpharmacy.com/",
    "phone": "(240) 448-3301",
    "phoneUnformatted": "+12404483301",
    "claimThisBusiness": false,
    "location": {
      "lat": 38.601579,
      "lng": -76.903226
    },
    "totalScore": 4.9,
    "permanentlyClosed": false,
    "temporarilyClosed": false,
    "placeId": "ChIJY4Fu8rigt4kR_vFxW4mnLGw",
    "categories": [
      "Pharmacy",
      "Delivery service",
      "Diabetes equipment supplier",
      "Discount store",
      "Medical supply store",
      "Money order service",
      "Money transfer service",
      "Shipping and mailing service",
      "Surgical supply store",
      "Veterinary pharmacy"
    ],
    "fid": "0x89b7a0b8f26e8163:0x6c2ca7895b71f1fe",
    "cid": "7794789263458038270",
    "reviewsCount": 104,
    "imagesCount": 30,
    "imageCategories": [],
    "scrapedAt": "2025-06-22T05:33:43.549Z",
    "googleFoodUrl": null,
    "hotelAds": [],
    "openingHours": [
      {
        "day": "Monday",
        "hours": "9 AM to 6 PM"
      },
      {
        "day": "Tuesday",
        "hours": "9 AM to 6 PM"
      },
      {
        "day": "Wednesday",
        "hours": "9 AM to 6 PM"
      },
      {
        "day": "Thursday",
        "hours": "9 AM to 6 PM"
      },
      {
        "day": "Friday",
        "hours": "9 AM to 6 PM"
      },
      {
        "day": "Saturday",
        "hours": "10 AM to 2 PM"
      },
      {
        "day": "Sunday",
        "hours": "Closed"
      }
    ],
    "peopleAlsoSearch": [],
    "placesTags": [],
    "reviewsTags": [],
    "additionalInfo": {
      "From the business": [
        {
          "Small business": true
        }
      ],
      "Service options": [
        {
          "Delivery": true
        },
        {
          "Onsite services": true
        }
      ],
      "Accessibility": [
        {
          "Wheelchair accessible entrance": true
        },
        {
          "Wheelchair accessible parking lot": true
        }
      ],
      "Planning": [
        {
          "Quick visit": true
        }
      ],
      "Payments": [
        {
          "Credit cards": true
        },
        {
          "Debit cards": true
        },
        {
          "NFC mobile payments": true
        },
        {
          "Credit cards": true
        }
      ]
    },
    "gasPrices": [],
    "url": "https://www.google.com/maps/search/?api=1&query=High%20St%20Discount%20Pharmacy&query_place_id=ChIJY4Fu8rigt4kR_vFxW4mnLGw",
    "searchPageUrl": "https://www.google.com/maps/search/independent%20pharmacy%20Waldorf%20MD/@63.4816040992648,-172.11313138426246,11z?hl=en",
    "searchString": "independent pharmacy Waldorf MD",
    "language": "en",
    "rank": 1,
    "isAdvertisement": false,
    "imageUrl": "https://lh3.googleusercontent.com/p/AF1QipOcWKVnSrZU2WiptLgoo3lIIRkV-8tZxKhoE9vA=w426-h240-k-no",
    "kgmid": "/g/11b7gqwrrb"
  },
  {
    "title": "The Pharmacy At St Patricks",
    "price": null,
    "categoryName": "Pharmacy",
    "address": "10 St Patricks Dr, Waldorf, MD 20603",
    "neighborhood": "Saint Charles",
    "street": "10 St Patricks Dr",
    "city": "Waldorf",
    "postalCode": "20603",
    "state": "Maryland",
    "countryCode": "US",
    "website": "https://www.stpatrickspharmacy.com/",
    "phone": "(301) 632-1000",
    "phoneUnformatted": "+13016321000",
    "claimThisBusiness": false,
    "location": {
      "lat": 38.6179866,
      "lng": -76.9205304
    },
    "totalScore": 4.9,
    "permanentlyClosed": false,
    "temporarilyClosed": false,
    "placeId": "ChIJl3pOkxSnt4kR-Ww4Bdv5IZY",
    "categories": [
      "Pharmacy"
    ],
    "fid": "0x89b7a714934e7a97:0x9621f9db05386cf9",
    "cid": "10818202499001380089",
    "reviewsCount": 146,
    "imagesCount": 17,
    "imageCategories": [],
    "scrapedAt": "2025-06-22T05:33:43.550Z",
    "googleFoodUrl": null,
    "hotelAds": [],
    "openingHours": [
      {
        "day": "Monday",
        "hours": "8 AM to 6 PM"
      },
      {
        "day": "Tuesday",
        "hours": "8 AM to 6 PM"
      },
      {
        "day": "Wednesday",
        "hours": "8 AM to 6 PM"
      },
      {
        "day": "Thursday",
        "hours": "8 AM to 6 PM"
      },
      {
        "day": "Friday",
        "hours": "8 AM to 6 PM"
      },
      {
        "day": "Saturday",
        "hours": "9 AM to 2 PM"
      },
      {
        "day": "Sunday",
        "hours": "Closed"
      }
    ],
    "peopleAlsoSearch": [],
    "placesTags": [],
    "reviewsTags": [],
    "additionalInfo": {
      "From the business": [
        {
          "Small business": true
        }
      ],
      "Service options": [
        {
          "Delivery": true
        },
        {
          "In-store pickup": true
        }
      ],
      "Accessibility": [
        {
          "Wheelchair accessible entrance": true
        },
        {
          "Wheelchair accessible parking lot": true
        }
      ],
      "Planning": [
        {
          "Quick visit": true
        }
      ],
      "Payments": [
        {
          "Credit cards": true
        },
        {
          "Debit cards": true
        },
        {
          "NFC mobile payments": true
        },
        {
          "Credit cards": true
        }
      ]
    },
    "gasPrices": [],
    "url": "https://www.google.com/maps/search/?api=1&query=The%20Pharmacy%20At%20St%20Patricks&query_place_id=ChIJl3pOkxSnt4kR-Ww4Bdv5IZY",
    "searchPageUrl": "https://www.google.com/maps/search/independent%20pharmacy%20Waldorf%20MD/@63.4816040992648,-172.11313138426246,11z?hl=en",
    "searchString": "independent pharmacy Waldorf MD",
    "language": "en",
    "rank": 2,
    "isAdvertisement": false,
    "imageUrl": "https://lh3.googleusercontent.com/p/AF1QipM8pW4rpfjlP5eR89jw9ImQrP41mMmmQYMFoynw=w408-h306-k-no",
    "kgmid": "/g/11n6ts1g49"
  },
  {
    "title": "Hanson Pharmacy",
    "price": null,
    "categoryName": "Pharmacy",
    "address": "2110 Crain Hwy, Waldorf, MD 20601",
    "neighborhood": null,
    "street": "2110 Crain Hwy",
    "city": "Waldorf",
    "postalCode": "20601",
    "state": "Maryland",
    "countryCode": "US",
    "phone": "(301) 885-0430",
    "phoneUnformatted": "+13018850430",
    "claimThisBusiness": true,
    "location": {
      "lat": 38.6534721,
      "lng": -76.8784339
    },
    "totalScore": 4.8,
    "permanentlyClosed": false,
    "temporarilyClosed": false,
    "placeId": "ChIJJ0IsOXqht4kRaWaAnUwVHaU",
    "categories": [
      "Pharmacy"
    ],
    "fid": "0x89b7a17a392c4227:0xa51d154c9d806669",
    "cid": "11897689209386853993",
    "reviewsCount": 30,
    "imagesCount": 4,
    "imageCategories": [],
    "scrapedAt": "2025-06-22T05:33:43.550Z",
    "googleFoodUrl": null,
    "hotelAds": [],
    "openingHours": [
      {
        "day": "Monday",
        "hours": "9 AM to 6 PM"
      },
      {
        "day": "Tuesday",
        "hours": "9 AM to 6 PM"
      },
      {
        "day": "Wednesday",
        "hours": "9 AM to 6 PM"
      },
      {
        "day": "Thursday",
        "hours": "9 AM to 6 PM"
      },
      {
        "day": "Friday",
        "hours": "9 AM to 6 PM"
      },
      {
        "day": "Saturday",
        "hours": "10 AM to 2 PM"
      },
      {
        "day": "Sunday",
        "hours": "Closed"
      }
    ],
    "peopleAlsoSearch": [],
    "placesTags": [],
    "reviewsTags": [],
    "additionalInfo": {
      "Service options": [
        {
          "Delivery": true
        }
      ],
      "Accessibility": [
        {
          "Wheelchair accessible entrance": true
        },
        {
          "Wheelchair accessible parking lot": true
        }
      ],
      "Planning": [
        {
          "Quick visit": true
        }
      ],
      "Payments": [
        {
          "Credit cards": true
        },
        {
          "Debit cards": true
        },
        {
          "Credit cards": true
        }
      ]
    },
    "gasPrices": [],
    "url": "https://www.google.com/maps/search/?api=1&query=Hanson%20Pharmacy&query_place_id=ChIJJ0IsOXqht4kRaWaAnUwVHaU",
    "searchPageUrl": "https://www.google.com/maps/search/independent%20pharmacy%20Waldorf%20MD/@63.4816040992648,-172.11313138426246,11z?hl=en",
    "searchString": "independent pharmacy Waldorf MD",
    "language": "en",
    "rank": 3,
    "isAdvertisement": false,
    "imageUrl": "https://lh3.googleusercontent.com/gps-cs-s/AC9h4nq4QgxXnpvG4HSpdYn7VQ1i4_AyS5TmqkgdtKpiGgRQoFUgEE8wesPCZlOTxDs4E1I4vJfNOFI6J9CgGREFbHbC1bragaV2R3PG_nqo9oOJaYo7zq6iw3FS7Xt2_aoHOrfkWwTX=w408-h306-k-no",
    "kgmid": "/g/1263slhs7"
  },
  {
    "title": "Family Meds Pharmacy",
    "price": null,
    "categoryName": "Pharmacy",
    "address": "12114 Old Line Ctr, Waldorf, MD 20602",
    "neighborhood": "Saint Charles",
    "street": "12114 Old Line Ctr",
    "city": "Waldorf",
    "postalCode": "20602",
    "state": "Maryland",
    "countryCode": "US",
    "phone": "(301) 396-9277",
    "phoneUnformatted": "+13013969277",
    "claimThisBusiness": false,
    "location": {
      "lat": 38.6169177,
      "lng": -76.8907231
    },
    "totalScore": 4.8,
    "permanentlyClosed": false,
    "temporarilyClosed": false,
    "placeId": "ChIJHcdewuagt4kR1pmO_Pd-1Io",
    "categories": [
      "Pharmacy",
      "Medical supply store"
    ],
    "fid": "0x89b7a0e6c25ec71d:0x8ad47ef7fc8e99d6",
    "cid": "10003760275855940054",
    "reviewsCount": 36,
    "imagesCount": 6,
    "imageCategories": [],
    "scrapedAt": "2025-06-22T05:33:43.551Z",
    "googleFoodUrl": null,
    "hotelAds": [],
    "openingHours": [
      {
        "day": "Monday",
        "hours": "9 AM to 6 PM"
      },
      {
        "day": "Tuesday",
        "hours": "9 AM to 6 PM"
      },
      {
        "day": "Wednesday",
        "hours": "9 AM to 6 PM"
      },
      {
        "day": "Thursday",
        "hours": "9 AM to 6 PM"
      },
      {
        "day": "Friday",
        "hours": "9 AM to 6 PM"
      },
      {
        "day": "Saturday",
        "hours": "9 AM to 2 PM"
      },
      {
        "day": "Sunday",
        "hours": "Closed"
      }
    ],
    "peopleAlsoSearch": [],
    "placesTags": [],
    "reviewsTags": [],
    "additionalInfo": {
      "From the business": [
        {
          "Small business": true
        }
      ],
      "Service options": [
        {
          "Curbside pickup": true
        },
        {
          "Delivery": true
        },
        {
          "In-store pickup": true
        },
        {
          "In-store shopping": true
        }
      ],
      "Accessibility": [
        {
          "Wheelchair accessible entrance": true
        },
        {
          "Wheelchair accessible parking lot": true
        }
      ],
      "Planning": [
        {
          "Quick visit": true
        }
      ],
      "Payments": [
        {
          "Credit cards": true
        },
        {
          "Debit cards": true
        },
        {
          "NFC mobile payments": true
        },
        {
          "Credit cards": true
        }
      ]
    },
    "gasPrices": [],
    "url": "https://www.google.com/maps/search/?api=1&query=Family%20Meds%20Pharmacy&query_place_id=ChIJHcdewuagt4kR1pmO_Pd-1Io",
    "searchPageUrl": "https://www.google.com/maps/search/independent%20pharmacy%20Waldorf%20MD/@63.4816040992648,-172.11313138426246,11z?hl=en",
    "searchString": "independent pharmacy Waldorf MD",
    "language": "en",
    "rank": 4,
    "isAdvertisement": false,
    "imageUrl": "https://lh3.googleusercontent.com/p/AF1QipOXDR4sYbMn2SU1h29L0JyWejR9S6_DR_3oZCs6=w408-h306-k-no",
    "kgmid": "/g/1thd2pmg"
  },
  {
    "title": "Elevation Pharmacy",
    "price": null,
    "categoryName": "Pharmacy",
    "address": "7651 Matapeake Business Dr #114, Brandywine, MD 20613",
    "neighborhood": null,
    "street": "7651 Matapeake Business Dr #114",
    "city": "Brandywine",
    "postalCode": "20613",
    "state": "Maryland",
    "countryCode": "US",
    "website": "http://elevationpharmacy.com/",
    "phone": "(240) 685-2830",
    "phoneUnformatted": "+12406852830",
    "claimThisBusiness": true,
    "location": {
      "lat": 38.6747611,
      "lng": -76.8700441
    },
    "totalScore": 5,
    "permanentlyClosed": false,
    "temporarilyClosed": false,
    "placeId": "ChIJtVcFMACjt4kRT5OQ-We06wE",
    "categories": [
      "Pharmacy"
    ],
    "fid": "0x89b7a300300557b5:0x1ebb467f990934f",
    "cid": "138402572226564943",
    "reviewsCount": 2,
    "imagesCount": 1,
    "imageCategories": [],
    "scrapedAt": "2025-06-22T05:33:43.551Z",
    "googleFoodUrl": null,
    "hotelAds": [],
    "openingHours": [
      {
        "day": "Monday",
        "hours": "9 AM to 6 PM"
      },
      {
        "day": "Tuesday",
        "hours": "9 AM to 6 PM"
      },
      {
        "day": "Wednesday",
        "hours": "9 AM to 6 PM"
      },
      {
        "day": "Thursday",
        "hours": "9 AM to 6 PM"
      },
      {
        "day": "Friday",
        "hours": "9 AM to 6 PM"
      },
      {
        "day": "Saturday",
        "hours": "Closed"
      },
      {
        "day": "Sunday",
        "hours": "Closed"
      }
    ],
    "peopleAlsoSearch": [],
    "placesTags": [],
    "reviewsTags": [],
    "additionalInfo": {
      "Service options": [
        {
          "Delivery": true
        }
      ],
      "Accessibility": [
        {
          "Wheelchair accessible entrance": true
        },
        {
          "Wheelchair accessible parking lot": true
        }
      ],
      "Payments": [
        {
          "Credit cards": true
        }
      ]
    },
    "gasPrices": [],
    "url": "https://www.google.com/maps/search/?api=1&query=Elevation%20Pharmacy&query_place_id=ChIJtVcFMACjt4kRT5OQ-We06wE",
    "searchPageUrl": "https://www.google.com/maps/search/independent%20pharmacy%20Waldorf%20MD/@63.4816040992648,-172.11313138426246,11z?hl=en",
    "searchString": "independent pharmacy Waldorf MD",
    "language": "en",
    "rank": 5,
    "isAdvertisement": false,
    "imageUrl": "https://streetviewpixels-pa.googleapis.com/v1/thumbnail?panoid=PWq9vzJtCIkWZgBuqH4fug&cb_client=search.gws-prod.gps&w=408&h=240&yaw=225.35931&pitch=0&thumbfov=100",
    "kgmid": "/g/11w4ky8k9z"
  },
  {
    "title": "Walgreens Pharmacy",
    "description": "Department of the Walgreens chain providing prescription medications & other health-related items.",
    "price": "$$",
    "categoryName": "Pharmacy",
    "address": "2970 Shasho Pl, Waldorf, MD 20603",
    "neighborhood": null,
    "street": "2970 Shasho Pl",
    "city": "Waldorf",
    "postalCode": "20603",
    "state": "Maryland",
    "countryCode": "US",
    "website": "https://www.walgreens.com/locator/walgreens-2970+shasho+pl-waldorf-md-20603/id=9632",
    "phone": "(301) 645-3095",
    "phoneUnformatted": "+13016453095",
    "claimThisBusiness": false,
    "location": {
      "lat": 38.6245151,
      "lng": -76.9215842
    },
    "totalScore": 3.3,
    "permanentlyClosed": false,
    "temporarilyClosed": false,
    "placeId": "ChIJDWwIXSqnt4kRyW5X7J26CwA",
    "categories": [
      "Pharmacy"
    ],
    "fid": "0x89b7a72a5d086c0d:0xbba9dec576ec9",
    "cid": "3301412181601993",
    "reviewsCount": 8,
    "imagesCount": 4,
    "imageCategories": [],
    "scrapedAt": "2025-06-22T05:33:43.551Z",
    "googleFoodUrl": null,
    "hotelAds": [],
    "openingHours": [
      {
        "day": "Monday",
        "hours": "9 AM to 1:30 PM, 2 to 9 PM"
      },
      {
        "day": "Tuesday",
        "hours": "9 AM to 1:30 PM, 2 to 9 PM"
      },
      {
        "day": "Wednesday",
        "hours": "9 AM to 1:30 PM, 2 to 9 PM"
      },
      {
        "day": "Thursday",
        "hours": "9 AM to 1:30 PM, 2 to 9 PM"
      },
      {
        "day": "Friday",
        "hours": "9 AM to 1:30 PM, 2 to 9 PM"
      },
      {
        "day": "Saturday",
        "hours": "9 AM to 1:30 PM, 2 to 6 PM"
      },
      {
        "day": "Sunday",
        "hours": "10 AM to 1:30 PM, 2 to 6 PM"
      }
    ],
    "additionalOpeningHours": {
      "Drive through": [
        {
          "day": "Monday",
          "hours": "9 AM–1:30 PM"
        },
        {
          "day": "Tuesday",
          "hours": "9 AM–1:30 PM"
        },
        {
          "day": "Wednesday",
          "hours": "9 AM–1:30 PM"
        },
        {
          "day": "Thursday",
          "hours": "9 AM–1:30 PM"
        },
        {
          "day": "Friday",
          "hours": "9 AM–1:30 PM"
        },
        {
          "day": "Saturday",
          "hours": "9 AM–1:30 PM"
        },
        {
          "day": "Sunday",
          "hours": "10 AM–1:30 PM"
        }
      ]
    },
    "peopleAlsoSearch": [],
    "placesTags": [],
    "reviewsTags": [],
    "additionalInfo": {
      "Service options": [
        {
          "Curbside pickup": true
        },
        {
          "Drive-through": true
        },
        {
          "In-store pickup": true
        }
      ],
      "Accessibility": [
        {
          "Wheelchair accessible entrance": true
        },
        {
          "Wheelchair accessible parking lot": true
        }
      ],
      "Offerings": [
        {
          "Naloxone": true
        }
      ],
      "Planning": [
        {
          "Quick visit": true
        }
      ],
      "Payments": [
        {
          "Checks": true
        },
        {
          "Credit cards": true
        },
        {
          "Debit cards": true
        }
      ]
    },
    "gasPrices": [],
    "url": "https://www.google.com/maps/search/?api=1&query=Walgreens%20Pharmacy&query_place_id=ChIJDWwIXSqnt4kRyW5X7J26CwA",
    "searchPageUrl": "https://www.google.com/maps/search/independent%20pharmacy%20Waldorf%20MD/@63.4816040992648,-172.11313138426246,11z?hl=en",
    "searchString": "independent pharmacy Waldorf MD",
    "language": "en",
    "rank": 6,
    "isAdvertisement": false,
    "imageUrl": "https://lh3.googleusercontent.com/p/AF1QipPRkVMrWz6GglaF9k7BK0cptUGUcppjdrZDZNZG=w525-h240-k-no",
    "kgmid": "/g/11cn94wd8p"
  },
  {
    "title": "CVS Pharmacy",
    "price": null,
    "categoryName": "Pharmacy",
    "address": "3855 Leonardtown Rd, Waldorf, MD 20601",
    "neighborhood": "Saint Charles",
    "street": "3855 Leonardtown Rd",
    "city": "Waldorf",
    "postalCode": "20601",
    "state": "Maryland",
    "countryCode": "US",
    "website": "https://www.cvs.com/store-locator/waldorf-md-pharmacies/3855-leonardtown-rd-waldorf-md-20601/storeid=1621?WT.mc_id=LS_GOOGLE_RX_1621",
    "phone": "(301) 632-5079",
    "phoneUnformatted": "+13016325079",
    "claimThisBusiness": false,
    "location": {
      "lat": 38.6146291,
      "lng": -76.8830406
    },
    "totalScore": 3.6,
    "permanentlyClosed": false,
    "temporarilyClosed": false,
    "placeId": "ChIJswQxN_ugt4kRSHWO2OGPTeo",
    "categories": [
      "Pharmacy"
    ],
    "fid": "0x89b7a0fb373104b3:0xea4d8fe1d88e7548",
    "cid": "16883308778245485896",
    "reviewsCount": 13,
    "imagesCount": 8,
    "imageCategories": [],
    "scrapedAt": "2025-06-22T05:33:57.463Z",
    "googleFoodUrl": null,
    "hotelAds": [],
    "openingHours": [
      {
        "day": "Monday",
        "hours": "8 AM to 1:30 PM, 2 to 9 PM"
      },
      {
        "day": "Tuesday",
        "hours": "8 AM to 1:30 PM, 2 to 9 PM"
      },
      {
        "day": "Wednesday",
        "hours": "8 AM to 1:30 PM, 2 to 9 PM"
      },
      {
        "day": "Thursday",
        "hours": "8 AM to 1:30 PM, 2 to 9 PM"
      },
      {
        "day": "Friday",
        "hours": "8 AM to 1:30 PM, 2 to 9 PM"
      },
      {
        "day": "Saturday",
        "hours": "9 AM to 1:30 PM, 2 to 6 PM"
      },
      {
        "day": "Sunday",
        "hours": "10 AM to 1:30 PM, 2 to 6 PM"
      }
    ],
    "peopleAlsoSearch": [],
    "placesTags": [],
    "reviewsTags": [],
    "additionalInfo": {
      "Service options": [
        {
          "Delivery": true
        },
        {
          "Drive-through": true
        },
        {
          "In-store pickup": true
        },
        {
          "In-store shopping": true
        },
        {
          "Onsite services": true
        }
      ],
      "Accessibility": [
        {
          "Wheelchair accessible entrance": true
        },
        {
          "Wheelchair accessible parking lot": true
        }
      ],
      "Offerings": [
        {
          "Naloxone": true
        },
        {
          "Passport photos": true
        }
      ],
      "Crowd": [
        {
          "LGBTQ+ friendly": true
        },
        {
          "Transgender safespace": true
        }
      ],
      "Planning": [
        {
          "Quick visit": true
        }
      ],
      "Payments": [
        {
          "Credit cards": true
        },
        {
          "Debit cards": true
        },
        {
          "NFC mobile payments": true
        },
        {
          "SNAP/EBT": true
        },
        {
          "Credit cards": true
        }
      ]
    },
    "gasPrices": [],
    "url": "https://www.google.com/maps/search/?api=1&query=CVS%20Pharmacy&query_place_id=ChIJswQxN_ugt4kRSHWO2OGPTeo",
    "searchPageUrl": "https://www.google.com/maps/search/independent%20pharmacy%20Waldorf%20MD/@26.24170998753768,-173.91676505273216,13z?hl=en",
    "searchString": "independent pharmacy Waldorf MD",
    "language": "en",
    "rank": 6,
    "isAdvertisement": false,
    "imageUrl": "https://lh3.googleusercontent.com/p/AF1QipPBTrvXgadHLjenmv5WcMiI6t9eFJf89rqr2KuE=w408-h272-k-no",
    "kgmid": "/g/11c468bgpb"
  },
  {
    "title": "Walgreens Pharmacy",
    "description": "Department of the Walgreens chain providing prescription medications & other health-related items.",
    "price": "$$",
    "categoryName": "Pharmacy",
    "address": "25 Smallwood Village Center, Waldorf, MD 20602",
    "neighborhood": "Saint Charles",
    "street": "25 Smallwood Village Center",
    "city": "Waldorf",
    "postalCode": "20602",
    "state": "Maryland",
    "countryCode": "US",
    "website": "https://www.walgreens.com/locator/walgreens-25+high+st-waldorf-md-20602/id=9032",
    "phone": "(301) 932-9826",
    "phoneUnformatted": "+13019329826",
    "claimThisBusiness": false,
    "location": {
      "lat": 38.6023699,
      "lng": -76.9041145
    },
    "totalScore": 4,
    "permanentlyClosed": false,
    "temporarilyClosed": false,
    "placeId": "ChIJM7aLYrigt4kRLd-D2hpbFXg",
    "categories": [
      "Pharmacy"
    ],
    "fid": "0x89b7a0b8628bb633:0x78155b1ada83df2d",
    "cid": "8652922429955628845",
    "reviewsCount": 7,
    "imagesCount": 5,
    "imageCategories": [],
    "scrapedAt": "2025-06-22T05:33:57.463Z",
    "googleFoodUrl": null,
    "hotelAds": [],
    "openingHours": [
      {
        "day": "Monday",
        "hours": "9 AM to 1:30 PM, 2 to 8 PM"
      },
      {
        "day": "Tuesday",
        "hours": "9 AM to 1:30 PM, 2 to 8 PM"
      },
      {
        "day": "Wednesday",
        "hours": "9 AM to 1:30 PM, 2 to 8 PM"
      },
      {
        "day": "Thursday",
        "hours": "9 AM to 1:30 PM, 2 to 8 PM"
      },
      {
        "day": "Friday",
        "hours": "9 AM to 1:30 PM, 2 to 8 PM"
      },
      {
        "day": "Saturday",
        "hours": "9 AM to 1:30 PM, 2 to 6 PM"
      },
      {
        "day": "Sunday",
        "hours": "Closed"
      }
    ],
    "additionalOpeningHours": {
      "Drive through": [
        {
          "day": "Monday",
          "hours": "9 AM–1:30 PM"
        },
        {
          "day": "Tuesday",
          "hours": "9 AM–1:30 PM"
        },
        {
          "day": "Wednesday",
          "hours": "9 AM–1:30 PM"
        },
        {
          "day": "Thursday",
          "hours": "9 AM–1:30 PM"
        },
        {
          "day": "Friday",
          "hours": "9 AM–1:30 PM"
        },
        {
          "day": "Saturday",
          "hours": "9 AM–1:30 PM"
        },
        {
          "day": "Sunday",
          "hours": "Closed"
        }
      ]
    },
    "peopleAlsoSearch": [],
    "placesTags": [],
    "reviewsTags": [],
    "additionalInfo": {
      "Service options": [
        {
          "Drive-through": true
        },
        {
          "In-store pickup": true
        }
      ],
      "Accessibility": [
        {
          "Wheelchair accessible entrance": true
        },
        {
          "Wheelchair accessible parking lot": true
        }
      ],
      "Offerings": [
        {
          "Naloxone": true
        }
      ],
      "Planning": [
        {
          "Quick visit": true
        }
      ],
      "Payments": [
        {
          "Credit cards": true
        },
        {
          "Debit cards": true
        }
      ]
    },
    "gasPrices": [],
    "url": "https://www.google.com/maps/search/?api=1&query=Walgreens%20Pharmacy&query_place_id=ChIJM7aLYrigt4kRLd-D2hpbFXg",
    "searchPageUrl": "https://www.google.com/maps/search/independent%20pharmacy%20Waldorf%20MD/@26.24170998753768,-173.91676505273216,13z?hl=en",
    "searchString": "independent pharmacy Waldorf MD",
    "language": "en",
    "rank": 7,
    "isAdvertisement": false,
    "imageUrl": "https://lh3.googleusercontent.com/p/AF1QipP8hFZB-xh6-3DT1rEZkmA3XkIwoJyGeFL9bqJI=w525-h240-k-no",
    "kgmid": "/g/11cn94gkjc"
  },
  {
    "title": "CVS Pharmacy",
    "price": null,
    "categoryName": "Pharmacy",
    "address": "3061 Technology Pl, Waldorf, MD 20601",
    "neighborhood": null,
    "street": "3061 Technology Pl",
    "city": "Waldorf",
    "postalCode": "20601",
    "state": "Maryland",
    "countryCode": "US",
    "website": "https://www.cvs.com/store-locator/waldorf-md-pharmacies/3061-technology-place-waldorf-md-20601/storeid=1481?WT.mc_id=LS_GOOGLE_RX_1481",
    "phone": "(301) 645-2637",
    "phoneUnformatted": "+13016452637",
    "claimThisBusiness": false,
    "location": {
      "lat": 38.6300138,
      "lng": -76.9163637
    },
    "totalScore": 3.4,
    "permanentlyClosed": false,
    "temporarilyClosed": false,
    "placeId": "ChIJo3nxYyuht4kRPHFdhk1eaoc",
    "categories": [
      "Pharmacy"
    ],
    "fid": "0x89b7a12b63f179a3:0x876a5e4d865d713c",
    "cid": "9757715229711364412",
    "reviewsCount": 15,
    "imagesCount": 9,
    "imageCategories": [],
    "scrapedAt": "2025-06-22T05:33:57.463Z",
    "googleFoodUrl": null,
    "hotelAds": [],
    "openingHours": [
      {
        "day": "Monday",
        "hours": "8 AM to 1:30 PM, 2 to 10 PM"
      },
      {
        "day": "Tuesday",
        "hours": "8 AM to 1:30 PM, 2 to 10 PM"
      },
      {
        "day": "Wednesday",
        "hours": "8 AM to 1:30 PM, 2 to 10 PM"
      },
      {
        "day": "Thursday",
        "hours": "8 AM to 1:30 PM, 2 to 10 PM"
      },
      {
        "day": "Friday",
        "hours": "8 AM to 1:30 PM, 2 to 10 PM"
      },
      {
        "day": "Saturday",
        "hours": "9 AM to 1:30 PM, 2 to 6 PM"
      },
      {
        "day": "Sunday",
        "hours": "10 AM to 1:30 PM, 2 to 6 PM"
      }
    ],
    "peopleAlsoSearch": [],
    "placesTags": [],
    "reviewsTags": [],
    "additionalInfo": {
      "Service options": [
        {
          "Delivery": true
        },
        {
          "Drive-through": true
        },
        {
          "In-store pickup": true
        },
        {
          "In-store shopping": true
        },
        {
          "Onsite services": true
        }
      ],
      "Accessibility": [
        {
          "Wheelchair accessible entrance": true
        },
        {
          "Wheelchair accessible parking lot": true
        }
      ],
      "Offerings": [
        {
          "Medication disposal": true
        },
        {
          "Naloxone": true
        },
        {
          "Passport photos": true
        }
      ],
      "Crowd": [
        {
          "LGBTQ+ friendly": true
        },
        {
          "Transgender safespace": true
        }
      ],
      "Planning": [
        {
          "Quick visit": true
        }
      ],
      "Payments": [
        {
          "Credit cards": true
        },
        {
          "Debit cards": true
        },
        {
          "NFC mobile payments": true
        },
        {
          "Credit cards": true
        }
      ]
    },
    "gasPrices": [],
    "url": "https://www.google.com/maps/search/?api=1&query=CVS%20Pharmacy&query_place_id=ChIJo3nxYyuht4kRPHFdhk1eaoc",
    "searchPageUrl": "https://www.google.com/maps/search/independent%20pharmacy%20Waldorf%20MD/@26.24170998753768,-173.91676505273216,13z?hl=en",
    "searchString": "independent pharmacy Waldorf MD",
    "language": "en",
    "rank": 8,
    "isAdvertisement": false,
    "imageUrl": "https://lh3.googleusercontent.com/p/AF1QipNTasQRKD69RqOAs7aovbNiB8x6NFEvMT_A0N6p=w408-h272-k-no",
    "kgmid": "/g/11c468nzjx"
  },
  {
    "title": "Giant Pharmacy",
    "price": "$$",
    "categoryName": "Pharmacy",
    "address": "3297 Crain Hwy, Waldorf, MD 20603",
    "neighborhood": null,
    "street": "3297 Crain Hwy",
    "city": "Waldorf",
    "postalCode": "20603",
    "state": "Maryland",
    "countryCode": "US",
    "website": "https://pharmacy.giantfood.com/md/waldorf/3297-crain-highway?y_source=1_MTE2Mzg1MDctNzE1LWxvY2F0aW9uLndlYnNpdGU%3D",
    "phone": "(301) 542-4200",
    "phoneUnformatted": "+13015424200",
    "claimThisBusiness": false,
    "location": {
      "lat": 38.6232242,
      "lng": -76.9170505
    },
    "totalScore": 3.1,
    "permanentlyClosed": false,
    "temporarilyClosed": false,
    "placeId": "ChIJBUtK8tSgt4kRHawd4Ohvgx0",
    "categories": [
      "Pharmacy"
    ],
    "fid": "0x89b7a0d4f24a4b05:0x1d836fe8e01dac1d",
    "cid": "2126666495032142877",
    "reviewsCount": 21,
    "imagesCount": 4,
    "imageCategories": [],
    "scrapedAt": "2025-06-22T05:33:57.463Z",
    "googleFoodUrl": null,
    "hotelAds": [],
    "openingHours": [
      {
        "day": "Monday",
        "hours": "9 AM to 9 PM"
      },
      {
        "day": "Tuesday",
        "hours": "9 AM to 9 PM"
      },
      {
        "day": "Wednesday",
        "hours": "9 AM to 9 PM"
      },
      {
        "day": "Thursday",
        "hours": "9 AM to 9 PM"
      },
      {
        "day": "Friday",
        "hours": "9 AM to 9 PM"
      },
      {
        "day": "Saturday",
        "hours": "9 AM to 6 PM"
      },
      {
        "day": "Sunday",
        "hours": "10 AM to 5 PM"
      }
    ],
    "peopleAlsoSearch": [],
    "placesTags": [],
    "reviewsTags": [],
    "additionalInfo": {
      "Service options": [
        {
          "Delivery": true
        },
        {
          "Drive-through": true
        },
        {
          "In-store pickup": true
        },
        {
          "Onsite services": true
        }
      ],
      "Accessibility": [
        {
          "Wheelchair accessible entrance": true
        },
        {
          "Wheelchair accessible parking lot": true
        }
      ],
      "Planning": [
        {
          "Quick visit": true
        }
      ],
      "Payments": [
        {
          "Credit cards": true
        },
        {
          "Debit cards": true
        },
        {
          "NFC mobile payments": true
        },
        {
          "Credit cards": true
        }
      ]
    },
    "gasPrices": [],
    "url": "https://www.google.com/maps/search/?api=1&query=Giant%20Pharmacy&query_place_id=ChIJBUtK8tSgt4kRHawd4Ohvgx0",
    "searchPageUrl": "https://www.google.com/maps/search/independent%20pharmacy%20Waldorf%20MD/@26.24170998753768,-173.91676505273216,13z?hl=en",
    "searchString": "independent pharmacy Waldorf MD",
    "language": "en",
    "rank": 9,
    "isAdvertisement": false,
    "imageUrl": "https://lh3.googleusercontent.com/gps-cs-s/AC9h4npndMfmaDu9eLPwYHvcVhlsjO-HYmxhJogg2Nr3UgApaIWNS5k-XflLuIfksIauKekBVpT7EHWNiR_mU4aa8P0mqzr_DCNSAeBsbWam9c2LwMBc0OG13Xeu0imetU0hfyqxl9SGRQ=w408-h306-k-no",
    "kgmid": "/g/12hpw36ll"
  },
  {
    "title": "Safeway Pharmacy",
    "price": "$$",
    "categoryName": "Pharmacy",
    "address": "3051 Waldorf Market Pl, Waldorf, MD 20603",
    "neighborhood": null,
    "street": "3051 Waldorf Market Pl",
    "city": "Waldorf",
    "postalCode": "20603",
    "state": "Maryland",
    "countryCode": "US",
    "website": "https://local.pharmacy.safeway.com/safeway/md/waldorf/3051-waldorf-market-pl.html",
    "phone": "(301) 632-5684",
    "phoneUnformatted": "+13016325684",
    "claimThisBusiness": false,
    "location": {
      "lat": 38.6269393,
      "lng": -76.9170147
    },
    "totalScore": 4.6,
    "permanentlyClosed": false,
    "temporarilyClosed": false,
    "placeId": "ChIJC7uO_kCht4kR2AOyBclRs3E",
    "categories": [
      "Pharmacy",
      "Drug store",
      "Vitamin & supplements store"
    ],
    "fid": "0x89b7a140fe8ebb0b:0x71b351c905b203d8",
    "cid": "8192982070942893016",
    "reviewsCount": 8,
    "imagesCount": 6,
    "imageCategories": [],
    "scrapedAt": "2025-06-22T05:33:57.463Z",
    "googleFoodUrl": null,
    "hotelAds": [],
    "openingHours": [
      {
        "day": "Monday",
        "hours": "9 AM to 1:30 PM, 2 to 8 PM"
      },
      {
        "day": "Tuesday",
        "hours": "9 AM to 1:30 PM, 2 to 8 PM"
      },
      {
        "day": "Wednesday",
        "hours": "9 AM to 1:30 PM, 2 to 8 PM"
      },
      {
        "day": "Thursday",
        "hours": "9 AM to 1:30 PM, 2 to 8 PM"
      },
      {
        "day": "Friday",
        "hours": "9 AM to 1:30 PM, 2 to 8 PM"
      },
      {
        "day": "Saturday",
        "hours": "9 AM to 1:30 PM, 2 to 5 PM"
      },
      {
        "day": "Sunday",
        "hours": "10 AM to 1:30 PM, 2 to 5 PM"
      }
    ],
    "peopleAlsoSearch": [],
    "placesTags": [],
    "reviewsTags": [],
    "additionalInfo": {
      "Service options": [
        {
          "Delivery": true
        },
        {
          "In-store pickup": true
        },
        {
          "In-store shopping": true
        },
        {
          "Same-day delivery": true
        }
      ],
      "Accessibility": [
        {
          "Wheelchair accessible entrance": true
        },
        {
          "Wheelchair accessible parking lot": true
        }
      ],
      "Crowd": [
        {
          "LGBTQ+ friendly": true
        }
      ],
      "Planning": [
        {
          "Appointment required": true
        },
        {
          "Quick visit": true
        }
      ],
      "Payments": [
        {
          "Checks": true
        },
        {
          "Debit cards": true
        },
        {
          "Credit cards": true
        }
      ]
    },
    "gasPrices": [],
    "url": "https://www.google.com/maps/search/?api=1&query=Safeway%20Pharmacy&query_place_id=ChIJC7uO_kCht4kR2AOyBclRs3E",
    "searchPageUrl": "https://www.google.com/maps/search/independent%20pharmacy%20Waldorf%20MD/@26.24170998753768,-173.91676505273216,13z?hl=en",
    "searchString": "independent pharmacy Waldorf MD",
    "language": "en",
    "rank": 10,
    "isAdvertisement": false,
    "imageUrl": "https://lh3.googleusercontent.com/p/AF1QipOtMkj_trR1-YuHs9kdIYEG5_QMJzLqqoWqCLSh=w426-h240-k-no",
    "kgmid": "/g/12hmt6s43"
  },
  {
    "title": "Safeway Pharmacy",
    "price": "$$",
    "categoryName": "Pharmacy",
    "address": "10 King St, Waldorf, MD 20602",
    "neighborhood": "Saint Charles",
    "street": "10 King St",
    "city": "Waldorf",
    "postalCode": "20602",
    "state": "Maryland",
    "countryCode": "US",
    "website": "https://local.pharmacy.safeway.com/safeway/md/waldorf/10-king-st.html",
    "phone": "(301) 645-5161",
    "phoneUnformatted": "+13016455161",
    "claimThisBusiness": false,
    "location": {
      "lat": 38.6027427,
      "lng": -76.9017893
    },
    "totalScore": 4.5,
    "permanentlyClosed": false,
    "temporarilyClosed": false,
    "placeId": "ChIJpe4SkLigt4kRSEuP-QjZ5cQ",
    "categories": [
      "Pharmacy",
      "Drug store",
      "Vitamin & supplements store"
    ],
    "fid": "0x89b7a0b89012eea5:0xc4e5d908f98f4b48",
    "cid": "14187984833670499144",
    "reviewsCount": 8,
    "imagesCount": 14,
    "imageCategories": [],
    "scrapedAt": "2025-06-22T05:33:57.463Z",
    "googleFoodUrl": null,
    "hotelAds": [],
    "openingHours": [
      {
        "day": "Monday",
        "hours": "9 AM to 1:30 PM, 2 to 8 PM"
      },
      {
        "day": "Tuesday",
        "hours": "9 AM to 1:30 PM, 2 to 8 PM"
      },
      {
        "day": "Wednesday",
        "hours": "9 AM to 1:30 PM, 2 to 8 PM"
      },
      {
        "day": "Thursday",
        "hours": "9 AM to 1:30 PM, 2 to 8 PM"
      },
      {
        "day": "Friday",
        "hours": "9 AM to 1:30 PM, 2 to 8 PM"
      },
      {
        "day": "Saturday",
        "hours": "9 AM to 1:30 PM, 2 to 5 PM"
      },
      {
        "day": "Sunday",
        "hours": "10 AM to 1:30 PM, 2 to 5 PM"
      }
    ],
    "peopleAlsoSearch": [],
    "placesTags": [],
    "reviewsTags": [],
    "additionalInfo": {
      "Service options": [
        {
          "Delivery": true
        },
        {
          "In-store pickup": true
        },
        {
          "In-store shopping": true
        },
        {
          "Same-day delivery": true
        }
      ],
      "Accessibility": [
        {
          "Wheelchair accessible entrance": true
        },
        {
          "Wheelchair accessible parking lot": true
        }
      ],
      "Crowd": [
        {
          "LGBTQ+ friendly": true
        }
      ],
      "Planning": [
        {
          "Appointment required": true
        },
        {
          "Quick visit": true
        }
      ],
      "Payments": [
        {
          "Checks": true
        },
        {
          "Debit cards": true
        },
        {
          "Credit cards": true
        }
      ]
    },
    "gasPrices": [],
    "url": "https://www.google.com/maps/search/?api=1&query=Safeway%20Pharmacy&query_place_id=ChIJpe4SkLigt4kRSEuP-QjZ5cQ",
    "searchPageUrl": "https://www.google.com/maps/search/independent%20pharmacy%20Waldorf%20MD/@26.24170998753768,-173.91676505273216,13z?hl=en",
    "searchString": "independent pharmacy Waldorf MD",
    "language": "en",
    "rank": 11,
    "isAdvertisement": false,
    "imageUrl": "https://lh3.googleusercontent.com/gps-cs-s/AC9h4noKx6sNzAohNyAbu_Ee099EZnh4NLHGnNVYHKSTQB3HDf1G5xwWYnismijzoK0cpfjI4zS3sHu7p1nPBuQQTXpDIMl8hmrSdclCwrJu7nlWA-q3EAvIMETxYD-6pSwyZbx5YopF=w426-h240-k-no",
    "kgmid": "/g/1tdmqyv9"
  },
  {
    "title": "My Express Care Pharmacy",
    "price": null,
    "categoryName": "Pharmacy",
    "address": "4453 Crain Hwy, White Plains, MD 20695",
    "neighborhood": "White Plains",
    "street": "4453 Crain Hwy",
    "city": "White Plains",
    "postalCode": "20695",
    "state": "Maryland",
    "countryCode": "US",
    "website": "http://www.myexpresscarerx.com/",
    "phone": "(240) 448-3679",
    "phoneUnformatted": "+12404483679",
    "claimThisBusiness": false,
    "location": {
      "lat": 38.5908611,
      "lng": -76.9429746
    },
    "totalScore": 4.8,
    "permanentlyClosed": false,
    "temporarilyClosed": false,
    "placeId": "ChIJC629lmCnt4kRIBfc8wq-5GY",
    "categories": [
      "Pharmacy"
    ],
    "fid": "0x89b7a76096bdad0b:0x66e4be0af3dc1720",
    "cid": "7414259840808916768",
    "reviewsCount": 71,
    "imagesCount": 21,
    "imageCategories": [],
    "scrapedAt": "2025-06-22T05:33:59.492Z",
    "googleFoodUrl": null,
    "hotelAds": [],
    "openingHours": [
      {
        "day": "Monday",
        "hours": "9 AM to 5 PM"
      },
      {
        "day": "Tuesday",
        "hours": "9 AM to 5 PM"
      },
      {
        "day": "Wednesday",
        "hours": "9 AM to 5 PM"
      },
      {
        "day": "Thursday",
        "hours": "9 AM to 5 PM"
      },
      {
        "day": "Friday",
        "hours": "9 AM to 5 PM"
      },
      {
        "day": "Saturday",
        "hours": "10 AM to 5 PM"
      },
      {
        "day": "Sunday",
        "hours": "Closed"
      }
    ],
    "peopleAlsoSearch": [],
    "placesTags": [],
    "reviewsTags": [],
    "additionalInfo": {
      "From the business": [
        {
          "Identifies as Black-owned": true
        },
        {
          "Identifies as women-owned": true
        },
        {
          "Small business": true
        }
      ],
      "Service options": [
        {
          "Curbside pickup": true
        },
        {
          "Delivery": true
        },
        {
          "In-store pickup": true
        },
        {
          "In-store shopping": true
        },
        {
          "Onsite services": true
        },
        {
          "Same-day delivery": true
        }
      ],
      "Accessibility": [
        {
          "Wheelchair accessible entrance": true
        },
        {
          "Wheelchair accessible parking lot": true
        }
      ],
      "Crowd": [
        {
          "LGBTQ+ friendly": true
        },
        {
          "Transgender safespace": true
        }
      ],
      "Payments": [
        {
          "Checks": true
        },
        {
          "Credit cards": true
        },
        {
          "Debit cards": true
        },
        {
          "NFC mobile payments": true
        },
        {
          "Credit cards": true
        }
      ]
    },
    "gasPrices": [],
    "url": "https://www.google.com/maps/search/?api=1&query=My%20Express%20Care%20Pharmacy&query_place_id=ChIJC629lmCnt4kRIBfc8wq-5GY",
    "searchPageUrl": "https://www.google.com/maps/search/independent%20pharmacy%20Waldorf%20MD/@65.73786228335844,-150.80891300000008,9z?hl=en",
    "searchString": "independent pharmacy Waldorf MD",
    "language": "en",
    "rank": 6,
    "isAdvertisement": false,
    "imageUrl": "https://lh3.googleusercontent.com/p/AF1QipM4oaMUtJgiGEZ4MxuLkEDHjFmyghvVxbgsCQut=w426-h240-k-no",
    "kgmid": "/g/11bw5zn90j"
  },
  {
    "title": "Melinda A. Jowett, PD",
    "price": null,
    "categoryName": "Pharmacy",
    "address": "3051 Waldorf Market Pl, Waldorf, MD 20603, United States",
    "neighborhood": null,
    "street": "3051 Waldorf Market Pl",
    "city": "Waldorf",
    "postalCode": "20603",
    "state": "Maryland",
    "countryCode": "US",
    "phone": "+1 301-632-5684",
    "phoneUnformatted": "+13016325684",
    "claimThisBusiness": true,
    "location": {
      "lat": 38.6269781,
      "lng": -76.916949
    },
    "permanentlyClosed": false,
    "temporarilyClosed": false,
    "placeId": "ChIJUw38sSqht4kRgbcZrn2GTO4",
    "categories": [
      "Pharmacy"
    ],
    "fid": "0x89b7a12ab1fc0d53:0xee4c867dae19b781",
    "cid": "17171247353606813569",
    "reviewsCount": 0,
    "imagesCount": 1,
    "imageCategories": [],
    "scrapedAt": "2025-06-22T05:35:15.455Z",
    "googleFoodUrl": null,
    "hotelAds": [],
    "openingHours": [],
    "peopleAlsoSearch": [],
    "placesTags": [],
    "reviewsTags": [],
    "additionalInfo": {
      "Accessibility": [
        {
          "Wheelchair-accessible car park": true
        },
        {
          "Wheelchair-accessible entrance": true
        }
      ]
    },
    "gasPrices": [],
    "url": "https://www.google.com/maps/search/?api=1&query=Melinda%20A.%20Jowett%2C%20PD&query_place_id=ChIJUw38sSqht4kRgbcZrn2GTO4",
    "searchPageUrl": "https://www.google.com/maps/search/independent%20pharmacy%20Waldorf%20MD/@52.14797767021313,-172.00489982057323,11z?hl=en",
    "searchString": "independent pharmacy Waldorf MD",
    "language": "en",
    "rank": 5,
    "isAdvertisement": false,
    "imageUrl": "https://streetviewpixels-pa.googleapis.com/v1/thumbnail?panoid=wceLZ2OkBXmmf8yyt1uZRA&cb_client=search.gws-prod.gps&w=408&h=240&yaw=131.9176&pitch=0&thumbfov=100",
    "kgmid": "/g/1tcwxm1r"
  },
  {
    "title": "The Pharmacy at PJ Bean",
    "price": null,
    "categoryName": "Pharmacy",
    "address": "24035 Three Notch Rd, Hollywood, MD 20636",
    "neighborhood": "Hollywood",
    "street": "24035 Three Notch Rd",
    "city": "Hollywood",
    "postalCode": "20636",
    "state": "Maryland",
    "countryCode": "US",
    "website": "http://www.pjbpharmacy.com/",
    "phone": "(240) 309-4062",
    "phoneUnformatted": "+12403094062",
    "claimThisBusiness": false,
    "location": {
      "lat": 38.3265041,
      "lng": -76.5524469
    },
    "totalScore": 4.8,
    "permanentlyClosed": false,
    "temporarilyClosed": false,
    "placeId": "ChIJm1o-l3lkt4kRaBoTfZzm_MQ",
    "categories": [
      "Pharmacy"
    ],
    "fid": "0x89b76479973e5a9b:0xc4fce69c7d131a68",
    "cid": "14194473685352651368",
    "reviewsCount": 64,
    "imagesCount": 3,
    "imageCategories": [],
    "scrapedAt": "2025-06-22T05:35:30.893Z",
    "googleFoodUrl": null,
    "hotelAds": [],
    "openingHours": [
      {
        "day": "Monday",
        "hours": "9 AM to 6 PM"
      },
      {
        "day": "Tuesday",
        "hours": "9 AM to 6 PM"
      },
      {
        "day": "Wednesday",
        "hours": "9 AM to 6 PM"
      },
      {
        "day": "Thursday",
        "hours": "9 AM to 6 PM"
      },
      {
        "day": "Friday",
        "hours": "9 AM to 6 PM"
      },
      {
        "day": "Saturday",
        "hours": "9 AM to 2 PM"
      },
      {
        "day": "Sunday",
        "hours": "Closed"
      }
    ],
    "peopleAlsoSearch": [],
    "placesTags": [],
    "reviewsTags": [],
    "additionalInfo": {
      "From the business": [
        {
          "Small business": true
        }
      ],
      "Service options": [
        {
          "Curbside pickup": true
        },
        {
          "Delivery": true
        },
        {
          "In-store pickup": true
        }
      ],
      "Accessibility": [
        {
          "Wheelchair accessible entrance": true
        },
        {
          "Wheelchair accessible parking lot": true
        }
      ],
      "Payments": [
        {
          "Checks": true
        },
        {
          "Credit cards": true
        },
        {
          "Debit cards": true
        },
        {
          "NFC mobile payments": true
        },
        {
          "Credit cards": true
        }
      ]
    },
    "gasPrices": [],
    "url": "https://www.google.com/maps/search/?api=1&query=The%20Pharmacy%20at%20PJ%20Bean&query_place_id=ChIJm1o-l3lkt4kRaBoTfZzm_MQ",
    "searchPageUrl": "https://www.google.com/maps/search/independent%20pharmacy%20Waldorf%20MD/@36.81849750000001,-76.98739394329682,8z?hl=en",
    "searchString": "independent pharmacy Waldorf MD",
    "language": "en",
    "rank": 2,
    "isAdvertisement": false,
    "imageUrl": "https://lh3.googleusercontent.com/p/AF1QipPkYoDJa647VurlgkyXgBZZ23tgqGsZrOV5MWlx=w408-h270-k-no",
    "kgmid": "/g/11bt_hrpff"
  },
  {
    "title": "LEX PHARMACY",
    "price": null,
    "categoryName": "Pharmacy",
    "address": "36 Solomons Island Rd S, Prince Frederick, MD 20678",
    "neighborhood": null,
    "street": "36 Solomons Island Rd S",
    "city": "Prince Frederick",
    "postalCode": "20678",
    "state": "Maryland",
    "countryCode": "US",
    "phone": "(410) 449-2775",
    "phoneUnformatted": "+14104492775",
    "claimThisBusiness": false,
    "location": {
      "lat": 38.5367693,
      "lng": -76.5869847
    },
    "totalScore": 4.7,
    "permanentlyClosed": false,
    "temporarilyClosed": false,
    "placeId": "ChIJvVZwnF_fuYkRanTLmCwfnkU",
    "categories": [
      "Pharmacy"
    ],
    "fid": "0x89b9df5f9c7056bd:0x459e1f2c98cb746a",
    "cid": "5016481311339803754",
    "reviewsCount": 31,
    "reviewsDistribution": {
      "oneStar": 1,
      "twoStar": 0,
      "threeStar": 1,
      "fourStar": 2,
      "fiveStar": 27
    },
    "imagesCount": 2,
    "imageCategories": [],
    "scrapedAt": "2025-06-22T05:35:31.948Z",
    "googleFoodUrl": null,
    "hotelAds": [],
    "openingHours": [
      {
        "day": "Monday",
        "hours": "9 AM to 7 PM"
      },
      {
        "day": "Tuesday",
        "hours": "9 AM to 7 PM"
      },
      {
        "day": "Wednesday",
        "hours": "9 AM to 7 PM"
      },
      {
        "day": "Thursday",
        "hours": "9 AM to 7 PM"
      },
      {
        "day": "Friday",
        "hours": "9 AM to 7 PM"
      },
      {
        "day": "Saturday",
        "hours": "10 AM to 3 PM"
      },
      {
        "day": "Sunday",
        "hours": "Closed"
      }
    ],
    "peopleAlsoSearch": [],
    "placesTags": [],
    "reviewsTags": [],
    "additionalInfo": {
      "From the business": [
        {
          "Small business": true
        }
      ],
      "Service options": [
        {
          "Delivery": true
        },
        {
          "Drive-through": true
        }
      ],
      "Accessibility": [
        {
          "Wheelchair accessible entrance": true
        },
        {
          "Wheelchair accessible parking lot": true
        }
      ],
      "Payments": [
        {
          "Credit cards": true
        },
        {
          "Debit cards": true
        },
        {
          "NFC mobile payments": true
        },
        {
          "Credit cards": true
        }
      ]
    },
    "gasPrices": [],
    "url": "https://www.google.com/maps/search/?api=1&query=LEX%20PHARMACY&query_place_id=ChIJvVZwnF_fuYkRanTLmCwfnkU",
    "searchPageUrl": "https://www.google.com/maps/search/independent%20pharmacy%20Waldorf%20MD/@36.81849750000001,-76.98739394329682,8z?hl=en",
    "searchString": "independent pharmacy Waldorf MD",
    "language": "en",
    "rank": 22,
    "isAdvertisement": false,
    "imageUrl": "https://lh3.googleusercontent.com/gps-cs-s/AC9h4nqwrDRdpGmRn3rj7qs7JcBybSH2tEuKUuP1muWopN0bWI53T9NBl3sxBMQdsSIv9jNst9HjZrw6V8NiMgE_S7R66NfosbuMSQcpwWq7J-Rj0NWIrZMXkVE_V7ngz5IArgWvCZ5gdQ=w408-h306-k-no",
    "kgmid": "/g/11c3ss_2w5"
  },
  {
    "title": "River Rx",
    "price": null,
    "categoryName": "Pharmacy",
    "address": "5257 River Rd, Bethesda, MD 20816",
    "neighborhood": null,
    "street": "5257 River Rd",
    "city": "Bethesda",
    "postalCode": "20816",
    "state": "Maryland",
    "countryCode": "US",
    "website": "https://riverrxpharmacy.com/",
    "phone": "(301) 654-6979",
    "phoneUnformatted": "+13016546979",
    "claimThisBusiness": false,
    "location": {
      "lat": 38.9662716,
      "lng": -77.1042987
    },
    "totalScore": 4.3,
    "permanentlyClosed": false,
    "temporarilyClosed": false,
    "placeId": "ChIJL6zOeyjKt4kRW1EopFHmxCI",
    "categories": [
      "Pharmacy"
    ],
    "fid": "0x89b7ca287bceac2f:0x22c4e651a428515b",
    "cid": "2505380531045683547",
    "reviewsCount": 33,
    "imagesCount": 4,
    "imageCategories": [],
    "scrapedAt": "2025-06-22T05:38:19.045Z",
    "googleFoodUrl": null,
    "hotelAds": [],
    "openingHours": [
      {
        "day": "Monday",
        "hours": "9 AM to 6 PM"
      },
      {
        "day": "Tuesday",
        "hours": "9 AM to 6 PM"
      },
      {
        "day": "Wednesday",
        "hours": "9 AM to 6 PM"
      },
      {
        "day": "Thursday",
        "hours": "9 AM to 6 PM"
      },
      {
        "day": "Friday",
        "hours": "9 AM to 6 PM"
      },
      {
        "day": "Saturday",
        "hours": "10 AM to 4 PM"
      },
      {
        "day": "Sunday",
        "hours": "Closed"
      }
    ],
    "peopleAlsoSearch": [],
    "placesTags": [],
    "reviewsTags": [],
    "additionalInfo": {
      "Service options": [
        {
          "Delivery": true
        },
        {
          "Onsite services": true
        }
      ],
      "Accessibility": [
        {
          "Wheelchair accessible entrance": true
        },
        {
          "Wheelchair accessible parking lot": true
        }
      ],
      "Planning": [
        {
          "Quick visit": true
        }
      ],
      "Payments": [
        {
          "Credit cards": true
        },
        {
          "Debit cards": true
        },
        {
          "Credit cards": true
        }
      ]
    },
    "gasPrices": [],
    "url": "https://www.google.com/maps/search/?api=1&query=River%20Rx&query_place_id=ChIJL6zOeyjKt4kRW1EopFHmxCI",
    "searchPageUrl": "https://www.google.com/maps/search/independent%20pharmacy%20Waldorf%20MD/@38.973936840460105,-77.11739630332474,14z?hl=en",
    "searchString": "independent pharmacy Waldorf MD",
    "language": "en",
    "rank": 2,
    "isAdvertisement": false,
    "imageUrl": "https://lh3.googleusercontent.com/gps-cs-s/AC9h4nr0J2l62d7AXNYRTRgJ8GtS_ztY2VysIgqQN3oT3as8PRICwiWh8mVNgIcZeSdgkG5kZBqbXzPGkN0WYTg0Lm9_5owDl9g5jMM5aNpWIOnCRl_rIx-QZv_abcmB7-xEur3uuztugA=w426-h240-k-no",
    "kgmid": "/g/1tf58ss7"
  },
  {
    "title": "Village Green Apothecary",
    "price": null,
    "categoryName": "Pharmacy",
    "address": "5415 W Cedar Ln, Bethesda, MD 20814",
    "neighborhood": null,
    "street": "5415 W Cedar Ln",
    "city": "Bethesda",
    "postalCode": "20814",
    "state": "Maryland",
    "countryCode": "US",
    "website": "https://myvillagegreen.com/",
    "phone": "(301) 530-0800",
    "phoneUnformatted": "+13015300800",
    "claimThisBusiness": false,
    "location": {
      "lat": 39.0050468,
      "lng": -77.1084785
    },
    "totalScore": 4.7,
    "permanentlyClosed": false,
    "temporarilyClosed": false,
    "placeId": "ChIJ790ffePLt4kRg7Dw9XNIC5c",
    "categories": [
      "Pharmacy",
      "Doctor",
      "Naturopathic practitioner",
      "Nutritionist",
      "Vitamin & supplements store"
    ],
    "fid": "0x89b7cbe37d1fddef:0x970b4873f5f0b083",
    "cid": "10883872587355566211",
    "reviewsCount": 331,
    "imagesCount": 42,
    "imageCategories": [],
    "scrapedAt": "2025-06-22T05:38:19.045Z",
    "googleFoodUrl": null,
    "hotelAds": [],
    "openingHours": [
      {
        "day": "Monday",
        "hours": "8:30 AM to 6 PM"
      },
      {
        "day": "Tuesday",
        "hours": "8:30 AM to 6 PM"
      },
      {
        "day": "Wednesday",
        "hours": "8:30 AM to 6 PM"
      },
      {
        "day": "Thursday",
        "hours": "8:30 AM to 6 PM"
      },
      {
        "day": "Friday",
        "hours": "8:30 AM to 6 PM"
      },
      {
        "day": "Saturday",
        "hours": "8:30 AM to 5 PM"
      },
      {
        "day": "Sunday",
        "hours": "Closed"
      }
    ],
    "peopleAlsoSearch": [],
    "placesTags": [],
    "reviewsTags": [],
    "additionalInfo": {
      "From the business": [
        {
          "Small business": true
        }
      ],
      "Service options": [
        {
          "Delivery": true
        },
        {
          "In-store pickup": true
        },
        {
          "In-store shopping": true
        },
        {
          "Onsite services": true
        }
      ],
      "Accessibility": [
        {
          "Wheelchair accessible entrance": true
        },
        {
          "Wheelchair accessible parking lot": true
        }
      ],
      "Planning": [
        {
          "Quick visit": true
        }
      ],
      "Payments": [
        {
          "Credit cards": true
        },
        {
          "Debit cards": true
        },
        {
          "NFC mobile payments": true
        },
        {
          "Credit cards": true
        }
      ]
    },
    "gasPrices": [],
    "url": "https://www.google.com/maps/search/?api=1&query=Village%20Green%20Apothecary&query_place_id=ChIJ790ffePLt4kRg7Dw9XNIC5c",
    "searchPageUrl": "https://www.google.com/maps/search/independent%20pharmacy%20Waldorf%20MD/@38.973936840460105,-77.11739630332474,14z?hl=en",
    "searchString": "independent pharmacy Waldorf MD",
    "language": "en",
    "rank": 6,
    "isAdvertisement": false,
    "imageUrl": "https://lh3.googleusercontent.com/p/AF1QipOcddcZfMSz9KRJ1rJBCojZvgGkJ6RMalVkzzcc=w408-h308-k-no",
    "kgmid": "/g/1tj5rmp_"
  }
]