[
  {
    "title": "CVS Pharmacy",
    "price": null,
    "categoryName": "Pharmacy",
    "address": "50 Sterling Wy, Dover, NH 03820",
    "neighborhood": null,
    "street": "50 Sterling Wy",
    "city": "Dover",
    "postalCode": "03820",
    "state": "New Hampshire",
    "countryCode": "US",
    "website": "https://www.cvs.com/store-locator/dover-nh-pharmacies/118-central-ave-dover-nh-03820/storeid=10463?WT.mc_id=LS_GOOGLE_RX_10463",
    "phone": "(603) 742-3995",
    "phoneUnformatted": "+16037423995",
    "claimThisBusiness": false,
    "location": {
      "lat": 43.1897107,
      "lng": -70.8873604
    },
    "totalScore": 4.6,
    "permanentlyClosed": false,
    "temporarilyClosed": false,
    "placeId": "ChIJOwU44-KW4okRQjpt1wnPy74",
    "categories": [
      "Pharmacy"
    ],
    "fid": "0x89e296e2e338053b:0xbecbcf09d76d3a42",
    "cid": "13748309928654486082",
    "reviewsCount": 9,
    "imagesCount": 25,
    "imageCategories": [],
    "scrapedAt": "2025-06-22T08:57:42.119Z",
    "googleFoodUrl": null,
    "hotelAds": [],
    "openingHours": [
      {
        "day": "Monday",
        "hours": "9 AM to 1:30 PM, 2 to 8 PM"
      },
      {
        "day": "Tuesday",
        "hours": "9 AM to 1:30 PM, 2 to 8 PM"
      },
      {
        "day": "Wednesday",
        "hours": "9 AM to 1:30 PM, 2 to 8 PM"
      },
      {
        "day": "Thursday",
        "hours": "9 AM to 1:30 PM, 2 to 8 PM"
      },
      {
        "day": "Friday",
        "hours": "9 AM to 1:30 PM, 2 to 8 PM"
      },
      {
        "day": "Saturday",
        "hours": "9 AM to 1:30 PM, 2 to 6 PM"
      },
      {
        "day": "Sunday",
        "hours": "10 AM to 1:30 PM, 2 to 6 PM"
      }
    ],
    "peopleAlsoSearch": [],
    "placesTags": [],
    "reviewsTags": [],
    "additionalInfo": {
      "Service options": [
        {
          "Delivery": true
        },
        {
          "Drive-through": true
        },
        {
          "In-store pickup": true
        },
        {
          "In-store shopping": true
        }
      ],
      "Accessibility": [
        {
          "Wheelchair accessible entrance": true
        },
        {
          "Wheelchair accessible parking lot": true
        }
      ],
      "Offerings": [
        {
          "Naloxone": true
        },
        {
          "Passport photos": true
        }
      ],
      "Crowd": [
        {
          "LGBTQ+ friendly": true
        },
        {
          "Transgender safespace": true
        }
      ],
      "Planning": [
        {
          "Quick visit": true
        }
      ],
      "Payments": [
        {
          "Credit cards": true
        },
        {
          "Debit cards": true
        },
        {
          "NFC mobile payments": true
        },
        {
          "Credit cards": true
        }
      ]
    },
    "gasPrices": [],
    "url": "https://www.google.com/maps/search/?api=1&query=CVS%20Pharmacy&query_place_id=ChIJOwU44-KW4okRQjpt1wnPy74",
    "searchPageUrl": "https://www.google.com/maps/search/independent%20pharmacy%20Dover%20NH/@25.709198138018778,-171.7996947823842,13z?hl=en",
    "searchString": "independent pharmacy Dover NH",
    "language": "en",
    "rank": 1,
    "isAdvertisement": false,
    "imageUrl": "https://lh3.googleusercontent.com/p/AF1QipP6bEpLtcftGWPWMHBIERDAKCGHnwcVUJ6ZCqyj=w408-h272-k-no",
    "kgmid": "/g/11c46b9m1w"
  },
  {
    "title": "The Herbal Path, A Natural Pharmacy",
    "price": null,
    "categoryName": "Pharmacy",
    "address": "835 Central Ave Suite 110, Dover, NH 03820",
    "neighborhood": null,
    "street": "835 Central Ave Suite 110",
    "city": "Dover",
    "postalCode": "03820",
    "state": "New Hampshire",
    "countryCode": "US",
    "website": "http://www.herbalpath.com/",
    "phone": "(603) 740-8400",
    "phoneUnformatted": "+16037408400",
    "claimThisBusiness": false,
    "location": {
      "lat": 43.2164946,
      "lng": -70.8802315
    },
    "totalScore": 4.7,
    "permanentlyClosed": false,
    "temporarilyClosed": false,
    "placeId": "ChIJa1PKY2iX4okRo9ZwB0aN6Hk",
    "categories": [
      "Pharmacy",
      "Natural goods store",
      "Vitamin & supplements store"
    ],
    "fid": "0x89e2976863ca536b:0x79e88d460770d6a3",
    "cid": "8784426405098215075",
    "reviewsCount": 78,
    "imagesCount": 17,
    "imageCategories": [],
    "scrapedAt": "2025-06-22T08:57:42.120Z",
    "googleFoodUrl": null,
    "hotelAds": [],
    "openingHours": [
      {
        "day": "Monday",
        "hours": "9:30 AM to 5:30 PM"
      },
      {
        "day": "Tuesday",
        "hours": "9:30 AM to 5:30 PM"
      },
      {
        "day": "Wednesday",
        "hours": "9:30 AM to 5:30 PM"
      },
      {
        "day": "Thursday",
        "hours": "9:30 AM to 5:30 PM"
      },
      {
        "day": "Friday",
        "hours": "9:30 AM to 5:30 PM"
      },
      {
        "day": "Saturday",
        "hours": "9:30 AM to 4 PM"
      },
      {
        "day": "Sunday",
        "hours": "10 AM to 4 PM"
      }
    ],
    "peopleAlsoSearch": [],
    "placesTags": [],
    "reviewsTags": [],
    "additionalInfo": {
      "From the business": [
        {
          "Small business": true
        }
      ],
      "Service options": [
        {
          "Curbside pickup": true
        },
        {
          "In-store pickup": true
        },
        {
          "In-store shopping": true
        },
        {
          "Delivery": false
        },
        {
          "Same-day delivery": false
        }
      ],
      "Accessibility": [
        {
          "Wheelchair accessible entrance": true
        },
        {
          "Wheelchair accessible parking lot": true
        }
      ],
      "Planning": [
        {
          "Quick visit": true
        }
      ],
      "Payments": [
        {
          "Credit cards": true
        },
        {
          "Debit cards": true
        },
        {
          "NFC mobile payments": true
        },
        {
          "Credit cards": true
        }
      ]
    },
    "gasPrices": [],
    "url": "https://www.google.com/maps/search/?api=1&query=The%20Herbal%20Path%2C%20A%20Natural%20Pharmacy&query_place_id=ChIJa1PKY2iX4okRo9ZwB0aN6Hk",
    "searchPageUrl": "https://www.google.com/maps/search/independent%20pharmacy%20Dover%20NH/@25.709198138018778,-171.7996947823842,13z?hl=en",
    "searchString": "independent pharmacy Dover NH",
    "language": "en",
    "rank": 2,
    "isAdvertisement": false,
    "imageUrl": "https://lh3.googleusercontent.com/gps-cs-s/AC9h4npOrWdGg85Fx7yIae4mXphpMMtd4MHLQKkDlEf8_XT5HhB1d4iR3yPYzI6lD7NYmmOzPwhNNigp33S4a4X4trLfCVzDFBKDCiz7ZWq1vuARi5nbY2Afrsj9B030mL7VcJ9tBzyk=w408-h306-k-no",
    "kgmid": "/g/1tg366vr"
  },
  {
    "title": "Kenneth A. Isaacs, BS",
    "price": null,
    "categoryName": "Pharmacy",
    "address": "118 Central Ave, Dover, NH 03820",
    "neighborhood": null,
    "street": "118 Central Ave",
    "city": "Dover",
    "postalCode": "03820",
    "state": "New Hampshire",
    "countryCode": "US",
    "phone": "(603) 742-8550",
    "phoneUnformatted": "+16037428550",
    "claimThisBusiness": true,
    "location": {
      "lat": 43.1855999,
      "lng": -70.8752616
    },
    "permanentlyClosed": false,
    "temporarilyClosed": false,
    "placeId": "ChIJue3t-uKW4okRDm_WisVVKm0",
    "categories": [
      "Pharmacy"
    ],
    "fid": "0x89e296e2faededb9:0x6d2a55c58ad66f0e",
    "cid": "7866194006082219790",
    "reviewsCount": 0,
    "imagesCount": 1,
    "imageCategories": [],
    "scrapedAt": "2025-06-22T08:57:42.120Z",
    "googleFoodUrl": null,
    "hotelAds": [],
    "openingHours": [],
    "peopleAlsoSearch": [],
    "placesTags": [],
    "reviewsTags": [],
    "additionalInfo": {
      "Accessibility": [
        {
          "Wheelchair accessible parking lot": true
        }
      ]
    },
    "gasPrices": [],
    "url": "https://www.google.com/maps/search/?api=1&query=Kenneth%20A.%20Isaacs%2C%20BS&query_place_id=ChIJue3t-uKW4okRDm_WisVVKm0",
    "searchPageUrl": "https://www.google.com/maps/search/independent%20pharmacy%20Dover%20NH/@25.709198138018778,-171.7996947823842,13z?hl=en",
    "searchString": "independent pharmacy Dover NH",
    "language": "en",
    "rank": 3,
    "isAdvertisement": false,
    "imageUrl": "https://streetviewpixels-pa.googleapis.com/v1/thumbnail?panoid=JpsF_pkYrWKXibPIcXWReQ&cb_client=search.gws-prod.gps&w=408&h=240&yaw=97.944984&pitch=0&thumbfov=100",
    "kgmid": "/g/1tdl73sz"
  },
  {
    "title": "Walgreens Pharmacy",
    "description": "Department of the Walgreens chain providing prescription medications & other health-related items.",
    "price": "$$",
    "categoryName": "Pharmacy",
    "address": "1 Glenwood Ave, Dover, NH 03820",
    "neighborhood": null,
    "street": "1 Glenwood Ave",
    "city": "Dover",
    "postalCode": "03820",
    "state": "New Hampshire",
    "countryCode": "US",
    "website": "https://www.walgreens.com/locator/walgreens-1+glenwood+ave-dover-nh-03820/id=10780",
    "phone": "(603) 749-4136",
    "phoneUnformatted": "+16037494136",
    "claimThisBusiness": false,
    "location": {
      "lat": 43.2158223,
      "lng": -70.8818927
    },
    "totalScore": 3.6,
    "permanentlyClosed": false,
    "temporarilyClosed": false,
    "placeId": "ChIJj-rmP2iX4okRuz1vBgWDBqI",
    "categories": [
      "Pharmacy"
    ],
    "fid": "0x89e297683fe6ea8f:0xa2068305066f3dbb",
    "cid": "11675163141610618299",
    "reviewsCount": 7,
    "imagesCount": 4,
    "imageCategories": [],
    "scrapedAt": "2025-06-22T08:57:42.120Z",
    "googleFoodUrl": null,
    "hotelAds": [],
    "openingHours": [
      {
        "day": "Monday",
        "hours": "8 AM to 1:30 PM, 2 to 7 PM"
      },
      {
        "day": "Tuesday",
        "hours": "8 AM to 1:30 PM, 2 to 7 PM"
      },
      {
        "day": "Wednesday",
        "hours": "8 AM to 1:30 PM, 2 to 7 PM"
      },
      {
        "day": "Thursday",
        "hours": "8 AM to 1:30 PM, 2 to 7 PM"
      },
      {
        "day": "Friday",
        "hours": "8 AM to 1:30 PM, 2 to 7 PM"
      },
      {
        "day": "Saturday",
        "hours": "9 AM to 1:30 PM, 2 to 5 PM"
      },
      {
        "day": "Sunday",
        "hours": "9 AM to 1:30 PM, 2 to 5 PM"
      }
    ],
    "additionalOpeningHours": {
      "Drive through": [
        {
          "day": "Monday",
          "hours": "8 AM–1:30 PM"
        },
        {
          "day": "Tuesday",
          "hours": "8 AM–1:30 PM"
        },
        {
          "day": "Wednesday",
          "hours": "8 AM–1:30 PM"
        },
        {
          "day": "Thursday",
          "hours": "8 AM–1:30 PM"
        },
        {
          "day": "Friday",
          "hours": "8 AM–1:30 PM"
        },
        {
          "day": "Saturday",
          "hours": "9 AM–1:30 PM"
        },
        {
          "day": "Sunday",
          "hours": "9 AM–1:30 PM"
        }
      ]
    },
    "peopleAlsoSearch": [],
    "placesTags": [],
    "reviewsTags": [],
    "additionalInfo": {
      "Service options": [
        {
          "Drive-through": true
        },
        {
          "In-store pickup": true
        }
      ],
      "Accessibility": [
        {
          "Wheelchair accessible entrance": true
        },
        {
          "Wheelchair accessible parking lot": true
        }
      ],
      "Offerings": [
        {
          "Naloxone": true
        }
      ],
      "Planning": [
        {
          "Quick visit": true
        }
      ],
      "Payments": [
        {
          "Checks": true
        },
        {
          "Credit cards": true
        },
        {
          "Debit cards": true
        }
      ]
    },
    "gasPrices": [],
    "url": "https://www.google.com/maps/search/?api=1&query=Walgreens%20Pharmacy&query_place_id=ChIJj-rmP2iX4okRuz1vBgWDBqI",
    "searchPageUrl": "https://www.google.com/maps/search/independent%20pharmacy%20Dover%20NH/@25.709198138018778,-171.7996947823842,13z?hl=en",
    "searchString": "independent pharmacy Dover NH",
    "language": "en",
    "rank": 4,
    "isAdvertisement": false,
    "imageUrl": "https://lh3.googleusercontent.com/gps-cs-s/AC9h4npOP4J_LDnvY8MD3xZGciDSt4_amIM9FBm9_vQ-zEcOMa8_Rz4yoQNP5Q8Bj8rUHOHskp506D9u3GFGZh2iU64_EL6PxcQR4QQtawgQb4NnADd8tJGb-llFaEcvGPbin32Lq0Q=w408-h306-k-no",
    "kgmid": "/g/11cn93n182"
  },
  {
    "title": "Hannaford Pharmacy",
    "price": "$$",
    "categoryName": "Pharmacy",
    "address": "30 Grapevine Dr, Dover, NH 03820",
    "neighborhood": null,
    "street": "30 Grapevine Dr",
    "city": "Dover",
    "postalCode": "03820",
    "state": "New Hampshire",
    "countryCode": "US",
    "website": "https://stores.hannaford.com/nh/dover/8242",
    "phone": "(603) 749-2374",
    "phoneUnformatted": "+16037492374",
    "claimThisBusiness": false,
    "location": {
      "lat": 43.1672316,
      "lng": -70.8946413
    },
    "totalScore": 3.9,
    "permanentlyClosed": false,
    "temporarilyClosed": false,
    "placeId": "ChIJpcOEaZu_4okRBGs7wtgHrXc",
    "categories": [
      "Pharmacy"
    ],
    "fid": "0x89e2bf9b6984c3a5:0x77ad07d8c23b6b04",
    "cid": "8623557489037372164",
    "reviewsCount": 15,
    "imagesCount": 6,
    "imageCategories": [],
    "scrapedAt": "2025-06-22T08:57:42.121Z",
    "googleFoodUrl": null,
    "hotelAds": [],
    "openingHours": [
      {
        "day": "Monday",
        "hours": "9 AM to 8 PM"
      },
      {
        "day": "Tuesday",
        "hours": "9 AM to 8 PM"
      },
      {
        "day": "Wednesday",
        "hours": "9 AM to 8 PM"
      },
      {
        "day": "Thursday",
        "hours": "9 AM to 8 PM"
      },
      {
        "day": "Friday",
        "hours": "9 AM to 8 PM"
      },
      {
        "day": "Saturday",
        "hours": "9:30 AM to 4 PM"
      },
      {
        "day": "Sunday",
        "hours": "9:30 AM to 2 PM"
      }
    ],
    "peopleAlsoSearch": [],
    "placesTags": [],
    "reviewsTags": [],
    "additionalInfo": {
      "Service options": [
        {
          "Curbside pickup": true
        },
        {
          "Delivery": true
        },
        {
          "In-store pickup": true
        },
        {
          "Same-day delivery": true
        }
      ],
      "Accessibility": [
        {
          "Wheelchair accessible entrance": true
        },
        {
          "Wheelchair accessible parking lot": true
        }
      ],
      "Planning": [
        {
          "Quick visit": true
        }
      ],
      "Payments": [
        {
          "Checks": true
        },
        {
          "Credit cards": true
        },
        {
          "Debit cards": true
        }
      ]
    },
    "gasPrices": [],
    "url": "https://www.google.com/maps/search/?api=1&query=Hannaford%20Pharmacy&query_place_id=ChIJpcOEaZu_4okRBGs7wtgHrXc",
    "searchPageUrl": "https://www.google.com/maps/search/independent%20pharmacy%20Dover%20NH/@25.709198138018778,-171.7996947823842,13z?hl=en",
    "searchString": "independent pharmacy Dover NH",
    "language": "en",
    "rank": 5,
    "isAdvertisement": false,
    "imageUrl": "https://lh3.googleusercontent.com/gps-cs-s/AC9h4nroNQRiaA0ow4ZeN8gWfqu4tfK48fKDA3igU6F0XnD5NbRjEo_byYJcQ6jGTlzOLhonr80pSRMrA4rU0bKc033FnJisi3vbCFk42knIDPmT8j_RrQYrGgnjIIdkcLIF5E4QLW6v=w426-h240-k-no",
    "kgmid": "/g/1v3kp1xg"
  },
  {
    "title": "Hannaford Pharmacy",
    "price": "$$",
    "categoryName": "Pharmacy",
    "address": "833 Central Ave, Dover, NH 03820",
    "neighborhood": null,
    "street": "833 Central Ave",
    "city": "Dover",
    "postalCode": "03820",
    "state": "New Hampshire",
    "countryCode": "US",
    "website": "https://stores.hannaford.com/nh/dover/8373",
    "phone": "(603) 749-9361",
    "phoneUnformatted": "+16037499361",
    "claimThisBusiness": false,
    "location": {
      "lat": 43.2172769,
      "lng": -70.8784319
    },
    "totalScore": 3.8,
    "permanentlyClosed": false,
    "temporarilyClosed": false,
    "placeId": "ChIJYSSIkWiX4okRa8u-W-z8HsM",
    "categories": [
      "Pharmacy"
    ],
    "fid": "0x89e2976891882461:0xc31efcec5bbecb6b",
    "cid": "14059953178778979179",
    "reviewsCount": 15,
    "imagesCount": 5,
    "imageCategories": [],
    "scrapedAt": "2025-06-22T08:57:42.121Z",
    "googleFoodUrl": null,
    "hotelAds": [],
    "openingHours": [
      {
        "day": "Monday",
        "hours": "8 AM to 8 PM"
      },
      {
        "day": "Tuesday",
        "hours": "8 AM to 8 PM"
      },
      {
        "day": "Wednesday",
        "hours": "8 AM to 8 PM"
      },
      {
        "day": "Thursday",
        "hours": "8 AM to 8 PM"
      },
      {
        "day": "Friday",
        "hours": "8 AM to 8 PM"
      },
      {
        "day": "Saturday",
        "hours": "8 AM to 6 PM"
      },
      {
        "day": "Sunday",
        "hours": "8 AM to 5 PM"
      }
    ],
    "peopleAlsoSearch": [],
    "placesTags": [],
    "reviewsTags": [],
    "additionalInfo": {
      "Service options": [
        {
          "Curbside pickup": true
        },
        {
          "Delivery": true
        },
        {
          "In-store pickup": true
        },
        {
          "Same-day delivery": true
        }
      ],
      "Accessibility": [
        {
          "Wheelchair accessible entrance": true
        },
        {
          "Wheelchair accessible parking lot": true
        }
      ],
      "Amenities": [
        {
          "Wi-Fi": true
        },
        {
          "Free Wi-Fi": true
        }
      ],
      "Planning": [
        {
          "Quick visit": true
        }
      ],
      "Payments": [
        {
          "Checks": true
        },
        {
          "Credit cards": true
        },
        {
          "Debit cards": true
        }
      ]
    },
    "gasPrices": [],
    "url": "https://www.google.com/maps/search/?api=1&query=Hannaford%20Pharmacy&query_place_id=ChIJYSSIkWiX4okRa8u-W-z8HsM",
    "searchPageUrl": "https://www.google.com/maps/search/independent%20pharmacy%20Dover%20NH/@25.709198138018778,-171.7996947823842,13z?hl=en",
    "searchString": "independent pharmacy Dover NH",
    "language": "en",
    "rank": 6,
    "isAdvertisement": false,
    "imageUrl": "https://lh3.googleusercontent.com/gps-cs-s/AC9h4noYo5RO34TbKohspQB1Gi-t_G69JqG3yEuSRv1MhOUKWbs6zuLZlzuh5V10mrNeIEZbAdOwsabo-ngkGtJLQHoSxW_BpQ8SaZXwhsY614Wboa1NPlmKDtTlSSYy1hKw_yqJltE4uQ=w426-h240-k-no",
    "kgmid": "/g/11r8tnlfn"
  },
  {
    "title": "CVS",
    "description": "Drugstore chain selling a variety of beauty & health products, plus some grocery & household items.",
    "price": null,
    "categoryName": "Drug store",
    "address": "50 Sterling Wy, Dover, NH 03820",
    "neighborhood": null,
    "street": "50 Sterling Wy",
    "city": "Dover",
    "postalCode": "03820",
    "state": "New Hampshire",
    "countryCode": "US",
    "website": "https://www.cvs.com/store-locator/dover-nh-pharmacies/118-central-ave-dover-nh-03820/storeid=10463?WT.mc_id=LS_GOOGLE_FS_10463",
    "phone": "(603) 742-3995",
    "phoneUnformatted": "+16037423995",
    "claimThisBusiness": false,
    "location": {
      "lat": 43.1895153,
      "lng": -70.8871699
    },
    "locatedIn": "CVS Pharmacy",
    "totalScore": 3,
    "permanentlyClosed": false,
    "temporarilyClosed": false,
    "placeId": "ChIJue3t-uKW4okRj3BRNPEMeVs",
    "categories": [
      "Drug store",
      "Beauty supply store",
      "Convenience store",
      "Cosmetics store",
      "Greeting card shop",
      "Perfume store",
      "Stationery store",
      "Vitamin & supplements store"
    ],
    "fid": "0x89e296e2faededb9:0x5b790cf13451708f",
    "cid": "6591313759737835663",
    "reviewsCount": 75,
    "imagesCount": 16,
    "imageCategories": [],
    "scrapedAt": "2025-06-22T08:57:42.121Z",
    "googleFoodUrl": null,
    "hotelAds": [],
    "openingHours": [
      {
        "day": "Monday",
        "hours": "8 AM to 10 PM"
      },
      {
        "day": "Tuesday",
        "hours": "8 AM to 10 PM"
      },
      {
        "day": "Wednesday",
        "hours": "8 AM to 10 PM"
      },
      {
        "day": "Thursday",
        "hours": "8 AM to 10 PM"
      },
      {
        "day": "Friday",
        "hours": "8 AM to 10 PM"
      },
      {
        "day": "Saturday",
        "hours": "8 AM to 10 PM"
      },
      {
        "day": "Sunday",
        "hours": "8 AM to 10 PM"
      }
    ],
    "additionalOpeningHours": {
      "CVS Pharmacy": [
        {
          "day": "Monday",
          "hours": "9 AM–1:30 PM"
        },
        {
          "day": "Tuesday",
          "hours": "9 AM–1:30 PM"
        },
        {
          "day": "Wednesday",
          "hours": "9 AM–1:30 PM"
        },
        {
          "day": "Thursday",
          "hours": "9 AM–1:30 PM"
        },
        {
          "day": "Friday",
          "hours": "9 AM–1:30 PM"
        },
        {
          "day": "Saturday",
          "hours": "9 AM–1:30 PM"
        },
        {
          "day": "Sunday",
          "hours": "10 AM–1:30 PM"
        }
      ],
      "CVS Photo": [
        {
          "day": "Monday",
          "hours": "8 AM–10 PM"
        },
        {
          "day": "Tuesday",
          "hours": "8 AM–10 PM"
        },
        {
          "day": "Wednesday",
          "hours": "8 AM–10 PM"
        },
        {
          "day": "Thursday",
          "hours": "8 AM–10 PM"
        },
        {
          "day": "Friday",
          "hours": "8 AM–10 PM"
        },
        {
          "day": "Saturday",
          "hours": "8 AM–10 PM"
        },
        {
          "day": "Sunday",
          "hours": "8 AM–10 PM"
        }
      ],
      "LibertyX Bitcoin ATM": [
        {
          "day": "Monday",
          "hours": "8 AM–10 PM"
        },
        {
          "day": "Tuesday",
          "hours": "8 AM–10 PM"
        },
        {
          "day": "Wednesday",
          "hours": "8 AM–10 PM"
        },
        {
          "day": "Thursday",
          "hours": "8 AM–10 PM"
        },
        {
          "day": "Friday",
          "hours": "8 AM–10 PM"
        },
        {
          "day": "Saturday",
          "hours": "8 AM–10 PM"
        },
        {
          "day": "Sunday",
          "hours": "8 AM–10 PM"
        }
      ]
    },
    "peopleAlsoSearch": [],
    "placesTags": [],
    "reviewsTags": [],
    "additionalInfo": {
      "Service options": [
        {
          "Delivery": true
        },
        {
          "Drive-through": true
        },
        {
          "In-store pickup": true
        },
        {
          "In-store shopping": true
        },
        {
          "Onsite services": true
        },
        {
          "Same-day delivery": false
        }
      ],
      "Accessibility": [
        {
          "Wheelchair accessible entrance": true
        },
        {
          "Wheelchair accessible parking lot": true
        }
      ],
      "Offerings": [
        {
          "Passport photos": true
        }
      ],
      "Crowd": [
        {
          "LGBTQ+ friendly": true
        },
        {
          "Transgender safespace": true
        }
      ],
      "Planning": [
        {
          "Quick visit": true
        }
      ],
      "Payments": [
        {
          "Credit cards": true
        },
        {
          "Debit cards": true
        },
        {
          "SNAP/EBT": true
        },
        {
          "Credit cards": true
        }
      ]
    },
    "gasPrices": [],
    "url": "https://www.google.com/maps/search/?api=1&query=CVS&query_place_id=ChIJue3t-uKW4okRj3BRNPEMeVs",
    "searchPageUrl": "https://www.google.com/maps/search/independent%20pharmacy%20Dover%20NH/@25.709198138018778,-171.7996947823842,13z?hl=en",
    "searchString": "independent pharmacy Dover NH",
    "language": "en",
    "rank": 7,
    "isAdvertisement": false,
    "imageUrl": "https://lh3.googleusercontent.com/gps-cs-s/AC9h4noa1FduN2D-h3YToY4ssqtXUahHZV5nQU9d4VdS6hVBI9clhsY4-HYUvle_K_FzL4n1NYn3BOwp2qXhfwg8WeXSusPC8zZIJvQA21J0aWDhqaF1iUDu1TBKK-dHW8dH1wNihJq-aA=w408-h306-k-no",
    "kgmid": "/g/1tdyxc8j"
  },
  {
    "title": "Rite Aid Pharmacy",
    "price": null,
    "categoryName": "Pharmacy",
    "address": "679 Central Ave, Dover, NH 03820",
    "neighborhood": null,
    "street": "679 Central Ave",
    "city": "Dover",
    "postalCode": "03820",
    "state": "New Hampshire",
    "countryCode": "US",
    "website": "https://www.riteaid.com/locations/nh/dover/679-central-ave.html",
    "phone": "(603) 742-5313",
    "phoneUnformatted": "+16037425313",
    "claimThisBusiness": false,
    "location": {
      "lat": 43.2069992,
      "lng": -70.8748973
    },
    "totalScore": 3,
    "permanentlyClosed": false,
    "temporarilyClosed": false,
    "placeId": "ChIJ2979vbeX4okRYm4UmZ31HiY",
    "categories": [
      "Pharmacy"
    ],
    "fid": "0x89e297b7bdfddedb:0x261ef59d99146e62",
    "cid": "2746902879969504866",
    "reviewsCount": 4,
    "imagesCount": 7,
    "imageCategories": [],
    "scrapedAt": "2025-06-22T08:57:42.121Z",
    "googleFoodUrl": null,
    "hotelAds": [],
    "openingHours": [
      {
        "day": "Monday",
        "hours": "8 AM to 1:30 PM, 2 to 9 PM"
      },
      {
        "day": "Tuesday",
        "hours": "8 AM to 1:30 PM, 2 to 9 PM"
      },
      {
        "day": "Wednesday",
        "hours": "8 AM to 1:30 PM, 2 to 9 PM"
      },
      {
        "day": "Thursday",
        "hours": "8 AM to 1:30 PM, 2 to 9 PM"
      },
      {
        "day": "Friday",
        "hours": "8 AM to 1:30 PM, 2 to 9 PM"
      },
      {
        "day": "Saturday",
        "hours": "9 AM to 1:30 PM, 2 to 6 PM"
      },
      {
        "day": "Sunday",
        "hours": "9 AM to 1:30 PM, 2 to 5 PM"
      }
    ],
    "additionalOpeningHours": {
      "Drive through": [
        {
          "day": "Monday",
          "hours": "7 AM–8 PM"
        },
        {
          "day": "Tuesday",
          "hours": "7 AM–8 PM"
        },
        {
          "day": "Wednesday",
          "hours": "7 AM–8 PM"
        },
        {
          "day": "Thursday",
          "hours": "7 AM–8 PM"
        },
        {
          "day": "Friday",
          "hours": "7 AM–8 PM"
        },
        {
          "day": "Saturday",
          "hours": "8 AM–8 PM"
        },
        {
          "day": "Sunday",
          "hours": "9 AM–6 PM"
        }
      ]
    },
    "peopleAlsoSearch": [],
    "placesTags": [],
    "reviewsTags": [],
    "additionalInfo": {
      "Service options": [
        {
          "Delivery": true
        },
        {
          "Drive-through": true
        },
        {
          "In-store pickup": true
        }
      ],
      "Accessibility": [
        {
          "Wheelchair accessible entrance": true
        },
        {
          "Wheelchair accessible parking lot": true
        }
      ],
      "Planning": [
        {
          "Quick visit": true
        }
      ],
      "Payments": [
        {
          "Checks": true
        },
        {
          "Credit cards": true
        },
        {
          "Debit cards": true
        },
        {
          "NFC mobile payments": true
        },
        {
          "Credit cards": true
        }
      ]
    },
    "gasPrices": [],
    "url": "https://www.google.com/maps/search/?api=1&query=Rite%20Aid%20Pharmacy&query_place_id=ChIJ2979vbeX4okRYm4UmZ31HiY",
    "searchPageUrl": "https://www.google.com/maps/search/independent%20pharmacy%20Dover%20NH/@25.709198138018778,-171.7996947823842,13z?hl=en",
    "searchString": "independent pharmacy Dover NH",
    "language": "en",
    "rank": 8,
    "isAdvertisement": false,
    "imageUrl": "https://lh3.googleusercontent.com/p/AF1QipMSiYFgNrB4pXg0-P8xYbiqzBauHVTvT2-sYQEU=w408-h406-k-no",
    "kgmid": "/g/11kqt5mcrz"
  },
  {
    "title": "Rite Aid",
    "price": "$$",
    "categoryName": "Drug store",
    "address": "679 Central Ave, Dover, NH 03820",
    "neighborhood": null,
    "street": "679 Central Ave",
    "city": "Dover",
    "postalCode": "03820",
    "state": "New Hampshire",
    "countryCode": "US",
    "website": "https://www.riteaid.com/locations/nh/dover/679-central-ave.html",
    "phone": "(603) 742-5313",
    "phoneUnformatted": "+16037425313",
    "claimThisBusiness": false,
    "location": {
      "lat": 43.2072207,
      "lng": -70.8750395
    },
    "locatedIn": "Rite Aid Pharmacy",
    "totalScore": 3.3,
    "permanentlyClosed": false,
    "temporarilyClosed": false,
    "placeId": "ChIJMb843WyX4okRTX9hw0wDFh8",
    "categories": [
      "Drug store",
      "Beauty supply store",
      "Convenience store",
      "General store",
      "Greeting card shop"
    ],
    "fid": "0x89e2976cdd38bf31:0x1f16034cc3617f4d",
    "cid": "2239981492893744973",
    "reviewsCount": 59,
    "imagesCount": 11,
    "imageCategories": [],
    "scrapedAt": "2025-06-22T08:57:42.121Z",
    "googleFoodUrl": null,
    "hotelAds": [],
    "openingHours": [
      {
        "day": "Monday",
        "hours": "8 AM to 9 PM"
      },
      {
        "day": "Tuesday",
        "hours": "8 AM to 9 PM"
      },
      {
        "day": "Wednesday",
        "hours": "8 AM to 9 PM"
      },
      {
        "day": "Thursday",
        "hours": "8 AM to 9 PM"
      },
      {
        "day": "Friday",
        "hours": "8 AM to 9 PM"
      },
      {
        "day": "Saturday",
        "hours": "9 AM to 6 PM"
      },
      {
        "day": "Sunday",
        "hours": "9 AM to 5 PM"
      }
    ],
    "additionalOpeningHours": {
      "Rite Aid Pharmacy": [
        {
          "day": "Monday",
          "hours": "8 AM–1:30 PM"
        },
        {
          "day": "Tuesday",
          "hours": "8 AM–1:30 PM"
        },
        {
          "day": "Wednesday",
          "hours": "8 AM–1:30 PM"
        },
        {
          "day": "Thursday",
          "hours": "8 AM–1:30 PM"
        },
        {
          "day": "Friday",
          "hours": "8 AM–1:30 PM"
        },
        {
          "day": "Saturday",
          "hours": "9 AM–1:30 PM"
        },
        {
          "day": "Sunday",
          "hours": "9 AM–1:30 PM"
        }
      ]
    },
    "peopleAlsoSearch": [],
    "placesTags": [],
    "reviewsTags": [],
    "additionalInfo": {
      "Service options": [
        {
          "Delivery": true
        },
        {
          "Drive-through": true
        },
        {
          "In-store pickup": true
        }
      ],
      "Accessibility": [
        {
          "Wheelchair accessible parking lot": true
        }
      ],
      "Offerings": [
        {
          "Naloxone": true
        },
        {
          "Passport photos": true
        }
      ],
      "Planning": [
        {
          "Quick visit": true
        }
      ],
      "Payments": [
        {
          "Checks": true
        },
        {
          "Credit cards": true
        },
        {
          "Debit cards": true
        },
        {
          "NFC mobile payments": true
        },
        {
          "SNAP/EBT": true
        },
        {
          "Credit cards": true
        }
      ]
    },
    "gasPrices": [],
    "url": "https://www.google.com/maps/search/?api=1&query=Rite%20Aid&query_place_id=ChIJMb843WyX4okRTX9hw0wDFh8",
    "searchPageUrl": "https://www.google.com/maps/search/independent%20pharmacy%20Dover%20NH/@25.709198138018778,-171.7996947823842,13z?hl=en",
    "searchString": "independent pharmacy Dover NH",
    "language": "en",
    "rank": 9,
    "isAdvertisement": false,
    "imageUrl": "https://lh3.googleusercontent.com/gps-cs-s/AC9h4noEf8KtJBfdvRXYnsWDZuwrcYBJhXw1lmQpJZSF8jzlEK417BHbeeyp6nx9ozHV5zezqVFFQmj4NmPQmQciFFYPumpYnwF2zBUVL93ajr2BDqPSyceb2McDDzNxhdlhIfMW9eF_=w408-h544-k-no",
    "kgmid": "/g/1wrgl4y8"
  },
  {
    "title": "Walgreens",
    "description": "Drugstore chain with health & beauty aids, prescriptions & photo services, plus mini-mart basics.",
    "price": "$$",
    "categoryName": "Drug store",
    "address": "1 Glenwood Ave, Dover, NH 03820",
    "neighborhood": null,
    "street": "1 Glenwood Ave",
    "city": "Dover",
    "postalCode": "03820",
    "state": "New Hampshire",
    "countryCode": "US",
    "website": "https://www.walgreens.com/locator/walgreens-1+glenwood+ave-dover-nh-03820/id=10780",
    "phone": "(603) 749-4136",
    "phoneUnformatted": "+16037494136",
    "claimThisBusiness": false,
    "location": {
      "lat": 43.2158105,
      "lng": -70.8819142
    },
    "locatedIn": "Walgreens Pharmacy",
    "totalScore": 3.2,
    "permanentlyClosed": false,
    "temporarilyClosed": false,
    "placeId": "ChIJncUQNGiX4okRQFk9GSS6u3o",
    "categories": [
      "Drug store",
      "Beauty supply store",
      "Convenience store",
      "Cosmetics store",
      "Greeting card shop",
      "Perfume store",
      "Stationery store"
    ],
    "fid": "0x89e297683410c59d:0x7abbba24193d5940",
    "cid": "8843866957477140800",
    "reviewsCount": 55,
    "imagesCount": 20,
    "imageCategories": [],
    "scrapedAt": "2025-06-22T08:58:18.057Z",
    "googleFoodUrl": null,
    "hotelAds": [],
    "openingHours": [
      {
        "day": "Monday",
        "hours": "7 AM to 11 PM"
      },
      {
        "day": "Tuesday",
        "hours": "7 AM to 11 PM"
      },
      {
        "day": "Wednesday",
        "hours": "7 AM to 11 PM"
      },
      {
        "day": "Thursday",
        "hours": "7 AM to 11 PM"
      },
      {
        "day": "Friday",
        "hours": "7 AM to 11 PM"
      },
      {
        "day": "Saturday",
        "hours": "7 AM to 10 PM"
      },
      {
        "day": "Sunday",
        "hours": "7 AM to 10 PM"
      }
    ],
    "additionalOpeningHours": {
      "Walgreens Pharmacy": [
        {
          "day": "Monday",
          "hours": "8 AM–1:30 PM"
        },
        {
          "day": "Tuesday",
          "hours": "8 AM–1:30 PM"
        },
        {
          "day": "Wednesday",
          "hours": "8 AM–1:30 PM"
        },
        {
          "day": "Thursday",
          "hours": "8 AM–1:30 PM"
        },
        {
          "day": "Friday",
          "hours": "8 AM–1:30 PM"
        },
        {
          "day": "Saturday",
          "hours": "9 AM–1:30 PM"
        },
        {
          "day": "Sunday",
          "hours": "9 AM–1:30 PM"
        }
      ],
      "Walgreens Photo": [
        {
          "day": "Monday",
          "hours": "7 AM–11 PM"
        },
        {
          "day": "Tuesday",
          "hours": "7 AM–11 PM"
        },
        {
          "day": "Wednesday",
          "hours": "7 AM–11 PM"
        },
        {
          "day": "Thursday",
          "hours": "7 AM–11 PM"
        },
        {
          "day": "Friday",
          "hours": "7 AM–11 PM"
        },
        {
          "day": "Saturday",
          "hours": "7 AM–10 PM"
        },
        {
          "day": "Sunday",
          "hours": "7 AM–10 PM"
        }
      ],
      "Pickup": [
        {
          "day": "Monday",
          "hours": "7 AM–11 PM"
        },
        {
          "day": "Tuesday",
          "hours": "7 AM–11 PM"
        },
        {
          "day": "Wednesday",
          "hours": "7 AM–11 PM"
        },
        {
          "day": "Thursday",
          "hours": "7 AM–11 PM"
        },
        {
          "day": "Friday",
          "hours": "7 AM–11 PM"
        },
        {
          "day": "Saturday",
          "hours": "7 AM–10 PM"
        },
        {
          "day": "Sunday",
          "hours": "7 AM–10 PM"
        }
      ]
    },
    "peopleAlsoSearch": [],
    "placesTags": [],
    "reviewsTags": [],
    "additionalInfo": {
      "Service options": [
        {
          "Curbside pickup": true
        },
        {
          "Delivery": true
        },
        {
          "Drive-through": true
        },
        {
          "In-store pickup": true
        },
        {
          "Onsite services": true
        }
      ],
      "Accessibility": [
        {
          "Wheelchair accessible entrance": true
        },
        {
          "Wheelchair accessible parking lot": true
        }
      ],
      "Offerings": [
        {
          "Passport photos": true
        }
      ],
      "Planning": [
        {
          "Quick visit": true
        }
      ],
      "Payments": [
        {
          "Credit cards": true
        },
        {
          "Debit cards": true
        },
        {
          "NFC mobile payments": true
        },
        {
          "SNAP/EBT": true
        },
        {
          "Credit cards": true
        }
      ]
    },
    "gasPrices": [],
    "url": "https://www.google.com/maps/search/?api=1&query=Walgreens&query_place_id=ChIJncUQNGiX4okRQFk9GSS6u3o",
    "searchPageUrl": "https://www.google.com/maps/search/independent%20pharmacy%20Dover%20NH/@-14.035020572810657,-170.69640815,12z?hl=en",
    "searchString": "independent pharmacy Dover NH",
    "language": "en",
    "rank": 9,
    "isAdvertisement": false,
    "imageUrl": "https://lh3.googleusercontent.com/gps-cs-s/AC9h4noIwphvDFm5pNsLyqOjHnWHDzLyOzLDqz6OPvLBdUgUMK-FOfRzxYfz5AIN9nu0O0plXVmVbxt2AtqZKkqrVHMP-3OJylyUaJKCXCZIP_NQxQDG49EIqGzMcEVWrxE765eSnCO2=w426-h240-k-no",
    "kgmid": "/g/1tzgkn86"
  },
  {
    "title": "Valley Independent Pharmacy",
    "price": null,
    "categoryName": "Pharmacy",
    "address": "3631 White Mountain Hwy, North Conway, NH 03860",
    "neighborhood": "North Conway",
    "street": "3631 White Mountain Hwy",
    "city": "North Conway",
    "postalCode": "03860",
    "state": "New Hampshire",
    "countryCode": "US",
    "website": "https://valleyiph.com/",
    "phone": "(603) 730-5432",
    "phoneUnformatted": "+16037305432",
    "claimThisBusiness": false,
    "location": {
      "lat": 44.0747993,
      "lng": -71.1392055
    },
    "totalScore": 5,
    "permanentlyClosed": false,
    "temporarilyClosed": false,
    "placeId": "ChIJndKJCVehs0wR0ayJimKAQO0",
    "categories": [
      "Pharmacy",
      "Drug store"
    ],
    "fid": "0x4cb3a1570989d29d:0xed4080628a89acd1",
    "cid": "17095805346217831633",
    "reviewsCount": 12,
    "imagesCount": 21,
    "imageCategories": [],
    "scrapedAt": "2025-06-22T08:58:42.540Z",
    "googleFoodUrl": null,
    "hotelAds": [],
    "openingHours": [
      {
        "day": "Monday",
        "hours": "9 AM to 6 PM"
      },
      {
        "day": "Tuesday",
        "hours": "9 AM to 6 PM"
      },
      {
        "day": "Wednesday",
        "hours": "9 AM to 6 PM"
      },
      {
        "day": "Thursday",
        "hours": "9 AM to 6 PM"
      },
      {
        "day": "Friday",
        "hours": "9 AM to 6 PM"
      },
      {
        "day": "Saturday",
        "hours": "10 AM to 5 PM"
      },
      {
        "day": "Sunday",
        "hours": "Closed"
      }
    ],
    "peopleAlsoSearch": [],
    "placesTags": [],
    "reviewsTags": [],
    "additionalInfo": {
      "From the business": [
        {
          "Identifies as women-owned": true
        },
        {
          "Small business": true
        }
      ],
      "Service options": [
        {
          "Curbside pickup": true
        },
        {
          "Delivery": true
        },
        {
          "In-store pickup": true
        },
        {
          "In-store shopping": true
        },
        {
          "Onsite services": true
        },
        {
          "Same-day delivery": true
        }
      ],
      "Accessibility": [
        {
          "Wheelchair accessible entrance": true
        },
        {
          "Wheelchair accessible parking lot": true
        }
      ],
      "Amenities": [
        {
          "Wi-Fi": true
        },
        {
          "Free Wi-Fi": true
        }
      ],
      "Planning": [
        {
          "Quick visit": true
        }
      ],
      "Payments": [
        {
          "Credit cards": true
        }
      ]
    },
    "gasPrices": [],
    "url": "https://www.google.com/maps/search/?api=1&query=Valley%20Independent%20Pharmacy&query_place_id=ChIJndKJCVehs0wR0ayJimKAQO0",
    "searchPageUrl": "https://www.google.com/maps/search/independent%20pharmacy%20Dover%20NH/@45.410355141996405,-76.98739394329682,8z?hl=en",
    "searchString": "independent pharmacy Dover NH",
    "language": "en",
    "rank": 11,
    "isAdvertisement": false,
    "imageUrl": "https://lh3.googleusercontent.com/p/AF1QipPIXMHCqC9uZ8bzh3XpMI_h0w4-gYk0RBR3YjrY=w408-h284-k-no",
    "kgmid": "/g/11nxnt_950"
  },
  {
    "title": "Walmart Pharmacy",
    "price": "$",
    "categoryName": "Pharmacy",
    "address": "59 Waltons Way, Somersworth, NH 03878",
    "neighborhood": null,
    "street": "59 Waltons Way",
    "city": "Somersworth",
    "postalCode": "03878",
    "state": "New Hampshire",
    "countryCode": "US",
    "website": "https://www.walmart.com/store/1749-somersworth-nh/pharmacy/?veh=seo_loc",
    "phone": "(603) 692-7258",
    "phoneUnformatted": "+16036927258",
    "claimThisBusiness": false,
    "location": {
      "lat": 43.2342291,
      "lng": -70.8797451
    },
    "totalScore": 3.6,
    "permanentlyClosed": false,
    "temporarilyClosed": false,
    "placeId": "ChIJwZzvdquZ4okRT7RFoeHUybs",
    "categories": [
      "Pharmacy",
      "Herbal medicine store",
      "Medical supply store",
      "Parapharmacy",
      "Vitamin & supplements store"
    ],
    "fid": "0x89e299ab76ef9cc1:0xbbc9d4e1a145b44f",
    "cid": "13531580620949795919",
    "reviewsCount": 27,
    "imagesCount": 5,
    "imageCategories": [],
    "scrapedAt": "2025-06-22T08:58:47.846Z",
    "googleFoodUrl": null,
    "hotelAds": [],
    "openingHours": [
      {
        "day": "Monday",
        "hours": "8 AM to 7 PM"
      },
      {
        "day": "Tuesday",
        "hours": "8 AM to 7 PM"
      },
      {
        "day": "Wednesday",
        "hours": "8 AM to 7 PM"
      },
      {
        "day": "Thursday",
        "hours": "8 AM to 7 PM"
      },
      {
        "day": "Friday",
        "hours": "8 AM to 7 PM"
      },
      {
        "day": "Saturday",
        "hours": "9 AM to 7 PM"
      },
      {
        "day": "Sunday",
        "hours": "10 AM to 6 PM"
      }
    ],
    "peopleAlsoSearch": [],
    "placesTags": [],
    "reviewsTags": [],
    "additionalInfo": {
      "Service options": [
        {
          "Curbside pickup": true
        },
        {
          "Delivery": true
        },
        {
          "In-store pickup": true
        },
        {
          "In-store shopping": true
        },
        {
          "Onsite services": true
        }
      ],
      "Accessibility": [
        {
          "Wheelchair accessible entrance": true
        },
        {
          "Wheelchair accessible parking lot": true
        },
        {
          "Wheelchair accessible restroom": true
        }
      ],
      "Offerings": [
        {
          "Passport photos": true
        }
      ],
      "Amenities": [
        {
          "Wi-Fi": true
        },
        {
          "Free Wi-Fi": true
        }
      ],
      "Planning": [
        {
          "Quick visit": true
        }
      ],
      "Payments": [
        {
          "Credit cards": true
        },
        {
          "Debit cards": true
        },
        {
          "Credit cards": true
        }
      ]
    },
    "gasPrices": [],
    "url": "https://www.google.com/maps/search/?api=1&query=Walmart%20Pharmacy&query_place_id=ChIJwZzvdquZ4okRT7RFoeHUybs",
    "searchPageUrl": "https://www.google.com/maps/search/independent%20pharmacy%20Dover%20NH/@42.54640259466427,-67.48871611494522,8z?hl=en",
    "searchString": "independent pharmacy Dover NH",
    "language": "en",
    "rank": 11,
    "isAdvertisement": false,
    "imageUrl": "https://lh3.googleusercontent.com/p/AF1QipNENj-iR_IsWSN13UeaZH6FUNDpvphNZNjV-21C=w408-h306-k-no",
    "kgmid": "/g/1tjh0ckb"
  },
  {
    "title": "CVS Pharmacy",
    "price": null,
    "categoryName": "Pharmacy",
    "address": "11 Andrews Rd, Somersworth, NH 03878",
    "neighborhood": null,
    "street": "11 Andrews Rd",
    "city": "Somersworth",
    "postalCode": "03878",
    "state": "New Hampshire",
    "countryCode": "US",
    "website": "https://www.cvs.com/store-locator/somersworth-nh-pharmacies/11-andrews-rd-somersworth-nh-03878/storeid=17262?WT.mc_id=LS_GOOGLE_RX_17262",
    "phone": "(603) 692-6751",
    "phoneUnformatted": "+16036926751",
    "claimThisBusiness": false,
    "location": {
      "lat": 43.2346512,
      "lng": -70.884636
    },
    "totalScore": 4,
    "permanentlyClosed": false,
    "temporarilyClosed": false,
    "placeId": "ChIJqUSz4l22j4ARfkpsB4UTgyo",
    "categories": [
      "Pharmacy"
    ],
    "fid": "0x808fb65de2b344a9:0x2a831385076c4a7e",
    "cid": "3063313633618184830",
    "reviewsCount": 15,
    "imagesCount": 12,
    "imageCategories": [],
    "scrapedAt": "2025-06-22T08:58:47.846Z",
    "googleFoodUrl": null,
    "hotelAds": [],
    "openingHours": [
      {
        "day": "Monday",
        "hours": "10 AM to 1:30 PM, 2 to 7 PM"
      },
      {
        "day": "Tuesday",
        "hours": "10 AM to 1:30 PM, 2 to 7 PM"
      },
      {
        "day": "Wednesday",
        "hours": "10 AM to 1:30 PM, 2 to 7 PM"
      },
      {
        "day": "Thursday",
        "hours": "10 AM to 1:30 PM, 2 to 7 PM"
      },
      {
        "day": "Friday",
        "hours": "10 AM to 1:30 PM, 2 to 7 PM"
      },
      {
        "day": "Saturday",
        "hours": "11 AM to 1:30 PM, 2 to 5 PM"
      },
      {
        "day": "Sunday",
        "hours": "12 to 5 PM"
      }
    ],
    "peopleAlsoSearch": [],
    "placesTags": [],
    "reviewsTags": [],
    "additionalInfo": {
      "Service options": [
        {
          "Delivery": true
        },
        {
          "In-store shopping": true
        },
        {
          "Onsite services": true
        }
      ],
      "Accessibility": [
        {
          "Wheelchair accessible entrance": true
        },
        {
          "Wheelchair accessible parking lot": true
        }
      ],
      "Offerings": [
        {
          "Naloxone": true
        }
      ],
      "Amenities": [
        {
          "Wi-Fi": true
        }
      ],
      "Crowd": [
        {
          "LGBTQ+ friendly": true
        },
        {
          "Transgender safespace": true
        }
      ],
      "Planning": [
        {
          "Quick visit": true
        }
      ],
      "Payments": [
        {
          "Credit cards": true
        },
        {
          "Debit cards": true
        },
        {
          "Credit cards": true
        }
      ]
    },
    "gasPrices": [],
    "url": "https://www.google.com/maps/search/?api=1&query=CVS%20Pharmacy&query_place_id=ChIJqUSz4l22j4ARfkpsB4UTgyo",
    "searchPageUrl": "https://www.google.com/maps/search/independent%20pharmacy%20Dover%20NH/@42.54640259466427,-67.48871611494522,8z?hl=en",
    "searchString": "independent pharmacy Dover NH",
    "language": "en",
    "rank": 12,
    "isAdvertisement": false,
    "imageUrl": "https://lh3.googleusercontent.com/p/AF1QipPKjKPtS9E5_Q-O_j3CtRtkFCE9mh2o3ALwhTxC=w408-h272-k-no",
    "kgmid": "/g/1tcvjb60"
  },
  {
    "title": "Ken's Pharmacy",
    "price": null,
    "categoryName": "Pharmacy",
    "address": "36 Elm St, Manchester, NH 03101, United States",
    "neighborhood": "Bakersville",
    "street": "36 Elm St",
    "city": "Manchester",
    "postalCode": "03101",
    "state": "New Hampshire",
    "countryCode": "US",
    "website": "http://kens-pharmacy.com/",
    "phone": "+1 603-622-4300",
    "phoneUnformatted": "+16036224300",
    "claimThisBusiness": false,
    "location": {
      "lat": 42.9749072,
      "lng": -71.4633728
    },
    "totalScore": 4.9,
    "permanentlyClosed": false,
    "temporarilyClosed": false,
    "placeId": "ChIJlwUqt8VO4okR3zYL4Ga0C_g",
    "categories": [
      "Pharmacy"
    ],
    "fid": "0x89e24ec5b72a0597:0xf80bb466e00b36df",
    "cid": "17873577900088440543",
    "reviewsCount": 39,
    "imagesCount": 3,
    "imageCategories": [],
    "scrapedAt": "2025-06-22T08:58:58.130Z",
    "googleFoodUrl": null,
    "hotelAds": [],
    "openingHours": [
      {
        "day": "Monday",
        "hours": "8 AM to 7 PM"
      },
      {
        "day": "Tuesday",
        "hours": "8 AM to 7 PM"
      },
      {
        "day": "Wednesday",
        "hours": "8 AM to 7 PM"
      },
      {
        "day": "Thursday",
        "hours": "8 AM to 7 PM"
      },
      {
        "day": "Friday",
        "hours": "8 AM to 6 PM"
      },
      {
        "day": "Saturday",
        "hours": "8 AM to 1 PM"
      },
      {
        "day": "Sunday",
        "hours": "Closed"
      }
    ],
    "peopleAlsoSearch": [],
    "placesTags": [],
    "reviewsTags": [],
    "additionalInfo": {
      "From the business": [
        {
          "Small Business": true
        }
      ],
      "Service options": [
        {
          "Same-day delivery": false
        }
      ],
      "Accessibility": [
        {
          "Wheelchair-accessible car park": true
        },
        {
          "Wheelchair-accessible seating": false
        },
        {
          "Wheelchair-accessible toilet": false
        }
      ],
      "Planning": [
        {
          "Quick visit": true
        }
      ],
      "Payments": [
        {
          "Credit cards": true
        }
      ]
    },
    "gasPrices": [],
    "url": "https://www.google.com/maps/search/?api=1&query=Ken's%20Pharmacy&query_place_id=ChIJlwUqt8VO4okR3zYL4Ga0C_g",
    "searchPageUrl": "https://www.google.com/maps/search/independent%20pharmacy%20Dover%20NH/@48.27430768932854,-67.48871611494522,8z?hl=en",
    "searchString": "independent pharmacy Dover NH",
    "language": "en",
    "rank": 10,
    "isAdvertisement": false,
    "imageUrl": "https://lh3.googleusercontent.com/gps-cs-s/AC9h4noGa_Gx04qlOJjrr5YpSQL6EdqguioH2bnEBg4M5sdGPyUK5Tb0mUeKDWeeg5VAs5vvZ1WcwOPprAM5OZ9IxCl93f8aCfn35oOyLrBbztdNpFIzhvUT2s_GpQYeTxoi4nPHODA1=w408-h544-k-no",
    "kgmid": "/g/1ts3m69w"
  },
  {
    "title": "V-Care Pharmacy of NH",
    "price": null,
    "categoryName": "Pharmacy",
    "address": "1B Commons Dr UNIT 10, Londonderry, NH 03053, United States",
    "neighborhood": "Londonderry",
    "street": "1B Commons Dr UNIT 10",
    "city": "Londonderry",
    "postalCode": "03053",
    "state": "New Hampshire",
    "countryCode": "US",
    "website": "https://myvcarepharmacy.com/",
    "phone": "+1 603-314-8387",
    "phoneUnformatted": "+16033148387",
    "claimThisBusiness": false,
    "location": {
      "lat": 42.8679361,
      "lng": -71.3500159
    },
    "totalScore": 4.6,
    "permanentlyClosed": false,
    "temporarilyClosed": false,
    "placeId": "ChIJTVd8Um1T4okR64JS4IPe1cw",
    "categories": [
      "Pharmacy"
    ],
    "fid": "0x89e2536d527c574d:0xccd5de83e05282eb",
    "cid": "14759948011762254571",
    "reviewsCount": 26,
    "imagesCount": 13,
    "imageCategories": [],
    "scrapedAt": "2025-06-22T08:58:58.130Z",
    "googleFoodUrl": null,
    "hotelAds": [],
    "openingHours": [
      {
        "day": "Monday",
        "hours": "9 AM to 5:30 PM"
      },
      {
        "day": "Tuesday",
        "hours": "9 AM to 5:30 PM"
      },
      {
        "day": "Wednesday",
        "hours": "9 AM to 5:30 PM"
      },
      {
        "day": "Thursday",
        "hours": "9 AM to 5:30 PM"
      },
      {
        "day": "Friday",
        "hours": "9 AM to 5:30 PM"
      },
      {
        "day": "Saturday",
        "hours": "Closed"
      },
      {
        "day": "Sunday",
        "hours": "Closed"
      }
    ],
    "additionalOpeningHours": {
      "Delivery": [
        {
          "day": "Monday",
          "hours": "9 am–5 pm"
        },
        {
          "day": "Tuesday",
          "hours": "9 am–5 pm"
        },
        {
          "day": "Wednesday",
          "hours": "9 am–5 pm"
        },
        {
          "day": "Thursday",
          "hours": "9 am–5 pm"
        },
        {
          "day": "Friday",
          "hours": "9 am–5 pm"
        },
        {
          "day": "Saturday",
          "hours": "Closed"
        },
        {
          "day": "Sunday",
          "hours": "Closed"
        }
      ]
    },
    "peopleAlsoSearch": [],
    "placesTags": [],
    "reviewsTags": [],
    "additionalInfo": {
      "From the business": [
        {
          "Small Business": true
        }
      ],
      "Service options": [
        {
          "Kerbside pickup": true
        },
        {
          "Delivery": true
        },
        {
          "In-store pick-up": true
        },
        {
          "In-store shopping": true
        },
        {
          "On-site services": true
        },
        {
          "Same-day delivery": true
        },
        {
          "Arabic": true
        }
      ],
      "Accessibility": [
        {
          "Wheelchair-accessible car park": true
        },
        {
          "Wheelchair-accessible entrance": true
        },
        {
          "Wheelchair-accessible seating": true
        },
        {
          "Wheelchair-accessible toilet": true
        }
      ],
      "Planning": [
        {
          "Appointment required": true
        }
      ],
      "Payments": [
        {
          "Cheques": true
        },
        {
          "Credit cards": true
        },
        {
          "Debit cards": true
        },
        {
          "NFC mobile payments": true
        },
        {
          "Credit cards": true
        }
      ],
      "Parking": [
        {
          "Free parking lot": true
        }
      ]
    },
    "gasPrices": [],
    "url": "https://www.google.com/maps/search/?api=1&query=V-Care%20Pharmacy%20of%20NH&query_place_id=ChIJTVd8Um1T4okR64JS4IPe1cw",
    "searchPageUrl": "https://www.google.com/maps/search/independent%20pharmacy%20Dover%20NH/@48.27430768932854,-67.48871611494522,8z?hl=en",
    "searchString": "independent pharmacy Dover NH",
    "language": "en",
    "rank": 11,
    "isAdvertisement": false,
    "imageUrl": "https://lh3.googleusercontent.com/gps-cs-s/AC9h4nqDxUVqAJVt2S5KsQItJZHcOmjouTLaBJ2SWBKK1e2orqMdTnZJGUdDIalJEvhbf40BzBGncqDtSY5q19BtOGQoxVKSGTkDj1m0gE28G-gpvaK8MR1LttLatjaDXKHYKUEluIN4=w408-h306-k-no",
    "kgmid": "/g/11rr_xx_1w"
  },
  {
    "title": "Wingate's Pharmacy",
    "price": null,
    "categoryName": "Pharmacy",
    "address": "129 Main St, Nashua, NH 03060, United States",
    "neighborhood": null,
    "street": "129 Main St",
    "city": "Nashua",
    "postalCode": "03060",
    "state": "New Hampshire",
    "countryCode": "US",
    "website": "http://www.wingatespharmacy.com/",
    "phone": "+1 603-882-9733",
    "phoneUnformatted": "+16038829733",
    "claimThisBusiness": false,
    "location": {
      "lat": 42.7616943,
      "lng": -71.465923
    },
    "totalScore": 4.1,
    "permanentlyClosed": false,
    "temporarilyClosed": false,
    "placeId": "ChIJw6GF-dew44kRobbea6P_PjU",
    "categories": [
      "Pharmacy"
    ],
    "fid": "0x89e3b0d7f985a1c3:0x353effa36bdeb6a1",
    "cid": "3836785009920751265",
    "reviewsCount": 58,
    "imagesCount": 8,
    "imageCategories": [],
    "scrapedAt": "2025-06-22T08:58:58.130Z",
    "googleFoodUrl": null,
    "hotelAds": [],
    "openingHours": [
      {
        "day": "Monday",
        "hours": "8:30 AM to 5 PM"
      },
      {
        "day": "Tuesday",
        "hours": "8:30 AM to 5 PM"
      },
      {
        "day": "Wednesday",
        "hours": "8:30 AM to 5 PM"
      },
      {
        "day": "Thursday",
        "hours": "8:30 AM to 5 PM"
      },
      {
        "day": "Friday",
        "hours": "8:30 AM to 5 PM"
      },
      {
        "day": "Saturday",
        "hours": "8:30 AM to 1 PM"
      },
      {
        "day": "Sunday",
        "hours": "Closed"
      }
    ],
    "peopleAlsoSearch": [],
    "placesTags": [],
    "reviewsTags": [],
    "additionalInfo": {
      "From the business": [
        {
          "Small Business": true
        }
      ],
      "Service options": [
        {
          "Delivery": true
        },
        {
          "In-store pick-up": true
        },
        {
          "In-store shopping": true
        },
        {
          "Same-day delivery": true
        }
      ],
      "Accessibility": [
        {
          "Wheelchair-accessible car park": true
        },
        {
          "Wheelchair-accessible entrance": true
        }
      ],
      "Planning": [
        {
          "Quick visit": true
        }
      ],
      "Payments": [
        {
          "Cheques": true
        },
        {
          "Credit cards": true
        },
        {
          "Debit cards": true
        },
        {
          "NFC mobile payments": true
        },
        {
          "Credit cards": true
        }
      ]
    },
    "gasPrices": [],
    "url": "https://www.google.com/maps/search/?api=1&query=Wingate's%20Pharmacy&query_place_id=ChIJw6GF-dew44kRobbea6P_PjU",
    "searchPageUrl": "https://www.google.com/maps/search/independent%20pharmacy%20Dover%20NH/@48.27430768932854,-67.48871611494522,8z?hl=en",
    "searchString": "independent pharmacy Dover NH",
    "language": "en",
    "rank": 12,
    "isAdvertisement": false,
    "imageUrl": "https://lh3.googleusercontent.com/gps-cs-s/AC9h4nqaUUMqKBcYh-WDiFslhUDM_3oVsQdKlMUNk-d_WVnL3ZqsVGaxJfDMsMUlOvFkHTAeFImPBVd0lMgUa1ofWtr2PJoAgym6RXRZGvOvVt0UPGDHgRipXkhtbIA4mslXLAHmB-D5MA=w408-h306-k-no",
    "kgmid": "/g/1v27whyt"
  },
  {
    "title": "Fisherville Pharmacy",
    "price": null,
    "categoryName": "Pharmacy",
    "address": "219 Fisherville Rd Unit c, Penacook, NH 03303",
    "neighborhood": "Penacook",
    "street": "219 Fisherville Rd Unit c",
    "city": "Penacook",
    "postalCode": "03303",
    "state": "New Hampshire",
    "countryCode": "US",
    "website": "http://fishervillerx.com/",
    "phone": "(603) 565-0210",
    "phoneUnformatted": "+16035650210",
    "claimThisBusiness": false,
    "location": {
      "lat": 43.2657906,
      "lng": -71.5867266
    },
    "totalScore": 4.6,
    "permanentlyClosed": false,
    "temporarilyClosed": false,
    "placeId": "ChIJz02i3KUU4okR_qejKnBlVus",
    "categories": [
      "Pharmacy"
    ],
    "fid": "0x89e214a5dca24dcf:0xeb5665702aa3a7fe",
    "cid": "16957852979336292350",
    "reviewsCount": 55,
    "imagesCount": 22,
    "imageCategories": [],
    "scrapedAt": "2025-06-22T08:59:02.917Z",
    "googleFoodUrl": null,
    "hotelAds": [],
    "openingHours": [
      {
        "day": "Monday",
        "hours": "9 AM to 7 PM"
      },
      {
        "day": "Tuesday",
        "hours": "9 AM to 7 PM"
      },
      {
        "day": "Wednesday",
        "hours": "9 AM to 7 PM"
      },
      {
        "day": "Thursday",
        "hours": "9 AM to 7 PM"
      },
      {
        "day": "Friday",
        "hours": "9 AM to 7 PM"
      },
      {
        "day": "Saturday",
        "hours": "9 AM to 3 PM"
      },
      {
        "day": "Sunday",
        "hours": "9 AM to 1 PM"
      }
    ],
    "peopleAlsoSearch": [],
    "placesTags": [],
    "reviewsTags": [],
    "additionalInfo": {
      "From the business": [
        {
          "Small business": true
        }
      ],
      "Service options": [
        {
          "Delivery": true
        },
        {
          "In-store pickup": true
        },
        {
          "In-store shopping": true
        },
        {
          "Same-day delivery": true
        }
      ],
      "Accessibility": [
        {
          "Wheelchair accessible entrance": true
        },
        {
          "Wheelchair accessible parking lot": true
        }
      ],
      "Planning": [
        {
          "Quick visit": true
        }
      ],
      "Payments": [
        {
          "Credit cards": true
        },
        {
          "Debit cards": true
        },
        {
          "NFC mobile payments": true
        },
        {
          "Credit cards": true
        }
      ]
    },
    "gasPrices": [],
    "url": "https://www.google.com/maps/search/?api=1&query=Fisherville%20Pharmacy&query_place_id=ChIJz02i3KUU4okR_qejKnBlVus",
    "searchPageUrl": "https://www.google.com/maps/search/independent%20pharmacy%20Dover%20NH/@42.54640259466427,-70.65494205772909,8z?hl=en",
    "searchString": "independent pharmacy Dover NH",
    "language": "en",
    "rank": 12,
    "isAdvertisement": false,
    "imageUrl": "https://lh3.googleusercontent.com/p/AF1QipNOjsZy1pn9YIqMCVYZfpnpJkUoa5aEM_JoCM5G=w426-h240-k-no",
    "kgmid": "/g/1tdw91r1"
  }
]