[
  {
    "title": "Freeland Brown Pharmacy",
    "price": null,
    "categoryName": "Pharmacy",
    "address": "4112 S Peoria Ave, Tulsa, OK 74105",
    "neighborhood": null,
    "street": "4112 S Peoria Ave",
    "city": "Tulsa",
    "postalCode": "74105",
    "state": "Oklahoma",
    "countryCode": "US",
    "website": "http://www.freelandbrown.com/",
    "phone": "(918) 743-4491",
    "phoneUnformatted": "+19187434491",
    "claimThisBusiness": false,
    "location": {
      "lat": 36.1038046,
      "lng": -95.9760391
    },
    "totalScore": 4,
    "permanentlyClosed": false,
    "temporarilyClosed": false,
    "placeId": "ChIJKQnSnFCTtocRx6muNEa8Fns",
    "categories": [
      "Pharmacy",
      "Medical supply store"
    ],
    "fid": "0x87b693509cd20929:0x7b16bc4634aea9c7",
    "cid": "8869483525870365127",
    "reviewsCount": 166,
    "imagesCount": 18,
    "imageCategories": [],
    "scrapedAt": "2025-06-22T09:19:25.716Z",
    "googleFoodUrl": null,
    "hotelAds": [],
    "openingHours": [
      {
        "day": "Monday",
        "hours": "8:30 AM to 7 PM"
      },
      {
        "day": "Tuesday",
        "hours": "8:30 AM to 7 PM"
      },
      {
        "day": "Wednesday",
        "hours": "8:30 AM to 7 PM"
      },
      {
        "day": "Thursday",
        "hours": "8:30 AM to 7 PM"
      },
      {
        "day": "Friday",
        "hours": "8:30 AM to 7 PM"
      },
      {
        "day": "Saturday",
        "hours": "8:30 AM to 5 PM"
      },
      {
        "day": "Sunday",
        "hours": "Closed"
      }
    ],
    "peopleAlsoSearch": [],
    "placesTags": [],
    "reviewsTags": [],
    "additionalInfo": {
      "Service options": [
        {
          "Delivery": true
        },
        {
          "Drive-through": true
        },
        {
          "In-store pickup": true
        },
        {
          "In-store shopping": true
        },
        {
          "Same-day delivery": true
        }
      ],
      "Accessibility": [
        {
          "Wheelchair accessible entrance": true
        },
        {
          "Wheelchair accessible parking lot": true
        }
      ],
      "Planning": [
        {
          "Quick visit": true
        }
      ],
      "Payments": [
        {
          "Checks": true
        },
        {
          "Credit cards": true
        },
        {
          "Debit cards": true
        },
        {
          "NFC mobile payments": true
        },
        {
          "Credit cards": true
        }
      ]
    },
    "gasPrices": [],
    "url": "https://www.google.com/maps/search/?api=1&query=Freeland%20Brown%20Pharmacy&query_place_id=ChIJKQnSnFCTtocRx6muNEa8Fns",
    "searchPageUrl": "https://www.google.com/maps/search/independent%20pharmacy%20Tulsa%20OK/@65.73786228335844,-142.75332010026844,9z?hl=en",
    "searchString": "independent pharmacy Tulsa OK",
    "language": "en",
    "rank": 1,
    "isAdvertisement": false,
    "imageUrl": "https://lh3.googleusercontent.com/p/AF1QipPHaV4FLqtIZb3Fmw4Z8wHAsPIR2QbvnP7LWzlm=w408-h306-k-no",
    "kgmid": "/g/11bv1q9l2j"
  },
  {
    "title": "GenScripts Pharmacy Midtown Tulsa",
    "price": null,
    "categoryName": "Pharmacy",
    "address": "3980 S Hudson Ave, Tulsa, OK 74135",
    "neighborhood": null,
    "street": "3980 S Hudson Ave",
    "city": "Tulsa",
    "postalCode": "74135",
    "state": "Oklahoma",
    "countryCode": "US",
    "website": "https://www.genscripts.com/",
    "phone": "(918) 835-2112",
    "phoneUnformatted": "+19188352112",
    "claimThisBusiness": false,
    "location": {
      "lat": 36.1050361,
      "lng": -95.9137306
    },
    "totalScore": 4.9,
    "permanentlyClosed": false,
    "temporarilyClosed": false,
    "placeId": "ChIJ3d-xFLqStocRqn4IrOQ7ito",
    "categories": [
      "Pharmacy",
      "Drug store",
      "Medical equipment supplier",
      "Medical supply store",
      "Veterinary pharmacy"
    ],
    "fid": "0x87b692ba14b1dfdd:0xda8a3be4ac087eaa",
    "cid": "15747464900379180714",
    "reviewsCount": 533,
    "imagesCount": 23,
    "imageCategories": [],
    "scrapedAt": "2025-06-22T09:19:25.717Z",
    "googleFoodUrl": null,
    "hotelAds": [],
    "openingHours": [
      {
        "day": "Monday",
        "hours": "9 AM to 6 PM"
      },
      {
        "day": "Tuesday",
        "hours": "9 AM to 6 PM"
      },
      {
        "day": "Wednesday",
        "hours": "9 AM to 6 PM"
      },
      {
        "day": "Thursday",
        "hours": "9 AM to 6 PM"
      },
      {
        "day": "Friday",
        "hours": "9 AM to 6 PM"
      },
      {
        "day": "Saturday",
        "hours": "Closed"
      },
      {
        "day": "Sunday",
        "hours": "Closed"
      }
    ],
    "peopleAlsoSearch": [],
    "placesTags": [],
    "reviewsTags": [],
    "additionalInfo": {
      "From the business": [
        {
          "Small business": true
        }
      ],
      "Service options": [
        {
          "Curbside pickup": true
        },
        {
          "Delivery": true
        },
        {
          "Drive-through": true
        },
        {
          "In-store pickup": true
        },
        {
          "In-store shopping": true
        },
        {
          "Same-day delivery": true
        }
      ],
      "Accessibility": [
        {
          "Wheelchair accessible entrance": true
        },
        {
          "Wheelchair accessible parking lot": true
        }
      ],
      "Planning": [
        {
          "Quick visit": true
        }
      ],
      "Payments": [
        {
          "Credit cards": true
        },
        {
          "Debit cards": true
        },
        {
          "NFC mobile payments": true
        }
      ]
    },
    "gasPrices": [],
    "url": "https://www.google.com/maps/search/?api=1&query=GenScripts%20Pharmacy%20Midtown%20Tulsa&query_place_id=ChIJ3d-xFLqStocRqn4IrOQ7ito",
    "searchPageUrl": "https://www.google.com/maps/search/independent%20pharmacy%20Tulsa%20OK/@65.73786228335844,-142.75332010026844,9z?hl=en",
    "searchString": "independent pharmacy Tulsa OK",
    "language": "en",
    "rank": 2,
    "isAdvertisement": false,
    "imageUrl": "https://lh3.googleusercontent.com/gps-cs-s/AC9h4np_TD0VKR4Dkb8egdcQ7fSaOLqbmx1gcpKfQ6oSnw3rXGjXsZkg-4HGUCCW7KnGVcRwVGDL6ViqfUdXmnv3E9XclgUXxu43Sf4RZv1nlJXjBHU2_z-7XErs91_m7ne-M_xJ4PEXFg=w408-h306-k-no",
    "kgmid": "/g/1trvlyy0"
  },
  {
    "title": "Couch Pharmacy On Sheridan",
    "price": null,
    "categoryName": "Pharmacy",
    "address": "444 S Sheridan Rd, Tulsa, OK 74112",
    "neighborhood": null,
    "street": "444 S Sheridan Rd",
    "city": "Tulsa",
    "postalCode": "74112",
    "state": "Oklahoma",
    "countryCode": "US",
    "website": "http://couchpharmacytulsa.com/",
    "phone": "(918) 835-9577",
    "phoneUnformatted": "+19188359577",
    "claimThisBusiness": false,
    "location": {
      "lat": 36.1555141,
      "lng": -95.9049626
    },
    "totalScore": 4.7,
    "permanentlyClosed": false,
    "temporarilyClosed": false,
    "placeId": "ChIJn0mu43vttocR_bEH3jSJVyA",
    "categories": [
      "Pharmacy",
      "Diabetes equipment supplier",
      "Drug store"
    ],
    "fid": "0x87b6ed7be3ae499f:0x20578934de07b1fd",
    "cid": "2330482192343871997",
    "reviewsCount": 361,
    "imagesCount": 8,
    "imageCategories": [],
    "scrapedAt": "2025-06-22T09:19:25.717Z",
    "googleFoodUrl": null,
    "hotelAds": [],
    "openingHours": [
      {
        "day": "Monday",
        "hours": "9 AM to 6 PM"
      },
      {
        "day": "Tuesday",
        "hours": "9 AM to 6 PM"
      },
      {
        "day": "Wednesday",
        "hours": "9 AM to 6 PM"
      },
      {
        "day": "Thursday",
        "hours": "9 AM to 6 PM"
      },
      {
        "day": "Friday",
        "hours": "9 AM to 6 PM"
      },
      {
        "day": "Saturday",
        "hours": "9 AM to 12:30 PM"
      },
      {
        "day": "Sunday",
        "hours": "Closed"
      }
    ],
    "peopleAlsoSearch": [],
    "placesTags": [],
    "reviewsTags": [],
    "additionalInfo": {
      "From the business": [
        {
          "Small business": true
        }
      ],
      "Service options": [
        {
          "Curbside pickup": true
        },
        {
          "Delivery": true
        },
        {
          "Drive-through": true
        },
        {
          "In-store pickup": true
        },
        {
          "Onsite services": true
        },
        {
          "Same-day delivery": true
        }
      ],
      "Accessibility": [
        {
          "Wheelchair accessible entrance": true
        },
        {
          "Wheelchair accessible parking lot": true
        }
      ],
      "Planning": [
        {
          "Quick visit": true
        }
      ],
      "Payments": [
        {
          "Credit cards": true
        },
        {
          "Debit cards": true
        },
        {
          "Credit cards": true
        }
      ]
    },
    "gasPrices": [],
    "url": "https://www.google.com/maps/search/?api=1&query=Couch%20Pharmacy%20On%20Sheridan&query_place_id=ChIJn0mu43vttocR_bEH3jSJVyA",
    "searchPageUrl": "https://www.google.com/maps/search/independent%20pharmacy%20Tulsa%20OK/@65.73786228335844,-142.75332010026844,9z?hl=en",
    "searchString": "independent pharmacy Tulsa OK",
    "language": "en",
    "rank": 3,
    "isAdvertisement": false,
    "imageUrl": "https://lh3.googleusercontent.com/p/AF1QipOunuWBKlWwu-WU4nhVBpuMhiaQD0OEbjL3xtAb=w408-h306-k-no",
    "kgmid": "/g/1ts3g3n2"
  },
  {
    "title": "CareFirst Pharmacy - Tulsa",
    "price": null,
    "categoryName": "Pharmacy",
    "address": "6214 S Sheridan Rd, Tulsa, OK 74133",
    "neighborhood": null,
    "street": "6214 S Sheridan Rd",
    "city": "Tulsa",
    "postalCode": "74133",
    "state": "Oklahoma",
    "countryCode": "US",
    "website": "https://www.carefirstpharmacy.com/",
    "phone": "(918) 940-6767",
    "phoneUnformatted": "+19189406767",
    "claimThisBusiness": false,
    "location": {
      "lat": 36.0737669,
      "lng": -95.9048014
    },
    "totalScore": 4.5,
    "permanentlyClosed": false,
    "temporarilyClosed": false,
    "placeId": "ChIJezbG-32StocRSGh38We5Ot0",
    "categories": [
      "Pharmacy",
      "Drug store",
      "Medical supply store",
      "Pharmaceutical lab"
    ],
    "fid": "0x87b6927dfbc6367b:0xdd3ab967f1776848",
    "cid": "15941257687115196488",
    "reviewsCount": 197,
    "imagesCount": 12,
    "imageCategories": [],
    "scrapedAt": "2025-06-22T09:19:25.717Z",
    "googleFoodUrl": null,
    "hotelAds": [],
    "openingHours": [
      {
        "day": "Monday",
        "hours": "9 AM to 6 PM"
      },
      {
        "day": "Tuesday",
        "hours": "9 AM to 6 PM"
      },
      {
        "day": "Wednesday",
        "hours": "9 AM to 6 PM"
      },
      {
        "day": "Thursday",
        "hours": "9 AM to 6 PM"
      },
      {
        "day": "Friday",
        "hours": "9 AM to 6 PM"
      },
      {
        "day": "Saturday",
        "hours": "Closed"
      },
      {
        "day": "Sunday",
        "hours": "Closed"
      }
    ],
    "peopleAlsoSearch": [],
    "placesTags": [],
    "reviewsTags": [],
    "additionalInfo": {
      "From the business": [
        {
          "Small business": true
        }
      ],
      "Service options": [
        {
          "Delivery": true
        },
        {
          "Drive-through": true
        },
        {
          "In-store pickup": true
        },
        {
          "Onsite services": true
        },
        {
          "Same-day delivery": true
        }
      ],
      "Accessibility": [
        {
          "Wheelchair accessible entrance": true
        },
        {
          "Wheelchair accessible parking lot": true
        }
      ],
      "Planning": [
        {
          "Quick visit": true
        }
      ],
      "Payments": [
        {
          "Credit cards": true
        },
        {
          "Debit cards": true
        },
        {
          "NFC mobile payments": true
        },
        {
          "Credit cards": true
        }
      ]
    },
    "gasPrices": [],
    "url": "https://www.google.com/maps/search/?api=1&query=CareFirst%20Pharmacy%20-%20Tulsa&query_place_id=ChIJezbG-32StocRSGh38We5Ot0",
    "searchPageUrl": "https://www.google.com/maps/search/independent%20pharmacy%20Tulsa%20OK/@65.73786228335844,-142.75332010026844,9z?hl=en",
    "searchString": "independent pharmacy Tulsa OK",
    "language": "en",
    "rank": 4,
    "isAdvertisement": false,
    "imageUrl": "https://lh3.googleusercontent.com/gps-cs-s/AC9h4nrOPNDhwNvkzuDB6OHwRmJPYsZnC4Hm6MeAATxsEMN40X-sLfCrezQKiBSENsNzU8nsw4A4jcG_Y_xk9PGnwJ9a-cFPmKr6t94a8E0QQr0KxTj0kfDEDHAXlqikMlBk2XcIOlvUzw=w408-h544-k-no",
    "kgmid": "/g/12q4x0vz2"
  },
  {
    "title": "Saffa Compounding Pharmacy",
    "price": null,
    "categoryName": "Pharmacy",
    "address": "8004 S Sheridan Rd, Tulsa, OK 74133",
    "neighborhood": "Pleasant Valley",
    "street": "8004 S Sheridan Rd",
    "city": "Tulsa",
    "postalCode": "74133",
    "state": "Oklahoma",
    "countryCode": "US",
    "website": "http://www.saffarx.com/",
    "phone": "(918) 492-4242",
    "phoneUnformatted": "+19184924242",
    "claimThisBusiness": false,
    "location": {
      "lat": 36.0474435,
      "lng": -95.90483
    },
    "totalScore": 4.2,
    "permanentlyClosed": false,
    "temporarilyClosed": false,
    "placeId": "ChIJzdjPBgyStocRICDdgxUfWNo",
    "categories": [
      "Pharmacy"
    ],
    "fid": "0x87b6920c06cfd8cd:0xda581f1583dd2020",
    "cid": "15733359475485909024",
    "reviewsCount": 34,
    "imagesCount": 6,
    "imageCategories": [],
    "scrapedAt": "2025-06-22T09:19:25.718Z",
    "googleFoodUrl": null,
    "hotelAds": [],
    "openingHours": [
      {
        "day": "Monday",
        "hours": "9 AM to 6 PM"
      },
      {
        "day": "Tuesday",
        "hours": "9 AM to 6 PM"
      },
      {
        "day": "Wednesday",
        "hours": "9 AM to 6 PM"
      },
      {
        "day": "Thursday",
        "hours": "9 AM to 6 PM"
      },
      {
        "day": "Friday",
        "hours": "9 AM to 6 PM"
      },
      {
        "day": "Saturday",
        "hours": "Closed"
      },
      {
        "day": "Sunday",
        "hours": "Closed"
      }
    ],
    "peopleAlsoSearch": [],
    "placesTags": [],
    "reviewsTags": [],
    "additionalInfo": {
      "From the business": [
        {
          "Small business": true
        }
      ],
      "Service options": [
        {
          "Delivery": true
        },
        {
          "In-store pickup": true
        },
        {
          "Same-day delivery": true
        }
      ],
      "Accessibility": [
        {
          "Wheelchair accessible entrance": true
        },
        {
          "Wheelchair accessible parking lot": true
        }
      ],
      "Planning": [
        {
          "Quick visit": true
        }
      ],
      "Payments": [
        {
          "Credit cards": true
        },
        {
          "Debit cards": true
        },
        {
          "NFC mobile payments": true
        },
        {
          "Credit cards": true
        }
      ]
    },
    "gasPrices": [],
    "url": "https://www.google.com/maps/search/?api=1&query=Saffa%20Compounding%20Pharmacy&query_place_id=ChIJzdjPBgyStocRICDdgxUfWNo",
    "searchPageUrl": "https://www.google.com/maps/search/independent%20pharmacy%20Tulsa%20OK/@65.73786228335844,-142.75332010026844,9z?hl=en",
    "searchString": "independent pharmacy Tulsa OK",
    "language": "en",
    "rank": 5,
    "isAdvertisement": false,
    "imageUrl": "https://lh3.googleusercontent.com/gps-cs-s/AC9h4no3Qz4fsZ0GtNnw19Xz-aMIi8M7xsiZzhcPeIetd-0miZsfe3Et5UY8sNxvN_m9jiT8WcdUczDO8htpVAbQBoCFPZ5TgYF4w_qy7c1r-vrri8WQd7E1055O39KQTCKastkbgDOL=w426-h240-k-no",
    "kgmid": "/g/1tg6qmnn"
  },
  {
    "title": "NextGenRx",
    "price": null,
    "categoryName": "Pharmacy",
    "address": "4132 E 51st St, Tulsa, OK 74135",
    "neighborhood": null,
    "street": "4132 E 51st St",
    "city": "Tulsa",
    "postalCode": "74135",
    "state": "Oklahoma",
    "countryCode": "US",
    "website": "http://www.mynextgenrx.com/",
    "phone": "(918) 578-0031",
    "phoneUnformatted": "+19185780031",
    "claimThisBusiness": false,
    "location": {
      "lat": 36.0894782,
      "lng": -95.9299098
    },
    "totalScore": 4.9,
    "permanentlyClosed": false,
    "temporarilyClosed": false,
    "placeId": "ChIJbfHh8KSTtocRmqTevYfqj64",
    "categories": [
      "Pharmacy"
    ],
    "fid": "0x87b693a4f0e1f16d:0xae8fea87bddea49a",
    "cid": "12578530152996054170",
    "reviewsCount": 172,
    "imagesCount": 3,
    "imageCategories": [],
    "scrapedAt": "2025-06-22T09:19:25.718Z",
    "googleFoodUrl": null,
    "hotelAds": [],
    "openingHours": [
      {
        "day": "Monday",
        "hours": "9 AM to 6 PM"
      },
      {
        "day": "Tuesday",
        "hours": "9 AM to 6 PM"
      },
      {
        "day": "Wednesday",
        "hours": "9 AM to 6 PM"
      },
      {
        "day": "Thursday",
        "hours": "9 AM to 6 PM"
      },
      {
        "day": "Friday",
        "hours": "9 AM to 6 PM"
      },
      {
        "day": "Saturday",
        "hours": "Closed"
      },
      {
        "day": "Sunday",
        "hours": "Closed"
      }
    ],
    "peopleAlsoSearch": [],
    "placesTags": [],
    "reviewsTags": [],
    "additionalInfo": {
      "From the business": [
        {
          "Small business": true
        }
      ],
      "Service options": [
        {
          "Delivery": true
        },
        {
          "Drive-through": true
        },
        {
          "In-store pickup": true
        }
      ],
      "Accessibility": [
        {
          "Wheelchair accessible entrance": true
        },
        {
          "Wheelchair accessible parking lot": true
        }
      ],
      "Planning": [
        {
          "Quick visit": true
        }
      ],
      "Payments": [
        {
          "Credit cards": true
        },
        {
          "Debit cards": true
        },
        {
          "NFC mobile payments": true
        },
        {
          "Credit cards": true
        }
      ]
    },
    "gasPrices": [],
    "url": "https://www.google.com/maps/search/?api=1&query=NextGenRx&query_place_id=ChIJbfHh8KSTtocRmqTevYfqj64",
    "searchPageUrl": "https://www.google.com/maps/search/independent%20pharmacy%20Tulsa%20OK/@65.73786228335844,-142.75332010026844,9z?hl=en",
    "searchString": "independent pharmacy Tulsa OK",
    "language": "en",
    "rank": 6,
    "isAdvertisement": false,
    "imageUrl": "https://lh3.googleusercontent.com/p/AF1QipP86uvdpzo8X7yaoa2gYqDaIlMdobsrILG5eiUk=w592-h240-k-no",
    "kgmid": "/g/11s1zqz1mr"
  },
  {
    "title": "Olympia Pharmacy Tulsa",
    "price": null,
    "categoryName": "Pharmacy",
    "address": "6802 S Olympia Ave #125, Tulsa, OK 74132",
    "neighborhood": null,
    "street": "6802 S Olympia Ave #125",
    "city": "Tulsa",
    "postalCode": "74132",
    "state": "Oklahoma",
    "countryCode": "US",
    "phone": "(918) 513-3234",
    "phoneUnformatted": "+19185133234",
    "claimThisBusiness": false,
    "location": {
      "lat": 36.0652877,
      "lng": -96.0049085
    },
    "totalScore": 4.6,
    "permanentlyClosed": false,
    "temporarilyClosed": false,
    "placeId": "ChIJ6W2iGV6UtocRJVNToSDpXQw",
    "categories": [
      "Pharmacy"
    ],
    "fid": "0x87b6945e19a26de9:0xc5de920a1535325",
    "cid": "891124627644044069",
    "reviewsCount": 44,
    "imagesCount": 4,
    "imageCategories": [],
    "scrapedAt": "2025-06-22T09:19:25.718Z",
    "googleFoodUrl": null,
    "hotelAds": [],
    "openingHours": [
      {
        "day": "Monday",
        "hours": "8:30 AM to 5 PM"
      },
      {
        "day": "Tuesday",
        "hours": "8:30 AM to 5 PM"
      },
      {
        "day": "Wednesday",
        "hours": "8:30 AM to 5 PM"
      },
      {
        "day": "Thursday",
        "hours": "8:30 AM to 5 PM"
      },
      {
        "day": "Friday",
        "hours": "8:30 AM to 4 PM"
      },
      {
        "day": "Saturday",
        "hours": "Closed"
      },
      {
        "day": "Sunday",
        "hours": "Closed"
      }
    ],
    "peopleAlsoSearch": [],
    "placesTags": [],
    "reviewsTags": [],
    "additionalInfo": {
      "From the business": [
        {
          "Small business": true
        }
      ],
      "Service options": [
        {
          "Delivery": true
        },
        {
          "In-store pickup": true
        },
        {
          "Same-day delivery": true
        }
      ],
      "Accessibility": [
        {
          "Wheelchair accessible entrance": true
        },
        {
          "Wheelchair accessible parking lot": true
        }
      ],
      "Planning": [
        {
          "Quick visit": true
        }
      ],
      "Payments": [
        {
          "Credit cards": true
        },
        {
          "Debit cards": true
        },
        {
          "NFC mobile payments": true
        },
        {
          "Credit cards": true
        }
      ]
    },
    "gasPrices": [],
    "url": "https://www.google.com/maps/search/?api=1&query=Olympia%20Pharmacy%20Tulsa&query_place_id=ChIJ6W2iGV6UtocRJVNToSDpXQw",
    "searchPageUrl": "https://www.google.com/maps/search/independent%20pharmacy%20Tulsa%20OK/@65.73786228335844,-142.75332010026844,9z?hl=en",
    "searchString": "independent pharmacy Tulsa OK",
    "language": "en",
    "rank": 7,
    "isAdvertisement": false,
    "imageUrl": "https://lh3.googleusercontent.com/p/AF1QipM2CSqIdCv0uO3N1meMVSJcphbRKplQMpAN7C1m=w408-h408-k-no",
    "kgmid": "/g/11b77f6r2_"
  },
  {
    "title": "Rowland Pharmacy",
    "price": null,
    "categoryName": "Pharmacy",
    "address": "802 W Main St Suite 103, Jenks, OK 74037",
    "neighborhood": null,
    "street": "802 W Main St Suite 103",
    "city": "Jenks",
    "postalCode": "74037",
    "state": "Oklahoma",
    "countryCode": "US",
    "website": "https://www.rowlandpharmacyonline.com/",
    "phone": "(918) 236-4668",
    "phoneUnformatted": "+19182364668",
    "claimThisBusiness": false,
    "location": {
      "lat": 36.0231148,
      "lng": -95.979354
    },
    "totalScore": 4.9,
    "permanentlyClosed": false,
    "temporarilyClosed": false,
    "placeId": "ChIJ82HGFb7stocR3EaSnjToczc",
    "categories": [
      "Pharmacy"
    ],
    "fid": "0x87b6ecbe15c661f3:0x3773e8349e9246dc",
    "cid": "3995792607104091868",
    "reviewsCount": 36,
    "imagesCount": 12,
    "imageCategories": [],
    "scrapedAt": "2025-06-22T09:19:25.718Z",
    "googleFoodUrl": null,
    "hotelAds": [],
    "openingHours": [
      {
        "day": "Monday",
        "hours": "8:30 AM to 6 PM"
      },
      {
        "day": "Tuesday",
        "hours": "8:30 AM to 6 PM"
      },
      {
        "day": "Wednesday",
        "hours": "8:30 AM to 6 PM"
      },
      {
        "day": "Thursday",
        "hours": "8:30 AM to 6 PM"
      },
      {
        "day": "Friday",
        "hours": "8:30 AM to 6 PM"
      },
      {
        "day": "Saturday",
        "hours": "9 AM to 1 PM"
      },
      {
        "day": "Sunday",
        "hours": "Closed"
      }
    ],
    "peopleAlsoSearch": [],
    "placesTags": [],
    "reviewsTags": [],
    "additionalInfo": {
      "From the business": [
        {
          "Small business": true
        }
      ],
      "Service options": [
        {
          "Delivery": true
        },
        {
          "In-store pickup": true
        },
        {
          "Same-day delivery": true
        }
      ],
      "Accessibility": [
        {
          "Wheelchair accessible entrance": true
        },
        {
          "Wheelchair accessible parking lot": true
        }
      ],
      "Planning": [
        {
          "Quick visit": true
        }
      ],
      "Payments": [
        {
          "Credit cards": true
        },
        {
          "Debit cards": true
        },
        {
          "NFC mobile payments": true
        },
        {
          "Credit cards": true
        }
      ]
    },
    "gasPrices": [],
    "url": "https://www.google.com/maps/search/?api=1&query=Rowland%20Pharmacy&query_place_id=ChIJ82HGFb7stocR3EaSnjToczc",
    "searchPageUrl": "https://www.google.com/maps/search/independent%20pharmacy%20Tulsa%20OK/@65.73786228335844,-142.75332010026844,9z?hl=en",
    "searchString": "independent pharmacy Tulsa OK",
    "language": "en",
    "rank": 8,
    "isAdvertisement": false,
    "imageUrl": "https://lh3.googleusercontent.com/p/AF1QipOeXIf5GdbwuwvkA2_WupK8tFUybhV0QqUy1hAs=w408-h271-k-no",
    "kgmid": "/g/1tf16d15"
  },
  {
    "title": "T. Roy Barnes Drugry",
    "price": null,
    "categoryName": "Pharmacy",
    "address": "3404 S Yale Ave, Tulsa, OK 74135",
    "neighborhood": "Max Campbell IV",
    "street": "3404 S Yale Ave",
    "city": "Tulsa",
    "postalCode": "74135",
    "state": "Oklahoma",
    "countryCode": "US",
    "website": "http://www.troybarnes.com/",
    "phone": "(918) 743-6623",
    "phoneUnformatted": "+19187436623",
    "claimThisBusiness": false,
    "location": {
      "lat": 36.1145869,
      "lng": -95.9228035
    },
    "totalScore": 4.8,
    "permanentlyClosed": false,
    "temporarilyClosed": false,
    "placeId": "ChIJpwf8_cqStocRs7mrC7276-E",
    "categories": [
      "Pharmacy"
    ],
    "fid": "0x87b692cafdfc07a7:0xe1ebbbbd0babb9b3",
    "cid": "16279311698679806387",
    "reviewsCount": 28,
    "imagesCount": 1,
    "imageCategories": [],
    "scrapedAt": "2025-06-22T09:19:25.718Z",
    "googleFoodUrl": null,
    "hotelAds": [],
    "openingHours": [
      {
        "day": "Monday",
        "hours": "9 AM to 5:30 PM"
      },
      {
        "day": "Tuesday",
        "hours": "9 AM to 5:30 PM"
      },
      {
        "day": "Wednesday",
        "hours": "9 AM to 5:30 PM"
      },
      {
        "day": "Thursday",
        "hours": "9 AM to 5:30 PM"
      },
      {
        "day": "Friday",
        "hours": "9 AM to 5:30 PM"
      },
      {
        "day": "Saturday",
        "hours": "Closed"
      },
      {
        "day": "Sunday",
        "hours": "Closed"
      }
    ],
    "peopleAlsoSearch": [],
    "placesTags": [],
    "reviewsTags": [],
    "additionalInfo": {
      "From the business": [
        {
          "Identifies as women-owned": true
        },
        {
          "Small business": true
        }
      ],
      "Service options": [
        {
          "Delivery": true
        },
        {
          "Drive-through": true
        },
        {
          "In-store pickup": true
        },
        {
          "Same-day delivery": true
        }
      ],
      "Accessibility": [
        {
          "Wheelchair accessible entrance": true
        },
        {
          "Wheelchair accessible parking lot": true
        }
      ],
      "Crowd": [
        {
          "LGBTQ+ friendly": true
        },
        {
          "Transgender safespace": true
        }
      ],
      "Planning": [
        {
          "Quick visit": true
        }
      ],
      "Payments": [
        {
          "Checks": true
        },
        {
          "Credit cards": true
        },
        {
          "Debit cards": true
        },
        {
          "NFC mobile payments": true
        },
        {
          "Credit cards": true
        }
      ]
    },
    "gasPrices": [],
    "url": "https://www.google.com/maps/search/?api=1&query=T.%20Roy%20Barnes%20Drugry&query_place_id=ChIJpwf8_cqStocRs7mrC7276-E",
    "searchPageUrl": "https://www.google.com/maps/search/independent%20pharmacy%20Tulsa%20OK/@65.73786228335844,-142.75332010026844,9z?hl=en",
    "searchString": "independent pharmacy Tulsa OK",
    "language": "en",
    "rank": 9,
    "isAdvertisement": false,
    "imageUrl": "https://streetviewpixels-pa.googleapis.com/v1/thumbnail?panoid=PNZzbYOwLz29qTzRFS01Sw&cb_client=search.gws-prod.gps&w=408&h=240&yaw=279.77942&pitch=0&thumbfov=100",
    "kgmid": "/g/1tgz5_fg"
  },
  {
    "title": "Unidos Pharmacy",
    "price": null,
    "categoryName": "Pharmacy",
    "address": "11240 E 17th Pl, Tulsa, OK 74128",
    "neighborhood": "Columbus",
    "street": "11240 E 17th Pl",
    "city": "Tulsa",
    "postalCode": "74128",
    "state": "Oklahoma",
    "countryCode": "US",
    "website": "http://unidospharmacy.com/",
    "phone": "(918) 398-5588",
    "phoneUnformatted": "+19183985588",
    "claimThisBusiness": false,
    "location": {
      "lat": 36.1369089,
      "lng": -95.8515796
    },
    "totalScore": 4.9,
    "permanentlyClosed": false,
    "temporarilyClosed": false,
    "placeId": "ChIJmQBrlPLztocR1YXMy46Ji1o",
    "categories": [
      "Pharmacy",
      "Drug store"
    ],
    "fid": "0x87b6f3f2946b0099:0x5a8b898ecbcc85d5",
    "cid": "6524459731573835221",
    "reviewsCount": 18,
    "imagesCount": 11,
    "imageCategories": [],
    "scrapedAt": "2025-06-22T09:19:25.718Z",
    "googleFoodUrl": null,
    "hotelAds": [],
    "openingHours": [
      {
        "day": "Monday",
        "hours": "9 AM to 6 PM"
      },
      {
        "day": "Tuesday",
        "hours": "9 AM to 6 PM"
      },
      {
        "day": "Wednesday",
        "hours": "9 AM to 6 PM"
      },
      {
        "day": "Thursday",
        "hours": "9 AM to 6 PM"
      },
      {
        "day": "Friday",
        "hours": "9 AM to 6 PM"
      },
      {
        "day": "Saturday",
        "hours": "10 AM to 2 PM"
      },
      {
        "day": "Sunday",
        "hours": "Closed"
      }
    ],
    "peopleAlsoSearch": [],
    "placesTags": [],
    "reviewsTags": [],
    "additionalInfo": {
      "From the business": [
        {
          "Small business": true
        }
      ],
      "Service options": [
        {
          "Drive-through": true
        },
        {
          "In-store shopping": true
        },
        {
          "English": true
        }
      ],
      "Accessibility": [
        {
          "Wheelchair accessible entrance": true
        },
        {
          "Wheelchair accessible parking lot": true
        },
        {
          "Wheelchair accessible restroom": true
        }
      ],
      "Crowd": [
        {
          "LGBTQ+ friendly": true
        },
        {
          "Transgender safespace": true
        }
      ],
      "Planning": [
        {
          "Quick visit": true
        }
      ],
      "Payments": [
        {
          "Checks": true
        },
        {
          "Credit cards": true
        },
        {
          "Debit cards": true
        },
        {
          "NFC mobile payments": true
        },
        {
          "Credit cards": true
        }
      ],
      "Children": [
        {
          "Nursing room": true
        }
      ],
      "Parking": [
        {
          "Free parking lot": true
        }
      ]
    },
    "gasPrices": [],
    "url": "https://www.google.com/maps/search/?api=1&query=Unidos%20Pharmacy&query_place_id=ChIJmQBrlPLztocR1YXMy46Ji1o",
    "searchPageUrl": "https://www.google.com/maps/search/independent%20pharmacy%20Tulsa%20OK/@65.73786228335844,-142.75332010026844,9z?hl=en",
    "searchString": "independent pharmacy Tulsa OK",
    "language": "en",
    "rank": 10,
    "isAdvertisement": false,
    "imageUrl": "https://lh3.googleusercontent.com/p/AF1QipPDecnoeZvIW1NJO1W4AJAgB6bqVjxeVwlGEnqo=w408-h306-k-no",
    "kgmid": "/g/11l2x4d6w0"
  },
  {
    "title": "Ascension Rx Retail Pharmacy",
    "price": null,
    "categoryName": "Pharmacy",
    "address": "1923 S Utica Ave, Tulsa, OK 74104",
    "neighborhood": "Yorktown",
    "street": "1923 S Utica Ave",
    "city": "Tulsa",
    "postalCode": "74104",
    "state": "Oklahoma",
    "countryCode": "US",
    "website": "https://healthcare.ascension.org/locations/oklahoma/oktul/tulsa-ascension-st-john-medical-center/departments/pharmacy?utm_campaign=gmb&utm_medium=organic&utm_source=local",
    "phone": "(918) 748-7699",
    "phoneUnformatted": "+19187487699",
    "claimThisBusiness": false,
    "location": {
      "lat": 36.1341017,
      "lng": -95.9666058
    },
    "totalScore": 4.6,
    "permanentlyClosed": false,
    "temporarilyClosed": false,
    "placeId": "ChIJMSR3u9vttocRzC0m9iB4_4A",
    "categories": [
      "Pharmacy"
    ],
    "fid": "0x87b6eddbbb772431:0x80ff7820f6262dcc",
    "cid": "9295280238879976908",
    "reviewsCount": 12,
    "imagesCount": 1,
    "imageCategories": [],
    "scrapedAt": "2025-06-22T09:19:25.718Z",
    "googleFoodUrl": null,
    "hotelAds": [],
    "openingHours": [
      {
        "day": "Monday",
        "hours": "9 AM to 5 PM"
      },
      {
        "day": "Tuesday",
        "hours": "9 AM to 5 PM"
      },
      {
        "day": "Wednesday",
        "hours": "9 AM to 5 PM"
      },
      {
        "day": "Thursday",
        "hours": "9 AM to 5 PM"
      },
      {
        "day": "Friday",
        "hours": "9 AM to 5 PM"
      },
      {
        "day": "Saturday",
        "hours": "Closed"
      },
      {
        "day": "Sunday",
        "hours": "Closed"
      }
    ],
    "peopleAlsoSearch": [],
    "placesTags": [],
    "reviewsTags": [],
    "additionalInfo": {
      "Service options": [
        {
          "Curbside pickup": true
        },
        {
          "Delivery": true
        },
        {
          "In-store pickup": true
        },
        {
          "Onsite services": true
        }
      ],
      "Accessibility": [
        {
          "Wheelchair accessible entrance": true
        },
        {
          "Wheelchair accessible parking lot": true
        }
      ],
      "Payments": [
        {
          "Credit cards": true
        }
      ]
    },
    "gasPrices": [],
    "url": "https://www.google.com/maps/search/?api=1&query=Ascension%20Rx%20Retail%20Pharmacy&query_place_id=ChIJMSR3u9vttocRzC0m9iB4_4A",
    "searchPageUrl": "https://www.google.com/maps/search/independent%20pharmacy%20Tulsa%20OK/@65.73786228335844,-142.75332010026844,9z?hl=en",
    "searchString": "independent pharmacy Tulsa OK",
    "language": "en",
    "rank": 11,
    "isAdvertisement": false,
    "imageUrl": "https://lh3.googleusercontent.com/p/AF1QipOevHtYfAUuit10nmodJNt-KPLJZAbdpUmsL9eN=w408-h408-k-no",
    "kgmid": "/g/11sg5xnj0_"
  },
  {
    "title": "The Apothecary Shoppe",
    "price": null,
    "categoryName": "Pharmacy",
    "address": "6136 E 51st St, Tulsa, OK 74135",
    "neighborhood": "Key",
    "street": "6136 E 51st St",
    "city": "Tulsa",
    "postalCode": "74135",
    "state": "Oklahoma",
    "countryCode": "US",
    "website": "http://www.carefirstpharmacy.com/",
    "phone": "(918) 665-2003",
    "phoneUnformatted": "+19186652003",
    "claimThisBusiness": false,
    "location": {
      "lat": 36.0894879,
      "lng": -95.9057587
    },
    "totalScore": 4.5,
    "permanentlyClosed": false,
    "temporarilyClosed": false,
    "placeId": "ChIJRwYbx5uStocRSwfY2avBvWk",
    "categories": [
      "Pharmacy"
    ],
    "fid": "0x87b6929bc71b0647:0x69bdc1abd9d8074b",
    "cid": "7619459088419129163",
    "reviewsCount": 74,
    "imagesCount": 3,
    "imageCategories": [],
    "scrapedAt": "2025-06-22T09:19:25.718Z",
    "googleFoodUrl": null,
    "hotelAds": [],
    "openingHours": [
      {
        "day": "Monday",
        "hours": "9 AM to 6 PM"
      },
      {
        "day": "Tuesday",
        "hours": "9 AM to 6 PM"
      },
      {
        "day": "Wednesday",
        "hours": "9 AM to 6 PM"
      },
      {
        "day": "Thursday",
        "hours": "9 AM to 6 PM"
      },
      {
        "day": "Friday",
        "hours": "9 AM to 6 PM"
      },
      {
        "day": "Saturday",
        "hours": "Closed"
      },
      {
        "day": "Sunday",
        "hours": "Closed"
      }
    ],
    "peopleAlsoSearch": [],
    "placesTags": [],
    "reviewsTags": [],
    "additionalInfo": {
      "From the business": [
        {
          "Small business": true
        }
      ],
      "Service options": [
        {
          "Delivery": true
        },
        {
          "Onsite services": true
        }
      ],
      "Accessibility": [
        {
          "Wheelchair accessible entrance": true
        },
        {
          "Wheelchair accessible parking lot": true
        }
      ],
      "Planning": [
        {
          "Quick visit": true
        },
        {
          "Accepts walk-ins": true
        }
      ],
      "Payments": [
        {
          "Credit cards": true
        },
        {
          "Debit cards": true
        },
        {
          "NFC mobile payments": true
        },
        {
          "Credit cards": true
        }
      ],
      "Parking": [
        {
          "Free parking lot": true
        },
        {
          "On-site parking": true
        }
      ]
    },
    "gasPrices": [],
    "url": "https://www.google.com/maps/search/?api=1&query=The%20Apothecary%20Shoppe&query_place_id=ChIJRwYbx5uStocRSwfY2avBvWk",
    "searchPageUrl": "https://www.google.com/maps/search/independent%20pharmacy%20Tulsa%20OK/@65.73786228335844,-142.75332010026844,9z?hl=en",
    "searchString": "independent pharmacy Tulsa OK",
    "language": "en",
    "rank": 12,
    "isAdvertisement": false,
    "imageUrl": "https://lh3.googleusercontent.com/p/AF1QipM2c8mnEo2r_Hj_0hmcIYbL3iBCcRs-sJXOkQm5=w408-h408-k-no",
    "kgmid": "/g/1tdm8vcq"
  },
  {
    "title": "Economy Pharmacy Express",
    "price": null,
    "categoryName": "Pharmacy",
    "address": "10120 E 91st St, Tulsa, OK 74133",
    "neighborhood": null,
    "street": "10120 E 91st St",
    "city": "Tulsa",
    "postalCode": "74133",
    "state": "Oklahoma",
    "countryCode": "US",
    "website": "https://economypharmacy.com/",
    "phone": "(918) 615-3388",
    "phoneUnformatted": "+19186153388",
    "claimThisBusiness": false,
    "location": {
      "lat": 36.0315995,
      "lng": -95.8641407
    },
    "totalScore": 3.9,
    "permanentlyClosed": false,
    "temporarilyClosed": false,
    "placeId": "ChIJX7EDZ3iOtocReviZUdmqwx8",
    "categories": [
      "Pharmacy"
    ],
    "fid": "0x87b68e786703b15f:0x1fc3aad95199f87a",
    "cid": "2288860885988014202",
    "reviewsCount": 103,
    "imagesCount": 26,
    "imageCategories": [],
    "scrapedAt": "2025-06-22T09:19:25.718Z",
    "googleFoodUrl": null,
    "hotelAds": [],
    "openingHours": [
      {
        "day": "Monday",
        "hours": "9 AM to 6 PM"
      },
      {
        "day": "Tuesday",
        "hours": "9 AM to 6 PM"
      },
      {
        "day": "Wednesday",
        "hours": "9 AM to 6 PM"
      },
      {
        "day": "Thursday",
        "hours": "9 AM to 6 PM"
      },
      {
        "day": "Friday",
        "hours": "9 AM to 6 PM"
      },
      {
        "day": "Saturday",
        "hours": "Closed"
      },
      {
        "day": "Sunday",
        "hours": "Closed"
      }
    ],
    "peopleAlsoSearch": [],
    "placesTags": [],
    "reviewsTags": [],
    "additionalInfo": {
      "Service options": [
        {
          "Delivery": true
        },
        {
          "Drive-through": true
        },
        {
          "In-store pickup": true
        },
        {
          "In-store shopping": true
        },
        {
          "Onsite services": true
        },
        {
          "Same-day delivery": true
        }
      ],
      "Accessibility": [
        {
          "Wheelchair accessible entrance": true
        },
        {
          "Wheelchair accessible parking lot": true
        }
      ],
      "Planning": [
        {
          "Quick visit": true
        }
      ],
      "Payments": [
        {
          "Credit cards": true
        },
        {
          "Debit cards": true
        },
        {
          "NFC mobile payments": true
        },
        {
          "Credit cards": true
        }
      ]
    },
    "gasPrices": [],
    "url": "https://www.google.com/maps/search/?api=1&query=Economy%20Pharmacy%20Express&query_place_id=ChIJX7EDZ3iOtocReviZUdmqwx8",
    "searchPageUrl": "https://www.google.com/maps/search/independent%20pharmacy%20Tulsa%20OK/@65.73786228335844,-142.75332010026844,9z?hl=en",
    "searchString": "independent pharmacy Tulsa OK",
    "language": "en",
    "rank": 13,
    "isAdvertisement": false,
    "imageUrl": "https://lh3.googleusercontent.com/p/AF1QipM03_U3pAY34e6ZuRTXxwJMvmJDLByHNnlcrhw=w408-h245-k-no",
    "kgmid": "/g/1tdnxdxc"
  },
  {
    "title": "Quality First Pharmacy - Tulsa",
    "price": null,
    "categoryName": "Pharmacy",
    "address": "115 W 3rd St #820, Tulsa, OK 74103",
    "neighborhood": "Deco District",
    "street": "115 W 3rd St #820",
    "city": "Tulsa",
    "postalCode": "74103",
    "state": "Oklahoma",
    "countryCode": "US",
    "website": "http://qualityfirstpharmacy.com/",
    "phone": "(918) 585-3069",
    "phoneUnformatted": "+19185853069",
    "claimThisBusiness": false,
    "location": {
      "lat": 36.1529085,
      "lng": -95.9930699
    },
    "totalScore": 4.2,
    "permanentlyClosed": false,
    "temporarilyClosed": false,
    "placeId": "ChIJvUGpxHnrtocRSmZYFYoHrX4",
    "categories": [
      "Pharmacy"
    ],
    "fid": "0x87b6eb79c4a941bd:0x7ead078a1558664a",
    "cid": "9127960309394859594",
    "reviewsCount": 29,
    "imagesCount": 5,
    "imageCategories": [],
    "scrapedAt": "2025-06-22T09:19:25.719Z",
    "googleFoodUrl": null,
    "hotelAds": [],
    "openingHours": [
      {
        "day": "Monday",
        "hours": "8 AM to 6 PM"
      },
      {
        "day": "Tuesday",
        "hours": "8 AM to 6 PM"
      },
      {
        "day": "Wednesday",
        "hours": "8 AM to 6 PM"
      },
      {
        "day": "Thursday",
        "hours": "8 AM to 6 PM"
      },
      {
        "day": "Friday",
        "hours": "8 AM to 6 PM"
      },
      {
        "day": "Saturday",
        "hours": "Closed"
      },
      {
        "day": "Sunday",
        "hours": "Closed"
      }
    ],
    "peopleAlsoSearch": [],
    "placesTags": [],
    "reviewsTags": [],
    "additionalInfo": {
      "From the business": [
        {
          "Small business": true
        }
      ],
      "Service options": [
        {
          "Delivery": true
        }
      ],
      "Accessibility": [
        {
          "Wheelchair accessible entrance": true
        },
        {
          "Wheelchair accessible parking lot": true
        }
      ],
      "Offerings": [
        {
          "Medication disposal": true
        }
      ],
      "Payments": [
        {
          "Credit cards": true
        },
        {
          "Debit cards": true
        },
        {
          "Credit cards": true
        }
      ]
    },
    "gasPrices": [],
    "url": "https://www.google.com/maps/search/?api=1&query=Quality%20First%20Pharmacy%20-%20Tulsa&query_place_id=ChIJvUGpxHnrtocRSmZYFYoHrX4",
    "searchPageUrl": "https://www.google.com/maps/search/independent%20pharmacy%20Tulsa%20OK/@65.73786228335844,-142.75332010026844,9z?hl=en",
    "searchString": "independent pharmacy Tulsa OK",
    "language": "en",
    "rank": 14,
    "isAdvertisement": false,
    "imageUrl": "https://lh3.googleusercontent.com/p/AF1QipOoqgmqcXntUz8EEOajmx9T-WCtFDltwHpsEOZ_=w408-h271-k-no",
    "kgmid": "/g/1tkp5h7j"
  },
  {
    "title": "Equity Pharmacy",
    "price": null,
    "categoryName": "Pharmacy",
    "address": "1822 E 15th St STE C, Tulsa, OK 74104",
    "neighborhood": "Cherry Street",
    "street": "1822 E 15th St STE C",
    "city": "Tulsa",
    "postalCode": "74104",
    "state": "Oklahoma",
    "countryCode": "US",
    "website": "https://equityspecialtypharmacy.com/",
    "phone": "(918) 982-6229",
    "phoneUnformatted": "+19189826229",
    "claimThisBusiness": true,
    "location": {
      "lat": 36.1402542,
      "lng": -95.9648569
    },
    "totalScore": 5,
    "permanentlyClosed": false,
    "temporarilyClosed": false,
    "placeId": "ChIJb2WkcanttocRaSayscIfj4Y",
    "categories": [
      "Pharmacy"
    ],
    "fid": "0x87b6eda971a4656f:0x868f1fc2b1b22669",
    "cid": "9696003443817326185",
    "reviewsCount": 8,
    "imagesCount": 1,
    "imageCategories": [],
    "scrapedAt": "2025-06-22T09:19:25.719Z",
    "googleFoodUrl": null,
    "hotelAds": [],
    "openingHours": [
      {
        "day": "Monday",
        "hours": "9 AM to 5 PM"
      },
      {
        "day": "Tuesday",
        "hours": "9 AM to 5 PM"
      },
      {
        "day": "Wednesday",
        "hours": "9 AM to 5 PM"
      },
      {
        "day": "Thursday",
        "hours": "9 AM to 5 PM"
      },
      {
        "day": "Friday",
        "hours": "9 AM to 5 PM"
      },
      {
        "day": "Saturday",
        "hours": "Closed"
      },
      {
        "day": "Sunday",
        "hours": "Closed"
      }
    ],
    "additionalOpeningHours": {
      "Delivery": [
        {
          "day": "Monday",
          "hours": "Closed"
        },
        {
          "day": "Tuesday",
          "hours": "Closed"
        },
        {
          "day": "Wednesday",
          "hours": "Closed"
        },
        {
          "day": "Thursday",
          "hours": "Closed"
        },
        {
          "day": "Friday",
          "hours": "Closed"
        },
        {
          "day": "Saturday",
          "hours": "9 AM–5 PM"
        },
        {
          "day": "Sunday",
          "hours": "9 AM–5 PM"
        }
      ]
    },
    "peopleAlsoSearch": [],
    "placesTags": [],
    "reviewsTags": [],
    "additionalInfo": {
      "From the business": [
        {
          "Small business": true
        }
      ],
      "Service options": [
        {
          "Delivery": true
        }
      ],
      "Accessibility": [
        {
          "Wheelchair accessible entrance": true
        },
        {
          "Wheelchair accessible parking lot": true
        }
      ],
      "Crowd": [
        {
          "LGBTQ+ friendly": true
        },
        {
          "Transgender safespace": true
        }
      ],
      "Payments": [
        {
          "Credit cards": true
        },
        {
          "Credit cards": true
        }
      ]
    },
    "gasPrices": [],
    "url": "https://www.google.com/maps/search/?api=1&query=Equity%20Pharmacy&query_place_id=ChIJb2WkcanttocRaSayscIfj4Y",
    "searchPageUrl": "https://www.google.com/maps/search/independent%20pharmacy%20Tulsa%20OK/@65.73786228335844,-142.75332010026844,9z?hl=en",
    "searchString": "independent pharmacy Tulsa OK",
    "language": "en",
    "rank": 15,
    "isAdvertisement": false,
    "imageUrl": "https://streetviewpixels-pa.googleapis.com/v1/thumbnail?panoid=Cxw9jaceqJrntGP0HQUPOA&cb_client=search.gws-prod.gps&w=408&h=240&yaw=170.58754&pitch=0&thumbfov=100",
    "kgmid": "/g/11l1yl4f3p"
  },
  {
    "title": "Schusterman Center - Pharmacy",
    "price": null,
    "categoryName": "Pharmacy",
    "address": "4444 E 41st St, Tulsa, OK 74135",
    "neighborhood": "Patrick Henry",
    "street": "4444 E 41st St",
    "city": "Tulsa",
    "postalCode": "74135",
    "state": "Oklahoma",
    "countryCode": "US",
    "website": "https://www.ouhealth.com/find-a-location/schusterman-center/",
    "phone": "(918) 619-4990",
    "phoneUnformatted": "+19186194990",
    "claimThisBusiness": false,
    "location": {
      "lat": 36.1026522,
      "lng": -95.9260291
    },
    "totalScore": 5,
    "permanentlyClosed": false,
    "temporarilyClosed": false,
    "placeId": "ChIJa5NevMWStocRRL7bTrxXX8o",
    "categories": [
      "Pharmacy"
    ],
    "fid": "0x87b692c5bc5e936b:0xca5f57bc4edbbe44",
    "cid": "14582470584737447492",
    "reviewsCount": 13,
    "imagesCount": 2,
    "imageCategories": [],
    "scrapedAt": "2025-06-22T09:19:25.719Z",
    "googleFoodUrl": null,
    "hotelAds": [],
    "openingHours": [
      {
        "day": "Monday",
        "hours": "8:30 AM to 5:30 PM"
      },
      {
        "day": "Tuesday",
        "hours": "8:30 AM to 5:30 PM"
      },
      {
        "day": "Wednesday",
        "hours": "8:30 AM to 5:30 PM"
      },
      {
        "day": "Thursday",
        "hours": "8:30 AM to 5:30 PM"
      },
      {
        "day": "Friday",
        "hours": "8:30 AM to 5:30 PM"
      },
      {
        "day": "Saturday",
        "hours": "Closed"
      },
      {
        "day": "Sunday",
        "hours": "Closed"
      }
    ],
    "peopleAlsoSearch": [],
    "placesTags": [],
    "reviewsTags": [],
    "additionalInfo": {
      "Accessibility": [
        {
          "Wheelchair accessible entrance": true
        },
        {
          "Wheelchair accessible parking lot": true
        }
      ],
      "Payments": [
        {
          "Credit cards": true
        }
      ]
    },
    "gasPrices": [],
    "url": "https://www.google.com/maps/search/?api=1&query=Schusterman%20Center%20-%20Pharmacy&query_place_id=ChIJa5NevMWStocRRL7bTrxXX8o",
    "searchPageUrl": "https://www.google.com/maps/search/independent%20pharmacy%20Tulsa%20OK/@65.73786228335844,-142.75332010026844,9z?hl=en",
    "searchString": "independent pharmacy Tulsa OK",
    "language": "en",
    "rank": 16,
    "isAdvertisement": false,
    "imageUrl": "https://streetviewpixels-pa.googleapis.com/v1/thumbnail?panoid=rzBDrw4ZxovkBU9wJ_QQpQ&cb_client=search.gws-prod.gps&w=408&h=240&yaw=274.13174&pitch=0&thumbfov=100",
    "kgmid": "/g/1263v3ldy"
  },
  {
    "title": "GenScripts Pharmacy Bixby / South Tulsa",
    "price": null,
    "categoryName": "Pharmacy",
    "address": "10827 S Memorial Dr, Tulsa, OK 74133",
    "neighborhood": null,
    "street": "10827 S Memorial Dr",
    "city": "Tulsa",
    "postalCode": "74133",
    "state": "Oklahoma",
    "countryCode": "US",
    "website": "https://www.genscripts.com/",
    "phone": "(918) 921-7737",
    "phoneUnformatted": "+19189217737",
    "claimThisBusiness": false,
    "location": {
      "lat": 36.0070836,
      "lng": -95.885927
    },
    "totalScore": 5,
    "permanentlyClosed": false,
    "temporarilyClosed": false,
    "placeId": "ChIJtxZIB6WPtocRmxfYqwnuwfw",
    "categories": [
      "Pharmacy",
      "Drug store",
      "Medical equipment supplier",
      "Medical supply store",
      "Veterinary pharmacy"
    ],
    "fid": "0x87b68fa5074816b7:0xfcc1ee09abd8179b",
    "cid": "18213100093368178587",
    "reviewsCount": 125,
    "imagesCount": 41,
    "imageCategories": [],
    "scrapedAt": "2025-06-22T09:19:25.719Z",
    "googleFoodUrl": null,
    "hotelAds": [],
    "openingHours": [
      {
        "day": "Monday",
        "hours": "9 AM to 6 PM"
      },
      {
        "day": "Tuesday",
        "hours": "9 AM to 6 PM"
      },
      {
        "day": "Wednesday",
        "hours": "9 AM to 6 PM"
      },
      {
        "day": "Thursday",
        "hours": "9 AM to 6 PM"
      },
      {
        "day": "Friday",
        "hours": "9 AM to 6 PM"
      },
      {
        "day": "Saturday",
        "hours": "Closed"
      },
      {
        "day": "Sunday",
        "hours": "Closed"
      }
    ],
    "peopleAlsoSearch": [],
    "placesTags": [],
    "reviewsTags": [],
    "additionalInfo": {
      "From the business": [
        {
          "Small business": true
        }
      ],
      "Service options": [
        {
          "Delivery": true
        },
        {
          "Drive-through": true
        },
        {
          "In-store pickup": true
        },
        {
          "In-store shopping": true
        },
        {
          "Onsite services": true
        },
        {
          "Same-day delivery": true
        }
      ],
      "Accessibility": [
        {
          "Wheelchair accessible entrance": true
        },
        {
          "Wheelchair accessible parking lot": true
        }
      ],
      "Payments": [
        {
          "Credit cards": true
        },
        {
          "Debit cards": true
        },
        {
          "NFC mobile payments": true
        },
        {
          "Credit cards": true
        }
      ]
    },
    "gasPrices": [],
    "url": "https://www.google.com/maps/search/?api=1&query=GenScripts%20Pharmacy%20Bixby%20%2F%20South%20Tulsa&query_place_id=ChIJtxZIB6WPtocRmxfYqwnuwfw",
    "searchPageUrl": "https://www.google.com/maps/search/independent%20pharmacy%20Tulsa%20OK/@65.73786228335844,-142.75332010026844,9z?hl=en",
    "searchString": "independent pharmacy Tulsa OK",
    "language": "en",
    "rank": 17,
    "isAdvertisement": false,
    "imageUrl": "https://lh3.googleusercontent.com/p/AF1QipM5bpeMnispEvyX1MRiqig7t1GURwK5-CQNmtdx=w408-h408-k-no",
    "kgmid": "/g/11f9x61t5x"
  },
  {
    "title": "LDI Integrated Pharmacy",
    "price": null,
    "categoryName": "Pharmacy",
    "address": "9175 S Yale Ave STE 200, Tulsa, OK 74137",
    "neighborhood": null,
    "street": "9175 S Yale Ave STE 200",
    "city": "Tulsa",
    "postalCode": "74137",
    "state": "Oklahoma",
    "countryCode": "US",
    "phone": "(918) 488-8898",
    "phoneUnformatted": "+19184888898",
    "claimThisBusiness": true,
    "location": {
      "lat": 36.0301203,
      "lng": -95.9213594
    },
    "permanentlyClosed": false,
    "temporarilyClosed": true,
    "placeId": "ChIJe6swn4qRtocRHp9-C2Vp4zE",
    "categories": [
      "Pharmacy"
    ],
    "fid": "0x87b6918a9f30ab7b:0x31e369650b7e9f1e",
    "cid": "3594832810277248798",
    "reviewsCount": 0,
    "imagesCount": 1,
    "imageCategories": [],
    "scrapedAt": "2025-06-22T09:19:25.719Z",
    "googleFoodUrl": null,
    "hotelAds": [],
    "openingHours": [],
    "peopleAlsoSearch": [],
    "placesTags": [],
    "reviewsTags": [],
    "gasPrices": [],
    "url": "https://www.google.com/maps/search/?api=1&query=LDI%20Integrated%20Pharmacy&query_place_id=ChIJe6swn4qRtocRHp9-C2Vp4zE",
    "searchPageUrl": "https://www.google.com/maps/search/independent%20pharmacy%20Tulsa%20OK/@65.73786228335844,-142.75332010026844,9z?hl=en",
    "searchString": "independent pharmacy Tulsa OK",
    "language": "en",
    "rank": 18,
    "isAdvertisement": false,
    "imageUrl": "https://streetviewpixels-pa.googleapis.com/v1/thumbnail?panoid=DURp03mF-aS_IkZK2SKVTw&cb_client=search.gws-prod.gps&w=408&h=240&yaw=116.39868&pitch=0&thumbfov=100",
    "kgmid": "/g/1vmr1x1j"
  },
  {
    "title": "Providence RX Pharmacy",
    "price": null,
    "categoryName": "Pharmacy",
    "address": "7302 S Yale Ave #101, Tulsa, OK 74136",
    "neighborhood": "Southridge Estate",
    "street": "7302 S Yale Ave #101",
    "city": "Tulsa",
    "postalCode": "74136",
    "state": "Oklahoma",
    "countryCode": "US",
    "website": "http://providencerx.com/",
    "phone": "(918) 392-3366",
    "phoneUnformatted": "+19183923366",
    "claimThisBusiness": false,
    "location": {
      "lat": 36.057033,
      "lng": -95.923803
    },
    "totalScore": 3.7,
    "permanentlyClosed": false,
    "temporarilyClosed": false,
    "placeId": "ChIJ-XvCv0WTtocRmMK3EIB17CU",
    "categories": [
      "Pharmacy",
      "Medical laboratory"
    ],
    "fid": "0x87b69345bfc27bf9:0x25ec758010b7c298",
    "cid": "2732688266803790488",
    "reviewsCount": 7,
    "imagesCount": 3,
    "imageCategories": [],
    "scrapedAt": "2025-06-22T09:19:29.684Z",
    "googleFoodUrl": null,
    "hotelAds": [],
    "openingHours": [
      {
        "day": "Monday",
        "hours": "8 AM to 6 PM"
      },
      {
        "day": "Tuesday",
        "hours": "8 AM to 6 PM"
      },
      {
        "day": "Wednesday",
        "hours": "8 AM to 5 PM"
      },
      {
        "day": "Thursday",
        "hours": "8 AM to 5 PM"
      },
      {
        "day": "Friday",
        "hours": "8 AM to 1 PM"
      },
      {
        "day": "Saturday",
        "hours": "Closed"
      },
      {
        "day": "Sunday",
        "hours": "Closed"
      }
    ],
    "peopleAlsoSearch": [],
    "placesTags": [],
    "reviewsTags": [],
    "additionalInfo": {
      "From the business": [
        {
          "Small business": true
        }
      ],
      "Service options": [
        {
          "Delivery": true
        },
        {
          "In-store pickup": true
        },
        {
          "Same-day delivery": true
        }
      ],
      "Accessibility": [
        {
          "Wheelchair accessible entrance": true
        },
        {
          "Wheelchair accessible parking lot": true
        }
      ],
      "Payments": [
        {
          "Credit cards": true
        },
        {
          "Debit cards": true
        },
        {
          "Credit cards": true
        }
      ]
    },
    "gasPrices": [],
    "url": "https://www.google.com/maps/search/?api=1&query=Providence%20RX%20Pharmacy&query_place_id=ChIJ-XvCv0WTtocRmMK3EIB17CU",
    "searchPageUrl": "https://www.google.com/maps/search/independent%20pharmacy%20Tulsa%20OK/@-0.010408262428264635,-176.4093280276943,13z?hl=en",
    "searchString": "independent pharmacy Tulsa OK",
    "language": "en",
    "rank": 18,
    "isAdvertisement": false,
    "imageUrl": "https://lh3.googleusercontent.com/p/AF1QipOStgOfwxDMZxOhMqjs0qYzXVOMSWBQ91siWGdT=w408-h306-k-no",
    "kgmid": "/g/11h11c564z"
  },
  {
    "title": "Tulsa County Pharmacy",
    "price": null,
    "categoryName": "Pharmacy",
    "address": "2401 Charles Page Blvd, Tulsa, OK 74127",
    "neighborhood": "Irving",
    "street": "2401 Charles Page Blvd",
    "city": "Tulsa",
    "postalCode": "74127",
    "state": "Oklahoma",
    "countryCode": "US",
    "website": "https://www2.tulsacounty.org/government/departments-offices/social-services/?fbclid=IwY2xjawEiLTlleHRuA2FlbQIxMAABHbq7VJngEGICNrCib8Q211cONZpxCf1zoGsKdpTQ3t4B5KM1wb9WHkcyOA_aem_CRB3z7Ucoi8lHEd3VYMi6A",
    "phone": "(918) 596-5560",
    "phoneUnformatted": "+19185965560",
    "claimThisBusiness": false,
    "location": {
      "lat": 36.1523852,
      "lng": -96.0192781
    },
    "totalScore": 4.3,
    "permanentlyClosed": false,
    "temporarilyClosed": false,
    "placeId": "ChIJ1-On6wbrtocRTaS55k6E80s",
    "categories": [
      "Pharmacy"
    ],
    "fid": "0x87b6eb06eba7e3d7:0x4bf3844ee6b9a44d",
    "cid": "5472863446598526029",
    "reviewsCount": 10,
    "imagesCount": 9,
    "imageCategories": [],
    "scrapedAt": "2025-06-22T09:19:29.684Z",
    "googleFoodUrl": null,
    "hotelAds": [],
    "openingHours": [
      {
        "day": "Monday",
        "hours": "8:30 AM to 12:30 PM, 1:30 to 4:30 PM"
      },
      {
        "day": "Tuesday",
        "hours": "8:30 AM to 12:30 PM, 1:30 to 4:30 PM"
      },
      {
        "day": "Wednesday",
        "hours": "8:30 AM to 12:30 PM, 1:30 to 4:30 PM"
      },
      {
        "day": "Thursday",
        "hours": "8:30 AM to 12:30 PM, 1:30 to 4:30 PM"
      },
      {
        "day": "Friday",
        "hours": "8:30 AM to 12:30 PM, 1:30 to 4:30 PM"
      },
      {
        "day": "Saturday",
        "hours": "Closed"
      },
      {
        "day": "Sunday",
        "hours": "Closed"
      }
    ],
    "peopleAlsoSearch": [],
    "placesTags": [],
    "reviewsTags": [],
    "additionalInfo": {
      "Accessibility": [
        {
          "Wheelchair accessible entrance": true
        },
        {
          "Wheelchair accessible parking lot": true
        }
      ],
      "Payments": [
        {
          "Cash-only": true
        },
        {
          "Checks": true
        }
      ]
    },
    "gasPrices": [],
    "url": "https://www.google.com/maps/search/?api=1&query=Tulsa%20County%20Pharmacy&query_place_id=ChIJ1-On6wbrtocRTaS55k6E80s",
    "searchPageUrl": "https://www.google.com/maps/search/independent%20pharmacy%20Tulsa%20OK/@-0.010408262428264635,-176.4093280276943,13z?hl=en",
    "searchString": "independent pharmacy Tulsa OK",
    "language": "en",
    "rank": 19,
    "isAdvertisement": false,
    "imageUrl": "https://lh3.googleusercontent.com/p/AF1QipOox2mguNTNRnHxsMPPqgOBFCH5ij3m5kJYaJY2=w408-h271-k-no",
    "kgmid": "/g/11bt_jpczk"
  }
]