[
  {
    "title": "Genesis Specialty Pharmacy at Genesis Medical Center, Davenport, East Rusholme Street",
    "price": null,
    "categoryName": "Pharmacy",
    "address": "1227 E Rusholme St, Davenport, IA 52803",
    "neighborhood": null,
    "street": "1227 E Rusholme St",
    "city": "Davenport",
    "postalCode": "52803",
    "state": "Iowa",
    "countryCode": "US",
    "website": "https://www.genesishealth.com/facilities/location-public-profile/firstmed-pharmacy-genesis-medical-center-east/",
    "phone": "(563) 421-6366",
    "phoneUnformatted": "+15634216366",
    "claimThisBusiness": false,
    "location": {
      "lat": 41.5416771,
      "lng": -90.5566563
    },
    "totalScore": 5,
    "permanentlyClosed": false,
    "temporarilyClosed": false,
    "placeId": "ChIJCQARr1004ocRXdCgSl6W-GQ",
    "categories": [
      "Pharmacy"
    ],
    "fid": "0x87e2345daf110009:0x64f8965e4aa0d05d",
    "cid": "7275730529740181597",
    "reviewsCount": 3,
    "imagesCount": 2,
    "imageCategories": [],
    "scrapedAt": "2025-06-22T07:53:58.010Z",
    "googleFoodUrl": null,
    "hotelAds": [],
    "openingHours": [
      {
        "day": "Monday",
        "hours": "8:30 AM to 6 PM"
      },
      {
        "day": "Tuesday",
        "hours": "8:30 AM to 6 PM"
      },
      {
        "day": "Wednesday",
        "hours": "8:30 AM to 6 PM"
      },
      {
        "day": "Thursday",
        "hours": "8:30 AM to 6 PM"
      },
      {
        "day": "Friday",
        "hours": "8:30 AM to 6 PM"
      },
      {
        "day": "Saturday",
        "hours": "Closed"
      },
      {
        "day": "Sunday",
        "hours": "Closed"
      }
    ],
    "peopleAlsoSearch": [],
    "placesTags": [],
    "reviewsTags": [],
    "additionalInfo": {
      "Accessibility": [
        {
          "Wheelchair accessible entrance": true
        },
        {
          "Wheelchair accessible parking lot": true
        }
      ],
      "Payments": [
        {
          "Credit cards": true
        }
      ]
    },
    "gasPrices": [],
    "url": "https://www.google.com/maps/search/?api=1&query=Genesis%20Specialty%20Pharmacy%20at%20Genesis%20Medical%20Center%2C%20Davenport%2C%20East%20Rusholme%20Street&query_place_id=ChIJCQARr1004ocRXdCgSl6W-GQ",
    "searchPageUrl": "https://www.google.com/maps/search/independent%20pharmacy%20Davenport%20IA/@22.997052500944864,-161.85289204136058,13z?hl=en",
    "searchString": "independent pharmacy Davenport IA",
    "language": "en",
    "rank": 1,
    "isAdvertisement": false,
    "imageUrl": "https://lh3.googleusercontent.com/p/AF1QipN5JuBObOKLj8gy3gxNX-nh3Hv6QeMQFt0ED8k1=w425-h240-k-no",
    "kgmid": "/g/1tdpgrlq"
  },
  {
    "title": "Main at Locust Pharmacy Clinic and Medical Supplies",
    "price": null,
    "categoryName": "Pharmacy",
    "address": "129 W Locust St, Davenport, IA 52803",
    "neighborhood": null,
    "street": "129 W Locust St",
    "city": "Davenport",
    "postalCode": "52803",
    "state": "Iowa",
    "countryCode": "US",
    "website": "http://www.mainatlocust.com/",
    "phone": "(563) 324-1641",
    "phoneUnformatted": "+15633241641",
    "claimThisBusiness": false,
    "location": {
      "lat": 41.5380724,
      "lng": -90.5751785
    },
    "totalScore": 4.3,
    "permanentlyClosed": false,
    "temporarilyClosed": false,
    "placeId": "ChIJOScW7JI04ocRbTrWTnXRkGY",
    "categories": [
      "Pharmacy",
      "Medical clinic",
      "Medical supply store"
    ],
    "fid": "0x87e23492ec162739:0x6690d1754ed63a6d",
    "cid": "7390637290279025261",
    "reviewsCount": 61,
    "imagesCount": 3,
    "imageCategories": [],
    "scrapedAt": "2025-06-22T07:53:58.011Z",
    "googleFoodUrl": null,
    "hotelAds": [],
    "openingHours": [
      {
        "day": "Monday",
        "hours": "9 AM to 5:30 PM"
      },
      {
        "day": "Tuesday",
        "hours": "9 AM to 5:30 PM"
      },
      {
        "day": "Wednesday",
        "hours": "9 AM to 5:30 PM"
      },
      {
        "day": "Thursday",
        "hours": "9 AM to 5:30 PM"
      },
      {
        "day": "Friday",
        "hours": "9 AM to 5:30 PM"
      },
      {
        "day": "Saturday",
        "hours": "9 AM to 2 PM"
      },
      {
        "day": "Sunday",
        "hours": "Closed"
      }
    ],
    "peopleAlsoSearch": [],
    "placesTags": [],
    "reviewsTags": [],
    "additionalInfo": {
      "Service options": [
        {
          "Delivery": true
        },
        {
          "In-store pickup": true
        },
        {
          "Same-day delivery": true
        }
      ],
      "Accessibility": [
        {
          "Wheelchair accessible entrance": true
        },
        {
          "Wheelchair accessible parking lot": true
        }
      ],
      "Offerings": [
        {
          "Medication disposal": true
        }
      ],
      "Planning": [
        {
          "Quick visit": true
        }
      ],
      "Payments": [
        {
          "Credit cards": true
        },
        {
          "Debit cards": true
        },
        {
          "NFC mobile payments": true
        },
        {
          "Credit cards": true
        }
      ]
    },
    "gasPrices": [],
    "url": "https://www.google.com/maps/search/?api=1&query=Main%20at%20Locust%20Pharmacy%20Clinic%20and%20Medical%20Supplies&query_place_id=ChIJOScW7JI04ocRbTrWTnXRkGY",
    "searchPageUrl": "https://www.google.com/maps/search/independent%20pharmacy%20Davenport%20IA/@22.997052500944864,-161.85289204136058,13z?hl=en",
    "searchString": "independent pharmacy Davenport IA",
    "language": "en",
    "rank": 2,
    "isAdvertisement": false,
    "imageUrl": "https://lh3.googleusercontent.com/gps-cs-s/AC9h4noRuu7G9BdXXh99cx3B_XCnVAbdvwGHpD3hvoZ2NAO0UGofKf1e_E5rG8bIans0RRMUuNxYYe2AGypG3GKu1GTbE3fHY_lWDuygMG5pNtwq-5OmHn81HGgCy68dTLaJJw=w408-h725-k-no",
    "kgmid": "/g/1th6fd14"
  },
  {
    "title": "Genoa Healthcare",
    "price": null,
    "categoryName": "Pharmacy",
    "address": "1441 W Central Park Ave Suite 53, Davenport, IA 52804",
    "neighborhood": null,
    "street": "1441 W Central Park Ave Suite 53",
    "city": "Davenport",
    "postalCode": "52804",
    "state": "Iowa",
    "countryCode": "US",
    "website": "http://www.genoahealthcare.com/",
    "phone": "(563) 265-6955",
    "phoneUnformatted": "+15632656955",
    "claimThisBusiness": false,
    "location": {
      "lat": 41.544844,
      "lng": -90.5951331
    },
    "totalScore": 4.2,
    "permanentlyClosed": false,
    "temporarilyClosed": false,
    "placeId": "ChIJ_xojfTU14ocRvxzPZ3omVUw",
    "categories": [
      "Pharmacy"
    ],
    "fid": "0x87e235357d231aff:0x4c55267a67cf1cbf",
    "cid": "5500344827072421055",
    "reviewsCount": 5,
    "imagesCount": 1,
    "imageCategories": [],
    "scrapedAt": "2025-06-22T07:53:58.012Z",
    "googleFoodUrl": null,
    "hotelAds": [],
    "openingHours": [
      {
        "day": "Monday",
        "hours": "8 AM to 4:30 PM"
      },
      {
        "day": "Tuesday",
        "hours": "8 AM to 4:30 PM"
      },
      {
        "day": "Wednesday",
        "hours": "8 AM to 4:30 PM"
      },
      {
        "day": "Thursday",
        "hours": "8 AM to 4:30 PM"
      },
      {
        "day": "Friday",
        "hours": "8 AM to 4:30 PM"
      },
      {
        "day": "Saturday",
        "hours": "Closed"
      },
      {
        "day": "Sunday",
        "hours": "Closed"
      }
    ],
    "peopleAlsoSearch": [],
    "placesTags": [],
    "reviewsTags": [],
    "additionalInfo": {
      "Accessibility": [
        {
          "Wheelchair accessible entrance": true
        },
        {
          "Wheelchair accessible parking lot": true
        }
      ]
    },
    "gasPrices": [],
    "url": "https://www.google.com/maps/search/?api=1&query=Genoa%20Healthcare&query_place_id=ChIJ_xojfTU14ocRvxzPZ3omVUw",
    "searchPageUrl": "https://www.google.com/maps/search/independent%20pharmacy%20Davenport%20IA/@22.997052500944864,-161.85289204136058,13z?hl=en",
    "searchString": "independent pharmacy Davenport IA",
    "language": "en",
    "rank": 4,
    "isAdvertisement": false,
    "imageUrl": "https://streetviewpixels-pa.googleapis.com/v1/thumbnail?panoid=0iJBCkFp56nXs7RCjAGdSw&cb_client=search.gws-prod.gps&w=408&h=240&yaw=179.4556&pitch=0&thumbfov=100",
    "kgmid": "/g/11gt_vjs8z"
  },
  {
    "title": "AmiCare Pharmacy",
    "price": null,
    "categoryName": "Pharmacy",
    "address": "3740 Utica Ridge Rd, Bettendorf, IA 52722",
    "neighborhood": null,
    "street": "3740 Utica Ridge Rd",
    "city": "Bettendorf",
    "postalCode": "52722",
    "state": "Iowa",
    "countryCode": "US",
    "website": "http://www.amicarepharmacy.com/",
    "phone": "(563) 344-7450",
    "phoneUnformatted": "+15633447450",
    "claimThisBusiness": false,
    "location": {
      "lat": 41.559691,
      "lng": -90.517929
    },
    "totalScore": 4.9,
    "permanentlyClosed": false,
    "temporarilyClosed": false,
    "placeId": "ChIJteB1g4c24ocReEwTD6HHFiM",
    "categories": [
      "Pharmacy"
    ],
    "fid": "0x87e236878375e0b5:0x2316c7a10f134c78",
    "cid": "2528427735371697272",
    "reviewsCount": 14,
    "imagesCount": 1,
    "imageCategories": [],
    "scrapedAt": "2025-06-22T07:53:58.012Z",
    "googleFoodUrl": null,
    "hotelAds": [],
    "openingHours": [
      {
        "day": "Monday",
        "hours": "8:30 AM to 5:30 PM"
      },
      {
        "day": "Tuesday",
        "hours": "8:30 AM to 5:30 PM"
      },
      {
        "day": "Wednesday",
        "hours": "8:30 AM to 5:30 PM"
      },
      {
        "day": "Thursday",
        "hours": "8:30 AM to 5:30 PM"
      },
      {
        "day": "Friday",
        "hours": "8:30 AM to 5:30 PM"
      },
      {
        "day": "Saturday",
        "hours": "9 AM to 12 PM"
      },
      {
        "day": "Sunday",
        "hours": "Closed"
      }
    ],
    "peopleAlsoSearch": [],
    "placesTags": [],
    "reviewsTags": [],
    "additionalInfo": {
      "From the business": [
        {
          "Small business": true
        }
      ],
      "Service options": [
        {
          "Delivery": true
        },
        {
          "In-store pickup": true
        }
      ],
      "Accessibility": [
        {
          "Wheelchair accessible entrance": true
        },
        {
          "Wheelchair accessible parking lot": true
        }
      ],
      "Planning": [
        {
          "Quick visit": true
        }
      ],
      "Payments": [
        {
          "Credit cards": true
        },
        {
          "Debit cards": true
        },
        {
          "NFC mobile payments": true
        },
        {
          "Credit cards": true
        }
      ]
    },
    "gasPrices": [],
    "url": "https://www.google.com/maps/search/?api=1&query=AmiCare%20Pharmacy&query_place_id=ChIJteB1g4c24ocReEwTD6HHFiM",
    "searchPageUrl": "https://www.google.com/maps/search/independent%20pharmacy%20Davenport%20IA/@22.997052500944864,-161.85289204136058,13z?hl=en",
    "searchString": "independent pharmacy Davenport IA",
    "language": "en",
    "rank": 5,
    "isAdvertisement": false,
    "imageUrl": "https://streetviewpixels-pa.googleapis.com/v1/thumbnail?panoid=tz6cuagruINhQqwyfByGNw&cb_client=search.gws-prod.gps&w=408&h=240&yaw=227.673&pitch=0&thumbfov=100",
    "kgmid": "/g/1vh_8y5r"
  },
  {
    "title": "Hot Shots Pharmacy",
    "price": null,
    "categoryName": "Pharmacy",
    "address": "2017 E Kimberly Rd, Davenport, IA 52807",
    "neighborhood": null,
    "street": "2017 E Kimberly Rd",
    "city": "Davenport",
    "postalCode": "52807",
    "state": "Iowa",
    "countryCode": "US",
    "website": "https://www.radiopharmacy.com/locations",
    "phone": "(563) 391-9991",
    "phoneUnformatted": "+15633919991",
    "claimThisBusiness": true,
    "location": {
      "lat": 41.5562108,
      "lng": -90.5467682
    },
    "permanentlyClosed": false,
    "temporarilyClosed": false,
    "placeId": "ChIJT40VSko04ocRxN3MHRKk5sc",
    "categories": [
      "Pharmacy"
    ],
    "fid": "0x87e2344a4a158d4f:0xc7e6a4121dccddc4",
    "cid": "14404380855907442116",
    "reviewsCount": 0,
    "imagesCount": 1,
    "imageCategories": [],
    "scrapedAt": "2025-06-22T07:53:58.012Z",
    "googleFoodUrl": null,
    "hotelAds": [],
    "openingHours": [],
    "peopleAlsoSearch": [],
    "placesTags": [],
    "reviewsTags": [],
    "additionalInfo": {
      "From the business": [
        {
          "Small business": true
        }
      ],
      "Accessibility": [
        {
          "Wheelchair accessible entrance": true
        },
        {
          "Wheelchair accessible parking lot": true
        }
      ]
    },
    "gasPrices": [],
    "url": "https://www.google.com/maps/search/?api=1&query=Hot%20Shots%20Pharmacy&query_place_id=ChIJT40VSko04ocRxN3MHRKk5sc",
    "searchPageUrl": "https://www.google.com/maps/search/independent%20pharmacy%20Davenport%20IA/@22.997052500944864,-161.85289204136058,13z?hl=en",
    "searchString": "independent pharmacy Davenport IA",
    "language": "en",
    "rank": 6,
    "isAdvertisement": false,
    "imageUrl": "https://streetviewpixels-pa.googleapis.com/v1/thumbnail?panoid=lkezamdbroj4qDidhRxerQ&cb_client=search.gws-prod.gps&w=408&h=240&yaw=75.254814&pitch=0&thumbfov=100",
    "kgmid": "/g/1263lys_y"
  },
  {
    "title": "Hy-Vee Pharmacy",
    "price": "$$",
    "categoryName": "Pharmacy",
    "address": "1823 E Kimberly Rd, Davenport, IA 52807",
    "neighborhood": null,
    "street": "1823 E Kimberly Rd",
    "city": "Davenport",
    "postalCode": "52807",
    "state": "Iowa",
    "countryCode": "US",
    "website": "https://www.hy-vee.com/my-pharmacy/pharmacy-finder/davenport-3-1823-e-kimberly-rd-davenport-ia/1107?utm_source=google&utm_medium=organic&utm_campaign=gmb-listing",
    "phone": "(563) 359-5313",
    "phoneUnformatted": "+15633595313",
    "claimThisBusiness": false,
    "location": {
      "lat": 41.5548649,
      "lng": -90.5486873
    },
    "totalScore": 4.4,
    "permanentlyClosed": false,
    "temporarilyClosed": false,
    "placeId": "ChIJw8wT-0s04ocROFYlkIEVcto",
    "categories": [
      "Pharmacy",
      "Drug store",
      "Herbal medicine store",
      "Homeopathic pharmacy",
      "Local medical services",
      "Medical Center",
      "Organic drug store",
      "Pharmaceutical company",
      "Pharmaceutical lab",
      "Toiletries store"
    ],
    "fid": "0x87e2344bfb13ccc3:0xda72158190255638",
    "cid": "15740667293826635320",
    "reviewsCount": 13,
    "imagesCount": 10,
    "imageCategories": [],
    "scrapedAt": "2025-06-22T07:53:58.012Z",
    "googleFoodUrl": null,
    "hotelAds": [],
    "openingHours": [
      {
        "day": "Monday",
        "hours": "8 AM to 8 PM"
      },
      {
        "day": "Tuesday",
        "hours": "8 AM to 8 PM"
      },
      {
        "day": "Wednesday",
        "hours": "8 AM to 8 PM"
      },
      {
        "day": "Thursday",
        "hours": "8 AM to 8 PM"
      },
      {
        "day": "Friday",
        "hours": "8 AM to 8 PM"
      },
      {
        "day": "Saturday",
        "hours": "9 AM to 6 PM"
      },
      {
        "day": "Sunday",
        "hours": "10 AM to 6 PM"
      }
    ],
    "peopleAlsoSearch": [],
    "placesTags": [],
    "reviewsTags": [],
    "additionalInfo": {
      "Service options": [
        {
          "Delivery": true
        },
        {
          "Drive-through": true
        },
        {
          "In-store pickup": true
        }
      ],
      "Accessibility": [
        {
          "Wheelchair accessible entrance": true
        },
        {
          "Wheelchair accessible parking lot": true
        },
        {
          "Wheelchair accessible restroom": true
        },
        {
          "Wheelchair accessible seating": true
        }
      ],
      "Amenities": [
        {
          "Wi-Fi": true
        }
      ],
      "Planning": [
        {
          "Quick visit": true
        }
      ],
      "Payments": [
        {
          "Credit cards": true
        },
        {
          "Debit cards": true
        },
        {
          "NFC mobile payments": true
        },
        {
          "Credit cards": true
        }
      ]
    },
    "gasPrices": [],
    "url": "https://www.google.com/maps/search/?api=1&query=Hy-Vee%20Pharmacy&query_place_id=ChIJw8wT-0s04ocROFYlkIEVcto",
    "searchPageUrl": "https://www.google.com/maps/search/independent%20pharmacy%20Davenport%20IA/@22.997052500944864,-161.85289204136058,13z?hl=en",
    "searchString": "independent pharmacy Davenport IA",
    "language": "en",
    "rank": 7,
    "isAdvertisement": false,
    "imageUrl": "https://lh3.googleusercontent.com/p/AF1QipP17khcU1khz0lv1a72kY0rbcwUwpk_2uIkRVUj=w408-h408-k-no",
    "kgmid": "/g/1ptxmylpp"
  },
  {
    "title": "Hy-Vee Pharmacy",
    "price": "$$",
    "categoryName": "Pharmacy",
    "address": "2351 W Locust St, Davenport, IA 52804",
    "neighborhood": null,
    "street": "2351 W Locust St",
    "city": "Davenport",
    "postalCode": "52804",
    "state": "Iowa",
    "countryCode": "US",
    "website": "https://www.hy-vee.com/my-pharmacy/pharmacy-finder/davenport-5-2351-w-locust-st-davenport-ia/1109?utm_source=google&utm_medium=organic&utm_campaign=gmb-listing",
    "phone": "(563) 324-3900",
    "phoneUnformatted": "+15633243900",
    "claimThisBusiness": false,
    "location": {
      "lat": 41.5367186,
      "lng": -90.6124526
    },
    "locatedIn": "Hy-Vee Floral",
    "totalScore": 4.3,
    "permanentlyClosed": false,
    "temporarilyClosed": false,
    "placeId": "ChIJnXyEwEfL44cRmT23TxCcDvc",
    "categories": [
      "Pharmacy",
      "Drug store",
      "Herbal medicine store",
      "Homeopathic pharmacy",
      "Local medical services",
      "Medical Center",
      "Organic drug store",
      "Pharmaceutical company",
      "Pharmaceutical lab",
      "Toiletries store"
    ],
    "fid": "0x87e3cb47c0847c9d:0xf70e9c104fb73d99",
    "cid": "17802337970912968089",
    "reviewsCount": 1137,
    "imagesCount": 30,
    "imageCategories": [],
    "scrapedAt": "2025-06-22T07:53:58.012Z",
    "googleFoodUrl": null,
    "hotelAds": [],
    "openingHours": [
      {
        "day": "Monday",
        "hours": "8 AM to 8 PM"
      },
      {
        "day": "Tuesday",
        "hours": "8 AM to 8 PM"
      },
      {
        "day": "Wednesday",
        "hours": "8 AM to 8 PM"
      },
      {
        "day": "Thursday",
        "hours": "8 AM to 8 PM"
      },
      {
        "day": "Friday",
        "hours": "8 AM to 8 PM"
      },
      {
        "day": "Saturday",
        "hours": "9 AM to 6 PM"
      },
      {
        "day": "Sunday",
        "hours": "10 AM to 6 PM"
      }
    ],
    "additionalOpeningHours": {
      "Hy-Vee Floral": [
        {
          "day": "Monday",
          "hours": "7 AM–6 PM"
        },
        {
          "day": "Tuesday",
          "hours": "7 AM–6 PM"
        },
        {
          "day": "Wednesday",
          "hours": "7 AM–6 PM"
        },
        {
          "day": "Thursday",
          "hours": "7 AM–6 PM"
        },
        {
          "day": "Friday",
          "hours": "7 AM–6 PM"
        },
        {
          "day": "Saturday",
          "hours": "7 AM–6 PM"
        },
        {
          "day": "Sunday",
          "hours": "8 AM–6 PM"
        }
      ],
      "Hy-Vee Market Grille": [
        {
          "day": "Monday",
          "hours": "6 AM–2 PM"
        },
        {
          "day": "Tuesday",
          "hours": "6 AM–2 PM"
        },
        {
          "day": "Wednesday",
          "hours": "6 AM–2 PM"
        },
        {
          "day": "Thursday",
          "hours": "6 AM–2 PM"
        },
        {
          "day": "Friday",
          "hours": "6 AM–2 PM"
        },
        {
          "day": "Saturday",
          "hours": "6 AM–2 PM"
        },
        {
          "day": "Sunday",
          "hours": "6 AM–2 PM"
        }
      ],
      "Hy-Vee Wine & Spirits": [
        {
          "day": "Monday",
          "hours": "7 AM–10 PM"
        },
        {
          "day": "Tuesday",
          "hours": "7 AM–10 PM"
        },
        {
          "day": "Wednesday",
          "hours": "7 AM–10 PM"
        },
        {
          "day": "Thursday",
          "hours": "7 AM–10 PM"
        },
        {
          "day": "Friday",
          "hours": "7 AM–10 PM"
        },
        {
          "day": "Saturday",
          "hours": "7 AM–10 PM"
        },
        {
          "day": "Sunday",
          "hours": "8 AM–10 PM"
        }
      ]
    },
    "peopleAlsoSearch": [],
    "placesTags": [],
    "reviewsTags": [],
    "additionalInfo": {
      "Service options": [
        {
          "Delivery": true
        },
        {
          "Drive-through": true
        },
        {
          "In-store pickup": true
        },
        {
          "Onsite services": true
        },
        {
          "Same-day delivery": true
        }
      ],
      "Accessibility": [
        {
          "Wheelchair accessible entrance": true
        },
        {
          "Wheelchair accessible parking lot": true
        },
        {
          "Wheelchair accessible restroom": true
        },
        {
          "Wheelchair accessible seating": true
        }
      ],
      "Offerings": [
        {
          "Passport photos": true
        }
      ],
      "Amenities": [
        {
          "Wi-Fi": true
        }
      ],
      "Planning": [
        {
          "Quick visit": true
        }
      ],
      "Payments": [
        {
          "Debit cards": true
        },
        {
          "NFC mobile payments": true
        },
        {
          "Credit cards": true
        }
      ]
    },
    "gasPrices": [],
    "url": "https://www.google.com/maps/search/?api=1&query=Hy-Vee%20Pharmacy&query_place_id=ChIJnXyEwEfL44cRmT23TxCcDvc",
    "searchPageUrl": "https://www.google.com/maps/search/independent%20pharmacy%20Davenport%20IA/@22.997052500944864,-161.85289204136058,13z?hl=en",
    "searchString": "independent pharmacy Davenport IA",
    "language": "en",
    "rank": 8,
    "isAdvertisement": false,
    "imageUrl": "https://lh3.googleusercontent.com/gps-cs-s/AC9h4nok00oI45sNqHH_BhaUKtXimWB2WAPEOOWGYSHIsIFRm5UzyYJPLxMeYpPLeE-dSqfhxlSOYqRPdpasknO4oYwbTOnRjkZI23oFx1m5HAubBhTD1QissXXoFXf1zGQ3Q6HDAGD8=w426-h240-k-no",
    "kgmid": "/g/1tdxfvbg"
  },
  {
    "title": "Hy-Vee Pharmacy",
    "price": "$$",
    "categoryName": "Pharmacy",
    "address": "4064 E 53rd St, Davenport, IA 52807",
    "neighborhood": null,
    "street": "4064 E 53rd St",
    "city": "Davenport",
    "postalCode": "52807",
    "state": "Iowa",
    "countryCode": "US",
    "website": "https://www.hy-vee.com/my-pharmacy/pharmacy-finder/davenport-4-4064-e-53rd-st-davenport-ia/1108?utm_source=google&utm_medium=organic&utm_campaign=gmb-listing",
    "phone": "(563) 359-3120",
    "phoneUnformatted": "+15633593120",
    "claimThisBusiness": false,
    "location": {
      "lat": 41.5772035,
      "lng": -90.5138767
    },
    "totalScore": 3.9,
    "permanentlyClosed": false,
    "temporarilyClosed": false,
    "placeId": "ChIJ_axlTGw24ocRK-PvDrX8xaA",
    "categories": [
      "Pharmacy",
      "Drug store",
      "Herbal medicine store",
      "Homeopathic pharmacy",
      "Local medical services",
      "Medical Center",
      "Organic drug store",
      "Pharmaceutical company",
      "Pharmaceutical lab",
      "Toiletries store"
    ],
    "fid": "0x87e2366c4c65acfd:0xa0c5fcb50eefe32b",
    "cid": "11584943471050351403",
    "reviewsCount": 10,
    "imagesCount": 10,
    "imageCategories": [],
    "scrapedAt": "2025-06-22T07:53:58.013Z",
    "googleFoodUrl": null,
    "hotelAds": [],
    "openingHours": [
      {
        "day": "Monday",
        "hours": "8 AM to 8 PM"
      },
      {
        "day": "Tuesday",
        "hours": "8 AM to 8 PM"
      },
      {
        "day": "Wednesday",
        "hours": "8 AM to 8 PM"
      },
      {
        "day": "Thursday",
        "hours": "8 AM to 8 PM"
      },
      {
        "day": "Friday",
        "hours": "8 AM to 8 PM"
      },
      {
        "day": "Saturday",
        "hours": "9 AM to 6 PM"
      },
      {
        "day": "Sunday",
        "hours": "10 AM to 6 PM"
      }
    ],
    "peopleAlsoSearch": [],
    "placesTags": [],
    "reviewsTags": [],
    "additionalInfo": {
      "Service options": [
        {
          "Delivery": true
        },
        {
          "Drive-through": true
        },
        {
          "In-store pickup": true
        }
      ],
      "Accessibility": [
        {
          "Wheelchair accessible entrance": true
        },
        {
          "Wheelchair accessible parking lot": true
        },
        {
          "Wheelchair accessible restroom": true
        },
        {
          "Wheelchair accessible seating": true
        }
      ],
      "Amenities": [
        {
          "Wi-Fi": true
        }
      ],
      "Planning": [
        {
          "Quick visit": true
        }
      ],
      "Payments": [
        {
          "Credit cards": true
        },
        {
          "Debit cards": true
        },
        {
          "Credit cards": true
        }
      ]
    },
    "gasPrices": [],
    "url": "https://www.google.com/maps/search/?api=1&query=Hy-Vee%20Pharmacy&query_place_id=ChIJ_axlTGw24ocRK-PvDrX8xaA",
    "searchPageUrl": "https://www.google.com/maps/search/independent%20pharmacy%20Davenport%20IA/@22.997052500944864,-161.85289204136058,13z?hl=en",
    "searchString": "independent pharmacy Davenport IA",
    "language": "en",
    "rank": 9,
    "isAdvertisement": false,
    "imageUrl": "https://lh3.googleusercontent.com/p/AF1QipOqT291DJTB5twCWCRHoxArAJVsmFCMQPNSh8SP=w408-h408-k-no",
    "kgmid": "/g/1ptypy7wb"
  },
  {
    "title": "CVS Pharmacy",
    "price": null,
    "categoryName": "Pharmacy",
    "address": "1655 W Kimberly Rd, Davenport, IA 52806",
    "neighborhood": null,
    "street": "1655 W Kimberly Rd",
    "city": "Davenport",
    "postalCode": "52806",
    "state": "Iowa",
    "countryCode": "US",
    "website": "https://www.cvs.com/store-locator/davenport-ia-pharmacies/1655-west-kimberly-road-davenport-ia-52806/storeid=8658?WT.mc_id=LS_GOOGLE_RX_8658",
    "phone": "(563) 388-7856",
    "phoneUnformatted": "+15633887856",
    "claimThisBusiness": false,
    "location": {
      "lat": 41.559293,
      "lng": -90.599918
    },
    "totalScore": 3.7,
    "permanentlyClosed": false,
    "temporarilyClosed": false,
    "placeId": "ChIJgR5xZNU04ocRPqx0jSH3Y1k",
    "categories": [
      "Pharmacy"
    ],
    "fid": "0x87e234d564711e81:0x5963f7218d74ac3e",
    "cid": "6441263615549156414",
    "reviewsCount": 21,
    "imagesCount": 8,
    "imageCategories": [],
    "scrapedAt": "2025-06-22T07:53:58.013Z",
    "googleFoodUrl": null,
    "hotelAds": [],
    "openingHours": [
      {
        "day": "Monday",
        "hours": "9 AM to 1:30 PM, 2 to 8 PM"
      },
      {
        "day": "Tuesday",
        "hours": "9 AM to 1:30 PM, 2 to 8 PM"
      },
      {
        "day": "Wednesday",
        "hours": "9 AM to 1:30 PM, 2 to 8 PM"
      },
      {
        "day": "Thursday",
        "hours": "9 AM to 1:30 PM, 2 to 8 PM"
      },
      {
        "day": "Friday",
        "hours": "9 AM to 1:30 PM, 2 to 8 PM"
      },
      {
        "day": "Saturday",
        "hours": "9 AM to 1:30 PM, 2 to 6 PM"
      },
      {
        "day": "Sunday",
        "hours": "10 AM to 1:30 PM, 2 to 6 PM"
      }
    ],
    "peopleAlsoSearch": [],
    "placesTags": [],
    "reviewsTags": [],
    "additionalInfo": {
      "Service options": [
        {
          "Delivery": true
        },
        {
          "Drive-through": true
        },
        {
          "In-store shopping": true
        },
        {
          "Onsite services": true
        }
      ],
      "Accessibility": [
        {
          "Wheelchair accessible entrance": true
        },
        {
          "Wheelchair accessible parking lot": true
        }
      ],
      "Offerings": [
        {
          "Medication disposal": true
        },
        {
          "Naloxone": true
        },
        {
          "Passport photos": true
        }
      ],
      "Crowd": [
        {
          "LGBTQ+ friendly": true
        },
        {
          "Transgender safespace": true
        }
      ],
      "Planning": [
        {
          "Quick visit": true
        }
      ],
      "Payments": [
        {
          "Credit cards": true
        },
        {
          "Debit cards": true
        },
        {
          "NFC mobile payments": true
        },
        {
          "SNAP/EBT": true
        },
        {
          "Credit cards": true
        }
      ]
    },
    "gasPrices": [],
    "url": "https://www.google.com/maps/search/?api=1&query=CVS%20Pharmacy&query_place_id=ChIJgR5xZNU04ocRPqx0jSH3Y1k",
    "searchPageUrl": "https://www.google.com/maps/search/independent%20pharmacy%20Davenport%20IA/@22.997052500944864,-161.85289204136058,13z?hl=en",
    "searchString": "independent pharmacy Davenport IA",
    "language": "en",
    "rank": 10,
    "isAdvertisement": false,
    "imageUrl": "https://lh3.googleusercontent.com/p/AF1QipOIIRoYIdzs9yvl4FNUKCoUaUOWNrK8G2qtzjyt=w408-h272-k-no",
    "kgmid": "/g/11c467h_25"
  },
  {
    "title": "Hy-Vee Pharmacy",
    "price": "$$",
    "categoryName": "Pharmacy",
    "address": "2200 W Kimberly Rd, Davenport, IA 52806",
    "neighborhood": null,
    "street": "2200 W Kimberly Rd",
    "city": "Davenport",
    "postalCode": "52806",
    "state": "Iowa",
    "countryCode": "US",
    "website": "https://www.hy-vee.com/my-pharmacy/pharmacy-finder/davenport-2-2200-w-kimberly-rd-davenport-ia/1106?utm_source=google&utm_medium=organic&utm_campaign=gmb-listing",
    "phone": "(563) 391-1543",
    "phoneUnformatted": "+15633911543",
    "claimThisBusiness": false,
    "location": {
      "lat": 41.5613946,
      "lng": -90.6089842
    },
    "totalScore": 3.4,
    "permanentlyClosed": false,
    "temporarilyClosed": false,
    "placeId": "ChIJa94futfK44cR7bOAuH3fH8E",
    "categories": [
      "Pharmacy",
      "Drug store",
      "Herbal medicine store",
      "Homeopathic pharmacy",
      "Local medical services",
      "Medical Center",
      "Organic drug store",
      "Pharmaceutical company",
      "Pharmaceutical lab",
      "Toiletries store"
    ],
    "fid": "0x87e3cad7ba1fde6b:0xc11fdf7db880b3ed",
    "cid": "13916087104657470445",
    "reviewsCount": 17,
    "imagesCount": 10,
    "imageCategories": [],
    "scrapedAt": "2025-06-22T07:53:58.013Z",
    "googleFoodUrl": null,
    "hotelAds": [],
    "openingHours": [
      {
        "day": "Monday",
        "hours": "8 AM to 8 PM"
      },
      {
        "day": "Tuesday",
        "hours": "8 AM to 8 PM"
      },
      {
        "day": "Wednesday",
        "hours": "8 AM to 8 PM"
      },
      {
        "day": "Thursday",
        "hours": "8 AM to 8 PM"
      },
      {
        "day": "Friday",
        "hours": "8 AM to 8 PM"
      },
      {
        "day": "Saturday",
        "hours": "9 AM to 6 PM"
      },
      {
        "day": "Sunday",
        "hours": "10 AM to 6 PM"
      }
    ],
    "peopleAlsoSearch": [],
    "placesTags": [],
    "reviewsTags": [],
    "additionalInfo": {
      "Service options": [
        {
          "Delivery": true
        },
        {
          "Drive-through": true
        },
        {
          "In-store pickup": true
        }
      ],
      "Accessibility": [
        {
          "Wheelchair accessible entrance": true
        },
        {
          "Wheelchair accessible parking lot": true
        },
        {
          "Wheelchair accessible restroom": true
        },
        {
          "Wheelchair accessible seating": true
        }
      ],
      "Amenities": [
        {
          "Wi-Fi": true
        }
      ],
      "Planning": [
        {
          "Quick visit": true
        }
      ],
      "Payments": [
        {
          "Credit cards": true
        },
        {
          "Debit cards": true
        },
        {
          "Credit cards": true
        }
      ]
    },
    "gasPrices": [],
    "url": "https://www.google.com/maps/search/?api=1&query=Hy-Vee%20Pharmacy&query_place_id=ChIJa94futfK44cR7bOAuH3fH8E",
    "searchPageUrl": "https://www.google.com/maps/search/independent%20pharmacy%20Davenport%20IA/@22.997052500944864,-161.85289204136058,13z?hl=en",
    "searchString": "independent pharmacy Davenport IA",
    "language": "en",
    "rank": 11,
    "isAdvertisement": false,
    "imageUrl": "https://lh3.googleusercontent.com/p/AF1QipNOdVpJYgvsuhXLS9aOTVyEoKA1yuEvR6glZD6d=w408-h408-k-no",
    "kgmid": "/g/1tct983g"
  },
  {
    "title": "Walgreens Pharmacy",
    "description": "Department of the Walgreens chain providing prescription medications & other health-related items.",
    "price": "$$",
    "categoryName": "Pharmacy",
    "address": "1525 E Kimberly Rd, Davenport, IA 52807",
    "neighborhood": null,
    "street": "1525 E Kimberly Rd",
    "city": "Davenport",
    "postalCode": "52807",
    "state": "Iowa",
    "countryCode": "US",
    "website": "https://www.walgreens.com/locator/walgreens-1525+e+kimberly+rd-davenport-ia-52807/id=4041",
    "phone": "(563) 386-6883",
    "phoneUnformatted": "+15633866883",
    "claimThisBusiness": false,
    "location": {
      "lat": 41.5559767,
      "lng": -90.5519691
    },
    "totalScore": 3.7,
    "permanentlyClosed": false,
    "temporarilyClosed": false,
    "placeId": "ChIJZb7YtWw14ocREkm_pJ1mFEo",
    "categories": [
      "Pharmacy"
    ],
    "fid": "0x87e2356cb5d8be65:0x4a14669da4bf4912",
    "cid": "5338004285600778514",
    "reviewsCount": 9,
    "imagesCount": 3,
    "imageCategories": [],
    "scrapedAt": "2025-06-22T07:53:58.014Z",
    "googleFoodUrl": null,
    "hotelAds": [],
    "openingHours": [
      {
        "day": "Monday",
        "hours": "8 AM to 1:30 PM, 2 to 8 PM"
      },
      {
        "day": "Tuesday",
        "hours": "8 AM to 1:30 PM, 2 to 8 PM"
      },
      {
        "day": "Wednesday",
        "hours": "8 AM to 1:30 PM, 2 to 8 PM"
      },
      {
        "day": "Thursday",
        "hours": "8 AM to 1:30 PM, 2 to 8 PM"
      },
      {
        "day": "Friday",
        "hours": "8 AM to 1:30 PM, 2 to 8 PM"
      },
      {
        "day": "Saturday",
        "hours": "9 AM to 1:30 PM, 2 to 6 PM"
      },
      {
        "day": "Sunday",
        "hours": "10 AM to 1:30 PM, 2 to 5 PM"
      }
    ],
    "additionalOpeningHours": {
      "Drive through": [
        {
          "day": "Monday",
          "hours": "8 AM–1:30 PM"
        },
        {
          "day": "Tuesday",
          "hours": "8 AM–1:30 PM"
        },
        {
          "day": "Wednesday",
          "hours": "8 AM–1:30 PM"
        },
        {
          "day": "Thursday",
          "hours": "8 AM–1:30 PM"
        },
        {
          "day": "Friday",
          "hours": "8 AM–1:30 PM"
        },
        {
          "day": "Saturday",
          "hours": "9 AM–1:30 PM"
        },
        {
          "day": "Sunday",
          "hours": "10 AM–1:30 PM"
        }
      ]
    },
    "peopleAlsoSearch": [],
    "placesTags": [],
    "reviewsTags": [],
    "additionalInfo": {
      "Service options": [
        {
          "Curbside pickup": true
        },
        {
          "Drive-through": true
        },
        {
          "In-store pickup": true
        }
      ],
      "Accessibility": [
        {
          "Wheelchair accessible entrance": true
        },
        {
          "Wheelchair accessible parking lot": true
        }
      ],
      "Offerings": [
        {
          "Medication disposal": true
        },
        {
          "Naloxone": true
        },
        {
          "Passport photos": true
        }
      ],
      "Planning": [
        {
          "Quick visit": true
        }
      ],
      "Payments": [
        {
          "Checks": true
        },
        {
          "Credit cards": true
        },
        {
          "Debit cards": true
        }
      ]
    },
    "gasPrices": [],
    "url": "https://www.google.com/maps/search/?api=1&query=Walgreens%20Pharmacy&query_place_id=ChIJZb7YtWw14ocREkm_pJ1mFEo",
    "searchPageUrl": "https://www.google.com/maps/search/independent%20pharmacy%20Davenport%20IA/@22.997052500944864,-161.85289204136058,13z?hl=en",
    "searchString": "independent pharmacy Davenport IA",
    "language": "en",
    "rank": 12,
    "isAdvertisement": false,
    "imageUrl": "https://lh3.googleusercontent.com/p/AF1QipNezQb9KagP-jxs0wLqBSzgpRmORnV8IEAZ1dOl=w525-h240-k-no",
    "kgmid": "/g/11f5tc4s5m"
  },
  {
    "title": "CVS Pharmacy",
    "description": "Drugstore chain selling a variety of beauty & health products, plus some grocery & household items.",
    "price": null,
    "categoryName": "Pharmacy",
    "address": "5225 Elmore Avenue, Davenport, IA 52807, United States",
    "neighborhood": null,
    "street": "5225 Elmore Avenue",
    "city": "Davenport",
    "postalCode": "52807",
    "state": "Iowa",
    "countryCode": "US",
    "website": "https://www.cvs.com/store-locator/davenport-ia-pharmacies/5225-elmore-ave-davenport-ia-52807/storeid=16149?WT.mc_id=LS_GOOGLE_RX_16149",
    "phone": "+1 563-344-9629",
    "phoneUnformatted": "+15633449629",
    "claimThisBusiness": false,
    "location": {
      "lat": 41.5731502,
      "lng": -90.5263731
    },
    "totalScore": 2.4,
    "permanentlyClosed": false,
    "temporarilyClosed": false,
    "placeId": "ChIJZQh6idg14ocRzWPQoRr5POM",
    "categories": [
      "Pharmacy"
    ],
    "fid": "0x87e235d8897a0865:0xe33cf91aa1d063cd",
    "cid": "16374236237991535565",
    "reviewsCount": 14,
    "imagesCount": 7,
    "imageCategories": [],
    "scrapedAt": "2025-06-22T07:54:02.057Z",
    "googleFoodUrl": null,
    "hotelAds": [],
    "openingHours": [
      {
        "day": "Monday",
        "hours": "9 AM to 1:30 PM, 2 to 7 PM"
      },
      {
        "day": "Tuesday",
        "hours": "9 AM to 1:30 PM, 2 to 7 PM"
      },
      {
        "day": "Wednesday",
        "hours": "9 AM to 1:30 PM, 2 to 7 PM"
      },
      {
        "day": "Thursday",
        "hours": "9 AM to 1:30 PM, 2 to 7 PM"
      },
      {
        "day": "Friday",
        "hours": "9 AM to 1:30 PM, 2 to 7 PM"
      },
      {
        "day": "Saturday",
        "hours": "9 AM to 1:30 PM, 2 to 5 PM"
      },
      {
        "day": "Sunday",
        "hours": "11 AM to 1:30 PM, 2 to 5 PM"
      }
    ],
    "peopleAlsoSearch": [],
    "placesTags": [],
    "reviewsTags": [],
    "additionalInfo": {
      "Service options": [
        {
          "Delivery": true
        },
        {
          "In-store shopping": true
        },
        {
          "On-site services": true
        }
      ],
      "Accessibility": [
        {
          "Wheelchair-accessible car park": true
        },
        {
          "Wheelchair-accessible entrance": true
        }
      ],
      "Offerings": [
        {
          "Naloxone": true
        }
      ],
      "Crowd": [
        {
          "LGBTQ+ friendly": true
        },
        {
          "Transgender safe space": true
        }
      ],
      "Planning": [
        {
          "Quick visit": true
        }
      ],
      "Payments": [
        {
          "Credit cards": true
        },
        {
          "Debit cards": true
        },
        {
          "Credit cards": true
        }
      ]
    },
    "gasPrices": [],
    "url": "https://www.google.com/maps/search/?api=1&query=CVS%20Pharmacy&query_place_id=ChIJZQh6idg14ocRzWPQoRr5POM",
    "searchPageUrl": "https://www.google.com/maps/search/independent%20pharmacy%20Davenport%20IA/@59.485012656044645,-165.7692998137874,9z?hl=en",
    "searchString": "independent pharmacy Davenport IA",
    "language": "en",
    "rank": 8,
    "isAdvertisement": false,
    "imageUrl": "https://lh3.googleusercontent.com/p/AF1QipMJyCC-1YqZDp81KJrdS5NH-sE18gaLHnIjUmBs=w408-h272-k-no",
    "kgmid": "/g/1th82hck"
  },
  {
    "title": "Costco Pharmacy",
    "price": null,
    "categoryName": "Pharmacy",
    "address": "2790 E 53rd St, Davenport, IA 52807",
    "neighborhood": null,
    "street": "2790 E 53rd St",
    "city": "Davenport",
    "postalCode": "52807",
    "state": "Iowa",
    "countryCode": "US",
    "website": "https://www.costco.com/warehouse-locations/davenport-IA-1325.html",
    "phone": "(563) 893-7004",
    "phoneUnformatted": "+15638937004",
    "claimThisBusiness": false,
    "location": {
      "lat": 41.5768089,
      "lng": -90.5346944
    },
    "totalScore": 5,
    "permanentlyClosed": false,
    "temporarilyClosed": false,
    "placeId": "ChIJo8WFIx814ocR1LeCZXXK62Q",
    "categories": [
      "Pharmacy"
    ],
    "fid": "0x87e2351f2385c5a3:0x64ebca756582b7d4",
    "cid": "7272128628882847700",
    "reviewsCount": 3,
    "imagesCount": 2,
    "imageCategories": [],
    "scrapedAt": "2025-06-22T07:54:08.171Z",
    "googleFoodUrl": null,
    "hotelAds": [],
    "openingHours": [
      {
        "day": "Monday",
        "hours": "10 AM to 7 PM"
      },
      {
        "day": "Tuesday",
        "hours": "10 AM to 7 PM"
      },
      {
        "day": "Wednesday",
        "hours": "10 AM to 7 PM"
      },
      {
        "day": "Thursday",
        "hours": "10 AM to 7 PM"
      },
      {
        "day": "Friday",
        "hours": "10 AM to 7 PM"
      },
      {
        "day": "Saturday",
        "hours": "9:30 AM to 6 PM"
      },
      {
        "day": "Sunday",
        "hours": "Closed"
      }
    ],
    "peopleAlsoSearch": [],
    "placesTags": [],
    "reviewsTags": [],
    "additionalInfo": {
      "Service options": [
        {
          "In-store pickup": true
        }
      ],
      "Accessibility": [
        {
          "Wheelchair accessible entrance": true
        },
        {
          "Wheelchair accessible parking lot": true
        }
      ],
      "Planning": [
        {
          "Quick visit": true
        }
      ],
      "Payments": [
        {
          "Credit cards": true
        }
      ]
    },
    "gasPrices": [],
    "url": "https://www.google.com/maps/search/?api=1&query=Costco%20Pharmacy&query_place_id=ChIJo8WFIx814ocR1LeCZXXK62Q",
    "searchPageUrl": "https://www.google.com/maps/search/independent%20pharmacy%20Davenport%20IA/@45.410355141996405,-99.1509755427839,8z?hl=en",
    "searchString": "independent pharmacy Davenport IA",
    "language": "en",
    "rank": 13,
    "isAdvertisement": false,
    "imageUrl": "https://lh3.googleusercontent.com/gps-cs-s/AC9h4noFKC8DQ-RDkFnNCTrk-itLT93ffX6ze-rixfod8NCDq13cGJJJZAL8XdNvY-x2E2K9Bj-uzmV9MWxduMC4v0Z1QrFjNe2gZnyhsPTngeptbQwlKLJjzVVQwKqdr6OFX6xfEudN=w408-h408-k-no",
    "kgmid": "/g/11ftf27dbb"
  },
  {
    "title": "Walgreens Pharmacy",
    "description": "Department of the Walgreens chain providing prescription medications & other health-related items.",
    "price": "$$",
    "categoryName": "Pharmacy",
    "address": "1660 W Locust St, Davenport, IA 52804, United States",
    "neighborhood": "5 Points",
    "street": "1660 W Locust St",
    "city": "Davenport",
    "postalCode": "52804",
    "state": "Iowa",
    "countryCode": "US",
    "website": "https://www.walgreens.com/locator/walgreens-1660+w+locust+st-davenport-ia-52804/id=5239",
    "phone": "+1 563-324-3508",
    "phoneUnformatted": "+15633243508",
    "claimThisBusiness": false,
    "location": {
      "lat": 41.5389461,
      "lng": -90.6005359
    },
    "totalScore": 2.3,
    "permanentlyClosed": false,
    "temporarilyClosed": false,
    "placeId": "ChIJoy97Q7U04ocRsVLxG7noKZM",
    "categories": [
      "Pharmacy"
    ],
    "fid": "0x87e234b5437b2fa3:0x9329e8b91bf152b1",
    "cid": "10604262679355937457",
    "reviewsCount": 21,
    "imagesCount": 3,
    "imageCategories": [],
    "scrapedAt": "2025-06-22T07:54:10.889Z",
    "googleFoodUrl": null,
    "hotelAds": [],
    "openingHours": [
      {
        "day": "Monday",
        "hours": "8 AM to 1:30 PM, 2 to 8 PM"
      },
      {
        "day": "Tuesday",
        "hours": "8 AM to 1:30 PM, 2 to 8 PM"
      },
      {
        "day": "Wednesday",
        "hours": "8 AM to 1:30 PM, 2 to 8 PM"
      },
      {
        "day": "Thursday",
        "hours": "8 AM to 1:30 PM, 2 to 8 PM"
      },
      {
        "day": "Friday",
        "hours": "8 AM to 1:30 PM, 2 to 8 PM"
      },
      {
        "day": "Saturday",
        "hours": "9 AM to 1:30 PM, 2 to 6 PM"
      },
      {
        "day": "Sunday",
        "hours": "10 AM to 1:30 PM, 2 to 5 PM"
      }
    ],
    "additionalOpeningHours": {
      "Drive through": [
        {
          "day": "Monday",
          "hours": "8 am–1:30 pm"
        },
        {
          "day": "Tuesday",
          "hours": "8 am–1:30 pm"
        },
        {
          "day": "Wednesday",
          "hours": "8 am–1:30 pm"
        },
        {
          "day": "Thursday",
          "hours": "8 am–1:30 pm"
        },
        {
          "day": "Friday",
          "hours": "8 am–1:30 pm"
        },
        {
          "day": "Saturday",
          "hours": "9 am–1:30 pm"
        },
        {
          "day": "Sunday",
          "hours": "10 am–1:30 pm"
        }
      ]
    },
    "peopleAlsoSearch": [],
    "placesTags": [],
    "reviewsTags": [],
    "additionalInfo": {
      "Service options": [
        {
          "Kerbside pickup": true
        },
        {
          "Drive-through": true
        },
        {
          "In-store pick-up": true
        },
        {
          "On-site services": true
        }
      ],
      "Accessibility": [
        {
          "Wheelchair-accessible car park": true
        },
        {
          "Wheelchair-accessible entrance": true
        }
      ],
      "Offerings": [
        {
          "Medication disposal": true
        },
        {
          "Naloxone": true
        },
        {
          "Passport photos": true
        }
      ],
      "Planning": [
        {
          "Quick visit": true
        }
      ],
      "Payments": [
        {
          "Cheques": true
        },
        {
          "Credit cards": true
        },
        {
          "Debit cards": true
        }
      ]
    },
    "gasPrices": [],
    "url": "https://www.google.com/maps/search/?api=1&query=Walgreens%20Pharmacy&query_place_id=ChIJoy97Q7U04ocRsVLxG7noKZM",
    "searchPageUrl": "https://www.google.com/maps/search/independent%20pharmacy%20Davenport%20IA/@33.954544952667874,-102.31720148556776,8z?hl=en",
    "searchString": "independent pharmacy Davenport IA",
    "language": "en",
    "rank": 7,
    "isAdvertisement": false,
    "imageUrl": "https://lh3.googleusercontent.com/p/AF1QipNVfjoeSr0IVQcDJqSP2-VO-JW8SCpRa0F4zQHK=w525-h240-k-no",
    "kgmid": "/g/11cn93zw7d"
  },
  {
    "title": "Davenport Good Neighbor Pharmacy",
    "price": null,
    "categoryName": "Pharmacy",
    "address": "525 Morgan St, Davenport, WA 99122, United States",
    "neighborhood": null,
    "street": "525 Morgan St",
    "city": "Davenport",
    "postalCode": "99122",
    "state": "Washington",
    "countryCode": "US",
    "website": "http://davenportrx.com/",
    "phone": "+1 509-725-1151",
    "phoneUnformatted": "+15097251151",
    "claimThisBusiness": false,
    "location": {
      "lat": 47.6538776,
      "lng": -118.149058
    },
    "totalScore": 4.3,
    "permanentlyClosed": false,
    "temporarilyClosed": false,
    "placeId": "ChIJC0OmoHN7nlQRCF2A1lciobU",
    "categories": [
      "Pharmacy"
    ],
    "fid": "0x549e7b73a0a6430b:0xb5a12257d6805d08",
    "cid": "13087779752771607816",
    "reviewsCount": 36,
    "imagesCount": 7,
    "imageCategories": [],
    "scrapedAt": "2025-06-22T07:54:13.430Z",
    "googleFoodUrl": null,
    "hotelAds": [],
    "openingHours": [
      {
        "day": "Monday",
        "hours": "9 AM to 6 PM"
      },
      {
        "day": "Tuesday",
        "hours": "9 AM to 6 PM"
      },
      {
        "day": "Wednesday",
        "hours": "9 AM to 6 PM"
      },
      {
        "day": "Thursday",
        "hours": "9 AM to 6 PM"
      },
      {
        "day": "Friday",
        "hours": "9 AM to 6 PM"
      },
      {
        "day": "Saturday",
        "hours": "9 AM to 3 PM"
      },
      {
        "day": "Sunday",
        "hours": "Closed"
      }
    ],
    "peopleAlsoSearch": [],
    "placesTags": [],
    "reviewsTags": [],
    "additionalInfo": {
      "From the business": [
        {
          "Small Business": true
        }
      ],
      "Service options": [
        {
          "Delivery": true
        },
        {
          "Drive-through": true
        },
        {
          "In-store pick-up": true
        },
        {
          "In-store shopping": true
        },
        {
          "On-site services": true
        },
        {
          "Same-day delivery": true
        }
      ],
      "Accessibility": [
        {
          "Wheelchair-accessible car park": true
        },
        {
          "Wheelchair-accessible entrance": true
        }
      ],
      "Offerings": [
        {
          "Passport photos": true
        }
      ],
      "Planning": [
        {
          "Quick visit": true
        }
      ],
      "Payments": [
        {
          "Cheques": true
        },
        {
          "Credit cards": true
        },
        {
          "Debit cards": true
        },
        {
          "Credit cards": true
        }
      ]
    },
    "gasPrices": [],
    "url": "https://www.google.com/maps/search/?api=1&query=Davenport%20Good%20Neighbor%20Pharmacy&query_place_id=ChIJC0OmoHN7nlQRCF2A1lciobU",
    "searchPageUrl": "https://www.google.com/maps/search/independent%20pharmacy%20Davenport%20IA/@55.60268578706954,-156.08076678160276,12z?hl=en",
    "searchString": "independent pharmacy Davenport IA",
    "language": "en",
    "rank": 5,
    "isAdvertisement": false,
    "imageUrl": "https://lh3.googleusercontent.com/gps-cs-s/AC9h4nrZlimattMTRFJLv_zEn9Ymks7Qsj8JG2LdOKoMXkuL_7KxToWKT5Zu9S1shqT-YSMHcNm1Mg5RLFOn6C6dtIYChUAOlnoV_GoXWPzwkpfb8EYMrGWWNfMKjpwHpnJi9nhFH51kaA=w408-h724-k-no",
    "kgmid": "/g/1tdp9bdx"
  },
  {
    "title": "Sam's Club Pharmacy",
    "price": "$",
    "categoryName": "Pharmacy",
    "address": "3887 Elmore Avenue, Davenport, IA 52807",
    "neighborhood": null,
    "street": "3887 Elmore Avenue",
    "city": "Davenport",
    "postalCode": "52807",
    "state": "Iowa",
    "countryCode": "US",
    "website": "https://www.samsclub.com/local/pharmacy/davenport-ia-sams-club/8238",
    "phone": "(563) 344-4232",
    "phoneUnformatted": "+15633444232",
    "claimThisBusiness": false,
    "location": {
      "lat": 41.5591393,
      "lng": -90.5235227
    },
    "totalScore": 5,
    "permanentlyClosed": false,
    "temporarilyClosed": false,
    "placeId": "ChIJUUJkxio04ocRR-DZ460KIcI",
    "categories": [
      "Pharmacy"
    ],
    "fid": "0x87e2342ac6644251:0xc2210aade3d9e047",
    "cid": "13988473659557797959",
    "reviewsCount": 5,
    "imagesCount": 8,
    "imageCategories": [],
    "scrapedAt": "2025-06-22T07:54:23.569Z",
    "googleFoodUrl": null,
    "hotelAds": [],
    "openingHours": [
      {
        "day": "Monday",
        "hours": "9 AM to 7 PM"
      },
      {
        "day": "Tuesday",
        "hours": "9 AM to 7 PM"
      },
      {
        "day": "Wednesday",
        "hours": "9 AM to 7 PM"
      },
      {
        "day": "Thursday",
        "hours": "9 AM to 7 PM"
      },
      {
        "day": "Friday",
        "hours": "9 AM to 7 PM"
      },
      {
        "day": "Saturday",
        "hours": "9 AM to 6 PM"
      },
      {
        "day": "Sunday",
        "hours": "Closed"
      }
    ],
    "peopleAlsoSearch": [],
    "placesTags": [],
    "reviewsTags": [],
    "additionalInfo": {
      "Service options": [
        {
          "Curbside pickup": true
        },
        {
          "Delivery": true
        },
        {
          "In-store pickup": true
        },
        {
          "In-store shopping": true
        },
        {
          "Onsite services": true
        },
        {
          "Same-day delivery": true
        }
      ],
      "Accessibility": [
        {
          "Wheelchair accessible entrance": true
        },
        {
          "Wheelchair accessible parking lot": true
        }
      ],
      "Planning": [
        {
          "Quick visit": true
        }
      ],
      "Payments": [
        {
          "Credit cards": true
        },
        {
          "Debit cards": true
        },
        {
          "Credit cards": true
        }
      ]
    },
    "gasPrices": [],
    "url": "https://www.google.com/maps/search/?api=1&query=Sam's%20Club%20Pharmacy&query_place_id=ChIJUUJkxio04ocRR-DZ460KIcI",
    "searchPageUrl": "https://www.google.com/maps/search/independent%20pharmacy%20Davenport%20IA/@22.997052500944864,-161.9899563586394,13z?hl=en",
    "searchString": "independent pharmacy Davenport IA",
    "language": "en",
    "rank": 12,
    "isAdvertisement": false,
    "imageUrl": "https://lh3.googleusercontent.com/p/AF1QipOLFd5jO8gKLggzoomtvri0xaLGvRtfgOEfRILq=w408-h272-k-no",
    "kgmid": "/g/12vthw66g"
  },
  {
    "title": "Walgreens",
    "description": "Drugstore chain with health & beauty aids, prescriptions & photo services, plus mini-mart basics.",
    "price": "$$",
    "categoryName": "Drug store",
    "address": "1660 W Locust St, Davenport, IA 52804, United States",
    "neighborhood": "5 Points",
    "street": "1660 W Locust St",
    "city": "Davenport",
    "postalCode": "52804",
    "state": "Iowa",
    "countryCode": "US",
    "website": "https://www.walgreens.com/locator/walgreens-1660+w+locust+st-davenport-ia-52804/id=5239",
    "phone": "+1 563-324-3508",
    "phoneUnformatted": "+15633243508",
    "claimThisBusiness": false,
    "location": {
      "lat": 41.5389501,
      "lng": -90.6005743
    },
    "locatedIn": "Walgreens Pharmacy",
    "totalScore": 3.1,
    "permanentlyClosed": false,
    "temporarilyClosed": false,
    "placeId": "ChIJvY92RLU04ocRpkY78DI1G04",
    "categories": [
      "Drug store",
      "Beauty supply store",
      "Convenience store",
      "Cosmetics store",
      "Greeting card shop",
      "Perfume store",
      "Stationery store"
    ],
    "fid": "0x87e234b544768fbd:0x4e1b3532f03b46a6",
    "cid": "5628150652224620198",
    "reviewsCount": 131,
    "imagesCount": 17,
    "imageCategories": [],
    "scrapedAt": "2025-06-22T07:54:39.518Z",
    "googleFoodUrl": null,
    "hotelAds": [],
    "openingHours": [
      {
        "day": "Monday",
        "hours": "6 AM to 12 am"
      },
      {
        "day": "Tuesday",
        "hours": "6 AM to 12 am"
      },
      {
        "day": "Wednesday",
        "hours": "6 AM to 12 am"
      },
      {
        "day": "Thursday",
        "hours": "6 AM to 12 am"
      },
      {
        "day": "Friday",
        "hours": "6 AM to 12 am"
      },
      {
        "day": "Saturday",
        "hours": "6 AM to 12 am"
      },
      {
        "day": "Sunday",
        "hours": "6 AM to 12 am"
      }
    ],
    "additionalOpeningHours": {
      "Walgreens Pharmacy": [
        {
          "day": "Monday",
          "hours": "8 am–1:30 pm"
        },
        {
          "day": "Tuesday",
          "hours": "8 am–1:30 pm"
        },
        {
          "day": "Wednesday",
          "hours": "8 am–1:30 pm"
        },
        {
          "day": "Thursday",
          "hours": "8 am–1:30 pm"
        },
        {
          "day": "Friday",
          "hours": "8 am–1:30 pm"
        },
        {
          "day": "Saturday",
          "hours": "9 am–1:30 pm"
        },
        {
          "day": "Sunday",
          "hours": "10 am–1:30 pm"
        }
      ],
      "Walgreens Photo": [
        {
          "day": "Monday",
          "hours": "6 am–12 am"
        },
        {
          "day": "Tuesday",
          "hours": "6 am–12 am"
        },
        {
          "day": "Wednesday",
          "hours": "6 am–12 am"
        },
        {
          "day": "Thursday",
          "hours": "6 am–12 am"
        },
        {
          "day": "Friday",
          "hours": "6 am–12 am"
        },
        {
          "day": "Saturday",
          "hours": "6 am–12 am"
        },
        {
          "day": "Sunday",
          "hours": "6 am–12 am"
        }
      ],
      "Pickup": [
        {
          "day": "Monday",
          "hours": "6 am–12 am"
        },
        {
          "day": "Tuesday",
          "hours": "6 am–12 am"
        },
        {
          "day": "Wednesday",
          "hours": "6 am–12 am"
        },
        {
          "day": "Thursday",
          "hours": "6 am–12 am"
        },
        {
          "day": "Friday",
          "hours": "6 am–12 am"
        },
        {
          "day": "Saturday",
          "hours": "6 am–12 am"
        },
        {
          "day": "Sunday",
          "hours": "6 am–12 am"
        }
      ]
    },
    "peopleAlsoSearch": [],
    "placesTags": [],
    "reviewsTags": [],
    "additionalInfo": {
      "Service options": [
        {
          "Kerbside pickup": true
        },
        {
          "Delivery": true
        },
        {
          "Drive-through": true
        },
        {
          "In-store pick-up": true
        },
        {
          "On-site services": true
        }
      ],
      "Accessibility": [
        {
          "Wheelchair-accessible car park": true
        },
        {
          "Wheelchair-accessible entrance": true
        }
      ],
      "Offerings": [
        {
          "Passport photos": true
        }
      ],
      "Planning": [
        {
          "Quick visit": true
        }
      ],
      "Payments": [
        {
          "Cheques": true
        },
        {
          "Credit cards": true
        },
        {
          "Debit cards": true
        },
        {
          "NFC mobile payments": true
        },
        {
          "SNAP/EBT": true
        },
        {
          "Credit cards": true
        }
      ]
    },
    "gasPrices": [],
    "url": "https://www.google.com/maps/search/?api=1&query=Walgreens&query_place_id=ChIJvY92RLU04ocRpkY78DI1G04",
    "searchPageUrl": "https://www.google.com/maps/search/independent%20pharmacy%20Davenport%20IA/@66.43262335305997,-143.9041190859444,9z?hl=en",
    "searchString": "independent pharmacy Davenport IA",
    "language": "en",
    "rank": 7,
    "isAdvertisement": false,
    "imageUrl": "https://lh3.googleusercontent.com/gps-cs-s/AC9h4nrQHGgWuV5ljhQBI0nmZRepEJa2XyCkRRo33kHN_DFyvK7lT889fOnYKmsOEdQP26w8wzIlFRE1i9frhzErm-321ZQpE9vPyxrLyJVfSfZsEFe5ln1gZeQc77Zi_U5J2swA5B8=w408-h544-k-no",
    "kgmid": "/g/1v9gw048"
  },
  {
    "title": "Lewis Family Drug",
    "price": null,
    "categoryName": "Pharmacy",
    "address": "401 2nd St, Ida Grove, IA 51445",
    "neighborhood": null,
    "street": "401 2nd St",
    "city": "Ida Grove",
    "postalCode": "51445",
    "state": "Iowa",
    "countryCode": "US",
    "website": "https://www.lewisdrug.com/stores/lewis-family-drug-ida-grove-ia",
    "phone": "(712) 364-2120",
    "phoneUnformatted": "+17123642120",
    "claimThisBusiness": false,
    "location": {
      "lat": 42.3449045,
      "lng": -95.4701351
    },
    "totalScore": 4,
    "permanentlyClosed": false,
    "temporarilyClosed": false,
    "placeId": "ChIJXZdEmeNcXEARCc6p3ToBC3M",
    "categories": [
      "Pharmacy"
    ],
    "fid": "0x405c5ce39944975d:0x730b013adda9ce09",
    "cid": "8289720891444153865",
    "reviewsCount": 13,
    "reviewsDistribution": {
      "oneStar": 2,
      "twoStar": 0,
      "threeStar": 1,
      "fourStar": 3,
      "fiveStar": 7
    },
    "imagesCount": 4,
    "imageCategories": [],
    "scrapedAt": "2025-06-22T07:54:41.855Z",
    "googleFoodUrl": null,
    "hotelAds": [],
    "openingHours": [
      {
        "day": "Monday",
        "hours": "8 AM to 6 PM"
      },
      {
        "day": "Tuesday",
        "hours": "8 AM to 6 PM"
      },
      {
        "day": "Wednesday",
        "hours": "8 AM to 6 PM"
      },
      {
        "day": "Thursday",
        "hours": "8 AM to 6 PM"
      },
      {
        "day": "Friday",
        "hours": "8 AM to 6 PM"
      },
      {
        "day": "Saturday",
        "hours": "9 AM to 1 PM"
      },
      {
        "day": "Sunday",
        "hours": "Closed"
      }
    ],
    "peopleAlsoSearch": [],
    "placesTags": [],
    "reviewsTags": [],
    "additionalInfo": {
      "Service options": [
        {
          "Delivery": true
        },
        {
          "Drive-through": true
        },
        {
          "In-store pickup": true
        },
        {
          "In-store shopping": true
        },
        {
          "Same-day delivery": true
        }
      ],
      "Accessibility": [
        {
          "Wheelchair accessible entrance": true
        },
        {
          "Wheelchair accessible parking lot": true
        }
      ],
      "Amenities": [
        {
          "Wi-Fi": true
        },
        {
          "Free Wi-Fi": true
        }
      ],
      "Payments": [
        {
          "Checks": true
        },
        {
          "Credit cards": true
        },
        {
          "Debit cards": true
        },
        {
          "NFC mobile payments": true
        },
        {
          "Credit cards": true
        }
      ]
    },
    "gasPrices": [],
    "url": "https://www.google.com/maps/search/?api=1&query=Lewis%20Family%20Drug&query_place_id=ChIJXZdEmeNcXEARCc6p3ToBC3M",
    "searchPageUrl": "https://www.google.com/maps/search/independent%20pharmacy%20Davenport%20IA/@42.54640259466427,-99.1509755427839,8z?hl=en",
    "searchString": "independent pharmacy Davenport IA",
    "language": "en",
    "rank": 21,
    "isAdvertisement": false,
    "imageUrl": "https://lh3.googleusercontent.com/p/AF1QipM9JJhZ5C6CbtuY2OjZRzEu4Ehi8C6rRFCBNXgn=w408-h289-k-no",
    "kgmid": "/g/1tzvx1kg"
  },
  {
    "title": "Holstein Community Pharmacy",
    "price": null,
    "categoryName": "Pharmacy",
    "address": "108 N Main St, Holstein, IA 51025",
    "neighborhood": null,
    "street": "108 N Main St",
    "city": "Holstein",
    "postalCode": "51025",
    "state": "Iowa",
    "countryCode": "US",
    "website": "https://www.mygnp.com/pharmacies/holstein-community-pharmacy-holstein-ia-51025/?utm_source=google&utm_medium=local&utm_campaign=localmaps&utm_content=1626045",
    "phone": "(712) 368-0010",
    "phoneUnformatted": "+17123680010",
    "claimThisBusiness": false,
    "location": {
      "lat": 42.489621,
      "lng": -95.544405
    },
    "totalScore": 5,
    "permanentlyClosed": false,
    "temporarilyClosed": false,
    "placeId": "ChIJ20e8RU1jjYcRbR4w0hwWfyg",
    "categories": [
      "Pharmacy",
      "Drug store"
    ],
    "fid": "0x878d634d45bc47db:0x287f161cd2301e6d",
    "cid": "2918075396600634989",
    "reviewsCount": 6,
    "reviewsDistribution": {
      "oneStar": 0,
      "twoStar": 0,
      "threeStar": 0,
      "fourStar": 0,
      "fiveStar": 6
    },
    "imagesCount": 1,
    "imageCategories": [],
    "scrapedAt": "2025-06-22T07:54:41.856Z",
    "googleFoodUrl": null,
    "hotelAds": [],
    "openingHours": [
      {
        "day": "Monday",
        "hours": "8 AM to 6 PM"
      },
      {
        "day": "Tuesday",
        "hours": "8 AM to 6 PM"
      },
      {
        "day": "Wednesday",
        "hours": "8 AM to 6 PM"
      },
      {
        "day": "Thursday",
        "hours": "8 AM to 6 PM"
      },
      {
        "day": "Friday",
        "hours": "8 AM to 6 PM"
      },
      {
        "day": "Saturday",
        "hours": "Closed"
      },
      {
        "day": "Sunday",
        "hours": "Closed"
      }
    ],
    "peopleAlsoSearch": [],
    "placesTags": [],
    "reviewsTags": [],
    "additionalInfo": {
      "Service options": [
        {
          "Curbside pickup": true
        },
        {
          "In-store pickup": true
        },
        {
          "In-store shopping": true
        }
      ],
      "Accessibility": [
        {
          "Wheelchair accessible entrance": true
        },
        {
          "Wheelchair accessible parking lot": true
        }
      ],
      "Planning": [
        {
          "Quick visit": true
        }
      ],
      "Payments": [
        {
          "Credit cards": true
        },
        {
          "Debit cards": true
        },
        {
          "NFC mobile payments": true
        },
        {
          "Credit cards": true
        }
      ]
    },
    "gasPrices": [],
    "url": "https://www.google.com/maps/search/?api=1&query=Holstein%20Community%20Pharmacy&query_place_id=ChIJ20e8RU1jjYcRbR4w0hwWfyg",
    "searchPageUrl": "https://www.google.com/maps/search/independent%20pharmacy%20Davenport%20IA/@42.54640259466427,-99.1509755427839,8z?hl=en",
    "searchString": "independent pharmacy Davenport IA",
    "language": "en",
    "rank": 22,
    "isAdvertisement": false,
    "imageUrl": "https://streetviewpixels-pa.googleapis.com/v1/thumbnail?panoid=kK_Yp4AbBywz2EJ4jbKBWw&cb_client=search.gws-prod.gps&w=408&h=240&yaw=95.826065&pitch=0&thumbfov=100",
    "kgmid": "/g/11h7f7kj2k"
  }
]