[
  {
    "title": "Parker Pharmacy",
    "price": null,
    "categoryName": "Pharmacy",
    "address": "1388 Hertel Ave, Buffalo, NY 14216",
    "neighborhood": "North Park",
    "street": "1388 Hertel Ave",
    "city": "Buffalo",
    "postalCode": "14216",
    "state": "New York",
    "countryCode": "US",
    "website": "http://www.parkerpharmacy.com/",
    "phone": "(716) 725-0887",
    "phoneUnformatted": "+17167250887",
    "claimThisBusiness": false,
    "location": {
      "lat": 42.9479594,
      "lng": -78.8566968
    },
    "totalScore": 4.8,
    "permanentlyClosed": false,
    "temporarilyClosed": false,
    "placeId": "ChIJ59O9wUht04kRpKIReDpMq7c",
    "categories": [
      "Pharmacy",
      "Cosmetics store",
      "Gift shop",
      "Vitamin & supplements store",
      "Wellness program"
    ],
    "fid": "0x89d36d48c1bdd3e7:0xb7ab4c3a7811a2a4",
    "cid": "13234755743964570276",
    "reviewsCount": 30,
    "imagesCount": 68,
    "imageCategories": [],
    "scrapedAt": "2025-06-22T06:10:35.159Z",
    "googleFoodUrl": null,
    "hotelAds": [],
    "openingHours": [
      {
        "day": "Monday",
        "hours": "9:30 AM to 6 PM"
      },
      {
        "day": "Tuesday",
        "hours": "9:30 AM to 6 PM"
      },
      {
        "day": "Wednesday",
        "hours": "9:30 AM to 6 PM"
      },
      {
        "day": "Thursday",
        "hours": "9:30 AM to 6 PM"
      },
      {
        "day": "Friday",
        "hours": "9:30 AM to 6 PM"
      },
      {
        "day": "Saturday",
        "hours": "10 AM to 4 PM"
      },
      {
        "day": "Sunday",
        "hours": "Closed"
      }
    ],
    "peopleAlsoSearch": [],
    "placesTags": [],
    "reviewsTags": [],
    "additionalInfo": {
      "From the business": [
        {
          "Identifies as women-owned": true
        },
        {
          "Small business": true
        }
      ],
      "Service options": [
        {
          "In-store pickup": true
        },
        {
          "Onsite services": true
        }
      ],
      "Accessibility": [
        {
          "Wheelchair accessible entrance": true
        },
        {
          "Wheelchair accessible parking lot": true
        },
        {
          "Wheelchair accessible restroom": true
        },
        {
          "Wheelchair accessible seating": true
        }
      ],
      "Amenities": [
        {
          "Gender-neutral restroom": true
        }
      ],
      "Crowd": [
        {
          "LGBTQ+ friendly": true
        },
        {
          "Transgender safespace": true
        }
      ],
      "Planning": [
        {
          "Quick visit": true
        }
      ],
      "Payments": [
        {
          "Credit cards": true
        },
        {
          "Debit cards": true
        },
        {
          "Credit cards": true
        }
      ],
      "Parking": [
        {
          "On-site parking": true
        },
        {
          "Paid street parking": true
        }
      ]
    },
    "gasPrices": [],
    "url": "https://www.google.com/maps/search/?api=1&query=Parker%20Pharmacy&query_place_id=ChIJ59O9wUht04kRpKIReDpMq7c",
    "searchPageUrl": "https://www.google.com/maps/search/independent%20pharmacy%20Buffalo%20NY/@57.40072944694004,-156.56290792837981,9z?hl=en",
    "searchString": "independent pharmacy Buffalo NY",
    "language": "en",
    "rank": 1,
    "isAdvertisement": false,
    "imageUrl": "https://lh3.googleusercontent.com/p/AF1QipP4B0n_gWyoamkpXvOaMUXRv7u0RbAKXKITOHHA=w426-h240-k-no",
    "kgmid": "/g/1hc2n4drt"
  },
  {
    "title": "Urban Health Pharmacy Inc.",
    "price": null,
    "categoryName": "Pharmacy",
    "address": "564 Niagara St, Buffalo, NY 14201",
    "neighborhood": "Front Park",
    "street": "564 Niagara St",
    "city": "Buffalo",
    "postalCode": "14201",
    "state": "New York",
    "countryCode": "US",
    "phone": "(716) 768-0359",
    "phoneUnformatted": "+17167680359",
    "claimThisBusiness": false,
    "location": {
      "lat": 42.8987671,
      "lng": -78.8902494
    },
    "totalScore": 5,
    "permanentlyClosed": false,
    "temporarilyClosed": false,
    "placeId": "ChIJjfbvSigT04kRs7q6J56SaWI",
    "categories": [
      "Pharmacy"
    ],
    "fid": "0x89d313284aeff68d:0x6269929e27babab3",
    "cid": "7091360296240593587",
    "reviewsCount": 102,
    "imagesCount": 17,
    "imageCategories": [],
    "scrapedAt": "2025-06-22T06:10:35.160Z",
    "googleFoodUrl": null,
    "hotelAds": [],
    "openingHours": [
      {
        "day": "Monday",
        "hours": "9 AM to 5 PM"
      },
      {
        "day": "Tuesday",
        "hours": "9 AM to 5 PM"
      },
      {
        "day": "Wednesday",
        "hours": "9 AM to 5 PM"
      },
      {
        "day": "Thursday",
        "hours": "9 AM to 5 PM"
      },
      {
        "day": "Friday",
        "hours": "9 AM to 5 PM"
      },
      {
        "day": "Saturday",
        "hours": "Closed"
      },
      {
        "day": "Sunday",
        "hours": "Closed"
      }
    ],
    "peopleAlsoSearch": [],
    "placesTags": [],
    "reviewsTags": [],
    "additionalInfo": {
      "From the business": [
        {
          "Small business": true
        }
      ],
      "Service options": [
        {
          "Delivery": true
        },
        {
          "In-store pickup": true
        },
        {
          "In-store shopping": true
        },
        {
          "Same-day delivery": true
        }
      ],
      "Accessibility": [
        {
          "Wheelchair accessible entrance": true
        },
        {
          "Wheelchair accessible parking lot": true
        }
      ],
      "Payments": [
        {
          "Credit cards": true
        },
        {
          "Debit cards": true
        },
        {
          "NFC mobile payments": true
        },
        {
          "Credit cards": true
        }
      ]
    },
    "gasPrices": [],
    "url": "https://www.google.com/maps/search/?api=1&query=Urban%20Health%20Pharmacy%20Inc.&query_place_id=ChIJjfbvSigT04kRs7q6J56SaWI",
    "searchPageUrl": "https://www.google.com/maps/search/independent%20pharmacy%20Buffalo%20NY/@57.40072944694004,-156.56290792837981,9z?hl=en",
    "searchString": "independent pharmacy Buffalo NY",
    "language": "en",
    "rank": 2,
    "isAdvertisement": false,
    "imageUrl": "https://lh3.googleusercontent.com/p/AF1QipMjuhExZIUvJrgA_S--XctpQhJMYi3ISvnZzVbO=w408-h544-k-no",
    "kgmid": "/g/11swk9plz0"
  },
  {
    "title": "Vital Pharmacy",
    "price": null,
    "categoryName": "Pharmacy",
    "address": "301 Connecticut St, Buffalo, NY 14213",
    "neighborhood": "Front Park",
    "street": "301 Connecticut St",
    "city": "Buffalo",
    "postalCode": "14213",
    "state": "New York",
    "countryCode": "US",
    "website": "http://www.vitalpharmacyrx.com/",
    "phone": "(716) 923-4603",
    "phoneUnformatted": "+17169234603",
    "claimThisBusiness": false,
    "location": {
      "lat": 42.9047553,
      "lng": -78.8892416
    },
    "totalScore": 4.7,
    "permanentlyClosed": false,
    "temporarilyClosed": false,
    "placeId": "ChIJ36aM9SoT04kRR3SDuoC07_U",
    "categories": [
      "Pharmacy"
    ],
    "fid": "0x89d3132af58ca6df:0xf5efb480ba837447",
    "cid": "17721581523704181831",
    "reviewsCount": 23,
    "imagesCount": 4,
    "imageCategories": [],
    "scrapedAt": "2025-06-22T06:10:35.161Z",
    "googleFoodUrl": null,
    "hotelAds": [],
    "openingHours": [
      {
        "day": "Monday",
        "hours": "8 AM to 5 PM"
      },
      {
        "day": "Tuesday",
        "hours": "8 AM to 5 PM"
      },
      {
        "day": "Wednesday",
        "hours": "8 AM to 5 PM"
      },
      {
        "day": "Thursday",
        "hours": "8 AM to 5 PM"
      },
      {
        "day": "Friday",
        "hours": "8 AM to 5 PM"
      },
      {
        "day": "Saturday",
        "hours": "9 AM to 1 PM"
      },
      {
        "day": "Sunday",
        "hours": "Closed"
      }
    ],
    "peopleAlsoSearch": [],
    "placesTags": [],
    "reviewsTags": [],
    "additionalInfo": {
      "From the business": [
        {
          "Small business": true
        }
      ],
      "Service options": [
        {
          "Delivery": true
        },
        {
          "In-store pickup": true
        }
      ],
      "Accessibility": [
        {
          "Wheelchair accessible entrance": true
        },
        {
          "Wheelchair accessible parking lot": true
        }
      ],
      "Payments": [
        {
          "Credit cards": true
        },
        {
          "Debit cards": true
        },
        {
          "NFC mobile payments": true
        },
        {
          "Credit cards": true
        }
      ]
    },
    "gasPrices": [],
    "url": "https://www.google.com/maps/search/?api=1&query=Vital%20Pharmacy&query_place_id=ChIJ36aM9SoT04kRR3SDuoC07_U",
    "searchPageUrl": "https://www.google.com/maps/search/independent%20pharmacy%20Buffalo%20NY/@57.40072944694004,-156.56290792837981,9z?hl=en",
    "searchString": "independent pharmacy Buffalo NY",
    "language": "en",
    "rank": 3,
    "isAdvertisement": false,
    "imageUrl": "https://lh3.googleusercontent.com/gps-cs-s/AC9h4nq3FjGsegEkCMjULDK9_GXRQ8FZEMSBswIlXCbo69s-Kk0sTa3qU1g5mkFM1gNvDwqm8vgZrE1QCO8d45oRbpJiXDNz-oz_a-zIxPhYoQbA4GB2ritHvRBvDqBqK29CgbtQ2sZv9A=w408-h544-k-no",
    "kgmid": "/g/11q1v2xh2z"
  },
  {
    "title": "Riverview Professional Pharmacy",
    "price": null,
    "categoryName": "Pharmacy",
    "address": "1050 Niagara St, Buffalo, NY 14213",
    "neighborhood": "Front Park",
    "street": "1050 Niagara St",
    "city": "Buffalo",
    "postalCode": "14213",
    "state": "New York",
    "countryCode": "US",
    "website": "http://rxriverview.com/",
    "phone": "(866) 435-0049",
    "phoneUnformatted": "+18664350049",
    "claimThisBusiness": false,
    "location": {
      "lat": 42.9121413,
      "lng": -78.9007063
    },
    "totalScore": 4,
    "permanentlyClosed": false,
    "temporarilyClosed": false,
    "placeId": "ChIJQ7ric0gT04kROa-tWVJl2VA",
    "categories": [
      "Pharmacy"
    ],
    "fid": "0x89d3134873e2ba43:0x50d9655259adaf39",
    "cid": "5825798997346725689",
    "reviewsCount": 27,
    "imagesCount": 1,
    "imageCategories": [],
    "scrapedAt": "2025-06-22T06:10:35.161Z",
    "googleFoodUrl": null,
    "hotelAds": [],
    "openingHours": [
      {
        "day": "Monday",
        "hours": "8 AM to 5 PM"
      },
      {
        "day": "Tuesday",
        "hours": "8 AM to 5 PM"
      },
      {
        "day": "Wednesday",
        "hours": "8 AM to 5 PM"
      },
      {
        "day": "Thursday",
        "hours": "8 AM to 5 PM"
      },
      {
        "day": "Friday",
        "hours": "8 AM to 5 PM"
      },
      {
        "day": "Saturday",
        "hours": "Closed"
      },
      {
        "day": "Sunday",
        "hours": "Closed"
      }
    ],
    "peopleAlsoSearch": [],
    "placesTags": [],
    "reviewsTags": [],
    "additionalInfo": {
      "From the business": [
        {
          "Small business": true
        }
      ],
      "Service options": [
        {
          "Delivery": true
        }
      ],
      "Accessibility": [
        {
          "Wheelchair accessible entrance": true
        },
        {
          "Wheelchair accessible parking lot": true
        }
      ],
      "Payments": [
        {
          "Credit cards": true
        }
      ]
    },
    "gasPrices": [],
    "url": "https://www.google.com/maps/search/?api=1&query=Riverview%20Professional%20Pharmacy&query_place_id=ChIJQ7ric0gT04kROa-tWVJl2VA",
    "searchPageUrl": "https://www.google.com/maps/search/independent%20pharmacy%20Buffalo%20NY/@57.40072944694004,-156.56290792837981,9z?hl=en",
    "searchString": "independent pharmacy Buffalo NY",
    "language": "en",
    "rank": 4,
    "isAdvertisement": false,
    "imageUrl": "https://streetviewpixels-pa.googleapis.com/v1/thumbnail?panoid=lq8uFAuXLeiAelC9P0ggcg&cb_client=search.gws-prod.gps&w=408&h=240&yaw=234.04434&pitch=0&thumbfov=100",
    "kgmid": "/g/11h1k98d9y"
  },
  {
    "title": "Buffalo Pharmacies Institutional",
    "price": null,
    "categoryName": "Pharmacy",
    "address": "20 Lawrence Bell Dr Suite 100, Buffalo, NY 14221",
    "neighborhood": null,
    "street": "20 Lawrence Bell Dr Suite 100",
    "city": "Buffalo",
    "postalCode": "14221",
    "state": "New York",
    "countryCode": "US",
    "website": "https://buffalopharmacies.com/services/institutional/",
    "phone": "(716) 204-9060",
    "phoneUnformatted": "+17162049060",
    "claimThisBusiness": true,
    "location": {
      "lat": 42.9535723,
      "lng": -78.7238772
    },
    "totalScore": 4,
    "permanentlyClosed": false,
    "temporarilyClosed": false,
    "placeId": "ChIJKVicPO1004kRmpcH4YIh2BQ",
    "categories": [
      "Pharmacy"
    ],
    "fid": "0x89d374ed3c9c5829:0x14d82182e107979a",
    "cid": "1501987321732896666",
    "reviewsCount": 1,
    "imagesCount": 2,
    "imageCategories": [],
    "scrapedAt": "2025-06-22T06:10:35.161Z",
    "googleFoodUrl": null,
    "hotelAds": [],
    "openingHours": [
      {
        "day": "Monday",
        "hours": "9 AM to 5:30 PM"
      },
      {
        "day": "Tuesday",
        "hours": "9 AM to 5:30 PM"
      },
      {
        "day": "Wednesday",
        "hours": "9 AM to 5:30 PM"
      },
      {
        "day": "Thursday",
        "hours": "9 AM to 5:30 PM"
      },
      {
        "day": "Friday",
        "hours": "9 AM to 5:30 PM"
      },
      {
        "day": "Saturday",
        "hours": "10 AM to 5:30 PM"
      },
      {
        "day": "Sunday",
        "hours": "Closed"
      }
    ],
    "peopleAlsoSearch": [],
    "placesTags": [],
    "reviewsTags": [],
    "additionalInfo": {
      "Service options": [
        {
          "Delivery": true
        }
      ],
      "Accessibility": [
        {
          "Wheelchair accessible entrance": true
        },
        {
          "Wheelchair accessible parking lot": true
        }
      ],
      "Payments": [
        {
          "Credit cards": true
        }
      ]
    },
    "gasPrices": [],
    "url": "https://www.google.com/maps/search/?api=1&query=Buffalo%20Pharmacies%20Institutional&query_place_id=ChIJKVicPO1004kRmpcH4YIh2BQ",
    "searchPageUrl": "https://www.google.com/maps/search/independent%20pharmacy%20Buffalo%20NY/@57.40072944694004,-156.56290792837981,9z?hl=en",
    "searchString": "independent pharmacy Buffalo NY",
    "language": "en",
    "rank": 5,
    "isAdvertisement": false,
    "imageUrl": "https://lh3.googleusercontent.com/gps-cs-s/AC9h4noE4H5sbdLuOFwDRWtyscGHWdZDvrcxAtfApz8ogU-j7fdOT2VQJTIDqoiDHY8nQpc5a0iupO16KMYsg8jCPefYShBiHLnecLlvd0o4Dnic1NThMYcGQXKp2EcktkmaoFHYXeIo=w426-h240-k-no",
    "kgmid": "/g/1wk6_rld"
  },
  {
    "title": "Nickel City Pharmacy",
    "price": null,
    "categoryName": "Pharmacy",
    "address": "1791 South Park Ave, Buffalo, NY 14220",
    "neighborhood": "Triangle",
    "street": "1791 South Park Ave",
    "city": "Buffalo",
    "postalCode": "14220",
    "state": "New York",
    "countryCode": "US",
    "website": "https://www.nickelcitypharmacy.com/",
    "phone": "(716) 823-8300",
    "phoneUnformatted": "+17168238300",
    "claimThisBusiness": false,
    "location": {
      "lat": 42.8500228,
      "lng": -78.8242644
    },
    "totalScore": 4.6,
    "permanentlyClosed": false,
    "temporarilyClosed": false,
    "placeId": "ChIJNVRo1A8O04kRjiVm-B9if18",
    "categories": [
      "Pharmacy"
    ],
    "fid": "0x89d30e0fd4685435:0x5f7f621ff866258e",
    "cid": "6881326645096359310",
    "reviewsCount": 15,
    "imagesCount": 1,
    "imageCategories": [],
    "scrapedAt": "2025-06-22T06:10:35.161Z",
    "googleFoodUrl": null,
    "hotelAds": [],
    "openingHours": [
      {
        "day": "Monday",
        "hours": "9 AM to 6 PM"
      },
      {
        "day": "Tuesday",
        "hours": "9 AM to 6 PM"
      },
      {
        "day": "Wednesday",
        "hours": "9 AM to 6 PM"
      },
      {
        "day": "Thursday",
        "hours": "9 AM to 6 PM"
      },
      {
        "day": "Friday",
        "hours": "9 AM to 6 PM"
      },
      {
        "day": "Saturday",
        "hours": "10 AM to 3 PM"
      },
      {
        "day": "Sunday",
        "hours": "Closed"
      }
    ],
    "peopleAlsoSearch": [],
    "placesTags": [],
    "reviewsTags": [],
    "additionalInfo": {
      "From the business": [
        {
          "Small business": true
        }
      ],
      "Service options": [
        {
          "Delivery": true
        },
        {
          "Drive-through": true
        },
        {
          "In-store pickup": true
        },
        {
          "Same-day delivery": true
        }
      ],
      "Accessibility": [
        {
          "Wheelchair accessible entrance": true
        },
        {
          "Wheelchair accessible parking lot": true
        }
      ],
      "Planning": [
        {
          "Quick visit": true
        }
      ],
      "Payments": [
        {
          "Credit cards": true
        },
        {
          "Debit cards": true
        },
        {
          "NFC mobile payments": true
        },
        {
          "Credit cards": true
        }
      ]
    },
    "gasPrices": [],
    "url": "https://www.google.com/maps/search/?api=1&query=Nickel%20City%20Pharmacy&query_place_id=ChIJNVRo1A8O04kRjiVm-B9if18",
    "searchPageUrl": "https://www.google.com/maps/search/independent%20pharmacy%20Buffalo%20NY/@57.40072944694004,-156.56290792837981,9z?hl=en",
    "searchString": "independent pharmacy Buffalo NY",
    "language": "en",
    "rank": 6,
    "isAdvertisement": false,
    "imageUrl": "https://streetviewpixels-pa.googleapis.com/v1/thumbnail?panoid=1JJ7IX4uT4LgE6tmHs1FMg&cb_client=search.gws-prod.gps&w=408&h=240&yaw=242.27513&pitch=0&thumbfov=100",
    "kgmid": "/g/1td7v4ty"
  },
  {
    "title": "Snyder Pharmacy Inc",
    "price": null,
    "categoryName": "Pharmacy",
    "address": "4536 Main St #1, Buffalo, NY 14226",
    "neighborhood": null,
    "street": "4536 Main St #1",
    "city": "Buffalo",
    "postalCode": "14226",
    "state": "New York",
    "countryCode": "US",
    "phone": "(716) 839-3050",
    "phoneUnformatted": "+17168393050",
    "claimThisBusiness": false,
    "location": {
      "lat": 42.963245,
      "lng": -78.782379
    },
    "totalScore": 4.1,
    "permanentlyClosed": false,
    "temporarilyClosed": false,
    "placeId": "ChIJPWtodwVz04kRqxnfOTD4I04",
    "categories": [
      "Pharmacy"
    ],
    "fid": "0x89d3730577686b3d:0x4e23f83039df19ab",
    "cid": "5630616845156293035",
    "reviewsCount": 7,
    "imagesCount": 1,
    "imageCategories": [],
    "scrapedAt": "2025-06-22T06:10:35.161Z",
    "googleFoodUrl": null,
    "hotelAds": [],
    "openingHours": [
      {
        "day": "Monday",
        "hours": "9 AM to 6 PM"
      },
      {
        "day": "Tuesday",
        "hours": "9 AM to 6 PM"
      },
      {
        "day": "Wednesday",
        "hours": "9 AM to 6 PM"
      },
      {
        "day": "Thursday",
        "hours": "9 AM to 6 PM"
      },
      {
        "day": "Friday",
        "hours": "9 AM to 6 PM"
      },
      {
        "day": "Saturday",
        "hours": "9 AM to 3 PM"
      },
      {
        "day": "Sunday",
        "hours": "10 AM to 2 PM"
      }
    ],
    "additionalOpeningHours": {
      "Pickup": [
        {
          "day": "Monday",
          "hours": "9 AM–6 PM"
        },
        {
          "day": "Tuesday",
          "hours": "9 AM–6 PM"
        },
        {
          "day": "Wednesday",
          "hours": "9 AM–6 PM"
        },
        {
          "day": "Thursday",
          "hours": "9 AM–6 PM"
        },
        {
          "day": "Friday",
          "hours": "9 AM–6 PM"
        },
        {
          "day": "Saturday",
          "hours": "9 AM–3 PM"
        },
        {
          "day": "Sunday",
          "hours": "10 AM–2 PM"
        }
      ]
    },
    "peopleAlsoSearch": [],
    "placesTags": [],
    "reviewsTags": [],
    "additionalInfo": {
      "From the business": [
        {
          "Small business": true
        }
      ],
      "Service options": [
        {
          "In-store pickup": true
        },
        {
          "In-store shopping": true
        },
        {
          "Onsite services": true
        },
        {
          "English": true
        }
      ],
      "Accessibility": [
        {
          "Wheelchair accessible entrance": true
        },
        {
          "Wheelchair accessible parking lot": true
        },
        {
          "Wheelchair accessible seating": true
        }
      ],
      "Crowd": [
        {
          "LGBTQ+ friendly": true
        },
        {
          "Transgender safespace": true
        }
      ],
      "Planning": [
        {
          "Quick visit": true
        }
      ],
      "Payments": [
        {
          "Credit cards": true
        },
        {
          "Debit cards": true
        },
        {
          "NFC mobile payments": true
        },
        {
          "Credit cards": true
        }
      ],
      "Parking": [
        {
          "Free parking lot": true
        },
        {
          "Free street parking": true
        }
      ]
    },
    "gasPrices": [],
    "url": "https://www.google.com/maps/search/?api=1&query=Snyder%20Pharmacy%20Inc&query_place_id=ChIJPWtodwVz04kRqxnfOTD4I04",
    "searchPageUrl": "https://www.google.com/maps/search/independent%20pharmacy%20Buffalo%20NY/@57.40072944694004,-156.56290792837981,9z?hl=en",
    "searchString": "independent pharmacy Buffalo NY",
    "language": "en",
    "rank": 7,
    "isAdvertisement": false,
    "imageUrl": "https://streetviewpixels-pa.googleapis.com/v1/thumbnail?panoid=n80NOVJKWoSPGBquQW2lcg&cb_client=search.gws-prod.gps&w=408&h=240&yaw=54.378094&pitch=0&thumbfov=100",
    "kgmid": "/g/1v5k3_v4"
  },
  {
    "title": "Seneca Pharmacy of WNY INC.",
    "price": null,
    "categoryName": "Pharmacy",
    "address": "1979 Seneca St, Buffalo, NY 14210",
    "neighborhood": "Cazenovia Park",
    "street": "1979 Seneca St",
    "city": "Buffalo",
    "postalCode": "14210",
    "state": "New York",
    "countryCode": "US",
    "website": "http://www.medicineshoppe.com/pharmacy-locations/new%20york/buffalo%20seneca%20street/home",
    "phone": "(716) 827-4900",
    "phoneUnformatted": "+17168274900",
    "claimThisBusiness": false,
    "location": {
      "lat": 42.8573366,
      "lng": -78.8124241
    },
    "totalScore": 4.5,
    "permanentlyClosed": false,
    "temporarilyClosed": false,
    "placeId": "ChIJLX9LnnUO04kRFXI4loL-u3k",
    "categories": [
      "Pharmacy"
    ],
    "fid": "0x89d30e759e4b7f2d:0x79bbfe8296387215",
    "cid": "8771884536053658133",
    "reviewsCount": 19,
    "imagesCount": 2,
    "imageCategories": [],
    "scrapedAt": "2025-06-22T06:10:35.161Z",
    "googleFoodUrl": null,
    "hotelAds": [],
    "openingHours": [
      {
        "day": "Monday",
        "hours": "9 AM to 6 PM"
      },
      {
        "day": "Tuesday",
        "hours": "9 AM to 6 PM"
      },
      {
        "day": "Wednesday",
        "hours": "9 AM to 6 PM"
      },
      {
        "day": "Thursday",
        "hours": "9 AM to 6 PM"
      },
      {
        "day": "Friday",
        "hours": "9 AM to 6 PM"
      },
      {
        "day": "Saturday",
        "hours": "10 AM to 3 PM"
      },
      {
        "day": "Sunday",
        "hours": "Closed"
      }
    ],
    "additionalOpeningHours": {
      "Delivery": [
        {
          "day": "Monday",
          "hours": "10 AM–6 PM"
        },
        {
          "day": "Tuesday",
          "hours": "Closed"
        },
        {
          "day": "Wednesday",
          "hours": "10 AM–6 PM"
        },
        {
          "day": "Thursday",
          "hours": "Closed"
        },
        {
          "day": "Friday",
          "hours": "10 AM–6 PM"
        },
        {
          "day": "Saturday",
          "hours": "Closed"
        },
        {
          "day": "Sunday",
          "hours": "Closed"
        }
      ]
    },
    "peopleAlsoSearch": [],
    "placesTags": [],
    "reviewsTags": [],
    "additionalInfo": {
      "Service options": [
        {
          "Delivery": true
        },
        {
          "In-store pickup": true
        },
        {
          "In-store shopping": true
        }
      ],
      "Accessibility": [
        {
          "Wheelchair accessible entrance": true
        },
        {
          "Wheelchair accessible parking lot": true
        },
        {
          "Wheelchair accessible seating": true
        }
      ],
      "Crowd": [
        {
          "LGBTQ+ friendly": true
        },
        {
          "Transgender safespace": true
        }
      ],
      "Payments": [
        {
          "Checks": true
        },
        {
          "Credit cards": true
        },
        {
          "Debit cards": true
        },
        {
          "Credit cards": true
        }
      ]
    },
    "gasPrices": [],
    "url": "https://www.google.com/maps/search/?api=1&query=Seneca%20Pharmacy%20of%20WNY%20INC.&query_place_id=ChIJLX9LnnUO04kRFXI4loL-u3k",
    "searchPageUrl": "https://www.google.com/maps/search/independent%20pharmacy%20Buffalo%20NY/@57.40072944694004,-156.56290792837981,9z?hl=en",
    "searchString": "independent pharmacy Buffalo NY",
    "language": "en",
    "rank": 8,
    "isAdvertisement": false,
    "imageUrl": "https://lh3.googleusercontent.com/gps-cs-s/AC9h4npfwh23NdtGCE5FIfm2HyNoIX7qQCFsoOFuhEX-dcWmVs3XB5n4yxaDC3zECHpzg3GxfjIVsCjVFR8o4TMVkK9d-uZ0L96kxad0eGDjwtsS4j-B8M86qoIRKSTwRLuosij_frBY=w426-h240-k-no",
    "kgmid": "/g/1vvyz1jb"
  },
  {
    "title": "Buffalo Pharmacies, Inc.",
    "price": null,
    "categoryName": "Pharmacy",
    "address": "1479 Kensington Ave, Buffalo, NY 14215",
    "neighborhood": "Kensington",
    "street": "1479 Kensington Ave",
    "city": "Buffalo",
    "postalCode": "14215",
    "state": "New York",
    "countryCode": "US",
    "website": "http://www.buffalopharmacies.com/",
    "phone": "(716) 832-7744",
    "phoneUnformatted": "+17168327744",
    "claimThisBusiness": true,
    "location": {
      "lat": 42.9425307,
      "lng": -78.8017924
    },
    "totalScore": 3.3,
    "permanentlyClosed": false,
    "temporarilyClosed": false,
    "placeId": "ChIJJSmYYNBy04kRlI-bikz6fvg",
    "categories": [
      "Pharmacy",
      "Medical supply store"
    ],
    "fid": "0x89d372d060982925:0xf87efa4c8a9b8f94",
    "cid": "17906024375121579924",
    "reviewsCount": 67,
    "imagesCount": 3,
    "imageCategories": [],
    "scrapedAt": "2025-06-22T06:10:35.161Z",
    "googleFoodUrl": null,
    "hotelAds": [],
    "openingHours": [
      {
        "day": "Monday",
        "hours": "9 AM to 6 PM"
      },
      {
        "day": "Tuesday",
        "hours": "9 AM to 6 PM"
      },
      {
        "day": "Wednesday",
        "hours": "9 AM to 6 PM"
      },
      {
        "day": "Thursday",
        "hours": "9 AM to 6 PM"
      },
      {
        "day": "Friday",
        "hours": "9 AM to 6 PM"
      },
      {
        "day": "Saturday",
        "hours": "9 AM to 2 PM"
      },
      {
        "day": "Sunday",
        "hours": "Closed"
      }
    ],
    "peopleAlsoSearch": [],
    "placesTags": [],
    "reviewsTags": [],
    "additionalInfo": {
      "Service options": [
        {
          "Delivery": true
        },
        {
          "In-store pickup": true
        },
        {
          "Same-day delivery": true
        }
      ],
      "Accessibility": [
        {
          "Wheelchair accessible entrance": true
        },
        {
          "Wheelchair accessible parking lot": true
        }
      ],
      "Planning": [
        {
          "Quick visit": true
        }
      ],
      "Payments": [
        {
          "Credit cards": true
        },
        {
          "Debit cards": true
        },
        {
          "Credit cards": true
        }
      ]
    },
    "gasPrices": [],
    "url": "https://www.google.com/maps/search/?api=1&query=Buffalo%20Pharmacies%2C%20Inc.&query_place_id=ChIJJSmYYNBy04kRlI-bikz6fvg",
    "searchPageUrl": "https://www.google.com/maps/search/independent%20pharmacy%20Buffalo%20NY/@57.40072944694004,-156.56290792837981,9z?hl=en",
    "searchString": "independent pharmacy Buffalo NY",
    "language": "en",
    "rank": 9,
    "isAdvertisement": false,
    "imageUrl": "https://lh3.googleusercontent.com/gps-cs-s/AC9h4nr-hzp_WhXE0_0uc-RwnO4L9rq4Yko4x3UAzlrFuzFZgGdy9hRZpXzSs1E2ktegCYJTg1J7dWb7GVkJt87RQbkxl2DzCyRxuODyU07Z295HJyqno3ukoiUHRaLXuFmgHrv9EIGUvg=w408-h544-k-no",
    "kgmid": "/g/1tm89dzg"
  },
  {
    "title": "Clinton Pharmacy",
    "price": null,
    "categoryName": "Pharmacy",
    "address": "2032 Clinton St, Buffalo, NY 14206",
    "neighborhood": "Kaisertown",
    "street": "2032 Clinton St",
    "city": "Buffalo",
    "postalCode": "14206",
    "state": "New York",
    "countryCode": "US",
    "website": "https://www.clintonpharmacybuffalo.com/",
    "phone": "(716) 824-5200",
    "phoneUnformatted": "+17168245200",
    "claimThisBusiness": false,
    "location": {
      "lat": 42.872119,
      "lng": -78.8012607
    },
    "totalScore": 4.5,
    "permanentlyClosed": false,
    "temporarilyClosed": false,
    "placeId": "ChIJBwfnKMkN04kRlp8aXWgjy3A",
    "categories": [
      "Pharmacy"
    ],
    "fid": "0x89d30dc928e70707:0x70cb23685d1a9f96",
    "cid": "8127628883665788822",
    "reviewsCount": 8,
    "imagesCount": 1,
    "imageCategories": [],
    "scrapedAt": "2025-06-22T06:10:35.162Z",
    "googleFoodUrl": null,
    "hotelAds": [],
    "openingHours": [
      {
        "day": "Monday",
        "hours": "9 AM to 6 PM"
      },
      {
        "day": "Tuesday",
        "hours": "9 AM to 6 PM"
      },
      {
        "day": "Wednesday",
        "hours": "9 AM to 6 PM"
      },
      {
        "day": "Thursday",
        "hours": "9 AM to 6 PM"
      },
      {
        "day": "Friday",
        "hours": "9 AM to 6 PM"
      },
      {
        "day": "Saturday",
        "hours": "9 AM to 3 PM"
      },
      {
        "day": "Sunday",
        "hours": "Closed"
      }
    ],
    "additionalOpeningHours": {
      "Delivery": [
        {
          "day": "Monday",
          "hours": "Closed"
        },
        {
          "day": "Tuesday",
          "hours": "9 AM–6 PM"
        },
        {
          "day": "Wednesday",
          "hours": "Closed"
        },
        {
          "day": "Thursday",
          "hours": "9 AM–6 PM"
        },
        {
          "day": "Friday",
          "hours": "Closed"
        },
        {
          "day": "Saturday",
          "hours": "9 AM–6 PM"
        },
        {
          "day": "Sunday",
          "hours": "9 AM–6 PM"
        }
      ]
    },
    "peopleAlsoSearch": [],
    "placesTags": [],
    "reviewsTags": [],
    "additionalInfo": {
      "From the business": [
        {
          "Small business": true
        }
      ],
      "Service options": [
        {
          "Delivery": true
        },
        {
          "In-store pickup": true
        }
      ],
      "Accessibility": [
        {
          "Wheelchair accessible entrance": true
        },
        {
          "Wheelchair accessible parking lot": true
        }
      ],
      "Payments": [
        {
          "Checks": true
        },
        {
          "Credit cards": true
        },
        {
          "Debit cards": true
        },
        {
          "NFC mobile payments": true
        },
        {
          "Credit cards": true
        }
      ]
    },
    "gasPrices": [],
    "url": "https://www.google.com/maps/search/?api=1&query=Clinton%20Pharmacy&query_place_id=ChIJBwfnKMkN04kRlp8aXWgjy3A",
    "searchPageUrl": "https://www.google.com/maps/search/independent%20pharmacy%20Buffalo%20NY/@57.40072944694004,-156.56290792837981,9z?hl=en",
    "searchString": "independent pharmacy Buffalo NY",
    "language": "en",
    "rank": 10,
    "isAdvertisement": false,
    "imageUrl": "https://streetviewpixels-pa.googleapis.com/v1/thumbnail?panoid=ssiiD7sMgY0oWX2enBOrQg&cb_client=search.gws-prod.gps&w=408&h=240&yaw=307.01703&pitch=0&thumbfov=100",
    "kgmid": "/g/1tfs216k"
  },
  {
    "title": "Black Rock Pharmacy Wellness Center",
    "price": null,
    "categoryName": "Pharmacy",
    "address": "431 Tonawanda St, Buffalo, NY 14207",
    "neighborhood": "Black Rock",
    "street": "431 Tonawanda St",
    "city": "Buffalo",
    "postalCode": "14207",
    "state": "New York",
    "countryCode": "US",
    "website": "https://www.blackrockpharmacy.com/",
    "phone": "(716) 876-3070",
    "phoneUnformatted": "+17168763070",
    "claimThisBusiness": false,
    "location": {
      "lat": 42.9410115,
      "lng": -78.8983242
    },
    "totalScore": 4.2,
    "permanentlyClosed": false,
    "temporarilyClosed": false,
    "placeId": "ChIJQ23XpTMT04kRaqAMVeoGC9Q",
    "categories": [
      "Pharmacy"
    ],
    "fid": "0x89d31333a5d76d43:0xd40b06ea550ca06a",
    "cid": "15279313764303544426",
    "reviewsCount": 39,
    "imagesCount": 5,
    "imageCategories": [],
    "scrapedAt": "2025-06-22T06:10:35.162Z",
    "googleFoodUrl": null,
    "hotelAds": [],
    "openingHours": [
      {
        "day": "Monday",
        "hours": "9 AM to 6 PM"
      },
      {
        "day": "Tuesday",
        "hours": "9 AM to 6 PM"
      },
      {
        "day": "Wednesday",
        "hours": "9 AM to 6 PM"
      },
      {
        "day": "Thursday",
        "hours": "9 AM to 6 PM"
      },
      {
        "day": "Friday",
        "hours": "9 AM to 6 PM"
      },
      {
        "day": "Saturday",
        "hours": "9 AM to 3 PM"
      },
      {
        "day": "Sunday",
        "hours": "Closed"
      }
    ],
    "peopleAlsoSearch": [],
    "placesTags": [],
    "reviewsTags": [],
    "additionalInfo": {
      "From the business": [
        {
          "Small business": true
        }
      ],
      "Service options": [
        {
          "Delivery": true
        },
        {
          "In-store pickup": true
        },
        {
          "Same-day delivery": true
        }
      ],
      "Accessibility": [
        {
          "Wheelchair accessible entrance": true
        },
        {
          "Wheelchair accessible parking lot": true
        }
      ],
      "Planning": [
        {
          "Quick visit": true
        }
      ],
      "Payments": [
        {
          "Credit cards": true
        },
        {
          "Debit cards": true
        },
        {
          "NFC mobile payments": true
        },
        {
          "Credit cards": true
        }
      ]
    },
    "gasPrices": [],
    "url": "https://www.google.com/maps/search/?api=1&query=Black%20Rock%20Pharmacy%20Wellness%20Center&query_place_id=ChIJQ23XpTMT04kRaqAMVeoGC9Q",
    "searchPageUrl": "https://www.google.com/maps/search/independent%20pharmacy%20Buffalo%20NY/@57.40072944694004,-156.56290792837981,9z?hl=en",
    "searchString": "independent pharmacy Buffalo NY",
    "language": "en",
    "rank": 11,
    "isAdvertisement": false,
    "imageUrl": "https://lh3.googleusercontent.com/gps-cs-s/AC9h4noKVAXEyQz_qpImImnvLjemI8CJqHIO953o5-HitKXzs7VyupZyB5v-ZnjFlJdPh-6NR89bZ46ynS5OmuipoHTDYZcbpPSyT1LxCXAXrtZ80lTlVDKKibThW-0HzhxlWTgfibZAYg=w408-h544-k-no",
    "kgmid": "/g/1tc_m3lf"
  },
  {
    "title": "Starling Pharmacy",
    "price": null,
    "categoryName": "Pharmacy",
    "address": "1049 Broadway, Buffalo, NY 14212",
    "neighborhood": "Broadway - Fillmore",
    "street": "1049 Broadway",
    "city": "Buffalo",
    "postalCode": "14212",
    "state": "New York",
    "countryCode": "US",
    "website": "https://www.starlingpharmacy.com/",
    "phone": "(716) 770-2224",
    "phoneUnformatted": "+17167702224",
    "claimThisBusiness": false,
    "location": {
      "lat": 42.8933366,
      "lng": -78.8357427
    },
    "totalScore": 4.9,
    "permanentlyClosed": false,
    "temporarilyClosed": false,
    "placeId": "ChIJVePJyRsN04kREnajOUqSIos",
    "categories": [
      "Pharmacy"
    ],
    "fid": "0x89d30d1bc9c9e355:0x8b22924a39a37612",
    "cid": "10025736567972394514",
    "reviewsCount": 272,
    "imagesCount": 40,
    "imageCategories": [],
    "scrapedAt": "2025-06-22T06:10:35.162Z",
    "googleFoodUrl": null,
    "hotelAds": [],
    "openingHours": [
      {
        "day": "Monday",
        "hours": "10 AM to 7 PM"
      },
      {
        "day": "Tuesday",
        "hours": "10 AM to 7 PM"
      },
      {
        "day": "Wednesday",
        "hours": "10 AM to 7 PM"
      },
      {
        "day": "Thursday",
        "hours": "10 AM to 7 PM"
      },
      {
        "day": "Friday",
        "hours": "10 AM to 7 PM"
      },
      {
        "day": "Saturday",
        "hours": "11 AM to 5 PM"
      },
      {
        "day": "Sunday",
        "hours": "12 to 5 PM"
      }
    ],
    "peopleAlsoSearch": [],
    "placesTags": [],
    "reviewsTags": [],
    "additionalInfo": {
      "Service options": [
        {
          "Delivery": true
        }
      ],
      "Accessibility": [
        {
          "Wheelchair accessible entrance": true
        }
      ],
      "Planning": [
        {
          "Quick visit": true
        }
      ],
      "Payments": [
        {
          "Credit cards": true
        },
        {
          "SNAP/EBT": true
        }
      ]
    },
    "gasPrices": [],
    "url": "https://www.google.com/maps/search/?api=1&query=Starling%20Pharmacy&query_place_id=ChIJVePJyRsN04kREnajOUqSIos",
    "searchPageUrl": "https://www.google.com/maps/search/independent%20pharmacy%20Buffalo%20NY/@57.40072944694004,-156.56290792837981,9z?hl=en",
    "searchString": "independent pharmacy Buffalo NY",
    "language": "en",
    "rank": 12,
    "isAdvertisement": false,
    "imageUrl": "https://lh3.googleusercontent.com/gps-cs-s/AC9h4noId0v06YtjI0vYLSatkHEZwXGwqdpDbojAIzV4HaLnSs8ZftgjzKow0huJkJS5f8R_u9vx_pjQXOJtPKJ2avM74YKVxGA-dusd1x7TfIduQNGs2omkTYhUNzj2qHGXxkhZZYg=w426-h240-k-no",
    "kgmid": "/g/11vkb29fb0"
  },
  {
    "title": "Discount Pharmacy",
    "price": null,
    "categoryName": "Pharmacy",
    "address": "429 William St, Buffalo, NY 14204",
    "neighborhood": "Willert Park",
    "street": "429 William St",
    "city": "Buffalo",
    "postalCode": "14204",
    "state": "New York",
    "countryCode": "US",
    "phone": "(716) 852-3000",
    "phoneUnformatted": "+17168523000",
    "claimThisBusiness": false,
    "location": {
      "lat": 42.8843856,
      "lng": -78.8559053
    },
    "totalScore": 4.6,
    "permanentlyClosed": false,
    "temporarilyClosed": false,
    "placeId": "ChIJr-LdkWsS04kRxJ6D87r_s4o",
    "categories": [
      "Pharmacy"
    ],
    "fid": "0x89d3126b91dde2af:0x8ab3ffbaf3839ec4",
    "cid": "9994613176479751876",
    "reviewsCount": 30,
    "imagesCount": 6,
    "imageCategories": [],
    "scrapedAt": "2025-06-22T06:10:35.162Z",
    "googleFoodUrl": null,
    "hotelAds": [],
    "openingHours": [
      {
        "day": "Monday",
        "hours": "9:30 AM to 6 PM"
      },
      {
        "day": "Tuesday",
        "hours": "9:30 AM to 6 PM"
      },
      {
        "day": "Wednesday",
        "hours": "9:30 AM to 6 PM"
      },
      {
        "day": "Thursday",
        "hours": "9:30 AM to 6 PM"
      },
      {
        "day": "Friday",
        "hours": "9:30 AM to 6 PM"
      },
      {
        "day": "Saturday",
        "hours": "11 AM to 3 PM"
      },
      {
        "day": "Sunday",
        "hours": "Closed"
      }
    ],
    "peopleAlsoSearch": [],
    "placesTags": [],
    "reviewsTags": [],
    "additionalInfo": {
      "From the business": [
        {
          "Small business": true
        }
      ],
      "Service options": [
        {
          "Delivery": true
        },
        {
          "In-store pickup": true
        }
      ],
      "Accessibility": [
        {
          "Wheelchair accessible entrance": true
        },
        {
          "Wheelchair accessible parking lot": true
        }
      ],
      "Planning": [
        {
          "Quick visit": true
        }
      ],
      "Payments": [
        {
          "Credit cards": true
        },
        {
          "Debit cards": true
        },
        {
          "NFC mobile payments": true
        },
        {
          "Credit cards": true
        }
      ]
    },
    "gasPrices": [],
    "url": "https://www.google.com/maps/search/?api=1&query=Discount%20Pharmacy&query_place_id=ChIJr-LdkWsS04kRxJ6D87r_s4o",
    "searchPageUrl": "https://www.google.com/maps/search/independent%20pharmacy%20Buffalo%20NY/@57.40072944694004,-156.56290792837981,9z?hl=en",
    "searchString": "independent pharmacy Buffalo NY",
    "language": "en",
    "rank": 13,
    "isAdvertisement": false,
    "imageUrl": "https://lh3.googleusercontent.com/p/AF1QipMu2fKaGecPcfJINJaIHPkwgOuNoBREQu9aU70V=w426-h240-k-no",
    "kgmid": "/g/11c6ddmqrh"
  },
  {
    "title": "The Pharmacy at Evergreen",
    "price": null,
    "categoryName": "Pharmacy",
    "address": "206 S Elmwood Ave Suite 1, Buffalo, NY 14201",
    "neighborhood": "Columbus",
    "street": "206 S Elmwood Ave Suite 1",
    "city": "Buffalo",
    "postalCode": "14201",
    "state": "New York",
    "countryCode": "US",
    "website": "https://www.evergreenhs.org/medical-services/pharmacy/",
    "phone": "(716) 847-2441",
    "phoneUnformatted": "+17168472441",
    "claimThisBusiness": true,
    "location": {
      "lat": 42.8908197,
      "lng": -78.8786604
    },
    "totalScore": 3.5,
    "permanentlyClosed": false,
    "temporarilyClosed": false,
    "placeId": "ChIJO-SOi4QT04kRQNgzPqCNE2Q",
    "categories": [
      "Pharmacy"
    ],
    "fid": "0x89d313848b8ee43b:0x64138da03e33d840",
    "cid": "7211263147728164928",
    "reviewsCount": 15,
    "imagesCount": 1,
    "imageCategories": [],
    "scrapedAt": "2025-06-22T06:10:35.162Z",
    "googleFoodUrl": null,
    "hotelAds": [],
    "openingHours": [
      {
        "day": "Monday",
        "hours": "9 AM to 5 PM"
      },
      {
        "day": "Tuesday",
        "hours": "9 AM to 5 PM"
      },
      {
        "day": "Wednesday",
        "hours": "9 AM to 5 PM"
      },
      {
        "day": "Thursday",
        "hours": "9 AM to 5 PM"
      },
      {
        "day": "Friday",
        "hours": "9 AM to 5 PM"
      },
      {
        "day": "Saturday",
        "hours": "Closed"
      },
      {
        "day": "Sunday",
        "hours": "Closed"
      }
    ],
    "peopleAlsoSearch": [],
    "placesTags": [],
    "reviewsTags": [],
    "additionalInfo": {
      "Service options": [
        {
          "Delivery": true
        }
      ],
      "Accessibility": [
        {
          "Wheelchair accessible entrance": true
        },
        {
          "Wheelchair accessible parking lot": true
        }
      ],
      "Payments": [
        {
          "Debit cards": true
        },
        {
          "NFC mobile payments": true
        },
        {
          "Credit cards": true
        }
      ]
    },
    "gasPrices": [],
    "url": "https://www.google.com/maps/search/?api=1&query=The%20Pharmacy%20at%20Evergreen&query_place_id=ChIJO-SOi4QT04kRQNgzPqCNE2Q",
    "searchPageUrl": "https://www.google.com/maps/search/independent%20pharmacy%20Buffalo%20NY/@57.40072944694004,-156.56290792837981,9z?hl=en",
    "searchString": "independent pharmacy Buffalo NY",
    "language": "en",
    "rank": 14,
    "isAdvertisement": false,
    "imageUrl": "https://streetviewpixels-pa.googleapis.com/v1/thumbnail?panoid=GOnkKXeiCbvWKSkp2ybyWA&cb_client=search.gws-prod.gps&w=408&h=240&yaw=176.75229&pitch=0&thumbfov=100",
    "kgmid": "/g/11tg26mypx"
  },
  {
    "title": "MADINA PHARMACY INC.",
    "price": null,
    "categoryName": "Pharmacy",
    "address": "1105 Broadway #8, Buffalo, NY 14212",
    "neighborhood": "Broadway - Fillmore",
    "street": "1105 Broadway #8",
    "city": "Buffalo",
    "postalCode": "14212",
    "state": "New York",
    "countryCode": "US",
    "phone": "(716) 424-2433",
    "phoneUnformatted": "+17164242433",
    "claimThisBusiness": false,
    "location": {
      "lat": 42.8938205,
      "lng": -78.8341791
    },
    "totalScore": 4.2,
    "permanentlyClosed": false,
    "temporarilyClosed": false,
    "placeId": "ChIJbQWytYYN04kRJlc4ewxovOI",
    "categories": [
      "Pharmacy"
    ],
    "fid": "0x89d30d86b5b2056d:0xe2bc680c7b385726",
    "cid": "16338047951009503014",
    "reviewsCount": 108,
    "imagesCount": 4,
    "imageCategories": [],
    "scrapedAt": "2025-06-22T06:10:35.162Z",
    "googleFoodUrl": null,
    "hotelAds": [],
    "openingHours": [
      {
        "day": "Monday",
        "hours": "10 AM to 7 PM"
      },
      {
        "day": "Tuesday",
        "hours": "10 AM to 7 PM"
      },
      {
        "day": "Wednesday",
        "hours": "10 AM to 7 PM"
      },
      {
        "day": "Thursday",
        "hours": "10 AM to 7 PM"
      },
      {
        "day": "Friday",
        "hours": "10 AM to 7 PM"
      },
      {
        "day": "Saturday",
        "hours": "10 AM to 7 PM"
      },
      {
        "day": "Sunday",
        "hours": "10 AM to 7 PM"
      }
    ],
    "peopleAlsoSearch": [],
    "placesTags": [],
    "reviewsTags": [],
    "additionalInfo": {
      "From the business": [
        {
          "Small business": true
        }
      ],
      "Service options": [
        {
          "Delivery": true
        }
      ],
      "Accessibility": [
        {
          "Wheelchair accessible entrance": true
        },
        {
          "Wheelchair accessible parking lot": true
        }
      ],
      "Planning": [
        {
          "Quick visit": true
        }
      ],
      "Payments": [
        {
          "Credit cards": true
        },
        {
          "Debit cards": true
        },
        {
          "NFC mobile payments": true
        },
        {
          "SNAP/EBT": true
        },
        {
          "Credit cards": true
        }
      ]
    },
    "gasPrices": [],
    "url": "https://www.google.com/maps/search/?api=1&query=MADINA%20PHARMACY%20INC.&query_place_id=ChIJbQWytYYN04kRJlc4ewxovOI",
    "searchPageUrl": "https://www.google.com/maps/search/independent%20pharmacy%20Buffalo%20NY/@57.40072944694004,-156.56290792837981,9z?hl=en",
    "searchString": "independent pharmacy Buffalo NY",
    "language": "en",
    "rank": 15,
    "isAdvertisement": false,
    "imageUrl": "https://lh3.googleusercontent.com/gps-cs-s/AC9h4nqyo49kYwXabQEAiSZ3G6Ryv6OnPQTYknhf-9APyvoZ41iYXoXVo_dMR0qz3FN0CuXvw0g69tEexR-ielIQGdBp4y-9p0-NlU4xLX7rGdqMgTiz7RPqS3MyAJgBRfvVYQhWYxfk=w408-h544-k-no",
    "kgmid": "/g/11cls7xg_d"
  },
  {
    "title": "Ivylea Pharmacy & Home Health Care Center",
    "price": null,
    "categoryName": "Pharmacy",
    "address": "2446 Elmwood Ave, Buffalo, NY 14217",
    "neighborhood": null,
    "street": "2446 Elmwood Ave",
    "city": "Buffalo",
    "postalCode": "14217",
    "state": "New York",
    "countryCode": "US",
    "website": "https://ivyleapharmacy.com/",
    "phone": "(716) 873-1444",
    "phoneUnformatted": "+17168731444",
    "claimThisBusiness": false,
    "location": {
      "lat": 42.9639353,
      "lng": -78.8790078
    },
    "totalScore": 4.9,
    "permanentlyClosed": false,
    "temporarilyClosed": false,
    "placeId": "ChIJJ9HU2h5t04kRubCoUbhnJJ4",
    "categories": [
      "Pharmacy"
    ],
    "fid": "0x89d36d1edad4d127:0x9e2467b851a8b0b9",
    "cid": "11395346998495850681",
    "reviewsCount": 31,
    "imagesCount": 4,
    "imageCategories": [],
    "scrapedAt": "2025-06-22T06:10:35.162Z",
    "googleFoodUrl": null,
    "hotelAds": [],
    "openingHours": [
      {
        "day": "Monday",
        "hours": "9 AM to 6 PM"
      },
      {
        "day": "Tuesday",
        "hours": "9 AM to 6 PM"
      },
      {
        "day": "Wednesday",
        "hours": "9 AM to 6 PM"
      },
      {
        "day": "Thursday",
        "hours": "9 AM to 6 PM"
      },
      {
        "day": "Friday",
        "hours": "9 AM to 6 PM"
      },
      {
        "day": "Saturday",
        "hours": "9 AM to 2 PM"
      },
      {
        "day": "Sunday",
        "hours": "Closed"
      }
    ],
    "peopleAlsoSearch": [],
    "placesTags": [],
    "reviewsTags": [],
    "additionalInfo": {
      "From the business": [
        {
          "Small business": true
        }
      ],
      "Service options": [
        {
          "Delivery": true
        },
        {
          "In-store pickup": true
        },
        {
          "Onsite services": true
        },
        {
          "Same-day delivery": true
        }
      ],
      "Accessibility": [
        {
          "Wheelchair accessible entrance": true
        },
        {
          "Wheelchair accessible parking lot": true
        }
      ],
      "Planning": [
        {
          "Quick visit": true
        }
      ],
      "Payments": [
        {
          "Checks": true
        },
        {
          "Credit cards": true
        },
        {
          "Debit cards": true
        },
        {
          "NFC mobile payments": true
        },
        {
          "Credit cards": true
        }
      ]
    },
    "gasPrices": [],
    "url": "https://www.google.com/maps/search/?api=1&query=Ivylea%20Pharmacy%20%26%20Home%20Health%20Care%20Center&query_place_id=ChIJJ9HU2h5t04kRubCoUbhnJJ4",
    "searchPageUrl": "https://www.google.com/maps/search/independent%20pharmacy%20Buffalo%20NY/@57.40072944694004,-156.56290792837981,9z?hl=en",
    "searchString": "independent pharmacy Buffalo NY",
    "language": "en",
    "rank": 16,
    "isAdvertisement": false,
    "imageUrl": "https://lh3.googleusercontent.com/p/AF1QipN1AtrOwbVrN8dWmmcP3PHGdM9Ak-FDturzp0UH=w408-h544-k-no",
    "kgmid": "/g/1tg2fgkd"
  },
  {
    "title": "Upstate Pharmacy, Ltd",
    "price": null,
    "categoryName": "Pharmacy",
    "address": "1900 N America Dr, Buffalo, NY 14224",
    "neighborhood": null,
    "street": "1900 N America Dr",
    "city": "Buffalo",
    "postalCode": "14224",
    "state": "New York",
    "countryCode": "US",
    "website": "https://www.upstatepharmacy.com/contact-us",
    "phone": "(716) 675-3784",
    "phoneUnformatted": "+17166753784",
    "claimThisBusiness": false,
    "location": {
      "lat": 42.8495272,
      "lng": -78.7376524
    },
    "totalScore": 2.6,
    "permanentlyClosed": false,
    "temporarilyClosed": false,
    "placeId": "ChIJDUDrnKsO04kRwRcF0nrqHac",
    "categories": [
      "Pharmacy"
    ],
    "fid": "0x89d30eab9ceb400d:0xa71dea7ad20517c1",
    "cid": "12042038791889033153",
    "reviewsCount": 5,
    "imagesCount": null,
    "imageCategories": [],
    "scrapedAt": "2025-06-22T06:11:13.738Z",
    "googleFoodUrl": null,
    "hotelAds": [],
    "openingHours": [
      {
        "day": "Monday",
        "hours": "9 AM to 5 PM"
      },
      {
        "day": "Tuesday",
        "hours": "9 AM to 5 PM"
      },
      {
        "day": "Wednesday",
        "hours": "9 AM to 5 PM"
      },
      {
        "day": "Thursday",
        "hours": "9 AM to 5 PM"
      },
      {
        "day": "Friday",
        "hours": "9 AM to 5 PM"
      },
      {
        "day": "Saturday",
        "hours": "Closed"
      },
      {
        "day": "Sunday",
        "hours": "Closed"
      }
    ],
    "peopleAlsoSearch": [],
    "placesTags": [],
    "reviewsTags": [],
    "additionalInfo": {
      "From the business": [
        {
          "Small business": true
        }
      ],
      "Service options": [
        {
          "Delivery": true
        }
      ],
      "Accessibility": [
        {
          "Wheelchair accessible entrance": true
        },
        {
          "Wheelchair accessible parking lot": true
        }
      ],
      "Payments": [
        {
          "Debit cards": true
        },
        {
          "Credit cards": true
        }
      ]
    },
    "gasPrices": [],
    "url": "https://www.google.com/maps/search/?api=1&query=Upstate%20Pharmacy%2C%20Ltd&query_place_id=ChIJDUDrnKsO04kRwRcF0nrqHac",
    "searchPageUrl": "https://www.google.com/maps/search/independent%20pharmacy%20Buffalo%20NY/@52.14797767021313,-176.78238856555046,11z?hl=en",
    "searchString": "independent pharmacy Buffalo NY",
    "language": "en",
    "rank": 14,
    "isAdvertisement": false,
    "kgmid": "/g/11c44qfbvs"
  },
  {
    "title": "Walgreens Pharmacy",
    "description": "Department of the Walgreens chain providing prescription medications & other health-related items.",
    "price": "$$",
    "categoryName": "Pharmacy",
    "address": "650 Delaware Ave, Buffalo, NY 14202",
    "neighborhood": "Allentown",
    "street": "650 Delaware Ave",
    "city": "Buffalo",
    "postalCode": "14202",
    "state": "New York",
    "countryCode": "US",
    "website": "https://www.walgreens.com/locator/walgreens-650+delaware+ave-buffalo-ny-14202/id=3288",
    "phone": "(716) 883-0232",
    "phoneUnformatted": "+17168830232",
    "claimThisBusiness": false,
    "location": {
      "lat": 42.9016538,
      "lng": -78.8739851
    },
    "totalScore": 3.2,
    "permanentlyClosed": false,
    "temporarilyClosed": false,
    "placeId": "ChIJ4bedwVcS04kRiZcja9cfcT4",
    "categories": [
      "Pharmacy"
    ],
    "fid": "0x89d31257c19db7e1:0x3e711fd76b239789",
    "cid": "4499412512795760521",
    "reviewsCount": 46,
    "imagesCount": 4,
    "imageCategories": [],
    "scrapedAt": "2025-06-22T06:11:13.739Z",
    "googleFoodUrl": null,
    "hotelAds": [],
    "openingHours": [
      {
        "day": "Monday",
        "hours": "2 AM to 1:30 PM, 2 PM to 1:30 AM"
      },
      {
        "day": "Tuesday",
        "hours": "2 AM to 1:30 PM, 2 PM to 1:30 AM"
      },
      {
        "day": "Wednesday",
        "hours": "2 AM to 1:30 PM, 2 PM to 1:30 AM"
      },
      {
        "day": "Thursday",
        "hours": "2 AM to 1:30 PM, 2 PM to 1:30 AM"
      },
      {
        "day": "Friday",
        "hours": "2 AM to 1:30 PM, 2 PM to 1:30 AM"
      },
      {
        "day": "Saturday",
        "hours": "2 AM to 1:30 PM, 2 PM to 1:30 AM"
      },
      {
        "day": "Sunday",
        "hours": "2 AM to 1:30 PM, 2 PM to 1:30 AM"
      }
    ],
    "additionalOpeningHours": {
      "Drive through": [
        {
          "day": "Monday",
          "hours": "12 AM–1:30 PM"
        },
        {
          "day": "Tuesday",
          "hours": "12 AM–1:30 PM"
        },
        {
          "day": "Wednesday",
          "hours": "12 AM–1:30 PM"
        },
        {
          "day": "Thursday",
          "hours": "12 AM–1:30 PM"
        },
        {
          "day": "Friday",
          "hours": "12 AM–1:30 PM"
        },
        {
          "day": "Saturday",
          "hours": "12 AM–1:30 PM"
        },
        {
          "day": "Sunday",
          "hours": "12 AM–1:30 PM"
        }
      ]
    },
    "peopleAlsoSearch": [],
    "placesTags": [],
    "reviewsTags": [],
    "additionalInfo": {
      "Service options": [
        {
          "Curbside pickup": true
        },
        {
          "Drive-through": true
        },
        {
          "In-store pickup": true
        }
      ],
      "Accessibility": [
        {
          "Wheelchair accessible entrance": true
        },
        {
          "Wheelchair accessible parking lot": true
        }
      ],
      "Offerings": [
        {
          "Medication disposal": true
        },
        {
          "Naloxone": true
        },
        {
          "Passport photos": true
        }
      ],
      "Planning": [
        {
          "Quick visit": true
        }
      ],
      "Payments": [
        {
          "Credit cards": true
        },
        {
          "Debit cards": true
        }
      ]
    },
    "gasPrices": [],
    "url": "https://www.google.com/maps/search/?api=1&query=Walgreens%20Pharmacy&query_place_id=ChIJ4bedwVcS04kRiZcja9cfcT4",
    "searchPageUrl": "https://www.google.com/maps/search/independent%20pharmacy%20Buffalo%20NY/@52.14797767021313,-176.78238856555046,11z?hl=en",
    "searchString": "independent pharmacy Buffalo NY",
    "language": "en",
    "rank": 15,
    "isAdvertisement": false,
    "imageUrl": "https://lh3.googleusercontent.com/p/AF1QipMhXMfSafOJZ3uClqPxJWPuPiHCCYkcglL5iclC=w525-h240-k-no",
    "kgmid": "/g/11cn93ws5y"
  },
  {
    "title": "RAHMA PHARMACY INC",
    "price": null,
    "categoryName": "Pharmacy",
    "address": "964 Broadway, Buffalo, NY 14212",
    "neighborhood": "Broadway - Fillmore",
    "street": "964 Broadway",
    "city": "Buffalo",
    "postalCode": "14212",
    "state": "New York",
    "countryCode": "US",
    "website": "http://www.rahmapharmacy.com/",
    "phone": "(716) 892-5555",
    "phoneUnformatted": "+17168925555",
    "claimThisBusiness": false,
    "location": {
      "lat": 42.8934166,
      "lng": -78.8388979
    },
    "totalScore": 3.8,
    "permanentlyClosed": false,
    "temporarilyClosed": false,
    "placeId": "ChIJCej6wHoT04kRZuBZCfhYsLI",
    "categories": [
      "Pharmacy"
    ],
    "fid": "0x89d3137ac0fae809:0xb2b058f80959e066",
    "cid": "12875889156984266854",
    "reviewsCount": 58,
    "imagesCount": 6,
    "imageCategories": [],
    "scrapedAt": "2025-06-22T06:11:13.739Z",
    "googleFoodUrl": null,
    "hotelAds": [],
    "openingHours": [
      {
        "day": "Monday",
        "hours": "10 AM to 7 PM"
      },
      {
        "day": "Tuesday",
        "hours": "10 AM to 7 PM"
      },
      {
        "day": "Wednesday",
        "hours": "10 AM to 7 PM"
      },
      {
        "day": "Thursday",
        "hours": "10 AM to 7 PM"
      },
      {
        "day": "Friday",
        "hours": "10 AM to 7 PM"
      },
      {
        "day": "Saturday",
        "hours": "11 AM to 6 PM"
      },
      {
        "day": "Sunday",
        "hours": "12 to 6 PM"
      }
    ],
    "peopleAlsoSearch": [],
    "placesTags": [],
    "reviewsTags": [],
    "additionalInfo": {
      "From the business": [
        {
          "Small business": true
        }
      ],
      "Service options": [
        {
          "Delivery": true
        },
        {
          "In-store shopping": true
        }
      ],
      "Accessibility": [
        {
          "Wheelchair accessible entrance": true
        },
        {
          "Wheelchair accessible parking lot": true
        }
      ],
      "Planning": [
        {
          "Quick visit": true
        }
      ],
      "Payments": [
        {
          "Credit cards": true
        },
        {
          "Debit cards": true
        },
        {
          "NFC mobile payments": true
        },
        {
          "Credit cards": true
        }
      ]
    },
    "gasPrices": [],
    "url": "https://www.google.com/maps/search/?api=1&query=RAHMA%20PHARMACY%20INC&query_place_id=ChIJCej6wHoT04kRZuBZCfhYsLI",
    "searchPageUrl": "https://www.google.com/maps/search/independent%20pharmacy%20Buffalo%20NY/@52.14797767021313,-176.78238856555046,11z?hl=en",
    "searchString": "independent pharmacy Buffalo NY",
    "language": "en",
    "rank": 18,
    "isAdvertisement": false,
    "imageUrl": "https://lh3.googleusercontent.com/gps-cs-s/AC9h4npW1pVDQJrotGo4G6ysg6v1Y__RQybxqBxqVoOChZ2oAqxZpTZSJK-dwkMVWQNwvhz8uHbVFEbhym3lZVpjZVc-7EbkyFSJlSNyTNKO0DMcvLqMb65Pbp4fsO0RfTSPvvpjHHcg=w408-h724-k-no",
    "kgmid": "/g/11rsr7km86"
  },
  {
    "title": "Metcare Pharmacy",
    "price": null,
    "categoryName": "Pharmacy",
    "address": "462 Grider St, Buffalo, NY 14215",
    "neighborhood": "Grider",
    "street": "462 Grider St",
    "city": "Buffalo",
    "postalCode": "14215",
    "state": "New York",
    "countryCode": "US",
    "website": "https://metcare-pharmacy.com/",
    "phone": "(716) 332-2866",
    "phoneUnformatted": "+17163322866",
    "claimThisBusiness": false,
    "location": {
      "lat": 42.9254225,
      "lng": -78.8313324
    },
    "totalScore": 3.7,
    "permanentlyClosed": false,
    "temporarilyClosed": false,
    "placeId": "ChIJk2PpgloN04kRDPb7S-8QcNI",
    "categories": [
      "Pharmacy"
    ],
    "fid": "0x89d30d5a82e96393:0xd27010ef4bfbf60c",
    "cid": "15163638565314491916",
    "reviewsCount": 22,
    "imagesCount": 3,
    "imageCategories": [],
    "scrapedAt": "2025-06-22T06:11:13.739Z",
    "googleFoodUrl": null,
    "hotelAds": [],
    "openingHours": [
      {
        "day": "Monday",
        "hours": "9 AM to 6 PM"
      },
      {
        "day": "Tuesday",
        "hours": "9 AM to 6 PM"
      },
      {
        "day": "Wednesday",
        "hours": "9 AM to 6 PM"
      },
      {
        "day": "Thursday",
        "hours": "9 AM to 6 PM"
      },
      {
        "day": "Friday",
        "hours": "9 AM to 6 PM"
      },
      {
        "day": "Saturday",
        "hours": "9 AM to 2 PM"
      },
      {
        "day": "Sunday",
        "hours": "Closed"
      }
    ],
    "peopleAlsoSearch": [],
    "placesTags": [],
    "reviewsTags": [],
    "additionalInfo": {
      "Service options": [
        {
          "Delivery": true
        },
        {
          "Same-day delivery": true
        }
      ],
      "Accessibility": [
        {
          "Wheelchair accessible entrance": true
        },
        {
          "Wheelchair accessible parking lot": true
        }
      ],
      "Payments": [
        {
          "Credit cards": true
        },
        {
          "NFC mobile payments": true
        }
      ]
    },
    "gasPrices": [],
    "url": "https://www.google.com/maps/search/?api=1&query=Metcare%20Pharmacy&query_place_id=ChIJk2PpgloN04kRDPb7S-8QcNI",
    "searchPageUrl": "https://www.google.com/maps/search/independent%20pharmacy%20Buffalo%20NY/@52.14797767021313,-176.78238856555046,11z?hl=en",
    "searchString": "independent pharmacy Buffalo NY",
    "language": "en",
    "rank": 19,
    "isAdvertisement": false,
    "imageUrl": "https://lh3.googleusercontent.com/gps-cs-s/AC9h4nrVM80vURN0cZccxkNTUr0llHP3L5bsHpZQAkzZl9O7oZESiXA6LOwAaJz8W1NI43hs1Wgv5MX1YYsYx-NHvy8gLo7siGp93e0TeV0eavvH--slcWTX1HT6ejgPCET8PWSBSCjj=w926-h240-k-no",
    "kgmid": "/g/1th82ydr"
  }
]