[
  {
    "title": "The Prescription Center",
    "price": null,
    "categoryName": "Pharmacy",
    "address": "125 N Main St Suite 200, Concord, NH 03301",
    "neighborhood": null,
    "street": "125 N Main St Suite 200",
    "city": "Concord",
    "postalCode": "03301",
    "state": "New Hampshire",
    "countryCode": "US",
    "website": "http://www.prescription-center.com/",
    "phone": "(603) 224-9591",
    "phoneUnformatted": "+16032249591",
    "claimThisBusiness": false,
    "location": {
      "lat": 43.2081533,
      "lng": -71.5372033
    },
    "totalScore": 3.4,
    "permanentlyClosed": false,
    "temporarilyClosed": false,
    "placeId": "ChIJ-zRbvK9q4okRJYptzcX-KCk",
    "categories": [
      "Pharmacy"
    ],
    "fid": "0x89e26aafbc5b34fb:0x2928fec5cd6d8a25",
    "cid": "2965900480131992101",
    "reviewsCount": 76,
    "imagesCount": 3,
    "imageCategories": [],
    "scrapedAt": "2025-06-22T08:54:26.662Z",
    "googleFoodUrl": null,
    "hotelAds": [],
    "openingHours": [
      {
        "day": "Monday",
        "hours": "8 AM to 6 PM"
      },
      {
        "day": "Tuesday",
        "hours": "8 AM to 6 PM"
      },
      {
        "day": "Wednesday",
        "hours": "8 AM to 6 PM"
      },
      {
        "day": "Thursday",
        "hours": "8 AM to 6 PM"
      },
      {
        "day": "Friday",
        "hours": "8 AM to 6 PM"
      },
      {
        "day": "Saturday",
        "hours": "Closed"
      },
      {
        "day": "Sunday",
        "hours": "Closed"
      }
    ],
    "peopleAlsoSearch": [],
    "placesTags": [],
    "reviewsTags": [],
    "additionalInfo": {
      "From the business": [
        {
          "Small business": true
        }
      ],
      "Service options": [
        {
          "Curbside pickup": true
        },
        {
          "Delivery": true
        },
        {
          "In-store pickup": true
        },
        {
          "In-store shopping": true
        },
        {
          "Onsite services": true
        },
        {
          "Same-day delivery": true
        }
      ],
      "Accessibility": [
        {
          "Wheelchair accessible entrance": true
        },
        {
          "Wheelchair accessible parking lot": true
        }
      ],
      "Planning": [
        {
          "Quick visit": true
        }
      ],
      "Payments": [
        {
          "Credit cards": true
        },
        {
          "Debit cards": true
        },
        {
          "NFC mobile payments": true
        },
        {
          "Credit cards": true
        }
      ],
      "Parking": [
        {
          "Free parking lot": true
        }
      ]
    },
    "gasPrices": [],
    "url": "https://www.google.com/maps/search/?api=1&query=The%20Prescription%20Center&query_place_id=ChIJ-zRbvK9q4okRJYptzcX-KCk",
    "searchPageUrl": "https://www.google.com/maps/search/independent%20pharmacy%20Concord%20NH/@66.43262335305997,-155.41210894270387,9z?hl=en",
    "searchString": "independent pharmacy Concord NH",
    "language": "en",
    "rank": 1,
    "isAdvertisement": false,
    "imageUrl": "https://lh3.googleusercontent.com/gps-cs-s/AC9h4nqQ1m9TQEpvPOVV-xlxH4SViP5zcTDAg-YsCMtp8TiOI0Ssv94T8MoSKoWGl1n28u6FdVnKh72K170Lkp0wAGapyh9mIjAAXQ-Q_rJXZG1NmhzwoT47jwFbqqbhKQJTO79fHjeq=w438-h240-k-no",
    "kgmid": "/g/1td72_rl"
  },
  {
    "title": "Northeast Pharmacy",
    "price": null,
    "categoryName": "Pharmacy",
    "address": "1 Granite Pl, Concord, NH 03301",
    "neighborhood": null,
    "street": "1 Granite Pl",
    "city": "Concord",
    "postalCode": "03301",
    "state": "New Hampshire",
    "countryCode": "US",
    "website": "https://www.northeastrx.com/",
    "phone": "(603) 226-8686",
    "phoneUnformatted": "+16032268686",
    "claimThisBusiness": true,
    "location": {
      "lat": 43.2178577,
      "lng": -71.556492
    },
    "totalScore": 3.4,
    "permanentlyClosed": false,
    "temporarilyClosed": false,
    "placeId": "ChIJrYySYe1q4okRkLdEfDw4MP4",
    "categories": [
      "Pharmacy"
    ],
    "fid": "0x89e26aed61928cad:0xfe30383c7c44b790",
    "cid": "18316201516949878672",
    "reviewsCount": 5,
    "imagesCount": 1,
    "imageCategories": [],
    "scrapedAt": "2025-06-22T08:54:26.663Z",
    "googleFoodUrl": null,
    "hotelAds": [],
    "openingHours": [
      {
        "day": "Monday",
        "hours": "8 AM to 6 PM"
      },
      {
        "day": "Tuesday",
        "hours": "8 AM to 6 PM"
      },
      {
        "day": "Wednesday",
        "hours": "8 AM to 6 PM"
      },
      {
        "day": "Thursday",
        "hours": "8 AM to 6 PM"
      },
      {
        "day": "Friday",
        "hours": "8 AM to 6 PM"
      },
      {
        "day": "Saturday",
        "hours": "9 AM to 1 PM"
      },
      {
        "day": "Sunday",
        "hours": "Closed"
      }
    ],
    "peopleAlsoSearch": [],
    "placesTags": [],
    "reviewsTags": [],
    "additionalInfo": {
      "Service options": [
        {
          "Delivery": true
        }
      ],
      "Accessibility": [
        {
          "Wheelchair accessible entrance": true
        },
        {
          "Wheelchair accessible parking lot": true
        }
      ],
      "Payments": [
        {
          "Credit cards": true
        },
        {
          "Debit cards": true
        },
        {
          "Credit cards": true
        }
      ]
    },
    "gasPrices": [],
    "url": "https://www.google.com/maps/search/?api=1&query=Northeast%20Pharmacy&query_place_id=ChIJrYySYe1q4okRkLdEfDw4MP4",
    "searchPageUrl": "https://www.google.com/maps/search/independent%20pharmacy%20Concord%20NH/@66.43262335305997,-155.41210894270387,9z?hl=en",
    "searchString": "independent pharmacy Concord NH",
    "language": "en",
    "rank": 2,
    "isAdvertisement": false,
    "imageUrl": "https://streetviewpixels-pa.googleapis.com/v1/thumbnail?panoid=HFVAGhmBPobSoDoduR5gWg&cb_client=search.gws-prod.gps&w=408&h=240&yaw=187.14662&pitch=0&thumbfov=100",
    "kgmid": "/g/1tmqscff"
  },
  {
    "title": "PharMerica - Concord, NH",
    "price": null,
    "categoryName": "Pharmacy",
    "address": "38 Locke Rd #3, Concord, NH 03301",
    "neighborhood": null,
    "street": "38 Locke Rd #3",
    "city": "Concord",
    "postalCode": "03301",
    "state": "New Hampshire",
    "countryCode": "US",
    "website": "https://pharmerica.com/",
    "phone": "(888) 836-8930",
    "phoneUnformatted": "+18888368930",
    "claimThisBusiness": false,
    "location": {
      "lat": 43.24506,
      "lng": -71.5456126
    },
    "totalScore": 2.5,
    "permanentlyClosed": false,
    "temporarilyClosed": false,
    "placeId": "ChIJecRX1hRr4okRXXfqX6k0sZg",
    "categories": [
      "Pharmacy"
    ],
    "fid": "0x89e26b14d657c479:0x98b134a95fea775d",
    "cid": "11002633266706151261",
    "reviewsCount": 2,
    "imagesCount": 5,
    "imageCategories": [],
    "scrapedAt": "2025-06-22T08:54:26.663Z",
    "googleFoodUrl": null,
    "hotelAds": [],
    "openingHours": [
      {
        "day": "Monday",
        "hours": "Open 24 hours"
      },
      {
        "day": "Tuesday",
        "hours": "Open 24 hours"
      },
      {
        "day": "Wednesday",
        "hours": "Open 24 hours"
      },
      {
        "day": "Thursday",
        "hours": "Open 24 hours"
      },
      {
        "day": "Friday",
        "hours": "Open 24 hours"
      },
      {
        "day": "Saturday",
        "hours": "Open 24 hours"
      },
      {
        "day": "Sunday",
        "hours": "Open 24 hours"
      }
    ],
    "peopleAlsoSearch": [],
    "placesTags": [],
    "reviewsTags": [],
    "additionalInfo": {
      "Accessibility": [
        {
          "Wheelchair accessible entrance": true
        },
        {
          "Wheelchair accessible parking lot": true
        }
      ]
    },
    "gasPrices": [],
    "url": "https://www.google.com/maps/search/?api=1&query=PharMerica%20-%20Concord%2C%20NH&query_place_id=ChIJecRX1hRr4okRXXfqX6k0sZg",
    "searchPageUrl": "https://www.google.com/maps/search/independent%20pharmacy%20Concord%20NH/@66.43262335305997,-155.41210894270387,9z?hl=en",
    "searchString": "independent pharmacy Concord NH",
    "language": "en",
    "rank": 3,
    "isAdvertisement": false,
    "imageUrl": "https://lh3.googleusercontent.com/p/AF1QipPuUem4WN6_t-TxoxG8-bM5Qk-zcrTnxzMpOWQp=w408-h271-k-no",
    "kgmid": "/g/1tj2pgmd"
  },
  {
    "title": "Genoa Healthcare",
    "price": null,
    "categoryName": "Pharmacy",
    "address": "10 West St, Concord, NH 03301",
    "neighborhood": null,
    "street": "10 West St",
    "city": "Concord",
    "postalCode": "03301",
    "state": "New Hampshire",
    "countryCode": "US",
    "website": "https://www.genoahealthcare.com/",
    "phone": "(603) 369-4166",
    "phoneUnformatted": "+16033694166",
    "claimThisBusiness": false,
    "location": {
      "lat": 43.197247,
      "lng": -71.5323084
    },
    "totalScore": 3.5,
    "permanentlyClosed": false,
    "temporarilyClosed": false,
    "placeId": "ChIJq8TPyotr4okRxRAY1nV7wFw",
    "categories": [
      "Pharmacy"
    ],
    "fid": "0x89e26b8bcacfc4ab:0x5cc07b75d61810c5",
    "cid": "6683477593051107525",
    "reviewsCount": 6,
    "imagesCount": 1,
    "imageCategories": [],
    "scrapedAt": "2025-06-22T08:54:26.663Z",
    "googleFoodUrl": null,
    "hotelAds": [],
    "openingHours": [
      {
        "day": "Monday",
        "hours": "8:30 AM to 5 PM"
      },
      {
        "day": "Tuesday",
        "hours": "8:30 AM to 5 PM"
      },
      {
        "day": "Wednesday",
        "hours": "8:30 AM to 5 PM"
      },
      {
        "day": "Thursday",
        "hours": "8:30 AM to 5 PM"
      },
      {
        "day": "Friday",
        "hours": "8:30 AM to 5 PM"
      },
      {
        "day": "Saturday",
        "hours": "Closed"
      },
      {
        "day": "Sunday",
        "hours": "Closed"
      }
    ],
    "peopleAlsoSearch": [],
    "placesTags": [],
    "reviewsTags": [],
    "additionalInfo": {
      "Accessibility": [
        {
          "Wheelchair accessible entrance": true
        },
        {
          "Wheelchair accessible parking lot": true
        }
      ],
      "Payments": [
        {
          "Credit cards": true
        }
      ]
    },
    "gasPrices": [],
    "url": "https://www.google.com/maps/search/?api=1&query=Genoa%20Healthcare&query_place_id=ChIJq8TPyotr4okRxRAY1nV7wFw",
    "searchPageUrl": "https://www.google.com/maps/search/independent%20pharmacy%20Concord%20NH/@66.43262335305997,-155.41210894270387,9z?hl=en",
    "searchString": "independent pharmacy Concord NH",
    "language": "en",
    "rank": 4,
    "isAdvertisement": false,
    "imageUrl": "https://streetviewpixels-pa.googleapis.com/v1/thumbnail?panoid=OzeNspUga8xjq9DkxNbS3w&cb_client=search.gws-prod.gps&w=408&h=240&yaw=122.03703&pitch=0&thumbfov=100",
    "kgmid": "/g/11fj477cpx"
  },
  {
    "title": "HealthDirect Pharmacy Services",
    "price": null,
    "categoryName": "Pharmacy",
    "address": "40 Terrill Park Dr #7315, Concord, NH 03301",
    "neighborhood": null,
    "street": "40 Terrill Park Dr #7315",
    "city": "Concord",
    "postalCode": "03301",
    "state": "New Hampshire",
    "countryCode": "US",
    "website": "http://www.hdrxservices.com/",
    "phone": "(855) 493-3823",
    "phoneUnformatted": "+18554933823",
    "claimThisBusiness": false,
    "location": {
      "lat": 43.1991794,
      "lng": -71.509076
    },
    "permanentlyClosed": false,
    "temporarilyClosed": false,
    "placeId": "ChIJbShRDmlq4okRftQQ8blCUU8",
    "categories": [
      "Pharmacy"
    ],
    "fid": "0x89e26a690e51286d:0x4f5142b9f110d47e",
    "cid": "5715422768490665086",
    "reviewsCount": 0,
    "imagesCount": 4,
    "imageCategories": [],
    "scrapedAt": "2025-06-22T08:54:26.663Z",
    "googleFoodUrl": null,
    "hotelAds": [],
    "openingHours": [
      {
        "day": "Monday",
        "hours": "8 AM to 6 PM"
      },
      {
        "day": "Tuesday",
        "hours": "8 AM to 6 PM"
      },
      {
        "day": "Wednesday",
        "hours": "8 AM to 6 PM"
      },
      {
        "day": "Thursday",
        "hours": "8 AM to 6 PM"
      },
      {
        "day": "Friday",
        "hours": "8 AM to 6 PM"
      },
      {
        "day": "Saturday",
        "hours": "8 AM to 3 PM"
      },
      {
        "day": "Sunday",
        "hours": "Closed"
      }
    ],
    "peopleAlsoSearch": [],
    "placesTags": [],
    "reviewsTags": [],
    "additionalInfo": {
      "Accessibility": [
        {
          "Wheelchair accessible parking lot": true
        }
      ]
    },
    "gasPrices": [],
    "url": "https://www.google.com/maps/search/?api=1&query=HealthDirect%20Pharmacy%20Services&query_place_id=ChIJbShRDmlq4okRftQQ8blCUU8",
    "searchPageUrl": "https://www.google.com/maps/search/independent%20pharmacy%20Concord%20NH/@66.43262335305997,-155.41210894270387,9z?hl=en",
    "searchString": "independent pharmacy Concord NH",
    "language": "en",
    "rank": 5,
    "isAdvertisement": false,
    "imageUrl": "https://lh3.googleusercontent.com/p/AF1QipNsHxmiF3Yk8cpLtL_PRJh3qU_gYMVkZQtNhDQn=w725-h240-k-no",
    "kgmid": "/g/11d_yb5d84"
  },
  {
    "title": "Shaw's Pharmacy",
    "description": "Supermarket chain offering meat, produce, staples, deli & bakery items (some with pharmacies).",
    "price": "$$",
    "categoryName": "Pharmacy",
    "address": "20 D'Amante Dr, Concord, NH 03301",
    "neighborhood": null,
    "street": "20 D'Amante Dr",
    "city": "Concord",
    "postalCode": "03301",
    "state": "New Hampshire",
    "countryCode": "US",
    "website": "https://local.pharmacy.shaws.com/nh/concord/20-d-amante-dr.html",
    "phone": "(603) 228-2279",
    "phoneUnformatted": "+16032282279",
    "claimThisBusiness": false,
    "location": {
      "lat": 43.2221279,
      "lng": -71.4897398
    },
    "totalScore": 4.2,
    "permanentlyClosed": false,
    "temporarilyClosed": false,
    "placeId": "ChIJ89Wb_c1r4okR-sx3WJQ-3DE",
    "categories": [
      "Pharmacy",
      "Drug store",
      "Vitamin & supplements store"
    ],
    "fid": "0x89e26bcdfd9bd5f3:0x31dc3e945877ccfa",
    "cid": "3592815409595141370",
    "reviewsCount": 14,
    "imagesCount": 3,
    "imageCategories": [],
    "scrapedAt": "2025-06-22T08:54:26.663Z",
    "googleFoodUrl": null,
    "hotelAds": [],
    "openingHours": [
      {
        "day": "Monday",
        "hours": "9 AM to 2 PM, 2:30 to 8 PM"
      },
      {
        "day": "Tuesday",
        "hours": "9 AM to 2 PM, 2:30 to 8 PM"
      },
      {
        "day": "Wednesday",
        "hours": "9 AM to 2 PM, 2:30 to 8 PM"
      },
      {
        "day": "Thursday",
        "hours": "9 AM to 2 PM, 2:30 to 8 PM"
      },
      {
        "day": "Friday",
        "hours": "9 AM to 2 PM, 2:30 to 8 PM"
      },
      {
        "day": "Saturday",
        "hours": "9 AM to 2 PM, 2:30 to 5 PM"
      },
      {
        "day": "Sunday",
        "hours": "10 AM to 2 PM, 2:30 to 5 PM"
      }
    ],
    "peopleAlsoSearch": [],
    "placesTags": [],
    "reviewsTags": [],
    "additionalInfo": {
      "Service options": [
        {
          "Delivery": true
        },
        {
          "In-store pickup": true
        },
        {
          "In-store shopping": true
        },
        {
          "Same-day delivery": true
        }
      ],
      "Accessibility": [
        {
          "Wheelchair accessible entrance": true
        },
        {
          "Wheelchair accessible parking lot": true
        }
      ],
      "Crowd": [
        {
          "LGBTQ+ friendly": true
        }
      ],
      "Planning": [
        {
          "Appointment required": true
        },
        {
          "Quick visit": true
        }
      ],
      "Payments": [
        {
          "Checks": true
        },
        {
          "Debit cards": true
        },
        {
          "Credit cards": true
        }
      ]
    },
    "gasPrices": [],
    "url": "https://www.google.com/maps/search/?api=1&query=Shaw's%20Pharmacy&query_place_id=ChIJ89Wb_c1r4okR-sx3WJQ-3DE",
    "searchPageUrl": "https://www.google.com/maps/search/independent%20pharmacy%20Concord%20NH/@66.43262335305997,-155.41210894270387,9z?hl=en",
    "searchString": "independent pharmacy Concord NH",
    "language": "en",
    "rank": 6,
    "isAdvertisement": false,
    "imageUrl": "https://lh3.googleusercontent.com/p/AF1QipMSNlNB3CA7R-D7KnDnN2C-NhcN3gjyQiC_Azw=w426-h240-k-no",
    "kgmid": "/g/1vhlz5s7"
  },
  {
    "title": "Fisherville Pharmacy",
    "price": null,
    "categoryName": "Pharmacy",
    "address": "219 Fisherville Rd Unit c, Penacook, NH 03303",
    "neighborhood": "Penacook",
    "street": "219 Fisherville Rd Unit c",
    "city": "Penacook",
    "postalCode": "03303",
    "state": "New Hampshire",
    "countryCode": "US",
    "website": "http://fishervillerx.com/",
    "phone": "(603) 565-0210",
    "phoneUnformatted": "+16035650210",
    "claimThisBusiness": false,
    "location": {
      "lat": 43.2657906,
      "lng": -71.5867266
    },
    "totalScore": 4.6,
    "permanentlyClosed": false,
    "temporarilyClosed": false,
    "placeId": "ChIJz02i3KUU4okR_qejKnBlVus",
    "categories": [
      "Pharmacy"
    ],
    "fid": "0x89e214a5dca24dcf:0xeb5665702aa3a7fe",
    "cid": "16957852979336292350",
    "reviewsCount": 55,
    "imagesCount": 22,
    "imageCategories": [],
    "scrapedAt": "2025-06-22T08:54:26.663Z",
    "googleFoodUrl": null,
    "hotelAds": [],
    "openingHours": [
      {
        "day": "Monday",
        "hours": "9 AM to 7 PM"
      },
      {
        "day": "Tuesday",
        "hours": "9 AM to 7 PM"
      },
      {
        "day": "Wednesday",
        "hours": "9 AM to 7 PM"
      },
      {
        "day": "Thursday",
        "hours": "9 AM to 7 PM"
      },
      {
        "day": "Friday",
        "hours": "9 AM to 7 PM"
      },
      {
        "day": "Saturday",
        "hours": "9 AM to 3 PM"
      },
      {
        "day": "Sunday",
        "hours": "9 AM to 1 PM"
      }
    ],
    "peopleAlsoSearch": [],
    "placesTags": [],
    "reviewsTags": [],
    "additionalInfo": {
      "From the business": [
        {
          "Small business": true
        }
      ],
      "Service options": [
        {
          "Delivery": true
        },
        {
          "In-store pickup": true
        },
        {
          "In-store shopping": true
        },
        {
          "Same-day delivery": true
        }
      ],
      "Accessibility": [
        {
          "Wheelchair accessible entrance": true
        },
        {
          "Wheelchair accessible parking lot": true
        }
      ],
      "Planning": [
        {
          "Quick visit": true
        }
      ],
      "Payments": [
        {
          "Credit cards": true
        },
        {
          "Debit cards": true
        },
        {
          "NFC mobile payments": true
        },
        {
          "Credit cards": true
        }
      ]
    },
    "gasPrices": [],
    "url": "https://www.google.com/maps/search/?api=1&query=Fisherville%20Pharmacy&query_place_id=ChIJz02i3KUU4okR_qejKnBlVus",
    "searchPageUrl": "https://www.google.com/maps/search/independent%20pharmacy%20Concord%20NH/@66.43262335305997,-155.41210894270387,9z?hl=en",
    "searchString": "independent pharmacy Concord NH",
    "language": "en",
    "rank": 7,
    "isAdvertisement": false,
    "imageUrl": "https://lh3.googleusercontent.com/p/AF1QipNOjsZy1pn9YIqMCVYZfpnpJkUoa5aEM_JoCM5G=w426-h240-k-no",
    "kgmid": "/g/1tdw91r1"
  },
  {
    "title": "Valley Independent Pharmacy",
    "price": null,
    "categoryName": "Pharmacy",
    "address": "3631 White Mountain Hwy, North Conway, NH 03860",
    "neighborhood": "North Conway",
    "street": "3631 White Mountain Hwy",
    "city": "North Conway",
    "postalCode": "03860",
    "state": "New Hampshire",
    "countryCode": "US",
    "website": "https://valleyiph.com/",
    "phone": "(603) 730-5432",
    "phoneUnformatted": "+16037305432",
    "claimThisBusiness": false,
    "location": {
      "lat": 44.0747993,
      "lng": -71.1392055
    },
    "totalScore": 5,
    "permanentlyClosed": false,
    "temporarilyClosed": false,
    "placeId": "ChIJndKJCVehs0wR0ayJimKAQO0",
    "categories": [
      "Pharmacy",
      "Drug store"
    ],
    "fid": "0x4cb3a1570989d29d:0xed4080628a89acd1",
    "cid": "17095805346217831633",
    "reviewsCount": 12,
    "imagesCount": 21,
    "imageCategories": [],
    "scrapedAt": "2025-06-22T08:54:26.664Z",
    "googleFoodUrl": null,
    "hotelAds": [],
    "openingHours": [
      {
        "day": "Monday",
        "hours": "9 AM to 6 PM"
      },
      {
        "day": "Tuesday",
        "hours": "9 AM to 6 PM"
      },
      {
        "day": "Wednesday",
        "hours": "9 AM to 6 PM"
      },
      {
        "day": "Thursday",
        "hours": "9 AM to 6 PM"
      },
      {
        "day": "Friday",
        "hours": "9 AM to 6 PM"
      },
      {
        "day": "Saturday",
        "hours": "10 AM to 5 PM"
      },
      {
        "day": "Sunday",
        "hours": "Closed"
      }
    ],
    "peopleAlsoSearch": [],
    "placesTags": [],
    "reviewsTags": [],
    "additionalInfo": {
      "From the business": [
        {
          "Identifies as women-owned": true
        },
        {
          "Small business": true
        }
      ],
      "Service options": [
        {
          "Curbside pickup": true
        },
        {
          "Delivery": true
        },
        {
          "In-store pickup": true
        },
        {
          "In-store shopping": true
        },
        {
          "Onsite services": true
        },
        {
          "Same-day delivery": true
        }
      ],
      "Accessibility": [
        {
          "Wheelchair accessible entrance": true
        },
        {
          "Wheelchair accessible parking lot": true
        }
      ],
      "Amenities": [
        {
          "Wi-Fi": true
        },
        {
          "Free Wi-Fi": true
        }
      ],
      "Planning": [
        {
          "Quick visit": true
        }
      ],
      "Payments": [
        {
          "Credit cards": true
        }
      ]
    },
    "gasPrices": [],
    "url": "https://www.google.com/maps/search/?api=1&query=Valley%20Independent%20Pharmacy&query_place_id=ChIJndKJCVehs0wR0ayJimKAQO0",
    "searchPageUrl": "https://www.google.com/maps/search/independent%20pharmacy%20Concord%20NH/@66.43262335305997,-155.41210894270387,9z?hl=en",
    "searchString": "independent pharmacy Concord NH",
    "language": "en",
    "rank": 9,
    "isAdvertisement": false,
    "imageUrl": "https://lh3.googleusercontent.com/p/AF1QipPIXMHCqC9uZ8bzh3XpMI_h0w4-gYk0RBR3YjrY=w408-h284-k-no",
    "kgmid": "/g/11nxnt_950"
  },
  {
    "title": "CVS Pharmacy",
    "price": null,
    "categoryName": "Pharmacy",
    "address": "157 Loudon Rd, Concord, NH 03301",
    "neighborhood": null,
    "street": "157 Loudon Rd",
    "city": "Concord",
    "postalCode": "03301",
    "state": "New Hampshire",
    "countryCode": "US",
    "website": "https://www.cvs.com/store-locator/concord-nh-pharmacies/157-loudon-rd-concord-nh-03301/storeid=7122?WT.mc_id=LS_GOOGLE_RX_7122",
    "phone": "(603) 225-0793",
    "phoneUnformatted": "+16032250793",
    "claimThisBusiness": false,
    "location": {
      "lat": 43.2168761,
      "lng": -71.506894
    },
    "totalScore": 3.6,
    "permanentlyClosed": false,
    "temporarilyClosed": false,
    "placeId": "ChIJ_w6Tkktq4okRz4_9nHAi8eY",
    "categories": [
      "Pharmacy"
    ],
    "fid": "0x89e26a4b92930eff:0xe6f122709cfd8fcf",
    "cid": "16641119965176238031",
    "reviewsCount": 14,
    "imagesCount": 8,
    "imageCategories": [],
    "scrapedAt": "2025-06-22T08:54:26.664Z",
    "googleFoodUrl": null,
    "hotelAds": [],
    "openingHours": [
      {
        "day": "Monday",
        "hours": "9 AM to 1:30 PM, 2 to 7 PM"
      },
      {
        "day": "Tuesday",
        "hours": "9 AM to 1:30 PM, 2 to 7 PM"
      },
      {
        "day": "Wednesday",
        "hours": "9 AM to 1:30 PM, 2 to 7 PM"
      },
      {
        "day": "Thursday",
        "hours": "9 AM to 1:30 PM, 2 to 7 PM"
      },
      {
        "day": "Friday",
        "hours": "9 AM to 1:30 PM, 2 to 7 PM"
      },
      {
        "day": "Saturday",
        "hours": "9 AM to 1:30 PM, 2 to 5 PM"
      },
      {
        "day": "Sunday",
        "hours": "10 AM to 1:30 PM, 2 to 5 PM"
      }
    ],
    "peopleAlsoSearch": [],
    "placesTags": [],
    "reviewsTags": [],
    "additionalInfo": {
      "Service options": [
        {
          "Delivery": true
        },
        {
          "Drive-through": true
        },
        {
          "In-store pickup": true
        },
        {
          "In-store shopping": true
        },
        {
          "Onsite services": true
        }
      ],
      "Accessibility": [
        {
          "Wheelchair accessible entrance": true
        },
        {
          "Wheelchair accessible parking lot": true
        }
      ],
      "Offerings": [
        {
          "Naloxone": true
        },
        {
          "Passport photos": true
        }
      ],
      "Crowd": [
        {
          "LGBTQ+ friendly": true
        },
        {
          "Transgender safespace": true
        }
      ],
      "Planning": [
        {
          "Quick visit": true
        }
      ],
      "Payments": [
        {
          "Credit cards": true
        },
        {
          "Debit cards": true
        },
        {
          "SNAP/EBT": true
        },
        {
          "Credit cards": true
        }
      ]
    },
    "gasPrices": [],
    "url": "https://www.google.com/maps/search/?api=1&query=CVS%20Pharmacy&query_place_id=ChIJ_w6Tkktq4okRz4_9nHAi8eY",
    "searchPageUrl": "https://www.google.com/maps/search/independent%20pharmacy%20Concord%20NH/@66.43262335305997,-155.41210894270387,9z?hl=en",
    "searchString": "independent pharmacy Concord NH",
    "language": "en",
    "rank": 10,
    "isAdvertisement": false,
    "imageUrl": "https://lh3.googleusercontent.com/p/AF1QipMmL8kcJaxaLdcOmBdyt9Txnt6E3vOy4r2gkzY=w408-h272-k-no",
    "kgmid": "/g/11c468k168"
  },
  {
    "title": "CVS Pharmacy",
    "price": null,
    "categoryName": "Pharmacy",
    "address": "4 Hall St, Concord, NH 03301",
    "neighborhood": null,
    "street": "4 Hall St",
    "city": "Concord",
    "postalCode": "03301",
    "state": "New Hampshire",
    "countryCode": "US",
    "website": "https://www.cvs.com/store-locator/concord-nh-pharmacies/4-hall-st-concord-nh-03301/storeid=841?WT.mc_id=LS_GOOGLE_RX_841",
    "phone": "(603) 224-3189",
    "phoneUnformatted": "+16032243189",
    "claimThisBusiness": false,
    "location": {
      "lat": 43.1945808,
      "lng": -71.5289223
    },
    "totalScore": 3.5,
    "permanentlyClosed": false,
    "temporarilyClosed": false,
    "placeId": "ChIJDeL9RoZq4okR07_MKcFBGGo",
    "categories": [
      "Pharmacy"
    ],
    "fid": "0x89e26a8646fde20d:0x6a1841c129ccbfd3",
    "cid": "7644932665347194835",
    "reviewsCount": 33,
    "imagesCount": 37,
    "imageCategories": [],
    "scrapedAt": "2025-06-22T08:54:26.664Z",
    "googleFoodUrl": null,
    "hotelAds": [],
    "openingHours": [
      {
        "day": "Monday",
        "hours": "8 AM to 1:30 PM, 2 to 8 PM"
      },
      {
        "day": "Tuesday",
        "hours": "8 AM to 1:30 PM, 2 to 8 PM"
      },
      {
        "day": "Wednesday",
        "hours": "8 AM to 1:30 PM, 2 to 8 PM"
      },
      {
        "day": "Thursday",
        "hours": "8 AM to 1:30 PM, 2 to 8 PM"
      },
      {
        "day": "Friday",
        "hours": "8 AM to 1:30 PM, 2 to 8 PM"
      },
      {
        "day": "Saturday",
        "hours": "9 AM to 1:30 PM, 2 to 6 PM"
      },
      {
        "day": "Sunday",
        "hours": "9 AM to 1:30 PM, 2 to 6 PM"
      }
    ],
    "peopleAlsoSearch": [],
    "placesTags": [],
    "reviewsTags": [],
    "additionalInfo": {
      "Service options": [
        {
          "Delivery": true
        },
        {
          "Drive-through": true
        },
        {
          "In-store shopping": true
        },
        {
          "Onsite services": true
        }
      ],
      "Accessibility": [
        {
          "Wheelchair accessible entrance": true
        },
        {
          "Wheelchair accessible parking lot": true
        }
      ],
      "Offerings": [
        {
          "Medication disposal": true
        },
        {
          "Naloxone": true
        }
      ],
      "Crowd": [
        {
          "LGBTQ+ friendly": true
        },
        {
          "Transgender safespace": true
        }
      ],
      "Planning": [
        {
          "Quick visit": true
        }
      ],
      "Payments": [
        {
          "Credit cards": true
        },
        {
          "Debit cards": true
        },
        {
          "NFC mobile payments": true
        },
        {
          "SNAP/EBT": true
        },
        {
          "Credit cards": true
        }
      ]
    },
    "gasPrices": [],
    "url": "https://www.google.com/maps/search/?api=1&query=CVS%20Pharmacy&query_place_id=ChIJDeL9RoZq4okR07_MKcFBGGo",
    "searchPageUrl": "https://www.google.com/maps/search/independent%20pharmacy%20Concord%20NH/@66.43262335305997,-155.41210894270387,9z?hl=en",
    "searchString": "independent pharmacy Concord NH",
    "language": "en",
    "rank": 11,
    "isAdvertisement": false,
    "imageUrl": "https://lh3.googleusercontent.com/p/AF1QipNP33dRlbTjS8ksMuQTdRXGRgXtIJGgMXPOKYT8=w408-h272-k-no",
    "kgmid": "/g/11c467wksw"
  },
  {
    "title": "CVS Pharmacy",
    "description": "Drugstore chain selling a variety of beauty & health products, plus some grocery & household items.",
    "price": null,
    "categoryName": "Pharmacy",
    "address": "80 D'Amante Dr, Concord, NH 03301",
    "neighborhood": null,
    "street": "80 D'Amante Dr",
    "city": "Concord",
    "postalCode": "03301",
    "state": "New Hampshire",
    "countryCode": "US",
    "website": "https://www.cvs.com/store-locator/concord-nh-pharmacies/80-damante-dr-concord-nh-03301/storeid=16582?WT.mc_id=LS_GOOGLE_RX_16582",
    "phone": "(603) 227-0816",
    "phoneUnformatted": "+16032270816",
    "claimThisBusiness": false,
    "location": {
      "lat": 43.2182937,
      "lng": -71.4846638
    },
    "totalScore": 3.2,
    "permanentlyClosed": false,
    "temporarilyClosed": false,
    "placeId": "ChIJ75-CdtNr4okR4B8_f4Dq7ks",
    "categories": [
      "Pharmacy"
    ],
    "fid": "0x89e26bd376829fef:0x4beeea807f3f1fe0",
    "cid": "5471568434913288160",
    "reviewsCount": 17,
    "imagesCount": 10,
    "imageCategories": [],
    "scrapedAt": "2025-06-22T08:54:26.664Z",
    "googleFoodUrl": null,
    "hotelAds": [],
    "openingHours": [
      {
        "day": "Monday",
        "hours": "9 AM to 1:30 PM, 2 to 7 PM"
      },
      {
        "day": "Tuesday",
        "hours": "9 AM to 1:30 PM, 2 to 7 PM"
      },
      {
        "day": "Wednesday",
        "hours": "9 AM to 1:30 PM, 2 to 7 PM"
      },
      {
        "day": "Thursday",
        "hours": "9 AM to 1:30 PM, 2 to 7 PM"
      },
      {
        "day": "Friday",
        "hours": "9 AM to 1:30 PM, 2 to 7 PM"
      },
      {
        "day": "Saturday",
        "hours": "9 AM to 1:30 PM, 2 to 5 PM"
      },
      {
        "day": "Sunday",
        "hours": "11 AM to 1:30 PM, 2 to 5 PM"
      }
    ],
    "peopleAlsoSearch": [],
    "placesTags": [],
    "reviewsTags": [],
    "additionalInfo": {
      "Service options": [
        {
          "Delivery": true
        },
        {
          "In-store shopping": true
        },
        {
          "Onsite services": true
        },
        {
          "Same-day delivery": false
        }
      ],
      "Accessibility": [
        {
          "Wheelchair accessible entrance": true
        },
        {
          "Wheelchair accessible parking lot": true
        }
      ],
      "Offerings": [
        {
          "Naloxone": true
        }
      ],
      "Crowd": [
        {
          "LGBTQ+ friendly": true
        },
        {
          "Transgender safespace": true
        }
      ],
      "Planning": [
        {
          "Quick visit": true
        }
      ],
      "Payments": [
        {
          "Credit cards": true
        },
        {
          "Debit cards": true
        },
        {
          "Credit cards": true
        }
      ]
    },
    "gasPrices": [],
    "url": "https://www.google.com/maps/search/?api=1&query=CVS%20Pharmacy&query_place_id=ChIJ75-CdtNr4okR4B8_f4Dq7ks",
    "searchPageUrl": "https://www.google.com/maps/search/independent%20pharmacy%20Concord%20NH/@66.43262335305997,-155.41210894270387,9z?hl=en",
    "searchString": "independent pharmacy Concord NH",
    "language": "en",
    "rank": 13,
    "isAdvertisement": false,
    "imageUrl": "https://lh3.googleusercontent.com/p/AF1QipNr0y9t1-5cAFqWajWtEVbIS-zfnA6mxbP5iUkD=w408-h272-k-no",
    "kgmid": "/g/1thsgybh"
  },
  {
    "title": "Sam's Club Pharmacy",
    "price": "$",
    "categoryName": "Pharmacy",
    "address": "304 Sheep Davis Rd, Concord, NH 03301",
    "neighborhood": null,
    "street": "304 Sheep Davis Rd",
    "city": "Concord",
    "postalCode": "03301",
    "state": "New Hampshire",
    "countryCode": "US",
    "website": "https://www.samsclub.com/local/pharmacy/concord-nh-sams-club/6386",
    "phone": "(603) 224-8954",
    "phoneUnformatted": "+16032248954",
    "claimThisBusiness": false,
    "location": {
      "lat": 43.2265443,
      "lng": -71.475918
    },
    "totalScore": 4.8,
    "permanentlyClosed": false,
    "temporarilyClosed": false,
    "placeId": "ChIJU8VV6mJp4okRnYZVIRN01PA",
    "categories": [
      "Pharmacy"
    ],
    "fid": "0x89e26962ea55c553:0xf0d474132155869d",
    "cid": "17353622889677817501",
    "reviewsCount": 8,
    "imagesCount": 8,
    "imageCategories": [],
    "scrapedAt": "2025-06-22T08:54:26.664Z",
    "googleFoodUrl": null,
    "hotelAds": [],
    "openingHours": [
      {
        "day": "Monday",
        "hours": "9 AM to 7 PM"
      },
      {
        "day": "Tuesday",
        "hours": "9 AM to 7 PM"
      },
      {
        "day": "Wednesday",
        "hours": "9 AM to 7 PM"
      },
      {
        "day": "Thursday",
        "hours": "9 AM to 7 PM"
      },
      {
        "day": "Friday",
        "hours": "9 AM to 7 PM"
      },
      {
        "day": "Saturday",
        "hours": "9 AM to 6 PM"
      },
      {
        "day": "Sunday",
        "hours": "Closed"
      }
    ],
    "peopleAlsoSearch": [],
    "placesTags": [],
    "reviewsTags": [],
    "additionalInfo": {
      "Service options": [
        {
          "Curbside pickup": true
        },
        {
          "Delivery": true
        },
        {
          "In-store pickup": true
        },
        {
          "In-store shopping": true
        },
        {
          "Onsite services": true
        },
        {
          "Same-day delivery": true
        }
      ],
      "Accessibility": [
        {
          "Wheelchair accessible entrance": true
        },
        {
          "Wheelchair accessible parking lot": true
        }
      ],
      "Planning": [
        {
          "Quick visit": true
        }
      ],
      "Payments": [
        {
          "Credit cards": true
        },
        {
          "Debit cards": true
        },
        {
          "Credit cards": true
        }
      ]
    },
    "gasPrices": [],
    "url": "https://www.google.com/maps/search/?api=1&query=Sam's%20Club%20Pharmacy&query_place_id=ChIJU8VV6mJp4okRnYZVIRN01PA",
    "searchPageUrl": "https://www.google.com/maps/search/independent%20pharmacy%20Concord%20NH/@66.43262335305997,-155.41210894270387,9z?hl=en",
    "searchString": "independent pharmacy Concord NH",
    "language": "en",
    "rank": 14,
    "isAdvertisement": false,
    "imageUrl": "https://lh3.googleusercontent.com/p/AF1QipOYTfuP099zVLHSsH_gj0MZrRD4vampMjC_WSLF=w408-h272-k-no",
    "kgmid": "/g/11b6gdcjxc"
  },
  {
    "title": "Walgreens Pharmacy",
    "description": "Department of the Walgreens chain providing prescription medications & other health-related items.",
    "price": "$$",
    "categoryName": "Pharmacy",
    "address": "142 Loudon Rd, Concord, NH 03301",
    "neighborhood": null,
    "street": "142 Loudon Rd",
    "city": "Concord",
    "postalCode": "03301",
    "state": "New Hampshire",
    "countryCode": "US",
    "website": "https://www.walgreens.com/locator/walgreens-142+loudon+rd-concord-nh-03301/id=11376",
    "phone": "(603) 226-1890",
    "phoneUnformatted": "+16032261890",
    "claimThisBusiness": false,
    "location": {
      "lat": 43.2159288,
      "lng": -71.5065859
    },
    "totalScore": 3.3,
    "permanentlyClosed": false,
    "temporarilyClosed": false,
    "placeId": "ChIJZSl8-0tq4okRIHhK1f45idA",
    "categories": [
      "Pharmacy"
    ],
    "fid": "0x89e26a4bfb7c2965:0xd08939fed54a7820",
    "cid": "15026605398361274400",
    "reviewsCount": 10,
    "imagesCount": 4,
    "imageCategories": [],
    "scrapedAt": "2025-06-22T08:54:26.664Z",
    "googleFoodUrl": null,
    "hotelAds": [],
    "openingHours": [
      {
        "day": "Monday",
        "hours": "9 AM to 1:30 PM, 2 to 8 PM"
      },
      {
        "day": "Tuesday",
        "hours": "9 AM to 1:30 PM, 2 to 8 PM"
      },
      {
        "day": "Wednesday",
        "hours": "9 AM to 1:30 PM, 2 to 8 PM"
      },
      {
        "day": "Thursday",
        "hours": "9 AM to 1:30 PM, 2 to 8 PM"
      },
      {
        "day": "Friday",
        "hours": "9 AM to 1:30 PM, 2 to 8 PM"
      },
      {
        "day": "Saturday",
        "hours": "9 AM to 1:30 PM, 2 to 5 PM"
      },
      {
        "day": "Sunday",
        "hours": "9 AM to 1:30 PM, 2 to 5 PM"
      }
    ],
    "additionalOpeningHours": {
      "Drive through": [
        {
          "day": "Monday",
          "hours": "9 AM–1:30 PM"
        },
        {
          "day": "Tuesday",
          "hours": "9 AM–1:30 PM"
        },
        {
          "day": "Wednesday",
          "hours": "9 AM–1:30 PM"
        },
        {
          "day": "Thursday",
          "hours": "9 AM–1:30 PM"
        },
        {
          "day": "Friday",
          "hours": "9 AM–1:30 PM"
        },
        {
          "day": "Saturday",
          "hours": "9 AM–1:30 PM"
        },
        {
          "day": "Sunday",
          "hours": "9 AM–1:30 PM"
        }
      ]
    },
    "peopleAlsoSearch": [],
    "placesTags": [],
    "reviewsTags": [],
    "additionalInfo": {
      "Service options": [
        {
          "Drive-through": true
        },
        {
          "In-store pickup": true
        }
      ],
      "Accessibility": [
        {
          "Wheelchair accessible entrance": true
        },
        {
          "Wheelchair accessible parking lot": true
        }
      ],
      "Offerings": [
        {
          "Medication disposal": true
        },
        {
          "Naloxone": true
        }
      ],
      "Planning": [
        {
          "Quick visit": true
        }
      ],
      "Payments": [
        {
          "Checks": true
        },
        {
          "Credit cards": true
        },
        {
          "Debit cards": true
        }
      ]
    },
    "gasPrices": [],
    "url": "https://www.google.com/maps/search/?api=1&query=Walgreens%20Pharmacy&query_place_id=ChIJZSl8-0tq4okRIHhK1f45idA",
    "searchPageUrl": "https://www.google.com/maps/search/independent%20pharmacy%20Concord%20NH/@66.43262335305997,-155.41210894270387,9z?hl=en",
    "searchString": "independent pharmacy Concord NH",
    "language": "en",
    "rank": 15,
    "isAdvertisement": false,
    "imageUrl": "https://lh3.googleusercontent.com/gps-cs-s/AC9h4npJROym6sWbIDGhMAq4qdCNzu42CnL1kvinqx2KsMSaAgO25ntKet6cIZTtovitjXPz5fX_cFfwWsI8x2z9kIocfTkHs3d_MB1wV0kYpkuELPhWYZsfe9G5b8Ltw7tVp-y9tQfq=w470-h240-k-no",
    "kgmid": "/g/11cnbm6z07"
  },
  {
    "title": "Rite Aid Pharmacy",
    "price": "$$",
    "categoryName": "Pharmacy",
    "address": "165 N State St, Concord, NH 03301",
    "neighborhood": null,
    "street": "165 N State St",
    "city": "Concord",
    "postalCode": "03301",
    "state": "New Hampshire",
    "countryCode": "US",
    "website": "https://www.riteaid.com/locations/nh/concord/165-north-state-street.html",
    "phone": "(603) 223-6713",
    "phoneUnformatted": "+16032236713",
    "claimThisBusiness": false,
    "location": {
      "lat": 43.2173635,
      "lng": -71.5472358
    },
    "locatedIn": "Rite Aid Photo",
    "totalScore": 3.3,
    "permanentlyClosed": false,
    "temporarilyClosed": false,
    "placeId": "ChIJ4yRkdehq4okR_dOsGpWwjAI",
    "categories": [
      "Pharmacy"
    ],
    "fid": "0x89e26ae8756424e3:0x28cb0951aacd3fd",
    "cid": "183715839259497469",
    "reviewsCount": 92,
    "imagesCount": 8,
    "imageCategories": [],
    "scrapedAt": "2025-06-22T08:54:26.665Z",
    "googleFoodUrl": null,
    "hotelAds": [],
    "openingHours": [
      {
        "day": "Monday",
        "hours": "8 AM to 1:30 PM, 2 to 9 PM"
      },
      {
        "day": "Tuesday",
        "hours": "8 AM to 1:30 PM, 2 to 9 PM"
      },
      {
        "day": "Wednesday",
        "hours": "8 AM to 1:30 PM, 2 to 9 PM"
      },
      {
        "day": "Thursday",
        "hours": "8 AM to 1:30 PM, 2 to 9 PM"
      },
      {
        "day": "Friday",
        "hours": "8 AM to 1:30 PM, 2 to 9 PM"
      },
      {
        "day": "Saturday",
        "hours": "8 AM to 1:30 PM, 2 to 6 PM"
      },
      {
        "day": "Sunday",
        "hours": "8 AM to 1:30 PM, 2 to 6 PM"
      }
    ],
    "additionalOpeningHours": {
      "Rite Aid Photo": [
        {
          "day": "Monday",
          "hours": "8 AM–9 PM"
        },
        {
          "day": "Tuesday",
          "hours": "8 AM–9 PM"
        },
        {
          "day": "Wednesday",
          "hours": "8 AM–9 PM"
        },
        {
          "day": "Thursday",
          "hours": "8 AM–9 PM"
        },
        {
          "day": "Friday",
          "hours": "8 AM–9 PM"
        },
        {
          "day": "Saturday",
          "hours": "8 AM–6 PM"
        },
        {
          "day": "Sunday",
          "hours": "8 AM–6 PM"
        }
      ],
      "Drive through": [
        {
          "day": "Monday",
          "hours": "8 AM–8 PM"
        },
        {
          "day": "Tuesday",
          "hours": "8 AM–8 PM"
        },
        {
          "day": "Wednesday",
          "hours": "8 AM–8 PM"
        },
        {
          "day": "Thursday",
          "hours": "8 AM–8 PM"
        },
        {
          "day": "Friday",
          "hours": "8 AM–8 PM"
        },
        {
          "day": "Saturday",
          "hours": "8 AM–6 PM"
        },
        {
          "day": "Sunday",
          "hours": "8 AM–6 PM"
        }
      ]
    },
    "peopleAlsoSearch": [],
    "placesTags": [],
    "reviewsTags": [],
    "additionalInfo": {
      "Service options": [
        {
          "Delivery": true
        },
        {
          "Drive-through": true
        },
        {
          "In-store pickup": true
        },
        {
          "In-store shopping": true
        },
        {
          "Onsite services": true
        }
      ],
      "Accessibility": [
        {
          "Wheelchair accessible parking lot": true
        }
      ],
      "Offerings": [
        {
          "Naloxone": true
        },
        {
          "Passport photos": true
        }
      ],
      "Planning": [
        {
          "Quick visit": true
        }
      ],
      "Payments": [
        {
          "Checks": true
        },
        {
          "Credit cards": true
        },
        {
          "Debit cards": true
        },
        {
          "NFC mobile payments": true
        },
        {
          "SNAP/EBT": true
        },
        {
          "Credit cards": true
        }
      ]
    },
    "gasPrices": [],
    "url": "https://www.google.com/maps/search/?api=1&query=Rite%20Aid%20Pharmacy&query_place_id=ChIJ4yRkdehq4okR_dOsGpWwjAI",
    "searchPageUrl": "https://www.google.com/maps/search/independent%20pharmacy%20Concord%20NH/@66.43262335305997,-155.41210894270387,9z?hl=en",
    "searchString": "independent pharmacy Concord NH",
    "language": "en",
    "rank": 16,
    "isAdvertisement": false,
    "imageUrl": "https://lh3.googleusercontent.com/p/AF1QipN2kyI2qcPzjz9J9LLzCRgWvb_y0f0mNxCv-7zr=w408-h406-k-no",
    "kgmid": "/g/11gbnq03vk"
  },
  {
    "title": "Rite Aid Pharmacy",
    "price": null,
    "categoryName": "Pharmacy",
    "address": "92 South St, Concord, NH 03301",
    "neighborhood": null,
    "street": "92 South St",
    "city": "Concord",
    "postalCode": "03301",
    "state": "New Hampshire",
    "countryCode": "US",
    "website": "https://www.riteaid.com/locations/nh/concord/92-south-street.html",
    "phone": "(603) 228-8400",
    "phoneUnformatted": "+16032288400",
    "claimThisBusiness": false,
    "location": {
      "lat": 43.1936074,
      "lng": -71.5400952
    },
    "totalScore": 3.3,
    "permanentlyClosed": false,
    "temporarilyClosed": false,
    "placeId": "ChIJHT9metxr4okRiGpQb9-Efq0",
    "categories": [
      "Pharmacy"
    ],
    "fid": "0x89e26bdc7a663f1d:0xad7e84df6f506a88",
    "cid": "12501575710807190152",
    "reviewsCount": 3,
    "imagesCount": 7,
    "imageCategories": [],
    "scrapedAt": "2025-06-22T08:54:26.665Z",
    "googleFoodUrl": null,
    "hotelAds": [],
    "openingHours": [
      {
        "day": "Monday",
        "hours": "8 AM to 1:30 PM, 2 to 9 PM"
      },
      {
        "day": "Tuesday",
        "hours": "8 AM to 1:30 PM, 2 to 9 PM"
      },
      {
        "day": "Wednesday",
        "hours": "8 AM to 1:30 PM, 2 to 9 PM"
      },
      {
        "day": "Thursday",
        "hours": "8 AM to 1:30 PM, 2 to 9 PM"
      },
      {
        "day": "Friday",
        "hours": "8 AM to 1:30 PM, 2 to 9 PM"
      },
      {
        "day": "Saturday",
        "hours": "9 AM to 1:30 PM, 2 to 6 PM"
      },
      {
        "day": "Sunday",
        "hours": "9 AM to 1:30 PM, 2 to 6 PM"
      }
    ],
    "additionalOpeningHours": {
      "Drive through": [
        {
          "day": "Monday",
          "hours": "7 AM–9 PM"
        },
        {
          "day": "Tuesday",
          "hours": "7 AM–9 PM"
        },
        {
          "day": "Wednesday",
          "hours": "7 AM–9 PM"
        },
        {
          "day": "Thursday",
          "hours": "7 AM–9 PM"
        },
        {
          "day": "Friday",
          "hours": "7 AM–9 PM"
        },
        {
          "day": "Saturday",
          "hours": "8 AM–6 PM"
        },
        {
          "day": "Sunday",
          "hours": "8 AM–6 PM"
        }
      ]
    },
    "peopleAlsoSearch": [],
    "placesTags": [],
    "reviewsTags": [],
    "additionalInfo": {
      "Service options": [
        {
          "Delivery": true
        },
        {
          "Drive-through": true
        },
        {
          "In-store pickup": true
        }
      ],
      "Accessibility": [
        {
          "Wheelchair accessible entrance": true
        },
        {
          "Wheelchair accessible parking lot": true
        }
      ],
      "Planning": [
        {
          "Quick visit": true
        }
      ],
      "Payments": [
        {
          "Checks": true
        },
        {
          "Credit cards": true
        },
        {
          "Debit cards": true
        },
        {
          "NFC mobile payments": true
        },
        {
          "Credit cards": true
        }
      ]
    },
    "gasPrices": [],
    "url": "https://www.google.com/maps/search/?api=1&query=Rite%20Aid%20Pharmacy&query_place_id=ChIJHT9metxr4okRiGpQb9-Efq0",
    "searchPageUrl": "https://www.google.com/maps/search/independent%20pharmacy%20Concord%20NH/@66.43262335305997,-155.41210894270387,9z?hl=en",
    "searchString": "independent pharmacy Concord NH",
    "language": "en",
    "rank": 17,
    "isAdvertisement": false,
    "imageUrl": "https://lh3.googleusercontent.com/p/AF1QipONhkKT1o0f4B0ajm4MIluu2z1woK0J0kX508p2=w408-h406-k-no",
    "kgmid": "/g/11sw17s7j5"
  },
  {
    "title": "Hannaford Pharmacy",
    "price": "$$",
    "categoryName": "Pharmacy",
    "address": "73 Fort Eddy Rd, Concord, NH 03301",
    "neighborhood": null,
    "street": "73 Fort Eddy Rd",
    "city": "Concord",
    "postalCode": "03301",
    "state": "New Hampshire",
    "countryCode": "US",
    "website": "https://stores.hannaford.com/nh/concord/8329",
    "phone": "(603) 228-2121",
    "phoneUnformatted": "+16032282121",
    "claimThisBusiness": false,
    "location": {
      "lat": 43.2125735,
      "lng": -71.5329708
    },
    "totalScore": 2.4,
    "permanentlyClosed": false,
    "temporarilyClosed": false,
    "placeId": "ChIJbfGicPFq4okRkqsgD7wR-CU",
    "categories": [
      "Pharmacy"
    ],
    "fid": "0x89e26af170a2f16d:0x25f811bc0f20ab92",
    "cid": "2735956273032899474",
    "reviewsCount": 23,
    "imagesCount": 6,
    "imageCategories": [],
    "scrapedAt": "2025-06-22T08:54:26.665Z",
    "googleFoodUrl": null,
    "hotelAds": [],
    "openingHours": [
      {
        "day": "Monday",
        "hours": "9 AM to 8 PM"
      },
      {
        "day": "Tuesday",
        "hours": "9 AM to 8 PM"
      },
      {
        "day": "Wednesday",
        "hours": "9 AM to 8 PM"
      },
      {
        "day": "Thursday",
        "hours": "9 AM to 8 PM"
      },
      {
        "day": "Friday",
        "hours": "9 AM to 8 PM"
      },
      {
        "day": "Saturday",
        "hours": "9 AM to 6 PM"
      },
      {
        "day": "Sunday",
        "hours": "9 AM to 5 PM"
      }
    ],
    "peopleAlsoSearch": [],
    "placesTags": [],
    "reviewsTags": [],
    "additionalInfo": {
      "Service options": [
        {
          "Curbside pickup": true
        },
        {
          "Delivery": true
        },
        {
          "In-store pickup": true
        },
        {
          "Same-day delivery": true
        }
      ],
      "Accessibility": [
        {
          "Wheelchair accessible entrance": true
        },
        {
          "Wheelchair accessible parking lot": true
        }
      ],
      "Planning": [
        {
          "Quick visit": true
        }
      ],
      "Payments": [
        {
          "Checks": true
        },
        {
          "Credit cards": true
        },
        {
          "Debit cards": true
        }
      ]
    },
    "gasPrices": [],
    "url": "https://www.google.com/maps/search/?api=1&query=Hannaford%20Pharmacy&query_place_id=ChIJbfGicPFq4okRkqsgD7wR-CU",
    "searchPageUrl": "https://www.google.com/maps/search/independent%20pharmacy%20Concord%20NH/@66.43262335305997,-155.41210894270387,9z?hl=en",
    "searchString": "independent pharmacy Concord NH",
    "language": "en",
    "rank": 18,
    "isAdvertisement": false,
    "imageUrl": "https://lh3.googleusercontent.com/gps-cs-s/AC9h4nrVkVvXzQ9htFbtoG_FsYPfU7nyEE9bT31rPLuVmyDlhnlKHM4AXFKDl6NMumEB_zOg9zlecHvkc-0peFoLVpeWSJDXMcrQOLS_O-Uq9w8sjgSBFTBXFpHu6itLuV5GHVXfxDZU=w426-h240-k-no",
    "kgmid": "/g/12643fhrk"
  },
  {
    "title": "Medicine Store",
    "price": null,
    "categoryName": "Pharmacy",
    "address": "74 S Main St, Concord, NH 03301",
    "neighborhood": null,
    "street": "74 S Main St",
    "city": "Concord",
    "postalCode": "03301",
    "state": "New Hampshire",
    "countryCode": "US",
    "website": "http://www.naturalwellnesscorner.com/",
    "phone": "(603) 225-2747",
    "phoneUnformatted": "+16032252747",
    "claimThisBusiness": false,
    "location": {
      "lat": 43.1984755,
      "lng": -71.5321976
    },
    "totalScore": 5,
    "permanentlyClosed": true,
    "temporarilyClosed": false,
    "placeId": "ChIJfZPXJo9q4okRXqolYqsvfo8",
    "categories": [
      "Pharmacy"
    ],
    "fid": "0x89e26a8f26d7937d:0x8f7e2fab6225aa5e",
    "cid": "10339754207621786206",
    "reviewsCount": 3,
    "imagesCount": 4,
    "imageCategories": [],
    "scrapedAt": "2025-06-22T08:54:26.665Z",
    "googleFoodUrl": null,
    "hotelAds": [],
    "openingHours": [],
    "peopleAlsoSearch": [],
    "placesTags": [],
    "reviewsTags": [],
    "gasPrices": [],
    "url": "https://www.google.com/maps/search/?api=1&query=Medicine%20Store&query_place_id=ChIJfZPXJo9q4okRXqolYqsvfo8",
    "searchPageUrl": "https://www.google.com/maps/search/independent%20pharmacy%20Concord%20NH/@66.43262335305997,-155.41210894270387,9z?hl=en",
    "searchString": "independent pharmacy Concord NH",
    "language": "en",
    "rank": 19,
    "isAdvertisement": false,
    "imageUrl": "https://lh3.googleusercontent.com/p/AF1QipNi5h1_sy0N3uGZjk0fVb7GJjitZ9L5PTUL3coi=w408-h244-k-no",
    "kgmid": "/g/1tjdmrjt"
  },
  {
    "title": "Rite Aid",
    "price": null,
    "categoryName": "Drug store",
    "address": "165 N State St, Concord, NH 03301",
    "neighborhood": null,
    "street": "165 N State St",
    "city": "Concord",
    "postalCode": "03301",
    "state": "New Hampshire",
    "countryCode": "US",
    "website": "https://www.riteaid.com/locations/nh/concord/165-north-state-street.html",
    "phone": "(603) 223-6713",
    "phoneUnformatted": "+16032236713",
    "claimThisBusiness": false,
    "location": {
      "lat": 43.2173003,
      "lng": -71.5474352
    },
    "totalScore": 3,
    "permanentlyClosed": false,
    "temporarilyClosed": false,
    "placeId": "ChIJl7-LjM9r4okRlhUbmjM1zcU",
    "categories": [
      "Drug store",
      "Beauty supply store",
      "Convenience store",
      "General store",
      "Greeting card shop"
    ],
    "fid": "0x89e26bcf8c8bbf97:0xc5cd35339a1b1596",
    "cid": "14253106891442558358",
    "reviewsCount": 2,
    "imagesCount": 7,
    "imageCategories": [],
    "scrapedAt": "2025-06-22T08:54:32.749Z",
    "googleFoodUrl": null,
    "hotelAds": [],
    "openingHours": [
      {
        "day": "Monday",
        "hours": "8 AM to 9 PM"
      },
      {
        "day": "Tuesday",
        "hours": "8 AM to 9 PM"
      },
      {
        "day": "Wednesday",
        "hours": "8 AM to 9 PM"
      },
      {
        "day": "Thursday",
        "hours": "8 AM to 9 PM"
      },
      {
        "day": "Friday",
        "hours": "8 AM to 9 PM"
      },
      {
        "day": "Saturday",
        "hours": "8 AM to 6 PM"
      },
      {
        "day": "Sunday",
        "hours": "8 AM to 6 PM"
      }
    ],
    "peopleAlsoSearch": [],
    "placesTags": [],
    "reviewsTags": [],
    "additionalInfo": {
      "Service options": [
        {
          "Drive-through": true
        },
        {
          "In-store pickup": true
        }
      ],
      "Accessibility": [
        {
          "Wheelchair accessible entrance": true
        },
        {
          "Wheelchair accessible parking lot": true
        }
      ],
      "Planning": [
        {
          "Quick visit": true
        }
      ],
      "Payments": [
        {
          "Checks": true
        },
        {
          "Credit cards": true
        },
        {
          "Debit cards": true
        },
        {
          "NFC mobile payments": true
        },
        {
          "Credit cards": true
        }
      ]
    },
    "gasPrices": [],
    "url": "https://www.google.com/maps/search/?api=1&query=Rite%20Aid&query_place_id=ChIJl7-LjM9r4okRlhUbmjM1zcU",
    "searchPageUrl": "https://www.google.com/maps/search/independent%20pharmacy%20Concord%20NH/@56.49842380833663,-169.4900814092578,12z?hl=en",
    "searchString": "independent pharmacy Concord NH",
    "language": "en",
    "rank": 7,
    "isAdvertisement": false,
    "imageUrl": "https://lh3.googleusercontent.com/p/AF1QipPqdKBQaLMYVMJn3QLsmXKRKrgVGj3M9xECEMHn=w408-h406-k-no",
    "kgmid": "/g/11y7fnkjts"
  }
]