[
  {
    "title": "Family Care Specialty Pharmacy, Rock Hill SC",
    "price": null,
    "categoryName": "Pharmacy",
    "address": "2760 Celanese Rd Ste 102, Rock Hill, SC 29732",
    "neighborhood": null,
    "street": "2760 Celanese Rd Ste 102",
    "city": "Rock Hill",
    "postalCode": "29732",
    "state": "South Carolina",
    "countryCode": "US",
    "website": "https://www.familycarerockhill.com/",
    "phone": "(803) 981-5330",
    "phoneUnformatted": "+18039815330",
    "claimThisBusiness": false,
    "location": {
      "lat": 34.9763162,
      "lng": -81.0282788
    },
    "totalScore": 4.7,
    "permanentlyClosed": false,
    "temporarilyClosed": false,
    "placeId": "ChIJmbDGgTOPVogRVpNEkipwWFc",
    "categories": [
      "Pharmacy"
    ],
    "fid": "0x88568f3381c6b099:0x5758702a92449356",
    "cid": "6293903807395173206",
    "reviewsCount": 72,
    "imagesCount": 17,
    "imageCategories": [],
    "scrapedAt": "2025-06-22T09:39:39.375Z",
    "googleFoodUrl": null,
    "hotelAds": [],
    "openingHours": [
      {
        "day": "Monday",
        "hours": "9 AM to 7 PM"
      },
      {
        "day": "Tuesday",
        "hours": "9 AM to 7 PM"
      },
      {
        "day": "Wednesday",
        "hours": "9 AM to 7 PM"
      },
      {
        "day": "Thursday",
        "hours": "9 AM to 7 PM"
      },
      {
        "day": "Friday",
        "hours": "9 AM to 7 PM"
      },
      {
        "day": "Saturday",
        "hours": "10 AM to 4 PM"
      },
      {
        "day": "Sunday",
        "hours": "Closed"
      }
    ],
    "peopleAlsoSearch": [],
    "placesTags": [],
    "reviewsTags": [],
    "additionalInfo": {
      "From the business": [
        {
          "Small business": true
        }
      ],
      "Service options": [
        {
          "Delivery": true
        },
        {
          "Drive-through": true
        },
        {
          "In-store pickup": true
        },
        {
          "Same-day delivery": true
        }
      ],
      "Accessibility": [
        {
          "Wheelchair accessible entrance": true
        },
        {
          "Wheelchair accessible parking lot": true
        }
      ],
      "Amenities": [
        {
          "Wi-Fi": true
        },
        {
          "Free Wi-Fi": true
        }
      ],
      "Planning": [
        {
          "Quick visit": true
        }
      ],
      "Payments": [
        {
          "Credit cards": true
        },
        {
          "Debit cards": true
        },
        {
          "NFC mobile payments": true
        },
        {
          "Credit cards": true
        }
      ]
    },
    "gasPrices": [],
    "url": "https://www.google.com/maps/search/?api=1&query=Family%20Care%20Specialty%20Pharmacy%2C%20Rock%20Hill%20SC&query_place_id=ChIJmbDGgTOPVogRVpNEkipwWFc",
    "searchPageUrl": "https://www.google.com/maps/search/independent%20pharmacy%20Rock%20Hill%20SC/@63.653579074253855,-153.11051097135197,9z?hl=en",
    "searchString": "independent pharmacy Rock Hill SC",
    "language": "en",
    "rank": 1,
    "isAdvertisement": false,
    "imageUrl": "https://lh3.googleusercontent.com/gps-cs-s/AC9h4noZ0gvhrNSJPCgKBsaHrifOqFIVIN27ty7Gm4U4SBr7NEYhU52fXG0vRJvcIEJ6hfU0FWpcSEVIvRnRUl3VlxO6daWn_TN9sTWRgzrw9cDdnMExwAeIU6QSzwGqpR5CPWtvv_3e=w426-h240-k-no",
    "kgmid": "/g/11j6fxbdp7"
  },
  {
    "title": "Good Pharmacy",
    "price": null,
    "categoryName": "Pharmacy",
    "address": "1237 Ebenezer Rd, Rock Hill, SC 29732",
    "neighborhood": null,
    "street": "1237 Ebenezer Rd",
    "city": "Rock Hill",
    "postalCode": "29732",
    "state": "South Carolina",
    "countryCode": "US",
    "website": "http://goodpharmacy.com/",
    "phone": "(803) 327-2081",
    "phoneUnformatted": "+18033272081",
    "claimThisBusiness": false,
    "location": {
      "lat": 34.9456584,
      "lng": -81.0373564
    },
    "totalScore": 4.4,
    "permanentlyClosed": false,
    "temporarilyClosed": false,
    "placeId": "ChIJoyWwMxmJVogRgOvEjw9UoQ0",
    "categories": [
      "Pharmacy",
      "Drug store"
    ],
    "fid": "0x8856891933b025a3:0xda1540f8fc4eb80",
    "cid": "982158619556768640",
    "reviewsCount": 80,
    "imagesCount": 28,
    "imageCategories": [],
    "scrapedAt": "2025-06-22T09:39:39.376Z",
    "googleFoodUrl": null,
    "hotelAds": [],
    "openingHours": [
      {
        "day": "Monday",
        "hours": "8:30 AM to 6 PM"
      },
      {
        "day": "Tuesday",
        "hours": "8:30 AM to 6 PM"
      },
      {
        "day": "Wednesday",
        "hours": "8:30 AM to 6 PM"
      },
      {
        "day": "Thursday",
        "hours": "8:30 AM to 6 PM"
      },
      {
        "day": "Friday",
        "hours": "8:30 AM to 6 PM"
      },
      {
        "day": "Saturday",
        "hours": "9 AM to 3 PM"
      },
      {
        "day": "Sunday",
        "hours": "1:30 to 4 PM"
      }
    ],
    "peopleAlsoSearch": [],
    "placesTags": [],
    "reviewsTags": [],
    "additionalInfo": {
      "From the business": [
        {
          "Small business": true
        }
      ],
      "Service options": [
        {
          "Delivery": true
        },
        {
          "Drive-through": true
        },
        {
          "In-store pickup": true
        },
        {
          "Onsite services": true
        },
        {
          "Same-day delivery": true
        }
      ],
      "Accessibility": [
        {
          "Wheelchair accessible parking lot": true
        }
      ],
      "Planning": [
        {
          "Quick visit": true
        }
      ],
      "Payments": [
        {
          "Checks": true
        },
        {
          "Credit cards": true
        },
        {
          "Debit cards": true
        },
        {
          "NFC mobile payments": true
        },
        {
          "Credit cards": true
        }
      ]
    },
    "gasPrices": [],
    "url": "https://www.google.com/maps/search/?api=1&query=Good%20Pharmacy&query_place_id=ChIJoyWwMxmJVogRgOvEjw9UoQ0",
    "searchPageUrl": "https://www.google.com/maps/search/independent%20pharmacy%20Rock%20Hill%20SC/@63.653579074253855,-153.11051097135197,9z?hl=en",
    "searchString": "independent pharmacy Rock Hill SC",
    "language": "en",
    "rank": 2,
    "isAdvertisement": false,
    "imageUrl": "https://lh3.googleusercontent.com/p/AF1QipPK9Tj085fthIMdRYpQ4eG4qWXKiVGRw6Be2AJ_=w408-h272-k-no",
    "kgmid": "/g/1v7pz5j9"
  },
  {
    "title": "Palmetto Family Pharmacy",
    "price": null,
    "categoryName": "Pharmacy",
    "address": "1030 Oakland Ave #101, Rock Hill, SC 29732",
    "neighborhood": null,
    "street": "1030 Oakland Ave #101",
    "city": "Rock Hill",
    "postalCode": "29732",
    "state": "South Carolina",
    "countryCode": "US",
    "website": "https://palmettofamilypharmacy.com/",
    "phone": "(803) 980-7272",
    "phoneUnformatted": "+18039807272",
    "claimThisBusiness": false,
    "location": {
      "lat": 34.9444099,
      "lng": -81.0314499
    },
    "totalScore": 4.9,
    "permanentlyClosed": false,
    "temporarilyClosed": false,
    "placeId": "ChIJ87YFGx6JVogRX_S8R7pgZoc",
    "categories": [
      "Pharmacy",
      "Wheelchair rental service"
    ],
    "fid": "0x8856891e1b05b6f3:0x876660ba47bcf45f",
    "cid": "9756591995928507487",
    "reviewsCount": 182,
    "imagesCount": 25,
    "imageCategories": [],
    "scrapedAt": "2025-06-22T09:39:39.376Z",
    "googleFoodUrl": null,
    "hotelAds": [],
    "openingHours": [
      {
        "day": "Monday",
        "hours": "9 AM to 1:30 PM, 2 to 6 PM"
      },
      {
        "day": "Tuesday",
        "hours": "9 AM to 1:30 PM, 2 to 6 PM"
      },
      {
        "day": "Wednesday",
        "hours": "9 AM to 1:30 PM, 2 to 6 PM"
      },
      {
        "day": "Thursday",
        "hours": "9 AM to 1:30 PM, 2 to 6 PM"
      },
      {
        "day": "Friday",
        "hours": "9 AM to 1:30 PM, 2 to 6 PM"
      },
      {
        "day": "Saturday",
        "hours": "9 AM to 1 PM"
      },
      {
        "day": "Sunday",
        "hours": "Closed"
      }
    ],
    "peopleAlsoSearch": [],
    "placesTags": [],
    "reviewsTags": [],
    "additionalInfo": {
      "From the business": [
        {
          "Small business": true
        }
      ],
      "Service options": [
        {
          "Curbside pickup": true
        },
        {
          "Delivery": true
        },
        {
          "In-store pickup": true
        }
      ],
      "Accessibility": [
        {
          "Wheelchair accessible entrance": true
        },
        {
          "Wheelchair accessible parking lot": true
        },
        {
          "Wheelchair accessible restroom": true
        }
      ],
      "Planning": [
        {
          "Quick visit": true
        }
      ],
      "Payments": [
        {
          "Credit cards": true
        },
        {
          "Debit cards": true
        },
        {
          "NFC mobile payments": true
        },
        {
          "Credit cards": true
        }
      ]
    },
    "gasPrices": [],
    "url": "https://www.google.com/maps/search/?api=1&query=Palmetto%20Family%20Pharmacy&query_place_id=ChIJ87YFGx6JVogRX_S8R7pgZoc",
    "searchPageUrl": "https://www.google.com/maps/search/independent%20pharmacy%20Rock%20Hill%20SC/@63.653579074253855,-153.11051097135197,9z?hl=en",
    "searchString": "independent pharmacy Rock Hill SC",
    "language": "en",
    "rank": 3,
    "isAdvertisement": false,
    "imageUrl": "https://lh3.googleusercontent.com/p/AF1QipPI1X86rz-XzA-zX2-_avU9_8jyAZNbaFxd0AnD=w408-h306-k-no",
    "kgmid": "/g/1tdp1521"
  },
  {
    "title": "Prime Family Pharmacy",
    "price": null,
    "categoryName": "Pharmacy",
    "address": "1417 Riverchase Blvd Suite 103, Rock Hill, SC 29732",
    "neighborhood": null,
    "street": "1417 Riverchase Blvd Suite 103",
    "city": "Rock Hill",
    "postalCode": "29732",
    "state": "South Carolina",
    "countryCode": "US",
    "website": "http://www.primefamilyrx.com/",
    "phone": "(803) 970-6440",
    "phoneUnformatted": "+18039706440",
    "claimThisBusiness": false,
    "location": {
      "lat": 34.9770935,
      "lng": -80.9920433
    },
    "totalScore": 5,
    "permanentlyClosed": false,
    "temporarilyClosed": false,
    "placeId": "ChIJHWDVzyaPVogRhlR3T7Jb5MQ",
    "categories": [
      "Pharmacy"
    ],
    "fid": "0x88568f26cfd5601d:0xc4e45bb24f775486",
    "cid": "14187565547519431814",
    "reviewsCount": 73,
    "imagesCount": 19,
    "imageCategories": [],
    "scrapedAt": "2025-06-22T09:39:39.376Z",
    "googleFoodUrl": null,
    "hotelAds": [],
    "openingHours": [
      {
        "day": "Monday",
        "hours": "9 AM to 6 PM"
      },
      {
        "day": "Tuesday",
        "hours": "9 AM to 6 PM"
      },
      {
        "day": "Wednesday",
        "hours": "9 AM to 6 PM"
      },
      {
        "day": "Thursday",
        "hours": "9 AM to 6 PM"
      },
      {
        "day": "Friday",
        "hours": "9 AM to 6 PM"
      },
      {
        "day": "Saturday",
        "hours": "9 AM to 1 PM"
      },
      {
        "day": "Sunday",
        "hours": "Closed"
      }
    ],
    "peopleAlsoSearch": [],
    "placesTags": [],
    "reviewsTags": [],
    "additionalInfo": {
      "From the business": [
        {
          "Small business": true
        }
      ],
      "Service options": [
        {
          "Curbside pickup": true
        },
        {
          "Delivery": true
        },
        {
          "In-store pickup": true
        },
        {
          "In-store shopping": true
        },
        {
          "English": true
        }
      ],
      "Accessibility": [
        {
          "Wheelchair accessible entrance": true
        },
        {
          "Wheelchair accessible parking lot": true
        },
        {
          "Wheelchair accessible seating": true
        }
      ],
      "Amenities": [
        {
          "Wi-Fi": true
        },
        {
          "Free Wi-Fi": true
        }
      ],
      "Crowd": [
        {
          "LGBTQ+ friendly": true
        }
      ],
      "Planning": [
        {
          "Quick visit": true
        }
      ],
      "Payments": [
        {
          "Checks": true
        },
        {
          "Credit cards": true
        },
        {
          "Debit cards": true
        },
        {
          "NFC mobile payments": true
        },
        {
          "Credit cards": true
        }
      ]
    },
    "gasPrices": [],
    "url": "https://www.google.com/maps/search/?api=1&query=Prime%20Family%20Pharmacy&query_place_id=ChIJHWDVzyaPVogRhlR3T7Jb5MQ",
    "searchPageUrl": "https://www.google.com/maps/search/independent%20pharmacy%20Rock%20Hill%20SC/@63.653579074253855,-153.11051097135197,9z?hl=en",
    "searchString": "independent pharmacy Rock Hill SC",
    "language": "en",
    "rank": 4,
    "isAdvertisement": false,
    "imageUrl": "https://lh3.googleusercontent.com/p/AF1QipPctDNqL8a75QUGRYpoJjKon3MTqXiofeog5O6Q=w408-h306-k-no",
    "kgmid": "/g/11y2bzlxtd"
  },
  {
    "title": "South End Pharmacy",
    "price": null,
    "categoryName": "Pharmacy",
    "address": "1401 Albright Rd, Rock Hill, SC 29730",
    "neighborhood": null,
    "street": "1401 Albright Rd",
    "city": "Rock Hill",
    "postalCode": "29730",
    "state": "South Carolina",
    "countryCode": "US",
    "website": "http://www.southendpharmacy.com/",
    "phone": "(803) 366-3784",
    "phoneUnformatted": "+18033663784",
    "claimThisBusiness": false,
    "location": {
      "lat": 34.9006838,
      "lng": -81.0287892
    },
    "totalScore": 4.6,
    "permanentlyClosed": false,
    "temporarilyClosed": false,
    "placeId": "ChIJoTVcjjSIVogRMdA8IeZu7ws",
    "categories": [
      "Pharmacy"
    ],
    "fid": "0x885688348e5c35a1:0xbef6ee6213cd031",
    "cid": "860027988530221105",
    "reviewsCount": 47,
    "imagesCount": 17,
    "imageCategories": [],
    "scrapedAt": "2025-06-22T09:39:39.377Z",
    "googleFoodUrl": null,
    "hotelAds": [],
    "openingHours": [
      {
        "day": "Monday",
        "hours": "9 AM to 5 PM"
      },
      {
        "day": "Tuesday",
        "hours": "9 AM to 5 PM"
      },
      {
        "day": "Wednesday",
        "hours": "9 AM to 5 PM"
      },
      {
        "day": "Thursday",
        "hours": "9 AM to 5 PM"
      },
      {
        "day": "Friday",
        "hours": "9 AM to 5 PM"
      },
      {
        "day": "Saturday",
        "hours": "Closed"
      },
      {
        "day": "Sunday",
        "hours": "Closed"
      }
    ],
    "peopleAlsoSearch": [],
    "placesTags": [],
    "reviewsTags": [],
    "additionalInfo": {
      "From the business": [
        {
          "Small business": true
        }
      ],
      "Service options": [
        {
          "Curbside pickup": true
        },
        {
          "Delivery": true
        },
        {
          "Drive-through": true
        },
        {
          "In-store pickup": true
        },
        {
          "In-store shopping": true
        },
        {
          "Same-day delivery": true
        }
      ],
      "Accessibility": [
        {
          "Wheelchair accessible entrance": true
        },
        {
          "Wheelchair accessible parking lot": true
        }
      ],
      "Planning": [
        {
          "Quick visit": true
        }
      ],
      "Payments": [
        {
          "Credit cards": true
        },
        {
          "Debit cards": true
        },
        {
          "NFC mobile payments": true
        },
        {
          "Credit cards": true
        }
      ]
    },
    "gasPrices": [],
    "url": "https://www.google.com/maps/search/?api=1&query=South%20End%20Pharmacy&query_place_id=ChIJoTVcjjSIVogRMdA8IeZu7ws",
    "searchPageUrl": "https://www.google.com/maps/search/independent%20pharmacy%20Rock%20Hill%20SC/@63.653579074253855,-153.11051097135197,9z?hl=en",
    "searchString": "independent pharmacy Rock Hill SC",
    "language": "en",
    "rank": 5,
    "isAdvertisement": false,
    "imageUrl": "https://lh3.googleusercontent.com/gps-cs-s/AC9h4noKulzPOi4TNo9XKOD3ztqGN9A1Tb9xEG6HlQFsIoHqBxMZLZ3dCXeD_UCSKN-hihbxmMCkpz5HlN_KzlbeOZG2BQccgMjnA6rsd71L3wZ0mLMZ_UX7onkr40XZOpHkOTN7UI625Q=w408-h271-k-no",
    "kgmid": "/g/12lkchqvs"
  },
  {
    "title": "Avita Pharmacy 1054",
    "price": null,
    "categoryName": "Pharmacy",
    "address": "455 Lakeshore Pkwy, Rock Hill, SC 29730",
    "neighborhood": null,
    "street": "455 Lakeshore Pkwy",
    "city": "Rock Hill",
    "postalCode": "29730",
    "state": "South Carolina",
    "countryCode": "US",
    "website": "http://avitapharmacy.com/",
    "phone": "(803) 992-8020",
    "phoneUnformatted": "+18039928020",
    "claimThisBusiness": false,
    "location": {
      "lat": 34.9320111,
      "lng": -80.9974239
    },
    "totalScore": 4.2,
    "permanentlyClosed": false,
    "temporarilyClosed": false,
    "placeId": "ChIJ9wgasZeJVogRnshkXRJj150",
    "categories": [
      "Pharmacy"
    ],
    "fid": "0x88568997b11a08f7:0x9dd763125d64c89e",
    "cid": "11373668314474924190",
    "reviewsCount": 27,
    "imagesCount": 2,
    "imageCategories": [],
    "scrapedAt": "2025-06-22T09:39:39.377Z",
    "googleFoodUrl": null,
    "hotelAds": [],
    "openingHours": [
      {
        "day": "Monday",
        "hours": "8 AM to 7 PM"
      },
      {
        "day": "Tuesday",
        "hours": "8 AM to 7 PM"
      },
      {
        "day": "Wednesday",
        "hours": "8 AM to 7 PM"
      },
      {
        "day": "Thursday",
        "hours": "8 AM to 7 PM"
      },
      {
        "day": "Friday",
        "hours": "8 AM to 5 PM"
      },
      {
        "day": "Saturday",
        "hours": "Closed"
      },
      {
        "day": "Sunday",
        "hours": "Closed"
      }
    ],
    "peopleAlsoSearch": [],
    "placesTags": [],
    "reviewsTags": [],
    "additionalInfo": {
      "Service options": [
        {
          "Delivery": true
        },
        {
          "Same-day delivery": true
        }
      ],
      "Accessibility": [
        {
          "Wheelchair accessible entrance": true
        },
        {
          "Wheelchair accessible parking lot": true
        }
      ],
      "Payments": [
        {
          "Credit cards": true
        },
        {
          "Debit cards": true
        },
        {
          "NFC mobile payments": true
        },
        {
          "Credit cards": true
        }
      ]
    },
    "gasPrices": [],
    "url": "https://www.google.com/maps/search/?api=1&query=Avita%20Pharmacy%201054&query_place_id=ChIJ9wgasZeJVogRnshkXRJj150",
    "searchPageUrl": "https://www.google.com/maps/search/independent%20pharmacy%20Rock%20Hill%20SC/@63.653579074253855,-153.11051097135197,9z?hl=en",
    "searchString": "independent pharmacy Rock Hill SC",
    "language": "en",
    "rank": 6,
    "isAdvertisement": false,
    "imageUrl": "https://lh3.googleusercontent.com/p/AF1QipMmQIYsHNUs8dcJdkREk3vSXgteydO4IF0DTxbB=w426-h240-k-no",
    "kgmid": "/g/11g4c2b7_8"
  },
  {
    "title": "Medsync Pharmacy",
    "price": null,
    "categoryName": "Pharmacy",
    "address": "801 S Vista Ave, Boise, ID 83705",
    "neighborhood": "Boise Bench",
    "street": "801 S Vista Ave",
    "city": "Boise",
    "postalCode": "83705",
    "state": "Idaho",
    "countryCode": "US",
    "website": "http://medsyncrx.com/",
    "phone": "(208) 364-7777",
    "phoneUnformatted": "+12083647777",
    "claimThisBusiness": false,
    "location": {
      "lat": 43.5969156,
      "lng": -116.2140028
    },
    "totalScore": 4.9,
    "permanentlyClosed": false,
    "temporarilyClosed": false,
    "placeId": "ChIJdcYR-WP4rlQR788aeIvvqQU",
    "categories": [
      "Pharmacy"
    ],
    "fid": "0x54aef863f911c675:0x5a9ef8b781acfef",
    "cid": "408120623548256239",
    "reviewsCount": 85,
    "imagesCount": 7,
    "imageCategories": [],
    "scrapedAt": "2025-06-22T09:40:11.512Z",
    "googleFoodUrl": null,
    "hotelAds": [],
    "openingHours": [
      {
        "day": "Monday",
        "hours": "8:30 AM to 6:30 PM"
      },
      {
        "day": "Tuesday",
        "hours": "8:30 AM to 6:30 PM"
      },
      {
        "day": "Wednesday",
        "hours": "8:30 AM to 6:30 PM"
      },
      {
        "day": "Thursday",
        "hours": "8:30 AM to 6:30 PM"
      },
      {
        "day": "Friday",
        "hours": "8:30 AM to 6:30 PM"
      },
      {
        "day": "Saturday",
        "hours": "Closed"
      },
      {
        "day": "Sunday",
        "hours": "Closed"
      }
    ],
    "peopleAlsoSearch": [],
    "placesTags": [],
    "reviewsTags": [],
    "additionalInfo": {
      "From the business": [
        {
          "Small business": true
        }
      ],
      "Service options": [
        {
          "Delivery": true
        },
        {
          "Drive-through": true
        },
        {
          "In-store pickup": true
        },
        {
          "Same-day delivery": true
        }
      ],
      "Accessibility": [
        {
          "Wheelchair accessible entrance": true
        },
        {
          "Wheelchair accessible parking lot": true
        }
      ],
      "Planning": [
        {
          "Quick visit": true
        }
      ],
      "Payments": [
        {
          "Checks": true
        },
        {
          "Credit cards": true
        },
        {
          "Debit cards": true
        },
        {
          "NFC mobile payments": true
        },
        {
          "Credit cards": true
        }
      ]
    },
    "gasPrices": [],
    "url": "https://www.google.com/maps/search/?api=1&query=Medsync%20Pharmacy&query_place_id=ChIJdcYR-WP4rlQR788aeIvvqQU",
    "searchPageUrl": "https://www.google.com/maps/search/independent%20pharmacy%20Rock%20Hill%20SC/@42.54640259466427,-114.98210525670324,8z?hl=en",
    "searchString": "independent pharmacy Rock Hill SC",
    "language": "en",
    "rank": 4,
    "isAdvertisement": false,
    "imageUrl": "https://lh3.googleusercontent.com/gps-cs-s/AC9h4npPOUIW-2LjlOAj3YQEviZLAzVWaIzUypJvcenfvuog7h2ZesbSMkjZitwTXkjtbIgZrCmJNwPw6ppj7CWEszQ_1etR1e4apnLxGg4IIebvYnjhOTk9UYcm_3OWTnzxpSgL-9I=w493-h240-k-no",
    "kgmid": "/g/11bw2gjn06"
  },
  {
    "title": "Central Carolina Pharmaceutical Services",
    "price": null,
    "categoryName": "Pharmacy",
    "address": "308 White Oak St, Asheboro, NC 27203",
    "neighborhood": null,
    "street": "308 White Oak St",
    "city": "Asheboro",
    "postalCode": "27203",
    "state": "North Carolina",
    "countryCode": "US",
    "website": "https://centralcarolinapharmaceutical.com/",
    "phone": "(336) 629-9666",
    "phoneUnformatted": "+13366299666",
    "claimThisBusiness": false,
    "location": {
      "lat": 35.7104403,
      "lng": -79.8148774
    },
    "totalScore": 5,
    "permanentlyClosed": false,
    "temporarilyClosed": false,
    "placeId": "ChIJceMr2iRpU4gR3HUi5dH0CPs",
    "categories": [
      "Pharmacy",
      "Drug store",
      "Pharmaceutical company",
      "Pharmaceutical products wholesaler",
      "Wholesale drugstore"
    ],
    "fid": "0x88536924da2be371:0xfb08f4d1e52275dc",
    "cid": "18088977085663180252",
    "reviewsCount": 2,
    "reviewsDistribution": {
      "oneStar": 0,
      "twoStar": 0,
      "threeStar": 0,
      "fourStar": 0,
      "fiveStar": 2
    },
    "imagesCount": 2,
    "imageCategories": [],
    "scrapedAt": "2025-06-22T09:41:25.110Z",
    "googleFoodUrl": null,
    "hotelAds": [],
    "openingHours": [
      {
        "day": "Monday",
        "hours": "8:30 AM to 5 PM"
      },
      {
        "day": "Tuesday",
        "hours": "8:30 AM to 5 PM"
      },
      {
        "day": "Wednesday",
        "hours": "8:30 AM to 5 PM"
      },
      {
        "day": "Thursday",
        "hours": "8:30 AM to 5 PM"
      },
      {
        "day": "Friday",
        "hours": "8:30 AM to 5 PM"
      },
      {
        "day": "Saturday",
        "hours": "Closed"
      },
      {
        "day": "Sunday",
        "hours": "Closed"
      }
    ],
    "peopleAlsoSearch": [],
    "placesTags": [],
    "reviewsTags": [],
    "additionalInfo": {
      "From the business": [
        {
          "Small business": true
        }
      ],
      "Service options": [
        {
          "Delivery": true
        },
        {
          "Same-day delivery": true
        }
      ],
      "Accessibility": [
        {
          "Wheelchair accessible entrance": true
        },
        {
          "Wheelchair accessible parking lot": true
        }
      ],
      "Payments": [
        {
          "Checks": true
        },
        {
          "Credit cards": true
        },
        {
          "Debit cards": true
        },
        {
          "NFC mobile payments": true
        },
        {
          "Credit cards": true
        }
      ]
    },
    "gasPrices": [],
    "url": "https://www.google.com/maps/search/?api=1&query=Central%20Carolina%20Pharmaceutical%20Services&query_place_id=ChIJceMr2iRpU4gR3HUi5dH0CPs",
    "searchPageUrl": "https://www.google.com/maps/search/independent%20pharmacy%20Rock%20Hill%20SC/@33.954544952667874,-76.98739394329682,8z?hl=en",
    "searchString": "independent pharmacy Rock Hill SC",
    "language": "en",
    "rank": 21,
    "isAdvertisement": false,
    "imageUrl": "https://lh3.googleusercontent.com/p/AF1QipPal8153-wbddCa_7AhJYkhayBLbYeGBG-Q7Ksj=w408-h408-k-no",
    "kgmid": "/g/1tfh5b_t"
  },
  {
    "title": "CVS Pharmacy",
    "price": null,
    "categoryName": "Pharmacy",
    "address": "1900 Springsteen Rd, Rock Hill, SC 29730",
    "neighborhood": null,
    "street": "1900 Springsteen Rd",
    "city": "Rock Hill",
    "postalCode": "29730",
    "state": "South Carolina",
    "countryCode": "US",
    "website": "https://www.cvs.com/store-locator/rock-hill-sc-pharmacies/1900-springsteen-rd-rock-hill-sc-29730/storeid=16710?WT.mc_id=LS_GOOGLE_RX_16710",
    "phone": "(803) 985-3888",
    "phoneUnformatted": "+18039853888",
    "claimThisBusiness": false,
    "location": {
      "lat": 34.9391142,
      "lng": -80.9777888
    },
    "totalScore": 4.2,
    "permanentlyClosed": false,
    "temporarilyClosed": false,
    "placeId": "ChIJ0Tx1bSSGVogRkQglDHoRMJg",
    "categories": [
      "Pharmacy"
    ],
    "fid": "0x885686246d753cd1:0x9830117a0c250891",
    "cid": "10966284308534593681",
    "reviewsCount": 36,
    "imagesCount": 5,
    "imageCategories": [],
    "scrapedAt": "2025-06-22T09:41:59.136Z",
    "googleFoodUrl": null,
    "hotelAds": [],
    "openingHours": [
      {
        "day": "Monday",
        "hours": "9 AM to 1:30 PM, 2 to 7 PM"
      },
      {
        "day": "Tuesday",
        "hours": "9 AM to 1:30 PM, 2 to 7 PM"
      },
      {
        "day": "Wednesday",
        "hours": "9 AM to 1:30 PM, 2 to 7 PM"
      },
      {
        "day": "Thursday",
        "hours": "9 AM to 1:30 PM, 2 to 7 PM"
      },
      {
        "day": "Friday",
        "hours": "9 AM to 1:30 PM, 2 to 7 PM"
      },
      {
        "day": "Saturday",
        "hours": "10 AM to 1:30 PM, 2 to 6 PM"
      },
      {
        "day": "Sunday",
        "hours": "11 AM to 1:30 PM, 2 to 5 PM"
      }
    ],
    "peopleAlsoSearch": [],
    "placesTags": [],
    "reviewsTags": [],
    "additionalInfo": {
      "Service options": [
        {
          "Delivery": true
        },
        {
          "In-store shopping": true
        }
      ],
      "Accessibility": [
        {
          "Wheelchair accessible entrance": true
        },
        {
          "Wheelchair accessible parking lot": true
        }
      ],
      "Offerings": [
        {
          "Naloxone": true
        }
      ],
      "Crowd": [
        {
          "LGBTQ+ friendly": true
        },
        {
          "Transgender safespace": true
        }
      ],
      "Planning": [
        {
          "Quick visit": true
        }
      ],
      "Payments": [
        {
          "Credit cards": true
        },
        {
          "Debit cards": true
        },
        {
          "Credit cards": true
        }
      ]
    },
    "gasPrices": [],
    "url": "https://www.google.com/maps/search/?api=1&query=CVS%20Pharmacy&query_place_id=ChIJ0Tx1bSSGVogRkQglDHoRMJg",
    "searchPageUrl": "https://www.google.com/maps/search/independent%20pharmacy%20Rock%20Hill%20SC/@34.94602881666666,-81.01922358333333,10.715856900338451z?hl=en",
    "searchString": "independent pharmacy Rock Hill SC",
    "language": "en",
    "rank": 7,
    "isAdvertisement": false,
    "imageUrl": "https://lh3.googleusercontent.com/p/AF1QipO027o-HOYmJmE1kKmP4XyOZIPy3SEJZKhv7DhM=w408-h272-k-no",
    "kgmid": "/g/1thzplxh"
  },
  {
    "title": "Food Lion Pharmacy",
    "price": "$$",
    "categoryName": "Pharmacy",
    "address": "1260 E Main St, Rock Hill, SC 29730",
    "neighborhood": null,
    "street": "1260 E Main St",
    "city": "Rock Hill",
    "postalCode": "29730",
    "state": "South Carolina",
    "countryCode": "US",
    "website": "https://www.foodlion.com/stores/sc/rock_hill/232/?PHM=aL",
    "phone": "(803) 327-2049",
    "phoneUnformatted": "+18033272049",
    "claimThisBusiness": false,
    "location": {
      "lat": 34.9145553,
      "lng": -81.0024072
    },
    "totalScore": 4.5,
    "permanentlyClosed": false,
    "temporarilyClosed": false,
    "placeId": "ChIJU8IU82WIVogRyqckTYJeWwQ",
    "categories": [
      "Pharmacy",
      "Grocery store"
    ],
    "fid": "0x88568865f314c253:0x45b5e824d24a7ca",
    "cid": "313948512765388746",
    "reviewsCount": 11,
    "imagesCount": 4,
    "imageCategories": [],
    "scrapedAt": "2025-06-22T09:41:59.136Z",
    "googleFoodUrl": null,
    "hotelAds": [],
    "openingHours": [
      {
        "day": "Monday",
        "hours": "9 AM to 7 PM"
      },
      {
        "day": "Tuesday",
        "hours": "9 AM to 7 PM"
      },
      {
        "day": "Wednesday",
        "hours": "9 AM to 7 PM"
      },
      {
        "day": "Thursday",
        "hours": "9 AM to 7 PM"
      },
      {
        "day": "Friday",
        "hours": "9 AM to 7 PM"
      },
      {
        "day": "Saturday",
        "hours": "9 AM to 4 PM"
      },
      {
        "day": "Sunday",
        "hours": "Closed"
      }
    ],
    "peopleAlsoSearch": [],
    "placesTags": [],
    "reviewsTags": [],
    "additionalInfo": {
      "Service options": [
        {
          "In-store pickup": true
        }
      ],
      "Accessibility": [
        {
          "Wheelchair accessible parking lot": true
        },
        {
          "Wheelchair accessible entrance": false
        }
      ],
      "Planning": [
        {
          "Quick visit": true
        }
      ]
    },
    "gasPrices": [],
    "url": "https://www.google.com/maps/search/?api=1&query=Food%20Lion%20Pharmacy&query_place_id=ChIJU8IU82WIVogRyqckTYJeWwQ",
    "searchPageUrl": "https://www.google.com/maps/search/independent%20pharmacy%20Rock%20Hill%20SC/@34.94602881666666,-81.01922358333333,10.715856900338451z?hl=en",
    "searchString": "independent pharmacy Rock Hill SC",
    "language": "en",
    "rank": 8,
    "isAdvertisement": false,
    "imageUrl": "https://lh3.googleusercontent.com/gps-cs-s/AC9h4np1G1_qiXFY-QJ0UNAMDic7em5G-k9rwgZ6JYsFBr79m2mZ-SNSh7NPEk528spa0FceJawZTcGpatXowez1zCTvdCmuX-UUzzYXHPpXtSKqc8qbJylr-ypBDpRWDpGc_6d0YNQ=w408-h725-k-no",
    "kgmid": "/g/11cm0vbysq"
  },
  {
    "title": "Tega Cay Pharmacy",
    "price": null,
    "categoryName": "Pharmacy",
    "address": "1741 Gold Hill Rd # 106, Fort Mill, SC 29708",
    "neighborhood": null,
    "street": "1741 Gold Hill Rd # 106",
    "city": "Fort Mill",
    "postalCode": "29708",
    "state": "South Carolina",
    "countryCode": "US",
    "website": "http://www.tegacaypharmacy.com/",
    "phone": "(803) 547-6100",
    "phoneUnformatted": "+18035476100",
    "claimThisBusiness": false,
    "location": {
      "lat": 35.0603212,
      "lng": -80.9931902
    },
    "totalScore": 4.4,
    "permanentlyClosed": false,
    "temporarilyClosed": false,
    "placeId": "ChIJ9X6hGAGQVogRZGiQsf5uxtE",
    "categories": [
      "Pharmacy"
    ],
    "fid": "0x8856900118a17ef5:0xd1c66efeb1906864",
    "cid": "15115891239495428196",
    "reviewsCount": 22,
    "imagesCount": 10,
    "imageCategories": [],
    "scrapedAt": "2025-06-22T09:41:59.136Z",
    "googleFoodUrl": null,
    "hotelAds": [],
    "openingHours": [
      {
        "day": "Monday",
        "hours": "9 AM to 6 PM"
      },
      {
        "day": "Tuesday",
        "hours": "9 AM to 6 PM"
      },
      {
        "day": "Wednesday",
        "hours": "9 AM to 6 PM"
      },
      {
        "day": "Thursday",
        "hours": "9 AM to 6 PM"
      },
      {
        "day": "Friday",
        "hours": "9 AM to 6 PM"
      },
      {
        "day": "Saturday",
        "hours": "Closed"
      },
      {
        "day": "Sunday",
        "hours": "Closed"
      }
    ],
    "peopleAlsoSearch": [],
    "placesTags": [],
    "reviewsTags": [],
    "additionalInfo": {
      "From the business": [
        {
          "Small business": true
        }
      ],
      "Service options": [
        {
          "Curbside pickup": true
        },
        {
          "Delivery": true
        },
        {
          "In-store pickup": true
        },
        {
          "In-store shopping": true
        },
        {
          "Onsite services": true
        },
        {
          "Same-day delivery": true
        }
      ],
      "Accessibility": [
        {
          "Wheelchair accessible entrance": true
        },
        {
          "Wheelchair accessible parking lot": true
        }
      ],
      "Planning": [
        {
          "Quick visit": true
        }
      ],
      "Payments": [
        {
          "Credit cards": true
        },
        {
          "Debit cards": true
        },
        {
          "NFC mobile payments": true
        },
        {
          "Credit cards": true
        }
      ]
    },
    "gasPrices": [],
    "url": "https://www.google.com/maps/search/?api=1&query=Tega%20Cay%20Pharmacy&query_place_id=ChIJ9X6hGAGQVogRZGiQsf5uxtE",
    "searchPageUrl": "https://www.google.com/maps/search/independent%20pharmacy%20Rock%20Hill%20SC/@34.94602881666666,-81.01922358333333,10.715856900338451z?hl=en",
    "searchString": "independent pharmacy Rock Hill SC",
    "language": "en",
    "rank": 9,
    "isAdvertisement": false,
    "imageUrl": "https://lh3.googleusercontent.com/p/AF1QipOuHZqasraTxOXVeQxrhJrYWd-SuciFRyRlSvZu=w426-h240-k-no",
    "kgmid": "/g/1thqbkkd"
  },
  {
    "title": "CVS Pharmacy",
    "price": null,
    "categoryName": "Pharmacy",
    "address": "609 Cherry Rd, Rock Hill, SC 29732",
    "neighborhood": null,
    "street": "609 Cherry Rd",
    "city": "Rock Hill",
    "postalCode": "29732",
    "state": "South Carolina",
    "countryCode": "US",
    "website": "https://www.cvs.com/store-locator/rock-hill-sc-pharmacies/609-cherry-rd-near-winthrop-university-rock-hill-sc-29732/storeid=3809?WT.mc_id=LS_GOOGLE_RX_3809",
    "phone": "(803) 328-6111",
    "phoneUnformatted": "+18033286111",
    "claimThisBusiness": false,
    "location": {
      "lat": 34.9442329,
      "lng": -81.0294324
    },
    "totalScore": 3.7,
    "permanentlyClosed": false,
    "temporarilyClosed": false,
    "placeId": "ChIJ73KFp_-JVogRQFrWf-C9BiM",
    "categories": [
      "Pharmacy"
    ],
    "fid": "0x885689ffa78572ef:0x2306bde07fd65a40",
    "cid": "2523913413102819904",
    "reviewsCount": 27,
    "imagesCount": 8,
    "imageCategories": [],
    "scrapedAt": "2025-06-22T09:41:59.136Z",
    "googleFoodUrl": null,
    "hotelAds": [],
    "openingHours": [
      {
        "day": "Monday",
        "hours": "8 AM to 1:30 PM, 2 to 9 PM"
      },
      {
        "day": "Tuesday",
        "hours": "8 AM to 1:30 PM, 2 to 9 PM"
      },
      {
        "day": "Wednesday",
        "hours": "8 AM to 1:30 PM, 2 to 9 PM"
      },
      {
        "day": "Thursday",
        "hours": "8 AM to 1:30 PM, 2 to 9 PM"
      },
      {
        "day": "Friday",
        "hours": "8 AM to 1:30 PM, 2 to 9 PM"
      },
      {
        "day": "Saturday",
        "hours": "9 AM to 1:30 PM, 2 to 6 PM"
      },
      {
        "day": "Sunday",
        "hours": "10 AM to 1:30 PM, 2 to 6 PM"
      }
    ],
    "peopleAlsoSearch": [],
    "placesTags": [],
    "reviewsTags": [],
    "additionalInfo": {
      "Service options": [
        {
          "Delivery": true
        },
        {
          "Drive-through": true
        },
        {
          "In-store pickup": true
        },
        {
          "In-store shopping": true
        }
      ],
      "Accessibility": [
        {
          "Wheelchair accessible entrance": true
        },
        {
          "Wheelchair accessible parking lot": true
        }
      ],
      "Offerings": [
        {
          "Passport photos": true
        }
      ],
      "Crowd": [
        {
          "LGBTQ+ friendly": true
        },
        {
          "Transgender safespace": true
        }
      ],
      "Planning": [
        {
          "Quick visit": true
        }
      ],
      "Payments": [
        {
          "Credit cards": true
        },
        {
          "Debit cards": true
        },
        {
          "NFC mobile payments": true
        },
        {
          "SNAP/EBT": true
        },
        {
          "Credit cards": true
        }
      ]
    },
    "gasPrices": [],
    "url": "https://www.google.com/maps/search/?api=1&query=CVS%20Pharmacy&query_place_id=ChIJ73KFp_-JVogRQFrWf-C9BiM",
    "searchPageUrl": "https://www.google.com/maps/search/independent%20pharmacy%20Rock%20Hill%20SC/@34.94602881666666,-81.01922358333333,10.715856900338451z?hl=en",
    "searchString": "independent pharmacy Rock Hill SC",
    "language": "en",
    "rank": 10,
    "isAdvertisement": false,
    "imageUrl": "https://lh3.googleusercontent.com/p/AF1QipNdgf4GDN4fBRqEtLOfPz6wMF8xQtZz0AuEex45=w408-h272-k-no",
    "kgmid": "/g/11f66s9ryc"
  },
  {
    "title": "Redec pharmacy",
    "price": null,
    "categoryName": "Pharmacy",
    "address": "200 N Dobys Bridge Rd, Fort Mill, SC 29715",
    "neighborhood": null,
    "street": "200 N Dobys Bridge Rd",
    "city": "Fort Mill",
    "postalCode": "29715",
    "state": "South Carolina",
    "countryCode": "US",
    "website": "http://redecpharmacy.com/",
    "phone": "(803) 802-3001",
    "phoneUnformatted": "+18038023001",
    "claimThisBusiness": false,
    "location": {
      "lat": 35.0065742,
      "lng": -80.9330859
    },
    "totalScore": 4.8,
    "permanentlyClosed": false,
    "temporarilyClosed": false,
    "placeId": "ChIJP6YMu9aFVogR06A-DA3I9A4",
    "categories": [
      "Pharmacy"
    ],
    "fid": "0x885685d6bb0ca63f:0xef4c80d0c3ea0d3",
    "cid": "1077706169213952211",
    "reviewsCount": 67,
    "imagesCount": 4,
    "imageCategories": [],
    "scrapedAt": "2025-06-22T09:41:59.136Z",
    "googleFoodUrl": null,
    "hotelAds": [],
    "openingHours": [
      {
        "day": "Monday",
        "hours": "9 AM to 6 PM"
      },
      {
        "day": "Tuesday",
        "hours": "9 AM to 6 PM"
      },
      {
        "day": "Wednesday",
        "hours": "9 AM to 6 PM"
      },
      {
        "day": "Thursday",
        "hours": "9 AM to 6 PM"
      },
      {
        "day": "Friday",
        "hours": "9 AM to 6 PM"
      },
      {
        "day": "Saturday",
        "hours": "10 AM to 1 PM"
      },
      {
        "day": "Sunday",
        "hours": "Closed"
      }
    ],
    "peopleAlsoSearch": [],
    "placesTags": [],
    "reviewsTags": [],
    "additionalInfo": {
      "From the business": [
        {
          "Small business": true
        }
      ],
      "Service options": [
        {
          "Delivery": true
        },
        {
          "In-store pickup": true
        },
        {
          "Same-day delivery": true
        }
      ],
      "Accessibility": [
        {
          "Wheelchair accessible entrance": true
        },
        {
          "Wheelchair accessible parking lot": true
        }
      ],
      "Amenities": [
        {
          "Wi-Fi": true
        },
        {
          "Free Wi-Fi": true
        }
      ],
      "Planning": [
        {
          "Quick visit": true
        }
      ],
      "Payments": [
        {
          "Credit cards": true
        },
        {
          "Debit cards": true
        },
        {
          "NFC mobile payments": true
        },
        {
          "Credit cards": true
        }
      ]
    },
    "gasPrices": [],
    "url": "https://www.google.com/maps/search/?api=1&query=Redec%20pharmacy&query_place_id=ChIJP6YMu9aFVogR06A-DA3I9A4",
    "searchPageUrl": "https://www.google.com/maps/search/independent%20pharmacy%20Rock%20Hill%20SC/@34.94602881666666,-81.01922358333333,10.715856900338451z?hl=en",
    "searchString": "independent pharmacy Rock Hill SC",
    "language": "en",
    "rank": 11,
    "isAdvertisement": false,
    "imageUrl": "https://lh3.googleusercontent.com/p/AF1QipPXmWKAoxy-r4yBLhTCKNQcK_JYd4-OUozoeMUp=w408-h544-k-no",
    "kgmid": "/g/11f7b_r2r0"
  },
  {
    "title": "Palmetto Family Pharmacy at Regent Park",
    "price": null,
    "categoryName": "Pharmacy",
    "address": "1046 Regent Pkwy #104, Fort Mill, SC 29715",
    "neighborhood": null,
    "street": "1046 Regent Pkwy #104",
    "city": "Fort Mill",
    "postalCode": "29715",
    "state": "South Carolina",
    "countryCode": "US",
    "website": "https://palmettofamilypharmacy.com/",
    "phone": "(803) 396-1092",
    "phoneUnformatted": "+18033961092",
    "claimThisBusiness": false,
    "location": {
      "lat": 35.0755747,
      "lng": -80.9337288
    },
    "totalScore": 5,
    "permanentlyClosed": false,
    "temporarilyClosed": false,
    "placeId": "ChIJrzAQrRmbVogRTDx7etxApSE",
    "categories": [
      "Pharmacy"
    ],
    "fid": "0x88569b19ad1030af:0x21a540dc7a7b3c4c",
    "cid": "2424415290100759628",
    "reviewsCount": 51,
    "imagesCount": 14,
    "imageCategories": [],
    "scrapedAt": "2025-06-22T09:41:59.136Z",
    "googleFoodUrl": null,
    "hotelAds": [],
    "openingHours": [
      {
        "day": "Monday",
        "hours": "9 AM to 1:30 PM, 2 to 6 PM"
      },
      {
        "day": "Tuesday",
        "hours": "9 AM to 1:30 PM, 2 to 6 PM"
      },
      {
        "day": "Wednesday",
        "hours": "9 AM to 1:30 PM, 2 to 6 PM"
      },
      {
        "day": "Thursday",
        "hours": "9 AM to 1:30 PM, 2 to 6 PM"
      },
      {
        "day": "Friday",
        "hours": "9 AM to 1:30 PM, 2 to 6 PM"
      },
      {
        "day": "Saturday",
        "hours": "9 AM to 1 PM"
      },
      {
        "day": "Sunday",
        "hours": "Closed"
      }
    ],
    "peopleAlsoSearch": [],
    "placesTags": [],
    "reviewsTags": [],
    "additionalInfo": {
      "From the business": [
        {
          "Small business": true
        }
      ],
      "Service options": [
        {
          "In-store pickup": true
        },
        {
          "In-store shopping": true
        }
      ],
      "Accessibility": [
        {
          "Wheelchair accessible entrance": true
        },
        {
          "Wheelchair accessible parking lot": true
        }
      ],
      "Planning": [
        {
          "Quick visit": true
        }
      ],
      "Payments": [
        {
          "Credit cards": true
        },
        {
          "Debit cards": true
        },
        {
          "NFC mobile payments": true
        },
        {
          "Credit cards": true
        }
      ]
    },
    "gasPrices": [],
    "url": "https://www.google.com/maps/search/?api=1&query=Palmetto%20Family%20Pharmacy%20at%20Regent%20Park&query_place_id=ChIJrzAQrRmbVogRTDx7etxApSE",
    "searchPageUrl": "https://www.google.com/maps/search/independent%20pharmacy%20Rock%20Hill%20SC/@34.94602881666666,-81.01922358333333,10.715856900338451z?hl=en",
    "searchString": "independent pharmacy Rock Hill SC",
    "language": "en",
    "rank": 12,
    "isAdvertisement": false,
    "imageUrl": "https://lh3.googleusercontent.com/gps-cs-s/AC9h4nrrLNpiWEIpwlDROTy4vU8Xn3k67wB2X-gycQv1T-y_Hb9gICcDti_ZzjqyDLip2UghCpAbd-ddGe-hD82_yUZTjAnT3JPvndMgcD9E6y92tgzf5Ad4Oa9tiYnChk1i02R3mTMP=w408-h423-k-no",
    "kgmid": "/g/11c44ydpj5"
  },
  {
    "title": "CVS Pharmacy",
    "price": null,
    "categoryName": "Pharmacy",
    "address": "1746 Heckle Blvd, Rock Hill, SC 29732",
    "neighborhood": null,
    "street": "1746 Heckle Blvd",
    "city": "Rock Hill",
    "postalCode": "29732",
    "state": "South Carolina",
    "countryCode": "US",
    "website": "https://www.cvs.com/store-locator/rock-hill-sc-pharmacies/1746-heckle-blvd-rock-hill-sc-29732/storeid=5679?WT.mc_id=LS_GOOGLE_RX_5679",
    "phone": "(803) 366-9400",
    "phoneUnformatted": "+18033669400",
    "claimThisBusiness": false,
    "location": {
      "lat": 34.9530017,
      "lng": -81.0629843
    },
    "totalScore": 2.8,
    "permanentlyClosed": false,
    "temporarilyClosed": false,
    "placeId": "ChIJZ0sEnZKJVogRk5Ft7GS4R0U",
    "categories": [
      "Pharmacy"
    ],
    "fid": "0x885689929d044b67:0x4547b864ec6d9193",
    "cid": "4992161455566328211",
    "reviewsCount": 22,
    "imagesCount": 8,
    "imageCategories": [],
    "scrapedAt": "2025-06-22T09:41:59.136Z",
    "googleFoodUrl": null,
    "hotelAds": [],
    "openingHours": [
      {
        "day": "Monday",
        "hours": "8 AM to 1:30 PM, 2 to 8 PM"
      },
      {
        "day": "Tuesday",
        "hours": "8 AM to 1:30 PM, 2 to 8 PM"
      },
      {
        "day": "Wednesday",
        "hours": "8 AM to 1:30 PM, 2 to 8 PM"
      },
      {
        "day": "Thursday",
        "hours": "8 AM to 1:30 PM, 2 to 8 PM"
      },
      {
        "day": "Friday",
        "hours": "8 AM to 1:30 PM, 2 to 8 PM"
      },
      {
        "day": "Saturday",
        "hours": "9 AM to 1:30 PM, 2 to 6 PM"
      },
      {
        "day": "Sunday",
        "hours": "10 AM to 1:30 PM, 2 to 6 PM"
      }
    ],
    "peopleAlsoSearch": [],
    "placesTags": [],
    "reviewsTags": [],
    "additionalInfo": {
      "Service options": [
        {
          "Delivery": true
        },
        {
          "Drive-through": true
        },
        {
          "In-store pickup": true
        },
        {
          "In-store shopping": true
        }
      ],
      "Accessibility": [
        {
          "Wheelchair accessible entrance": true
        },
        {
          "Wheelchair accessible parking lot": true
        }
      ],
      "Offerings": [
        {
          "Naloxone": true
        },
        {
          "Passport photos": true
        }
      ],
      "Crowd": [
        {
          "LGBTQ+ friendly": true
        },
        {
          "Transgender safespace": true
        }
      ],
      "Planning": [
        {
          "Quick visit": true
        }
      ],
      "Payments": [
        {
          "Credit cards": true
        },
        {
          "Debit cards": true
        },
        {
          "NFC mobile payments": true
        },
        {
          "SNAP/EBT": true
        },
        {
          "Credit cards": true
        }
      ]
    },
    "gasPrices": [],
    "url": "https://www.google.com/maps/search/?api=1&query=CVS%20Pharmacy&query_place_id=ChIJZ0sEnZKJVogRk5Ft7GS4R0U",
    "searchPageUrl": "https://www.google.com/maps/search/independent%20pharmacy%20Rock%20Hill%20SC/@34.94602881666666,-81.01922358333333,10.715856900338451z?hl=en",
    "searchString": "independent pharmacy Rock Hill SC",
    "language": "en",
    "rank": 13,
    "isAdvertisement": false,
    "imageUrl": "https://lh3.googleusercontent.com/p/AF1QipMVP2OatE96bc1e9kusM6irRS42m-i-D3w1krzU=w408-h272-k-no",
    "kgmid": "/g/11f66r_mwm"
  },
  {
    "title": "Fort Mill Pharmacy",
    "price": null,
    "categoryName": "Pharmacy",
    "address": "134 N White St, Fort Mill, SC 29715",
    "neighborhood": null,
    "street": "134 N White St",
    "city": "Fort Mill",
    "postalCode": "29715",
    "state": "South Carolina",
    "countryCode": "US",
    "website": "http://www.fortmillpharmacyonline.com/",
    "phone": "(803) 548-2851",
    "phoneUnformatted": "+18035482851",
    "claimThisBusiness": false,
    "location": {
      "lat": 35.0094099,
      "lng": -80.946152
    },
    "totalScore": 4.7,
    "permanentlyClosed": false,
    "temporarilyClosed": false,
    "placeId": "ChIJTV1mFBKFVogRFVJnzYy_ZAc",
    "categories": [
      "Pharmacy"
    ],
    "fid": "0x8856851214665d4d:0x764bf8ccd675215",
    "cid": "532761267398988309",
    "reviewsCount": 56,
    "imagesCount": 3,
    "imageCategories": [],
    "scrapedAt": "2025-06-22T09:41:59.136Z",
    "googleFoodUrl": null,
    "hotelAds": [],
    "openingHours": [
      {
        "day": "Monday",
        "hours": "9 AM to 6 PM"
      },
      {
        "day": "Tuesday",
        "hours": "9 AM to 6 PM"
      },
      {
        "day": "Wednesday",
        "hours": "9 AM to 6 PM"
      },
      {
        "day": "Thursday",
        "hours": "9 AM to 6 PM"
      },
      {
        "day": "Friday",
        "hours": "9 AM to 6 PM"
      },
      {
        "day": "Saturday",
        "hours": "9 AM to 1 PM"
      },
      {
        "day": "Sunday",
        "hours": "Closed"
      }
    ],
    "peopleAlsoSearch": [],
    "placesTags": [],
    "reviewsTags": [],
    "additionalInfo": {
      "From the business": [
        {
          "Small business": true
        }
      ],
      "Service options": [
        {
          "Delivery": true
        },
        {
          "Drive-through": true
        },
        {
          "In-store pickup": true
        },
        {
          "In-store shopping": true
        },
        {
          "Same-day delivery": true
        }
      ],
      "Accessibility": [
        {
          "Wheelchair accessible entrance": true
        },
        {
          "Wheelchair accessible parking lot": true
        }
      ],
      "Planning": [
        {
          "Quick visit": true
        }
      ],
      "Payments": [
        {
          "Credit cards": true
        }
      ]
    },
    "gasPrices": [],
    "url": "https://www.google.com/maps/search/?api=1&query=Fort%20Mill%20Pharmacy&query_place_id=ChIJTV1mFBKFVogRFVJnzYy_ZAc",
    "searchPageUrl": "https://www.google.com/maps/search/independent%20pharmacy%20Rock%20Hill%20SC/@34.94602881666666,-81.01922358333333,10.715856900338451z?hl=en",
    "searchString": "independent pharmacy Rock Hill SC",
    "language": "en",
    "rank": 14,
    "isAdvertisement": false,
    "imageUrl": "https://lh3.googleusercontent.com/gps-cs-s/AC9h4npRgU9u1u_cHJY_98Ev3MQzulPOmryVIxP2KZKTkGcuUgqvR6BP7MGKafWk83bG3KOrofNzntaLPfYVRkPKEhOYRbHyFMpJH0WI0bdcw9riRInKF4cwS_mO853frkECZeXnQAWE=w408-h306-k-no",
    "kgmid": "/g/1wcxdt84"
  },
  {
    "title": "Walgreens Pharmacy",
    "description": "Department of the Walgreens chain providing prescription medications & other health-related items.",
    "price": "$$",
    "categoryName": "Pharmacy",
    "address": "1008 Oakland Ave, Rock Hill, SC 29732",
    "neighborhood": null,
    "street": "1008 Oakland Ave",
    "city": "Rock Hill",
    "postalCode": "29732",
    "state": "South Carolina",
    "countryCode": "US",
    "website": "https://www.walgreens.com/locator/walgreens-1008+oakland+ave-rock+hill-sc-29732/id=4842",
    "phone": "(803) 980-1350",
    "phoneUnformatted": "+18039801350",
    "claimThisBusiness": false,
    "location": {
      "lat": 34.9438355,
      "lng": -81.0309834
    },
    "totalScore": 3.9,
    "permanentlyClosed": false,
    "temporarilyClosed": false,
    "placeId": "ChIJJTLL_uGIVogRBj4HSaRInYU",
    "categories": [
      "Pharmacy"
    ],
    "fid": "0x885688e1fecb3225:0x859d48a449073e06",
    "cid": "9627931448825036294",
    "reviewsCount": 9,
    "imagesCount": 3,
    "imageCategories": [],
    "scrapedAt": "2025-06-22T09:41:59.136Z",
    "googleFoodUrl": null,
    "hotelAds": [],
    "openingHours": [
      {
        "day": "Monday",
        "hours": "9 AM to 1:30 PM, 2 to 8 PM"
      },
      {
        "day": "Tuesday",
        "hours": "9 AM to 1:30 PM, 2 to 8 PM"
      },
      {
        "day": "Wednesday",
        "hours": "9 AM to 1:30 PM, 2 to 8 PM"
      },
      {
        "day": "Thursday",
        "hours": "9 AM to 1:30 PM, 2 to 8 PM"
      },
      {
        "day": "Friday",
        "hours": "9 AM to 1:30 PM, 2 to 8 PM"
      },
      {
        "day": "Saturday",
        "hours": "9 AM to 1:30 PM, 2 to 6 PM"
      },
      {
        "day": "Sunday",
        "hours": "10 AM to 1:30 PM, 2 to 6 PM"
      }
    ],
    "additionalOpeningHours": {
      "Drive through": [
        {
          "day": "Monday",
          "hours": "9 AM–1:30 PM"
        },
        {
          "day": "Tuesday",
          "hours": "9 AM–1:30 PM"
        },
        {
          "day": "Wednesday",
          "hours": "9 AM–1:30 PM"
        },
        {
          "day": "Thursday",
          "hours": "9 AM–1:30 PM"
        },
        {
          "day": "Friday",
          "hours": "9 AM–1:30 PM"
        },
        {
          "day": "Saturday",
          "hours": "9 AM–1:30 PM"
        },
        {
          "day": "Sunday",
          "hours": "10 AM–1:30 PM"
        }
      ]
    },
    "peopleAlsoSearch": [],
    "placesTags": [],
    "reviewsTags": [],
    "additionalInfo": {
      "Service options": [
        {
          "Curbside pickup": true
        },
        {
          "Drive-through": true
        },
        {
          "In-store pickup": true
        },
        {
          "Onsite services": true
        }
      ],
      "Accessibility": [
        {
          "Wheelchair accessible entrance": true
        },
        {
          "Wheelchair accessible parking lot": true
        }
      ],
      "Offerings": [
        {
          "Medication disposal": true
        },
        {
          "Naloxone": true
        }
      ],
      "Planning": [
        {
          "Quick visit": true
        }
      ],
      "Payments": [
        {
          "Checks": true
        },
        {
          "Credit cards": true
        },
        {
          "Debit cards": true
        }
      ]
    },
    "gasPrices": [],
    "url": "https://www.google.com/maps/search/?api=1&query=Walgreens%20Pharmacy&query_place_id=ChIJJTLL_uGIVogRBj4HSaRInYU",
    "searchPageUrl": "https://www.google.com/maps/search/independent%20pharmacy%20Rock%20Hill%20SC/@34.94602881666666,-81.01922358333333,10.715856900338451z?hl=en",
    "searchString": "independent pharmacy Rock Hill SC",
    "language": "en",
    "rank": 15,
    "isAdvertisement": false,
    "imageUrl": "https://lh3.googleusercontent.com/p/AF1QipO_Aa3e0rIaWEP3CMXJXAQ_i2Iuspax0ElMW_pn=w525-h240-k-no",
    "kgmid": "/g/11cn96myrd"
  },
  {
    "title": "Congress Street Pharmacy",
    "price": null,
    "categoryName": "Pharmacy",
    "address": "12 N Congress St, York, SC 29745",
    "neighborhood": null,
    "street": "12 N Congress St",
    "city": "York",
    "postalCode": "29745",
    "state": "South Carolina",
    "countryCode": "US",
    "website": "http://www.congressstreetpharmacy.com/",
    "phone": "(803) 818-4116",
    "phoneUnformatted": "+18038184116",
    "claimThisBusiness": false,
    "location": {
      "lat": 34.9944211,
      "lng": -81.2412777
    },
    "totalScore": 4.9,
    "permanentlyClosed": false,
    "temporarilyClosed": false,
    "placeId": "ChIJ9cAVRI3zVogRfdqkXgaNvRc",
    "categories": [
      "Pharmacy"
    ],
    "fid": "0x8856f38d4415c0f5:0x17bd8d065ea4da7d",
    "cid": "1710678491967838845",
    "reviewsCount": 24,
    "imagesCount": 19,
    "imageCategories": [],
    "scrapedAt": "2025-06-22T09:41:59.136Z",
    "googleFoodUrl": null,
    "hotelAds": [],
    "openingHours": [
      {
        "day": "Monday",
        "hours": "9 AM to 6 PM"
      },
      {
        "day": "Tuesday",
        "hours": "9 AM to 6 PM"
      },
      {
        "day": "Wednesday",
        "hours": "9 AM to 6 PM"
      },
      {
        "day": "Thursday",
        "hours": "9 AM to 6 PM"
      },
      {
        "day": "Friday",
        "hours": "9 AM to 6 PM"
      },
      {
        "day": "Saturday",
        "hours": "9 AM to 12 PM"
      },
      {
        "day": "Sunday",
        "hours": "Closed"
      }
    ],
    "additionalOpeningHours": {
      "Drive through": [
        {
          "day": "Monday",
          "hours": "9 AM–6 PM"
        },
        {
          "day": "Tuesday",
          "hours": "9 AM–6 PM"
        },
        {
          "day": "Wednesday",
          "hours": "9 AM–6 PM"
        },
        {
          "day": "Thursday",
          "hours": "9 AM–6 PM"
        },
        {
          "day": "Friday",
          "hours": "9 AM–6 PM"
        },
        {
          "day": "Saturday",
          "hours": "9 AM–12 PM"
        },
        {
          "day": "Sunday",
          "hours": "Closed"
        }
      ]
    },
    "peopleAlsoSearch": [],
    "placesTags": [],
    "reviewsTags": [],
    "additionalInfo": {
      "From the business": [
        {
          "Small business": true
        }
      ],
      "Service options": [
        {
          "Delivery": true
        },
        {
          "Drive-through": true
        },
        {
          "In-store pickup": true
        },
        {
          "In-store shopping": true
        },
        {
          "Same-day delivery": true
        }
      ],
      "Accessibility": [
        {
          "Wheelchair accessible entrance": true
        },
        {
          "Wheelchair accessible parking lot": true
        }
      ],
      "Planning": [
        {
          "Quick visit": true
        }
      ],
      "Payments": [
        {
          "Credit cards": true
        },
        {
          "Debit cards": true
        },
        {
          "NFC mobile payments": true
        },
        {
          "Credit cards": true
        }
      ]
    },
    "gasPrices": [],
    "url": "https://www.google.com/maps/search/?api=1&query=Congress%20Street%20Pharmacy&query_place_id=ChIJ9cAVRI3zVogRfdqkXgaNvRc",
    "searchPageUrl": "https://www.google.com/maps/search/independent%20pharmacy%20Rock%20Hill%20SC/@34.94602881666666,-81.01922358333333,10.715856900338451z?hl=en",
    "searchString": "independent pharmacy Rock Hill SC",
    "language": "en",
    "rank": 16,
    "isAdvertisement": false,
    "imageUrl": "https://lh3.googleusercontent.com/p/AF1QipP40bHaDQbaTe2dZ7a452FM1cN8Kmc6wi_-XEww=w408-h271-k-no",
    "kgmid": "/g/11s189pm8t"
  }
]