[
  {
    "title": "Seward Pharmacy",
    "price": null,
    "categoryName": "Pharmacy",
    "address": "2209 E Lake St, Minneapolis, MN 55407",
    "neighborhood": "Powderhorn",
    "street": "2209 E Lake St",
    "city": "Minneapolis",
    "postalCode": "55407",
    "state": "Minnesota",
    "countryCode": "US",
    "website": "http://sewardpharmacy.com/",
    "phone": "(612) 444-3530",
    "phoneUnformatted": "+16124443530",
    "claimThisBusiness": false,
    "location": {
      "lat": 44.9481571,
      "lng": -93.2401273
    },
    "totalScore": 4.8,
    "permanentlyClosed": false,
    "temporarilyClosed": false,
    "placeId": "ChIJfYwLiMsp9ocR9jZe5R4xX-w",
    "categories": [
      "Pharmacy"
    ],
    "fid": "0x87f629cb880b8c7d:0xec5f311ee55e36f6",
    "cid": "17032386324505442038",
    "reviewsCount": 70,
    "imagesCount": 8,
    "imageCategories": [],
    "scrapedAt": "2025-06-22T05:49:49.131Z",
    "googleFoodUrl": null,
    "hotelAds": [],
    "openingHours": [
      {
        "day": "Monday",
        "hours": "9 AM to 6 PM"
      },
      {
        "day": "Tuesday",
        "hours": "9 AM to 6 PM"
      },
      {
        "day": "Wednesday",
        "hours": "9 AM to 6 PM"
      },
      {
        "day": "Thursday",
        "hours": "9 AM to 6 PM"
      },
      {
        "day": "Friday",
        "hours": "9 AM to 6 PM"
      },
      {
        "day": "Saturday",
        "hours": "9 AM to 1 PM"
      },
      {
        "day": "Sunday",
        "hours": "Closed"
      }
    ],
    "peopleAlsoSearch": [],
    "placesTags": [],
    "reviewsTags": [],
    "additionalInfo": {
      "From the business": [
        {
          "Identifies as Black-owned": true
        },
        {
          "Identifies as women-owned": true
        },
        {
          "Small business": true
        }
      ],
      "Service options": [
        {
          "Delivery": true
        },
        {
          "In-store pickup": true
        }
      ],
      "Accessibility": [
        {
          "Wheelchair accessible entrance": true
        },
        {
          "Wheelchair accessible parking lot": true
        }
      ],
      "Crowd": [
        {
          "LGBTQ+ friendly": true
        },
        {
          "Transgender safespace": true
        }
      ],
      "Planning": [
        {
          "Quick visit": true
        }
      ],
      "Payments": [
        {
          "Checks": true
        },
        {
          "Credit cards": true
        },
        {
          "Debit cards": true
        },
        {
          "NFC mobile payments": true
        },
        {
          "Credit cards": true
        }
      ]
    },
    "gasPrices": [],
    "url": "https://www.google.com/maps/search/?api=1&query=Seward%20Pharmacy&query_place_id=ChIJfYwLiMsp9ocR9jZe5R4xX-w",
    "searchPageUrl": "https://www.google.com/maps/search/independent%20pharmacy%20Minneapolis%20MN/@22.323262561027672,-159.6455228431425,12z?hl=en",
    "searchString": "independent pharmacy Minneapolis MN",
    "language": "en",
    "rank": 1,
    "isAdvertisement": false,
    "imageUrl": "https://lh3.googleusercontent.com/gps-cs-s/AC9h4nokrMx_LLOj8G_uCgnQ7hXmZakSBGkVVoOVzkjQPTX_q25XpYGTqKWyQmB0oY2zlbfKFTYGiyhsq5P033qcs53Uv0k5KYX43xRdAzbXpYrdXNqDhpWH2BuGeqlCp-B4_s5CmZTr=w426-h240-k-no",
    "kgmid": "/g/11h_4hkdvl"
  },
  {
    "title": "Fond du Lac Mashkiki Waakaaigan Pharmacy",
    "price": null,
    "categoryName": "Pharmacy",
    "address": "2020 Bloomington Ave, Minneapolis, MN 55404",
    "neighborhood": "Phillips",
    "street": "2020 Bloomington Ave",
    "city": "Minneapolis",
    "postalCode": "55404",
    "state": "Minnesota",
    "countryCode": "US",
    "website": "http://www.fdlrez.com/",
    "phone": "(612) 871-1989",
    "phoneUnformatted": "+16128711989",
    "claimThisBusiness": true,
    "location": {
      "lat": 44.9620366,
      "lng": -93.25271
    },
    "totalScore": 4.9,
    "permanentlyClosed": false,
    "temporarilyClosed": false,
    "placeId": "ChIJlT6Ir1Ats1IRH67CfEElW2s",
    "categories": [
      "Pharmacy"
    ],
    "fid": "0x52b32d50af883e95:0x6b5b25417cc2ae1f",
    "cid": "7735817748135194143",
    "reviewsCount": 25,
    "imagesCount": 3,
    "imageCategories": [],
    "scrapedAt": "2025-06-22T05:49:49.132Z",
    "googleFoodUrl": null,
    "hotelAds": [],
    "openingHours": [
      {
        "day": "Monday",
        "hours": "8 AM to 4 PM"
      },
      {
        "day": "Tuesday",
        "hours": "8 AM to 4 PM"
      },
      {
        "day": "Wednesday",
        "hours": "8 AM to 4 PM"
      },
      {
        "day": "Thursday",
        "hours": "8 AM to 4 PM"
      },
      {
        "day": "Friday",
        "hours": "8 AM to 4 PM"
      },
      {
        "day": "Saturday",
        "hours": "Closed"
      },
      {
        "day": "Sunday",
        "hours": "Closed"
      }
    ],
    "peopleAlsoSearch": [],
    "placesTags": [],
    "reviewsTags": [],
    "additionalInfo": {
      "Accessibility": [
        {
          "Wheelchair accessible entrance": true
        },
        {
          "Wheelchair accessible parking lot": true
        }
      ]
    },
    "gasPrices": [],
    "url": "https://www.google.com/maps/search/?api=1&query=Fond%20du%20Lac%20Mashkiki%20Waakaaigan%20Pharmacy&query_place_id=ChIJlT6Ir1Ats1IRH67CfEElW2s",
    "searchPageUrl": "https://www.google.com/maps/search/independent%20pharmacy%20Minneapolis%20MN/@22.323262561027672,-159.6455228431425,12z?hl=en",
    "searchString": "independent pharmacy Minneapolis MN",
    "language": "en",
    "rank": 2,
    "isAdvertisement": false,
    "imageUrl": "https://lh3.googleusercontent.com/gps-cs-s/AC9h4nrUkFzGaR_eeEYKWk9u72RHnIu5_3OjtSMB-PFdVZMCw87_UUmHlTgpXl2_LLulByjwHr2VePqvgY4TUQPykAOKh-AwfSqVijtr01r69qhnW4-7O6zo46z1zjJ1ts1V0QCmUJeK9A=w408-h308-k-no",
    "kgmid": "/g/11bbt4b0yg"
  },
  {
    "title": "Nicollet Pharmacy",
    "price": null,
    "categoryName": "Pharmacy",
    "address": "2805 Nicollet Ave, Minneapolis, MN 55408",
    "neighborhood": "Powderhorn",
    "street": "2805 Nicollet Ave",
    "city": "Minneapolis",
    "postalCode": "55408",
    "state": "Minnesota",
    "countryCode": "US",
    "phone": "(612) 345-7619",
    "phoneUnformatted": "+16123457619",
    "claimThisBusiness": false,
    "location": {
      "lat": 44.9515461,
      "lng": -93.2775022
    },
    "totalScore": 4.9,
    "permanentlyClosed": false,
    "temporarilyClosed": false,
    "placeId": "ChIJ68PQJ-An9ocRWbJNR4S-ug0",
    "categories": [
      "Pharmacy"
    ],
    "fid": "0x87f627e027d0c3eb:0xdbabe84474db259",
    "cid": "989312543502479961",
    "reviewsCount": 7,
    "imagesCount": 2,
    "imageCategories": [],
    "scrapedAt": "2025-06-22T05:49:49.132Z",
    "googleFoodUrl": null,
    "hotelAds": [],
    "openingHours": [
      {
        "day": "Monday",
        "hours": "10 AM to 7 PM"
      },
      {
        "day": "Tuesday",
        "hours": "10 AM to 7 PM"
      },
      {
        "day": "Wednesday",
        "hours": "10 AM to 7 PM"
      },
      {
        "day": "Thursday",
        "hours": "10 AM to 7 PM"
      },
      {
        "day": "Friday",
        "hours": "10 AM to 7 PM"
      },
      {
        "day": "Saturday",
        "hours": "10 AM to 5 PM"
      },
      {
        "day": "Sunday",
        "hours": "Closed"
      }
    ],
    "peopleAlsoSearch": [],
    "placesTags": [],
    "reviewsTags": [],
    "additionalInfo": {
      "From the business": [
        {
          "Small business": true
        }
      ],
      "Service options": [
        {
          "Delivery": true
        },
        {
          "In-store pickup": true
        },
        {
          "Same-day delivery": true
        }
      ],
      "Accessibility": [
        {
          "Wheelchair accessible entrance": true
        },
        {
          "Wheelchair accessible parking lot": true
        }
      ],
      "Planning": [
        {
          "Quick visit": true
        }
      ],
      "Payments": [
        {
          "Credit cards": true
        }
      ]
    },
    "gasPrices": [],
    "url": "https://www.google.com/maps/search/?api=1&query=Nicollet%20Pharmacy&query_place_id=ChIJ68PQJ-An9ocRWbJNR4S-ug0",
    "searchPageUrl": "https://www.google.com/maps/search/independent%20pharmacy%20Minneapolis%20MN/@22.323262561027672,-159.6455228431425,12z?hl=en",
    "searchString": "independent pharmacy Minneapolis MN",
    "language": "en",
    "rank": 3,
    "isAdvertisement": false,
    "imageUrl": "https://lh3.googleusercontent.com/p/AF1QipP70z77OlAsi_39rga337Xe-tclUGpdXjTUQzw4=w408-h306-k-no",
    "kgmid": "/g/11tn64mqph"
  },
  {
    "title": "Cedar Pharmacy",
    "price": null,
    "categoryName": "Pharmacy",
    "address": "417 Cedar Ave, Minneapolis, MN 55454",
    "neighborhood": "Cedar-Riverside",
    "street": "417 Cedar Ave",
    "city": "Minneapolis",
    "postalCode": "55454",
    "state": "Minnesota",
    "countryCode": "US",
    "website": "http://www.cedarpharmacy.net/",
    "phone": "(612) 354-3851",
    "phoneUnformatted": "+16123543851",
    "claimThisBusiness": false,
    "location": {
      "lat": 44.9693546,
      "lng": -93.2470432
    },
    "totalScore": 4.1,
    "permanentlyClosed": false,
    "temporarilyClosed": false,
    "placeId": "ChIJ1b9VoRUts1IRmNnhC8A9g1g",
    "categories": [
      "Pharmacy"
    ],
    "fid": "0x52b32d15a155bfd5:0x58833dc00be1d998",
    "cid": "6378009392329120152",
    "reviewsCount": 9,
    "imagesCount": 2,
    "imageCategories": [],
    "scrapedAt": "2025-06-22T05:49:49.132Z",
    "googleFoodUrl": null,
    "hotelAds": [],
    "openingHours": [
      {
        "day": "Monday",
        "hours": "9 AM to 7 PM"
      },
      {
        "day": "Tuesday",
        "hours": "9 AM to 7 PM"
      },
      {
        "day": "Wednesday",
        "hours": "9 AM to 7 PM"
      },
      {
        "day": "Thursday",
        "hours": "9 AM to 7 PM"
      },
      {
        "day": "Friday",
        "hours": "9 AM to 7 PM"
      },
      {
        "day": "Saturday",
        "hours": "9 AM to 7 PM"
      },
      {
        "day": "Sunday",
        "hours": "Closed"
      }
    ],
    "peopleAlsoSearch": [],
    "placesTags": [],
    "reviewsTags": [],
    "additionalInfo": {
      "From the business": [
        {
          "Small business": true
        }
      ],
      "Service options": [
        {
          "Delivery": true
        },
        {
          "In-store pickup": true
        },
        {
          "Onsite services": true
        }
      ],
      "Accessibility": [
        {
          "Wheelchair accessible entrance": true
        },
        {
          "Wheelchair accessible parking lot": true
        }
      ],
      "Planning": [
        {
          "Quick visit": true
        }
      ],
      "Payments": [
        {
          "Credit cards": true
        },
        {
          "Debit cards": true
        },
        {
          "NFC mobile payments": true
        },
        {
          "Credit cards": true
        }
      ]
    },
    "gasPrices": [],
    "url": "https://www.google.com/maps/search/?api=1&query=Cedar%20Pharmacy&query_place_id=ChIJ1b9VoRUts1IRmNnhC8A9g1g",
    "searchPageUrl": "https://www.google.com/maps/search/independent%20pharmacy%20Minneapolis%20MN/@22.323262561027672,-159.6455228431425,12z?hl=en",
    "searchString": "independent pharmacy Minneapolis MN",
    "language": "en",
    "rank": 4,
    "isAdvertisement": false,
    "imageUrl": "https://lh3.googleusercontent.com/gps-cs-s/AC9h4nocHrV1O1sg9_WQYjFW_pl8jVoWTU8Y_dozF35viv1IT4twk36UK5E3ZD1P3hJyfSPf3FKFMSaCPOLxCBwJzpOvAqGA-oVAUyowDZgOqnN67uK7OVNyZyrBzlypFF3QKKiQADfyFg=w408-h719-k-no",
    "kgmid": "/g/11sk_c5r2h"
  },
  {
    "title": "Uptown Pharmacy - Karmel Pharmacy",
    "price": null,
    "categoryName": "Pharmacy",
    "address": "200 W Lake St suite 126, Minneapolis, MN 55408",
    "neighborhood": "Powderhorn",
    "street": "200 W Lake St suite 126",
    "city": "Minneapolis",
    "postalCode": "55408",
    "state": "Minnesota",
    "countryCode": "US",
    "website": "https://www.uptown-pharmacy.com/",
    "phone": "(612) 464-3909",
    "phoneUnformatted": "+16124643909",
    "claimThisBusiness": false,
    "location": {
      "lat": 44.9486844,
      "lng": -93.2817056
    },
    "totalScore": 4.6,
    "permanentlyClosed": false,
    "temporarilyClosed": false,
    "placeId": "ChIJtZz4pG0n9ocRfmKGKjbX_W8",
    "categories": [
      "Pharmacy"
    ],
    "fid": "0x87f6276da4f89cb5:0x6ffdd7362a86627e",
    "cid": "8069842734959452798",
    "reviewsCount": 16,
    "imagesCount": 9,
    "imageCategories": [],
    "scrapedAt": "2025-06-22T05:49:49.133Z",
    "googleFoodUrl": null,
    "hotelAds": [],
    "openingHours": [
      {
        "day": "Monday",
        "hours": "9 AM to 8 PM"
      },
      {
        "day": "Tuesday",
        "hours": "9 AM to 8 PM"
      },
      {
        "day": "Wednesday",
        "hours": "9 AM to 8 PM"
      },
      {
        "day": "Thursday",
        "hours": "9 AM to 8 PM"
      },
      {
        "day": "Friday",
        "hours": "9 AM to 8 PM"
      },
      {
        "day": "Saturday",
        "hours": "10 AM to 1:30 PM, 2 to 6 PM"
      },
      {
        "day": "Sunday",
        "hours": "Closed"
      }
    ],
    "additionalOpeningHours": {
      "Delivery": [
        {
          "day": "Monday",
          "hours": "9 AM–8 PM"
        },
        {
          "day": "Tuesday",
          "hours": "9 AM–8 PM"
        },
        {
          "day": "Wednesday",
          "hours": "9 AM–8 PM"
        },
        {
          "day": "Thursday",
          "hours": "9 AM–8 PM"
        },
        {
          "day": "Friday",
          "hours": "9 AM–8 PM"
        },
        {
          "day": "Saturday",
          "hours": "9 AM–6 PM"
        },
        {
          "day": "Sunday",
          "hours": "Closed"
        }
      ]
    },
    "peopleAlsoSearch": [],
    "placesTags": [],
    "reviewsTags": [],
    "additionalInfo": {
      "From the business": [
        {
          "Small business": true
        }
      ],
      "Service options": [
        {
          "Curbside pickup": true
        },
        {
          "Delivery": true
        },
        {
          "In-store pickup": true
        },
        {
          "Same-day delivery": true
        }
      ],
      "Accessibility": [
        {
          "Wheelchair accessible entrance": true
        },
        {
          "Wheelchair accessible parking lot": true
        },
        {
          "Wheelchair accessible restroom": true
        }
      ],
      "Payments": [
        {
          "Credit cards": true
        },
        {
          "Debit cards": true
        },
        {
          "NFC mobile payments": true
        },
        {
          "Credit cards": true
        }
      ],
      "Parking": [
        {
          "Free parking lot": true
        },
        {
          "Free street parking": true
        },
        {
          "On-site parking": true
        },
        {
          "Paid parking garage": true
        },
        {
          "Paid parking lot": true
        },
        {
          "Paid street parking": true
        }
      ]
    },
    "gasPrices": [],
    "url": "https://www.google.com/maps/search/?api=1&query=Uptown%20Pharmacy%20-%20Karmel%20Pharmacy&query_place_id=ChIJtZz4pG0n9ocRfmKGKjbX_W8",
    "searchPageUrl": "https://www.google.com/maps/search/independent%20pharmacy%20Minneapolis%20MN/@22.323262561027672,-159.6455228431425,12z?hl=en",
    "searchString": "independent pharmacy Minneapolis MN",
    "language": "en",
    "rank": 5,
    "isAdvertisement": false,
    "imageUrl": "https://lh3.googleusercontent.com/gps-cs-s/AC9h4np8-EO8EE3srTEWR5nKpM-QdNPYxjE80L2NiMJFSEDIob67v-PyEUBT1wJHJtvTLmiNY-BcXT3zrJWzG1SyUInCAuM4LZYFajSoO-mKS1ApKx3wXwlmkbu9ltL1FWmBI3W7BvGL=w408-h544-k-no",
    "kgmid": "/g/11v62v9jgf"
  },
  {
    "title": "Lakes Pharmacy",
    "price": null,
    "categoryName": "Pharmacy",
    "address": "2423 E Franklin Ave, Minneapolis, MN 55406",
    "neighborhood": "Seward",
    "street": "2423 E Franklin Ave",
    "city": "Minneapolis",
    "postalCode": "55406",
    "state": "Minnesota",
    "countryCode": "US",
    "phone": "(612) 353-5297",
    "phoneUnformatted": "+16123535297",
    "claimThisBusiness": true,
    "location": {
      "lat": 44.9627743,
      "lng": -93.2368062
    },
    "totalScore": 4.5,
    "permanentlyClosed": false,
    "temporarilyClosed": false,
    "placeId": "ChIJl4nnnTcts1IR7SmOl8IzUj0",
    "categories": [
      "Pharmacy"
    ],
    "fid": "0x52b32d379de78997:0x3d5233c2978e29ed",
    "cid": "4418651095263226349",
    "reviewsCount": 15,
    "imagesCount": 2,
    "imageCategories": [],
    "scrapedAt": "2025-06-22T05:49:49.133Z",
    "googleFoodUrl": null,
    "hotelAds": [],
    "openingHours": [
      {
        "day": "Monday",
        "hours": "8 AM to 6 PM"
      },
      {
        "day": "Tuesday",
        "hours": "8 AM to 6 PM"
      },
      {
        "day": "Wednesday",
        "hours": "8 AM to 6 PM"
      },
      {
        "day": "Thursday",
        "hours": "8 AM to 6 PM"
      },
      {
        "day": "Friday",
        "hours": "8 AM to 6 PM"
      },
      {
        "day": "Saturday",
        "hours": "8 AM to 12 PM"
      },
      {
        "day": "Sunday",
        "hours": "Closed"
      }
    ],
    "peopleAlsoSearch": [],
    "placesTags": [],
    "reviewsTags": [],
    "additionalInfo": {
      "Accessibility": [
        {
          "Wheelchair accessible entrance": true
        },
        {
          "Wheelchair accessible parking lot": true
        }
      ],
      "Payments": [
        {
          "Credit cards": true
        },
        {
          "Debit cards": true
        },
        {
          "NFC mobile payments": true
        },
        {
          "Credit cards": true
        }
      ]
    },
    "gasPrices": [],
    "url": "https://www.google.com/maps/search/?api=1&query=Lakes%20Pharmacy&query_place_id=ChIJl4nnnTcts1IR7SmOl8IzUj0",
    "searchPageUrl": "https://www.google.com/maps/search/independent%20pharmacy%20Minneapolis%20MN/@22.323262561027672,-159.6455228431425,12z?hl=en",
    "searchString": "independent pharmacy Minneapolis MN",
    "language": "en",
    "rank": 6,
    "isAdvertisement": false,
    "imageUrl": "https://lh3.googleusercontent.com/gps-cs-s/AC9h4np9wehOly0CkpFO_d649M5GDVZmsIYwQv4wxfuv0eIegZrzrycSja6TdhVS70LgplDHdc1ao3AuBiTe-HDi_XLGxDd-ea_uB7maUvz6WE_wQf-KroYjSef6XaQw2lFwSuYxg88=w408-h306-k-no",
    "kgmid": "/g/1tflxjtg"
  },
  {
    "title": "Heartfelt Holistic Pharmacy",
    "price": null,
    "categoryName": "Pharmacy",
    "address": "6525 France Ave S, Minneapolis, MN 55435",
    "neighborhood": null,
    "street": "6525 France Ave S",
    "city": "Minneapolis",
    "postalCode": "55435",
    "state": "Minnesota",
    "countryCode": "US",
    "phone": "(612) 315-4671",
    "phoneUnformatted": "+16123154671",
    "claimThisBusiness": true,
    "location": {
      "lat": 44.8847961,
      "lng": -93.3272473
    },
    "totalScore": 5,
    "permanentlyClosed": false,
    "temporarilyClosed": false,
    "placeId": "ChIJzyO9FqUm9ocRdkWX6hWAmRU",
    "categories": [
      "Pharmacy"
    ],
    "fid": "0x87f626a516bd23cf:0x15998015ea974576",
    "cid": "1556415977851667830",
    "reviewsCount": 1,
    "imagesCount": 1,
    "imageCategories": [],
    "scrapedAt": "2025-06-22T05:49:49.133Z",
    "googleFoodUrl": null,
    "hotelAds": [],
    "openingHours": [],
    "peopleAlsoSearch": [],
    "placesTags": [],
    "reviewsTags": [],
    "additionalInfo": {
      "Accessibility": [
        {
          "Wheelchair accessible entrance": true
        },
        {
          "Wheelchair accessible parking lot": true
        }
      ],
      "Payments": [
        {
          "Credit cards": true
        }
      ]
    },
    "gasPrices": [],
    "url": "https://www.google.com/maps/search/?api=1&query=Heartfelt%20Holistic%20Pharmacy&query_place_id=ChIJzyO9FqUm9ocRdkWX6hWAmRU",
    "searchPageUrl": "https://www.google.com/maps/search/independent%20pharmacy%20Minneapolis%20MN/@22.323262561027672,-159.6455228431425,12z?hl=en",
    "searchString": "independent pharmacy Minneapolis MN",
    "language": "en",
    "rank": 7,
    "isAdvertisement": false,
    "imageUrl": "https://streetviewpixels-pa.googleapis.com/v1/thumbnail?panoid=cf9SROgL3ANS9vzQBgaruQ&cb_client=search.gws-prod.gps&w=408&h=240&yaw=24.629745&pitch=0&thumbfov=100",
    "kgmid": "/g/11btz3dxrx"
  },
  {
    "title": "Hikma Health Mart Pharmacy",
    "price": null,
    "categoryName": "Pharmacy",
    "address": "615 Cedar Ave, Minneapolis, MN 55454",
    "neighborhood": "Cedar-Riverside",
    "street": "615 Cedar Ave",
    "city": "Minneapolis",
    "postalCode": "55454",
    "state": "Minnesota",
    "countryCode": "US",
    "website": "https://www.healthmart.com/store-details?storeId=6687",
    "phone": "(612) 315-3678",
    "phoneUnformatted": "+16123153678",
    "claimThisBusiness": false,
    "location": {
      "lat": 44.967122,
      "lng": -93.246967
    },
    "totalScore": 4.4,
    "permanentlyClosed": false,
    "temporarilyClosed": false,
    "placeId": "ChIJwT2_Y0Qts1IRcX0JD1pN7u4",
    "categories": [
      "Pharmacy"
    ],
    "fid": "0x52b32d4463bf3dc1:0xeeee4d5a0f097d71",
    "cid": "17216783474678660465",
    "reviewsCount": 9,
    "imagesCount": 25,
    "imageCategories": [],
    "scrapedAt": "2025-06-22T05:49:49.133Z",
    "googleFoodUrl": null,
    "hotelAds": [],
    "openingHours": [
      {
        "day": "Monday",
        "hours": "9:30 AM to 8 PM"
      },
      {
        "day": "Tuesday",
        "hours": "9:30 AM to 8 PM"
      },
      {
        "day": "Wednesday",
        "hours": "9:30 AM to 8 PM"
      },
      {
        "day": "Thursday",
        "hours": "9:30 AM to 8 PM"
      },
      {
        "day": "Friday",
        "hours": "9:30 AM to 7 PM"
      },
      {
        "day": "Saturday",
        "hours": "11 AM to 6 PM"
      },
      {
        "day": "Sunday",
        "hours": "Closed"
      }
    ],
    "peopleAlsoSearch": [],
    "placesTags": [],
    "reviewsTags": [],
    "additionalInfo": {
      "From the business": [
        {
          "Small business": true
        }
      ],
      "Accessibility": [
        {
          "Wheelchair accessible entrance": true
        },
        {
          "Wheelchair accessible parking lot": true
        }
      ],
      "Planning": [
        {
          "Quick visit": true
        }
      ],
      "Payments": [
        {
          "Checks": true
        },
        {
          "Credit cards": true
        },
        {
          "Debit cards": true
        },
        {
          "NFC mobile payments": true
        },
        {
          "Credit cards": true
        }
      ]
    },
    "gasPrices": [],
    "url": "https://www.google.com/maps/search/?api=1&query=Hikma%20Health%20Mart%20Pharmacy&query_place_id=ChIJwT2_Y0Qts1IRcX0JD1pN7u4",
    "searchPageUrl": "https://www.google.com/maps/search/independent%20pharmacy%20Minneapolis%20MN/@22.323262561027672,-159.6455228431425,12z?hl=en",
    "searchString": "independent pharmacy Minneapolis MN",
    "language": "en",
    "rank": 8,
    "isAdvertisement": false,
    "imageUrl": "https://lh3.googleusercontent.com/p/AF1QipOXVYoTDXzLvyl6rwDoLWZiQxSGpm4W7LNerZcq=w408-h348-k-no",
    "kgmid": "/g/1q66vyr28"
  },
  {
    "title": "Juba Pharmacy",
    "price": null,
    "categoryName": "Pharmacy",
    "address": "1926 Chicago Ave, Minneapolis, MN 55404",
    "neighborhood": "Phillips",
    "street": "1926 Chicago Ave",
    "city": "Minneapolis",
    "postalCode": "55404",
    "state": "Minnesota",
    "countryCode": "US",
    "website": "http://jubapharmacy.com/",
    "phone": "(612) 545-5455",
    "phoneUnformatted": "+16125455455",
    "claimThisBusiness": false,
    "location": {
      "lat": 44.9629622,
      "lng": -93.263276
    },
    "totalScore": 4.1,
    "permanentlyClosed": false,
    "temporarilyClosed": false,
    "placeId": "ChIJSTQQjVEzs1IRL_G6TdFERbc",
    "categories": [
      "Pharmacy"
    ],
    "fid": "0x52b333518d103449:0xb74544d14dbaf12f",
    "cid": "13206037148076798255",
    "reviewsCount": 19,
    "imagesCount": 2,
    "imageCategories": [],
    "scrapedAt": "2025-06-22T05:49:49.133Z",
    "googleFoodUrl": null,
    "hotelAds": [],
    "openingHours": [
      {
        "day": "Monday",
        "hours": "9 AM to 7 PM"
      },
      {
        "day": "Tuesday",
        "hours": "9 AM to 7 PM"
      },
      {
        "day": "Wednesday",
        "hours": "9 AM to 7 PM"
      },
      {
        "day": "Thursday",
        "hours": "9 AM to 7 PM"
      },
      {
        "day": "Friday",
        "hours": "9 AM to 7 PM"
      },
      {
        "day": "Saturday",
        "hours": "10 AM to 6 PM"
      },
      {
        "day": "Sunday",
        "hours": "Closed"
      }
    ],
    "additionalOpeningHours": {
      "Delivery": [
        {
          "day": "Monday",
          "hours": "4–8 PM"
        },
        {
          "day": "Tuesday",
          "hours": "4–8 PM"
        },
        {
          "day": "Wednesday",
          "hours": "4–8 PM"
        },
        {
          "day": "Thursday",
          "hours": "4–8 PM"
        },
        {
          "day": "Friday",
          "hours": "4–8 PM"
        },
        {
          "day": "Saturday",
          "hours": "4–8 PM"
        },
        {
          "day": "Sunday",
          "hours": "Closed"
        }
      ]
    },
    "peopleAlsoSearch": [],
    "placesTags": [],
    "reviewsTags": [],
    "additionalInfo": {
      "From the business": [
        {
          "Identifies as Black-owned": true
        },
        {
          "Small business": true
        }
      ],
      "Service options": [
        {
          "Delivery": true
        },
        {
          "In-store shopping": true
        }
      ],
      "Accessibility": [
        {
          "Wheelchair accessible entrance": true
        },
        {
          "Wheelchair accessible parking lot": true
        },
        {
          "Wheelchair accessible restroom": true
        }
      ],
      "Planning": [
        {
          "Quick visit": true
        }
      ],
      "Payments": [
        {
          "Credit cards": true
        },
        {
          "Debit cards": true
        },
        {
          "NFC mobile payments": true
        },
        {
          "Credit cards": true
        }
      ]
    },
    "gasPrices": [],
    "url": "https://www.google.com/maps/search/?api=1&query=Juba%20Pharmacy&query_place_id=ChIJSTQQjVEzs1IRL_G6TdFERbc",
    "searchPageUrl": "https://www.google.com/maps/search/independent%20pharmacy%20Minneapolis%20MN/@22.323262561027672,-159.6455228431425,12z?hl=en",
    "searchString": "independent pharmacy Minneapolis MN",
    "language": "en",
    "rank": 9,
    "isAdvertisement": false,
    "imageUrl": "https://lh3.googleusercontent.com/p/AF1QipO_TOP9e7n1ij3TVAFxB8zGg3nKQlfSzUMQ_B66=w408-h306-k-no",
    "kgmid": "/g/11fjxvvttv"
  },
  {
    "title": "Guardian Pharmacy of Minneapolis",
    "price": null,
    "categoryName": "Pharmacy",
    "address": "9700 W 76th St #116, Eden Prairie, MN 55344",
    "neighborhood": "Golden Triangle",
    "street": "9700 W 76th St #116",
    "city": "Eden Prairie",
    "postalCode": "55344",
    "state": "Minnesota",
    "countryCode": "US",
    "website": "http://www.guardianpharmacyminnesota.com/",
    "phone": "(952) 206-4380",
    "phoneUnformatted": "+19522064380",
    "claimThisBusiness": false,
    "location": {
      "lat": 44.8671994,
      "lng": -93.4029833
    },
    "totalScore": 5,
    "permanentlyClosed": false,
    "temporarilyClosed": false,
    "placeId": "ChIJezUEhCYj9ocRdXAiJJ7ZZiE",
    "categories": [
      "Pharmacy"
    ],
    "fid": "0x87f623268404357b:0x2166d99e24227075",
    "cid": "2406850324110405749",
    "reviewsCount": 3,
    "imagesCount": 2,
    "imageCategories": [],
    "scrapedAt": "2025-06-22T05:49:49.133Z",
    "googleFoodUrl": null,
    "hotelAds": [],
    "openingHours": [
      {
        "day": "Monday",
        "hours": "8:30 AM to 6:30 PM"
      },
      {
        "day": "Tuesday",
        "hours": "8:30 AM to 6:30 PM"
      },
      {
        "day": "Wednesday",
        "hours": "8:30 AM to 6:30 PM"
      },
      {
        "day": "Thursday",
        "hours": "8:30 AM to 6:30 PM"
      },
      {
        "day": "Friday",
        "hours": "8:30 AM to 6:30 PM"
      },
      {
        "day": "Saturday",
        "hours": "9 AM to 1 PM"
      },
      {
        "day": "Sunday",
        "hours": "9 AM to 1 PM"
      }
    ],
    "peopleAlsoSearch": [],
    "placesTags": [],
    "reviewsTags": [],
    "additionalInfo": {
      "From the business": [
        {
          "Small business": true
        }
      ],
      "Accessibility": [
        {
          "Wheelchair accessible entrance": true
        },
        {
          "Wheelchair accessible parking lot": true
        }
      ]
    },
    "gasPrices": [],
    "url": "https://www.google.com/maps/search/?api=1&query=Guardian%20Pharmacy%20of%20Minneapolis&query_place_id=ChIJezUEhCYj9ocRdXAiJJ7ZZiE",
    "searchPageUrl": "https://www.google.com/maps/search/independent%20pharmacy%20Minneapolis%20MN/@22.323262561027672,-159.6455228431425,12z?hl=en",
    "searchString": "independent pharmacy Minneapolis MN",
    "language": "en",
    "rank": 10,
    "isAdvertisement": false,
    "imageUrl": "https://streetviewpixels-pa.googleapis.com/v1/thumbnail?panoid=MOwl3ps87wvGq0c2jZzK-Q&cb_client=search.gws-prod.gps&w=408&h=240&yaw=182.54794&pitch=0&thumbfov=100",
    "kgmid": "/g/11q83b8fxm"
  },
  {
    "title": "Walgreens Specialty Pharmacy",
    "description": "Department of the Walgreens chain providing prescription medications & other health-related items.",
    "price": "$$",
    "categoryName": "Pharmacy",
    "address": "2100 Lyndale Ave S A, Minneapolis, MN 55405",
    "neighborhood": "Lowry Hill East",
    "street": "2100 Lyndale Ave S A",
    "city": "Minneapolis",
    "postalCode": "55405",
    "state": "Minnesota",
    "countryCode": "US",
    "website": "https://www.walgreens.com/locator/walgreens-2100+lyndale+ave+s-minneapolis-mn-55405/id=15309",
    "phone": "(612) 872-7808",
    "phoneUnformatted": "+16128727808",
    "claimThisBusiness": false,
    "location": {
      "lat": 44.9617514,
      "lng": -93.2882592
    },
    "locatedIn": "Walgreens Pharmacy",
    "totalScore": 4.4,
    "permanentlyClosed": false,
    "temporarilyClosed": false,
    "placeId": "ChIJVRP4i88ys1IRbLdP-8rbyS8",
    "categories": [
      "Pharmacy"
    ],
    "fid": "0x52b332cf8bf81355:0x2fc9dbcafb4fb76c",
    "cid": "3443525054947637100",
    "reviewsCount": 39,
    "imagesCount": 8,
    "imageCategories": [],
    "scrapedAt": "2025-06-22T05:49:49.133Z",
    "googleFoodUrl": null,
    "hotelAds": [],
    "openingHours": [
      {
        "day": "Monday",
        "hours": "8:30 AM to 6 PM"
      },
      {
        "day": "Tuesday",
        "hours": "8:30 AM to 6 PM"
      },
      {
        "day": "Wednesday",
        "hours": "8:30 AM to 6 PM"
      },
      {
        "day": "Thursday",
        "hours": "8:30 AM to 6 PM"
      },
      {
        "day": "Friday",
        "hours": "8:30 AM to 6 PM"
      },
      {
        "day": "Saturday",
        "hours": "Closed"
      },
      {
        "day": "Sunday",
        "hours": "Closed"
      }
    ],
    "additionalOpeningHours": {
      "Walgreens Pharmacy": [
        {
          "day": "Monday",
          "hours": "8:30 AM–6 PM"
        },
        {
          "day": "Tuesday",
          "hours": "8:30 AM–6 PM"
        },
        {
          "day": "Wednesday",
          "hours": "8:30 AM–6 PM"
        },
        {
          "day": "Thursday",
          "hours": "8:30 AM–6 PM"
        },
        {
          "day": "Friday",
          "hours": "8:30 AM–6 PM"
        },
        {
          "day": "Saturday",
          "hours": "Closed"
        },
        {
          "day": "Sunday",
          "hours": "Closed"
        }
      ]
    },
    "peopleAlsoSearch": [],
    "placesTags": [],
    "reviewsTags": [],
    "additionalInfo": {
      "Service options": [
        {
          "In-store pickup": true
        },
        {
          "Same-day delivery": false
        }
      ],
      "Accessibility": [
        {
          "Wheelchair accessible entrance": true
        },
        {
          "Wheelchair accessible parking lot": true
        }
      ],
      "Planning": [
        {
          "Quick visit": true
        }
      ],
      "Payments": [
        {
          "Credit cards": true
        },
        {
          "Debit cards": true
        },
        {
          "NFC mobile payments": true
        },
        {
          "Credit cards": true
        }
      ]
    },
    "gasPrices": [],
    "url": "https://www.google.com/maps/search/?api=1&query=Walgreens%20Specialty%20Pharmacy&query_place_id=ChIJVRP4i88ys1IRbLdP-8rbyS8",
    "searchPageUrl": "https://www.google.com/maps/search/independent%20pharmacy%20Minneapolis%20MN/@22.323262561027672,-159.6455228431425,12z?hl=en",
    "searchString": "independent pharmacy Minneapolis MN",
    "language": "en",
    "rank": 11,
    "isAdvertisement": false,
    "imageUrl": "https://lh3.googleusercontent.com/gps-cs-s/AC9h4now2BkHyMAlURBS91HsBrwh0LVsGZb9yj0sJN0ET3T3fYfMl0dXLi3tQOopsRqzoUCqPDKCGpuRSZjWL-SZ7-SeeBDIZeTUDlXDthVqBZMY6c7ZfSRF_BYzStKXNoAAyfnsch7r=w408-h306-k-no",
    "kgmid": "/g/1tcwfml9"
  },
  {
    "title": "Central Care Pharmacy",
    "price": null,
    "categoryName": "Pharmacy",
    "address": "2336 Central Ave NE, Minneapolis, MN 55418",
    "neighborhood": "Northeast Minneapolis",
    "street": "2336 Central Ave NE",
    "city": "Minneapolis",
    "postalCode": "55418",
    "state": "Minnesota",
    "countryCode": "US",
    "phone": "(612) 886-3005",
    "phoneUnformatted": "+16128863005",
    "claimThisBusiness": false,
    "location": {
      "lat": 45.011847,
      "lng": -93.247593
    },
    "totalScore": 5,
    "permanentlyClosed": true,
    "temporarilyClosed": false,
    "placeId": "ChIJKR6KAusts1IRt_0swkFf_CM",
    "categories": [
      "Pharmacy"
    ],
    "fid": "0x52b32deb028a1e29:0x23fc5f41c22cfdb7",
    "cid": "2593052221493804471",
    "reviewsCount": 1,
    "imagesCount": 6,
    "imageCategories": [],
    "scrapedAt": "2025-06-22T05:49:49.133Z",
    "googleFoodUrl": null,
    "hotelAds": [],
    "openingHours": [],
    "peopleAlsoSearch": [],
    "placesTags": [],
    "reviewsTags": [],
    "gasPrices": [],
    "url": "https://www.google.com/maps/search/?api=1&query=Central%20Care%20Pharmacy&query_place_id=ChIJKR6KAusts1IRt_0swkFf_CM",
    "searchPageUrl": "https://www.google.com/maps/search/independent%20pharmacy%20Minneapolis%20MN/@22.323262561027672,-159.6455228431425,12z?hl=en",
    "searchString": "independent pharmacy Minneapolis MN",
    "language": "en",
    "rank": 12,
    "isAdvertisement": false,
    "imageUrl": "https://lh3.googleusercontent.com/p/AF1QipNUbjqefLG6SzIDq8djiikyZTQrn0DM3mzXyMfz=w408-h262-k-no",
    "kgmid": "/g/11bxfy8pfm"
  },
  {
    "title": "Capsule",
    "price": null,
    "categoryName": "Pharmacy",
    "address": "117 N Washington Ave Suite 100, Minneapolis, MN 55401, United States",
    "neighborhood": "Warehouse District",
    "street": "117 N Washington Ave Suite 100",
    "city": "Minneapolis",
    "postalCode": "55401",
    "state": "Minnesota",
    "countryCode": "US",
    "website": "https://www.capsule.com/?utm_source=GMBlisting&utm_medium=Organic&utm_campaign=Minneapolis-MN",
    "phone": "+1 612-504-1000",
    "phoneUnformatted": "+16125041000",
    "claimThisBusiness": false,
    "location": {
      "lat": 44.9831104,
      "lng": -93.2711696
    },
    "totalScore": 4.1,
    "permanentlyClosed": false,
    "temporarilyClosed": false,
    "placeId": "ChIJd0xE9Zwzs1IRtUES9znipTM",
    "categories": [
      "Pharmacy",
      "Delivery service",
      "Chemist",
      "Pharmaceutical company",
      "Vitamin & Supplements Shop"
    ],
    "fid": "0x52b3339cf5444c77:0x33a5e239f71241b5",
    "cid": "3721629405677765045",
    "reviewsCount": 168,
    "imagesCount": 9,
    "imageCategories": [],
    "scrapedAt": "2025-06-22T05:49:52.352Z",
    "googleFoodUrl": null,
    "hotelAds": [],
    "openingHours": [
      {
        "day": "Monday",
        "hours": "8 AM to 6 PM"
      },
      {
        "day": "Tuesday",
        "hours": "8 AM to 6 PM"
      },
      {
        "day": "Wednesday",
        "hours": "8 AM to 6 PM"
      },
      {
        "day": "Thursday",
        "hours": "8 AM to 6 PM"
      },
      {
        "day": "Friday",
        "hours": "8 AM to 6 PM"
      },
      {
        "day": "Saturday",
        "hours": "10 AM to 3 PM"
      },
      {
        "day": "Sunday",
        "hours": "10 AM to 3 PM"
      }
    ],
    "peopleAlsoSearch": [],
    "placesTags": [],
    "reviewsTags": [],
    "additionalInfo": {
      "Service options": [
        {
          "Delivery": true
        },
        {
          "In-store pick-up": true
        },
        {
          "In-store shopping": true
        }
      ],
      "Accessibility": [
        {
          "Wheelchair-accessible car park": true
        },
        {
          "Wheelchair-accessible entrance": true
        }
      ],
      "Payments": [
        {
          "Credit cards": true
        }
      ]
    },
    "gasPrices": [],
    "url": "https://www.google.com/maps/search/?api=1&query=Capsule&query_place_id=ChIJd0xE9Zwzs1IRtUES9znipTM",
    "searchPageUrl": "https://www.google.com/maps/search/independent%20pharmacy%20Minneapolis%20MN/@25.56842116934802,-170.69765594300242,13z?hl=en",
    "searchString": "independent pharmacy Minneapolis MN",
    "language": "en",
    "rank": 10,
    "isAdvertisement": false,
    "imageUrl": "https://lh3.googleusercontent.com/gps-cs-s/AC9h4no5Si0eX9qzKePDhzUsAiZVpAYtJYuCnpFhQ1UqzNops6_BiHTi4oBELwMgJlDIGzHJl_hnFvMkLqXDdEA624lWf8XwT1EJyLMWGC75RyXU3j1wKWdI15GDbUWGSi6OaaOIkxH0=w408-h306-k-no",
    "kgmid": "/g/11ft3j0p7n"
  },
  {
    "title": "Allina Community Pharmacy",
    "price": null,
    "categoryName": "Pharmacy",
    "address": "800 E 28th St, Minneapolis, MN 55407",
    "neighborhood": "Phillips",
    "street": "800 E 28th St",
    "city": "Minneapolis",
    "postalCode": "55407",
    "state": "Minnesota",
    "countryCode": "US",
    "website": "https://account.allinahealth.org/servicelines/881/locations",
    "phone": "(612) 775-3100",
    "phoneUnformatted": "+16127753100",
    "claimThisBusiness": true,
    "location": {
      "lat": 44.9528829,
      "lng": -93.2621057
    },
    "totalScore": 2,
    "permanentlyClosed": false,
    "temporarilyClosed": false,
    "placeId": "ChIJz24ca_8n9ocRyOzhph_uMKo",
    "categories": [
      "Pharmacy"
    ],
    "fid": "0x87f627ff6b1c6ecf:0xaa30ee1fa6e1ecc8",
    "cid": "12263563605041081544",
    "reviewsCount": 5,
    "imagesCount": 1,
    "imageCategories": [],
    "scrapedAt": "2025-06-22T05:49:58.739Z",
    "googleFoodUrl": null,
    "hotelAds": [],
    "openingHours": [
      {
        "day": "Monday",
        "hours": "Open 24 hours"
      },
      {
        "day": "Tuesday",
        "hours": "Open 24 hours"
      },
      {
        "day": "Wednesday",
        "hours": "Open 24 hours"
      },
      {
        "day": "Thursday",
        "hours": "Open 24 hours"
      },
      {
        "day": "Friday",
        "hours": "Open 24 hours"
      },
      {
        "day": "Saturday",
        "hours": "Open 24 hours"
      },
      {
        "day": "Sunday",
        "hours": "Open 24 hours"
      }
    ],
    "peopleAlsoSearch": [],
    "placesTags": [],
    "reviewsTags": [],
    "additionalInfo": {
      "Accessibility": [
        {
          "Wheelchair accessible entrance": true
        },
        {
          "Wheelchair accessible parking lot": true
        }
      ],
      "Payments": [
        {
          "Credit cards": true
        }
      ]
    },
    "gasPrices": [],
    "url": "https://www.google.com/maps/search/?api=1&query=Allina%20Community%20Pharmacy&query_place_id=ChIJz24ca_8n9ocRyOzhph_uMKo",
    "searchPageUrl": "https://www.google.com/maps/search/independent%20pharmacy%20Minneapolis%20MN/@60.874534795447715,-155.41210894270387,9z?hl=en",
    "searchString": "independent pharmacy Minneapolis MN",
    "language": "en",
    "rank": 9,
    "isAdvertisement": false,
    "imageUrl": "https://streetviewpixels-pa.googleapis.com/v1/thumbnail?panoid=2I6Fv3GiXcAYJ_cHmS-siQ&cb_client=search.gws-prod.gps&w=408&h=240&yaw=270.84134&pitch=0&thumbfov=100",
    "kgmid": "/g/1ttyx90l"
  },
  {
    "title": "Polaris Pharmacy Services",
    "price": null,
    "categoryName": "Pharmacy",
    "address": "4220 Park Glen Rd, St Louis Park, MN 55416",
    "neighborhood": "Wolfe Park",
    "street": "4220 Park Glen Rd",
    "city": "St Louis Park",
    "postalCode": "55416",
    "state": "Minnesota",
    "countryCode": "US",
    "website": "https://polarisrx.com/",
    "phone": "(888) 888-7109",
    "phoneUnformatted": "+18888887109",
    "claimThisBusiness": true,
    "location": {
      "lat": 44.9449248,
      "lng": -93.3314494
    },
    "totalScore": 2.6,
    "permanentlyClosed": false,
    "temporarilyClosed": false,
    "placeId": "ChIJyzbD8mIn9ocRMCZ4ArXYBUk",
    "categories": [
      "Pharmacy"
    ],
    "fid": "0x87f62762f2c336cb:0x4905d8b502782630",
    "cid": "5261850011594401328",
    "reviewsCount": 7,
    "imagesCount": 1,
    "imageCategories": [],
    "scrapedAt": "2025-06-22T05:50:05.000Z",
    "googleFoodUrl": null,
    "hotelAds": [],
    "openingHours": [
      {
        "day": "Monday",
        "hours": "Open 24 hours"
      },
      {
        "day": "Tuesday",
        "hours": "Open 24 hours"
      },
      {
        "day": "Wednesday",
        "hours": "Open 24 hours"
      },
      {
        "day": "Thursday",
        "hours": "Open 24 hours"
      },
      {
        "day": "Friday",
        "hours": "Open 24 hours"
      },
      {
        "day": "Saturday",
        "hours": "Open 24 hours"
      },
      {
        "day": "Sunday",
        "hours": "Open 24 hours"
      }
    ],
    "peopleAlsoSearch": [],
    "placesTags": [],
    "reviewsTags": [],
    "additionalInfo": {
      "Service options": [
        {
          "Delivery": true
        }
      ],
      "Accessibility": [
        {
          "Wheelchair accessible entrance": true
        },
        {
          "Wheelchair accessible parking lot": true
        }
      ],
      "Payments": [
        {
          "Debit cards": true
        },
        {
          "Credit cards": true
        }
      ]
    },
    "gasPrices": [],
    "url": "https://www.google.com/maps/search/?api=1&query=Polaris%20Pharmacy%20Services&query_place_id=ChIJyzbD8mIn9ocRMCZ4ArXYBUk",
    "searchPageUrl": "https://www.google.com/maps/search/independent%20pharmacy%20Minneapolis%20MN/@62.95881800455232,-158.8645058997317,9z?hl=en",
    "searchString": "independent pharmacy Minneapolis MN",
    "language": "en",
    "rank": 10,
    "isAdvertisement": false,
    "imageUrl": "https://streetviewpixels-pa.googleapis.com/v1/thumbnail?panoid=relqvwdGOEV7s-yCJGY8nQ&cb_client=search.gws-prod.gps&w=408&h=240&yaw=331.64896&pitch=0&thumbfov=100",
    "kgmid": "/g/11g0_r8ny8"
  },
  {
    "title": "Walgreens Pharmacy",
    "description": "Department of the Walgreens chain providing prescription medications & other health-related items.",
    "price": "$$",
    "categoryName": "Pharmacy",
    "address": "1585 Randolph Ave, St Paul, MN 55105",
    "neighborhood": "Macalester - Groveland",
    "street": "1585 Randolph Ave",
    "city": "St Paul",
    "postalCode": "55105",
    "state": "Minnesota",
    "countryCode": "US",
    "website": "https://www.walgreens.com/locator/walgreens-1585+randolph+ave-saint+paul-mn-55105/id=9795",
    "phone": "(651) 698-6502",
    "phoneUnformatted": "+16516986502",
    "claimThisBusiness": false,
    "location": {
      "lat": 44.9273332,
      "lng": -93.167477
    },
    "totalScore": 2.4,
    "permanentlyClosed": false,
    "temporarilyClosed": false,
    "placeId": "ChIJvYN7GTAq9ocRfkVUyNl8ZoE",
    "categories": [
      "Pharmacy"
    ],
    "fid": "0x87f62a30197b83bd:0x81667cd9c854457e",
    "cid": "9324277353327904126",
    "reviewsCount": 63,
    "imagesCount": 4,
    "imageCategories": [],
    "scrapedAt": "2025-06-22T05:50:05.000Z",
    "googleFoodUrl": null,
    "hotelAds": [],
    "openingHours": [
      {
        "day": "Monday",
        "hours": "7 AM to 10 PM"
      },
      {
        "day": "Tuesday",
        "hours": "7 AM to 10 PM"
      },
      {
        "day": "Wednesday",
        "hours": "7 AM to 10 PM"
      },
      {
        "day": "Thursday",
        "hours": "7 AM to 10 PM"
      },
      {
        "day": "Friday",
        "hours": "7 AM to 10 PM"
      },
      {
        "day": "Saturday",
        "hours": "7 AM to 10 PM"
      },
      {
        "day": "Sunday",
        "hours": "7 AM to 10 PM"
      }
    ],
    "additionalOpeningHours": {
      "Drive through": [
        {
          "day": "Monday",
          "hours": "7 AM–10 PM"
        },
        {
          "day": "Tuesday",
          "hours": "7 AM–10 PM"
        },
        {
          "day": "Wednesday",
          "hours": "7 AM–10 PM"
        },
        {
          "day": "Thursday",
          "hours": "7 AM–10 PM"
        },
        {
          "day": "Friday",
          "hours": "7 AM–10 PM"
        },
        {
          "day": "Saturday",
          "hours": "7 AM–10 PM"
        },
        {
          "day": "Sunday",
          "hours": "7 AM–10 PM"
        }
      ]
    },
    "peopleAlsoSearch": [],
    "placesTags": [],
    "reviewsTags": [],
    "additionalInfo": {
      "Service options": [
        {
          "Curbside pickup": true
        },
        {
          "Delivery": true
        },
        {
          "Drive-through": true
        },
        {
          "In-store pickup": true
        },
        {
          "Onsite services": true
        }
      ],
      "Accessibility": [
        {
          "Wheelchair accessible entrance": true
        },
        {
          "Wheelchair accessible parking lot": true
        }
      ],
      "Offerings": [
        {
          "Medication disposal": true
        },
        {
          "Naloxone": true
        }
      ],
      "Planning": [
        {
          "Quick visit": true
        }
      ],
      "Payments": [
        {
          "Credit cards": true
        },
        {
          "Debit cards": true
        }
      ]
    },
    "gasPrices": [],
    "url": "https://www.google.com/maps/search/?api=1&query=Walgreens%20Pharmacy&query_place_id=ChIJvYN7GTAq9ocRfkVUyNl8ZoE",
    "searchPageUrl": "https://www.google.com/maps/search/independent%20pharmacy%20Minneapolis%20MN/@62.95881800455232,-158.8645058997317,9z?hl=en",
    "searchString": "independent pharmacy Minneapolis MN",
    "language": "en",
    "rank": 11,
    "isAdvertisement": false,
    "imageUrl": "https://lh3.googleusercontent.com/p/AF1QipM6FBgDWLnrVptDAq4lOriake2tj7oREzTAMAfU=w525-h240-k-no",
    "kgmid": "/g/11cn93y9xc"
  },
  {
    "title": "CVS Pharmacy",
    "price": null,
    "categoryName": "Pharmacy",
    "address": "880 Washington Ave SE, Minneapolis, MN 55414",
    "neighborhood": "Prospect Park",
    "street": "880 Washington Ave SE",
    "city": "Minneapolis",
    "postalCode": "55414",
    "state": "Minnesota",
    "countryCode": "US",
    "website": "https://www.cvs.com/store-locator/minneapolis-mn-pharmacies/880-washington-ave-se-minneapolis-mn-55414/storeid=8941?WT.mc_id=LS_GOOGLE_RX_8941",
    "phone": "(612) 331-4240",
    "phoneUnformatted": "+16123314240",
    "claimThisBusiness": false,
    "location": {
      "lat": 44.9734211,
      "lng": -93.2258775
    },
    "totalScore": 3.3,
    "permanentlyClosed": false,
    "temporarilyClosed": false,
    "placeId": "ChIJg3smphgts1IR9ImqTTvWAAc",
    "categories": [
      "Pharmacy"
    ],
    "fid": "0x52b32d18a6267b83:0x700d63b4daa89f4",
    "cid": "504638708459932148",
    "reviewsCount": 16,
    "imagesCount": 11,
    "imageCategories": [],
    "scrapedAt": "2025-06-22T05:50:05.001Z",
    "googleFoodUrl": null,
    "hotelAds": [],
    "openingHours": [
      {
        "day": "Monday",
        "hours": "10 AM to 1:30 PM, 2 to 6:30 PM"
      },
      {
        "day": "Tuesday",
        "hours": "10 AM to 1:30 PM, 2 to 6:30 PM"
      },
      {
        "day": "Wednesday",
        "hours": "10 AM to 1:30 PM, 2 to 6:30 PM"
      },
      {
        "day": "Thursday",
        "hours": "10 AM to 1:30 PM, 2 to 6:30 PM"
      },
      {
        "day": "Friday",
        "hours": "10 AM to 1:30 PM, 2 to 6:30 PM"
      },
      {
        "day": "Saturday",
        "hours": "Closed"
      },
      {
        "day": "Sunday",
        "hours": "Closed"
      }
    ],
    "peopleAlsoSearch": [],
    "placesTags": [],
    "reviewsTags": [],
    "additionalInfo": {
      "Service options": [
        {
          "Delivery": true
        },
        {
          "In-store shopping": true
        },
        {
          "Onsite services": true
        }
      ],
      "Accessibility": [
        {
          "Wheelchair accessible entrance": true
        },
        {
          "Wheelchair accessible parking lot": true
        }
      ],
      "Offerings": [
        {
          "Naloxone": true
        }
      ],
      "Crowd": [
        {
          "LGBTQ+ friendly": true
        },
        {
          "Transgender safespace": true
        }
      ],
      "Planning": [
        {
          "Quick visit": true
        }
      ],
      "Payments": [
        {
          "Credit cards": true
        },
        {
          "Debit cards": true
        },
        {
          "NFC mobile payments": true
        },
        {
          "SNAP/EBT": true
        },
        {
          "Credit cards": true
        }
      ]
    },
    "gasPrices": [],
    "url": "https://www.google.com/maps/search/?api=1&query=CVS%20Pharmacy&query_place_id=ChIJg3smphgts1IR9ImqTTvWAAc",
    "searchPageUrl": "https://www.google.com/maps/search/independent%20pharmacy%20Minneapolis%20MN/@62.95881800455232,-158.8645058997317,9z?hl=en",
    "searchString": "independent pharmacy Minneapolis MN",
    "language": "en",
    "rank": 14,
    "isAdvertisement": false,
    "imageUrl": "https://lh3.googleusercontent.com/p/AF1QipMYxwWQqFzdvohCmzing0cThM2NIDCX5a2cE4Dv=w408-h272-k-no",
    "kgmid": "/g/11c0rhtfk8"
  },
  {
    "title": "Fairview Pharmacy - University Village",
    "price": null,
    "categoryName": "Pharmacy",
    "address": "2545 University Ave SE, Minneapolis, MN 55414",
    "neighborhood": "Prospect Park",
    "street": "2545 University Ave SE",
    "city": "Minneapolis",
    "postalCode": "55414",
    "state": "Minnesota",
    "countryCode": "US",
    "website": "https://mhealthfairview.org/locations/fairview-pharmacy--minneapolis-university-village",
    "phone": "(612) 672-1430",
    "phoneUnformatted": "+16126721430",
    "claimThisBusiness": false,
    "location": {
      "lat": 44.9731982,
      "lng": -93.2194272
    },
    "totalScore": 4.7,
    "permanentlyClosed": false,
    "temporarilyClosed": false,
    "placeId": "ChIJYxFqByAts1IRh5uU73qNysM",
    "categories": [
      "Pharmacy"
    ],
    "fid": "0x52b32d20076a1163:0xc3ca8d7aef949b87",
    "cid": "14108244341836520327",
    "reviewsCount": 22,
    "imagesCount": 11,
    "imageCategories": [],
    "scrapedAt": "2025-06-22T05:50:05.001Z",
    "googleFoodUrl": null,
    "hotelAds": [],
    "openingHours": [
      {
        "day": "Monday",
        "hours": "9 AM to 6 PM"
      },
      {
        "day": "Tuesday",
        "hours": "9 AM to 6 PM"
      },
      {
        "day": "Wednesday",
        "hours": "9 AM to 6 PM"
      },
      {
        "day": "Thursday",
        "hours": "9 AM to 6 PM"
      },
      {
        "day": "Friday",
        "hours": "9 AM to 6 PM"
      },
      {
        "day": "Saturday",
        "hours": "Closed"
      },
      {
        "day": "Sunday",
        "hours": "Closed"
      }
    ],
    "peopleAlsoSearch": [],
    "placesTags": [],
    "reviewsTags": [],
    "additionalInfo": {
      "Service options": [
        {
          "In-store pickup": true
        }
      ],
      "Accessibility": [
        {
          "Wheelchair accessible entrance": true
        },
        {
          "Wheelchair accessible parking lot": true
        },
        {
          "Wheelchair accessible restroom": true
        },
        {
          "Wheelchair accessible seating": true
        }
      ],
      "Crowd": [
        {
          "LGBTQ+ friendly": true
        }
      ],
      "Payments": [
        {
          "Credit cards": true
        }
      ]
    },
    "gasPrices": [],
    "url": "https://www.google.com/maps/search/?api=1&query=Fairview%20Pharmacy%20-%20University%20Village&query_place_id=ChIJYxFqByAts1IRh5uU73qNysM",
    "searchPageUrl": "https://www.google.com/maps/search/independent%20pharmacy%20Minneapolis%20MN/@62.95881800455232,-158.8645058997317,9z?hl=en",
    "searchString": "independent pharmacy Minneapolis MN",
    "language": "en",
    "rank": 16,
    "isAdvertisement": false,
    "imageUrl": "https://lh3.googleusercontent.com/gps-cs-s/AC9h4nrc-D-_OVpBl-WOyGTpiQo8yFp4iH11oeME0snuQo5z8xltKaMj_ys73LLK78lywR80wBylG0bIFDU-afhkjG7FkhXpbdSGpo87_KEozAi32DetqgtJHti22wE8PeqATgwhd2FU0Q=w408-h306-k-no",
    "kgmid": "/g/1th6dh7z"
  },
  {
    "title": "Fairview Pharmacy - University of Minnesota Medical Center",
    "price": null,
    "categoryName": "Pharmacy",
    "address": "500 SE Harvard St suite 2-130k, Minneapolis, MN 55455",
    "neighborhood": "University of Minnesota - Twin Cities",
    "street": "500 SE Harvard St suite 2-130k",
    "city": "Minneapolis",
    "postalCode": "55455",
    "state": "Minnesota",
    "countryCode": "US",
    "website": "https://mhealthfairview.org/locations/fairview-pharmacy---east-bank",
    "phone": "(612) 273-2121",
    "phoneUnformatted": "+16122732121",
    "claimThisBusiness": false,
    "location": {
      "lat": 44.9710574,
      "lng": -93.2310298
    },
    "totalScore": 4.8,
    "permanentlyClosed": false,
    "temporarilyClosed": false,
    "placeId": "ChIJF_LcIT0ts1IRK2_Pz_Slhw0",
    "categories": [
      "Pharmacy"
    ],
    "fid": "0x52b32d3d21dcf217:0xd87a5f4cfcf6f2b",
    "cid": "974930315226083115",
    "reviewsCount": 10,
    "imagesCount": 5,
    "imageCategories": [],
    "scrapedAt": "2025-06-22T05:50:05.001Z",
    "googleFoodUrl": null,
    "hotelAds": [],
    "openingHours": [
      {
        "day": "Monday",
        "hours": "8 AM to 7 PM"
      },
      {
        "day": "Tuesday",
        "hours": "8 AM to 7 PM"
      },
      {
        "day": "Wednesday",
        "hours": "8 AM to 7 PM"
      },
      {
        "day": "Thursday",
        "hours": "8 AM to 7 PM"
      },
      {
        "day": "Friday",
        "hours": "8 AM to 7 PM"
      },
      {
        "day": "Saturday",
        "hours": "8 AM to 5 PM"
      },
      {
        "day": "Sunday",
        "hours": "8 AM to 5 PM"
      }
    ],
    "peopleAlsoSearch": [],
    "placesTags": [],
    "reviewsTags": [],
    "additionalInfo": {
      "Accessibility": [
        {
          "Wheelchair accessible entrance": true
        },
        {
          "Wheelchair accessible parking lot": true
        }
      ],
      "Payments": [
        {
          "Credit cards": true
        },
        {
          "Debit cards": true
        },
        {
          "NFC mobile payments": true
        }
      ]
    },
    "gasPrices": [],
    "url": "https://www.google.com/maps/search/?api=1&query=Fairview%20Pharmacy%20-%20University%20of%20Minnesota%20Medical%20Center&query_place_id=ChIJF_LcIT0ts1IRK2_Pz_Slhw0",
    "searchPageUrl": "https://www.google.com/maps/search/independent%20pharmacy%20Minneapolis%20MN/@62.95881800455232,-158.8645058997317,9z?hl=en",
    "searchString": "independent pharmacy Minneapolis MN",
    "language": "en",
    "rank": 17,
    "isAdvertisement": false,
    "imageUrl": "https://lh3.googleusercontent.com/p/AF1QipOyZu9sPDd08PYjd2rDyeg7zR4r-SPBudWyu-u_=w408-h272-k-no",
    "kgmid": "/g/11b7fll2lw"
  },
  {
    "title": "CVS Pharmacy",
    "price": null,
    "categoryName": "Pharmacy",
    "address": "4656 Excelsior Blvd, St Louis Park, MN 55416",
    "neighborhood": "Wolfe Park",
    "street": "4656 Excelsior Blvd",
    "city": "St Louis Park",
    "postalCode": "55416",
    "state": "Minnesota",
    "countryCode": "US",
    "website": "https://www.cvs.com/store-locator/saint-louis-park-mn-pharmacies/4656-excelsior-blvd-saint-louis-park-mn-55416/storeid=6649?WT.mc_id=LS_GOOGLE_RX_6649",
    "phone": "(952) 929-0140",
    "phoneUnformatted": "+19529290140",
    "claimThisBusiness": false,
    "location": {
      "lat": 44.9337,
      "lng": -93.33959
    },
    "totalScore": 4.1,
    "permanentlyClosed": false,
    "temporarilyClosed": false,
    "placeId": "ChIJK25xSLUg9ocR1xtvfNLjvE4",
    "categories": [
      "Pharmacy"
    ],
    "fid": "0x87f620b548716e2b:0x4ebce3d27c6f1bd7",
    "cid": "5673660123750276055",
    "reviewsCount": 20,
    "imagesCount": 33,
    "imageCategories": [],
    "scrapedAt": "2025-06-22T05:50:05.001Z",
    "googleFoodUrl": null,
    "hotelAds": [],
    "openingHours": [
      {
        "day": "Monday",
        "hours": "9 AM to 1:30 PM, 2 to 7 PM"
      },
      {
        "day": "Tuesday",
        "hours": "9 AM to 1:30 PM, 2 to 7 PM"
      },
      {
        "day": "Wednesday",
        "hours": "9 AM to 1:30 PM, 2 to 7 PM"
      },
      {
        "day": "Thursday",
        "hours": "9 AM to 1:30 PM, 2 to 7 PM"
      },
      {
        "day": "Friday",
        "hours": "9 AM to 1:30 PM, 2 to 7 PM"
      },
      {
        "day": "Saturday",
        "hours": "10 AM to 1:30 PM, 2 to 6 PM"
      },
      {
        "day": "Sunday",
        "hours": "10 AM to 1:30 PM, 2 to 6 PM"
      }
    ],
    "peopleAlsoSearch": [],
    "placesTags": [],
    "reviewsTags": [],
    "additionalInfo": {
      "Service options": [
        {
          "Delivery": true
        },
        {
          "In-store pickup": true
        },
        {
          "In-store shopping": true
        },
        {
          "Onsite services": true
        }
      ],
      "Accessibility": [
        {
          "Wheelchair accessible entrance": true
        },
        {
          "Wheelchair accessible parking lot": true
        }
      ],
      "Offerings": [
        {
          "Medication disposal": true
        },
        {
          "Naloxone": true
        },
        {
          "Passport photos": true
        }
      ],
      "Crowd": [
        {
          "LGBTQ+ friendly": true
        },
        {
          "Transgender safespace": true
        }
      ],
      "Planning": [
        {
          "Quick visit": true
        }
      ],
      "Payments": [
        {
          "Credit cards": true
        },
        {
          "Debit cards": true
        },
        {
          "NFC mobile payments": true
        },
        {
          "Credit cards": true
        }
      ]
    },
    "gasPrices": [],
    "url": "https://www.google.com/maps/search/?api=1&query=CVS%20Pharmacy&query_place_id=ChIJK25xSLUg9ocR1xtvfNLjvE4",
    "searchPageUrl": "https://www.google.com/maps/search/independent%20pharmacy%20Minneapolis%20MN/@62.95881800455232,-158.8645058997317,9z?hl=en",
    "searchString": "independent pharmacy Minneapolis MN",
    "language": "en",
    "rank": 18,
    "isAdvertisement": false,
    "imageUrl": "https://lh3.googleusercontent.com/p/AF1QipOoGu-HjcTs8N--6tkepD5-MkaPbq0iNP-69A1d=w408-h272-k-no",
    "kgmid": "/g/11c4694jvw"
  }
]