[
  {
    "title": "Blueberry Pharmacy",
    "price": null,
    "categoryName": "Pharmacy",
    "address": "1018 W View Park Dr, West View, PA 15229",
    "neighborhood": null,
    "street": "1018 W View Park Dr",
    "city": "West View",
    "postalCode": "15229",
    "state": "Pennsylvania",
    "countryCode": "US",
    "website": "http://www.blueberrypharmacy.com/",
    "phone": "(412) 612-2279",
    "phoneUnformatted": "+14126122279",
    "claimThisBusiness": false,
    "location": {
      "lat": 40.5161192,
      "lng": -80.038494
    },
    "totalScore": 5,
    "permanentlyClosed": false,
    "temporarilyClosed": false,
    "placeId": "ChIJO7VFb5b1NIgRAS53w_SFUkY",
    "categories": [
      "Pharmacy"
    ],
    "fid": "0x8834f5966f45b53b:0x465285f4c3772e01",
    "cid": "5067259817043111425",
    "reviewsCount": 197,
    "imagesCount": 12,
    "imageCategories": [],
    "scrapedAt": "2025-06-22T06:33:11.736Z",
    "googleFoodUrl": null,
    "hotelAds": [],
    "openingHours": [
      {
        "day": "Monday",
        "hours": "8:30 AM to 5:30 PM"
      },
      {
        "day": "Tuesday",
        "hours": "8:30 AM to 5:30 PM"
      },
      {
        "day": "Wednesday",
        "hours": "8:30 AM to 5:30 PM"
      },
      {
        "day": "Thursday",
        "hours": "8:30 AM to 5:30 PM"
      },
      {
        "day": "Friday",
        "hours": "8:30 AM to 5:30 PM"
      },
      {
        "day": "Saturday",
        "hours": "10 AM to 2 PM"
      },
      {
        "day": "Sunday",
        "hours": "Closed"
      }
    ],
    "peopleAlsoSearch": [],
    "placesTags": [],
    "reviewsTags": [],
    "additionalInfo": {
      "From the business": [
        {
          "Small business": true
        }
      ],
      "Service options": [
        {
          "Curbside pickup": true
        },
        {
          "Delivery": true
        },
        {
          "In-store pickup": true
        },
        {
          "In-store shopping": true
        },
        {
          "Onsite services": true
        },
        {
          "Same-day delivery": true
        },
        {
          "English": true
        }
      ],
      "Accessibility": [
        {
          "Wheelchair accessible entrance": true
        },
        {
          "Wheelchair accessible parking lot": true
        }
      ],
      "Payments": [
        {
          "Checks": true
        },
        {
          "Credit cards": true
        },
        {
          "Debit cards": true
        },
        {
          "NFC mobile payments": true
        },
        {
          "Credit cards": true
        }
      ],
      "Parking": [
        {
          "Free parking lot": true
        }
      ]
    },
    "gasPrices": [],
    "url": "https://www.google.com/maps/search/?api=1&query=Blueberry%20Pharmacy&query_place_id=ChIJO7VFb5b1NIgRAS53w_SFUkY",
    "searchPageUrl": "https://www.google.com/maps/search/independent%20pharmacy%20Pittsburgh%20PA/@59.485012656044645,-145.05491807162034,9z?hl=en",
    "searchString": "independent pharmacy Pittsburgh PA",
    "language": "en",
    "rank": 1,
    "isAdvertisement": false,
    "imageUrl": "https://lh3.googleusercontent.com/p/AF1QipNoiuAHMjgtJZXvZxEL2sFNbe_WKjljfahzT0jK=w408-h306-k-no",
    "kgmid": "/g/11j92cnt6x"
  },
  {
    "title": "Bloomfield Drug Store",
    "price": null,
    "categoryName": "Pharmacy",
    "address": "4727 Liberty Ave, Pittsburgh, PA 15224",
    "neighborhood": "Bloomfield",
    "street": "4727 Liberty Ave",
    "city": "Pittsburgh",
    "postalCode": "15224",
    "state": "Pennsylvania",
    "countryCode": "US",
    "website": "http://www.bloomfielddrugstore.com/",
    "phone": "(412) 682-4909",
    "phoneUnformatted": "+14126824909",
    "claimThisBusiness": false,
    "location": {
      "lat": 40.46179,
      "lng": -79.9489428
    },
    "totalScore": 4.5,
    "permanentlyClosed": false,
    "temporarilyClosed": false,
    "placeId": "ChIJN8sfFEfyNIgRjylMDpeH9-U",
    "categories": [
      "Pharmacy"
    ],
    "fid": "0x8834f247141fcb37:0xe5f787970e4c298f",
    "cid": "16570862436782713231",
    "reviewsCount": 57,
    "imagesCount": 46,
    "imageCategories": [],
    "scrapedAt": "2025-06-22T06:33:11.737Z",
    "googleFoodUrl": null,
    "hotelAds": [],
    "openingHours": [
      {
        "day": "Monday",
        "hours": "9:30 AM to 6 PM"
      },
      {
        "day": "Tuesday",
        "hours": "9:30 AM to 6 PM"
      },
      {
        "day": "Wednesday",
        "hours": "9:30 AM to 6 PM"
      },
      {
        "day": "Thursday",
        "hours": "9:30 AM to 6 PM"
      },
      {
        "day": "Friday",
        "hours": "9:30 AM to 6 PM"
      },
      {
        "day": "Saturday",
        "hours": "9:30 AM to 2 PM"
      },
      {
        "day": "Sunday",
        "hours": "Closed"
      }
    ],
    "peopleAlsoSearch": [],
    "placesTags": [],
    "reviewsTags": [],
    "additionalInfo": {
      "From the business": [
        {
          "Small business": true
        }
      ],
      "Service options": [
        {
          "Delivery": true
        },
        {
          "In-store pickup": true
        },
        {
          "Onsite services": true
        },
        {
          "Same-day delivery": true
        }
      ],
      "Accessibility": [
        {
          "Wheelchair accessible entrance": true
        },
        {
          "Wheelchair accessible parking lot": true
        }
      ],
      "Planning": [
        {
          "Quick visit": true
        }
      ],
      "Payments": [
        {
          "Credit cards": true
        },
        {
          "Debit cards": true
        },
        {
          "NFC mobile payments": true
        },
        {
          "Credit cards": true
        }
      ]
    },
    "gasPrices": [],
    "url": "https://www.google.com/maps/search/?api=1&query=Bloomfield%20Drug%20Store&query_place_id=ChIJN8sfFEfyNIgRjylMDpeH9-U",
    "searchPageUrl": "https://www.google.com/maps/search/independent%20pharmacy%20Pittsburgh%20PA/@59.485012656044645,-145.05491807162034,9z?hl=en",
    "searchString": "independent pharmacy Pittsburgh PA",
    "language": "en",
    "rank": 2,
    "isAdvertisement": false,
    "imageUrl": "https://lh3.googleusercontent.com/gps-cs-s/AC9h4nrkmyvU9g_zG8EbYymg205K9kQ_hNQGjdAfrvS6K0hEFo33gNAcKiKdha-_U9HkrP-ShG8ghMU2U3ZdeTIPxFE6w1c_XhGw_LX-Gi2v6WHeZ7rC37zOcMoPGCpyJUDX3Y4TPh6HZA=w408-h306-k-no",
    "kgmid": "/g/1vtqwrsf"
  },
  {
    "title": "Schiller's Apothecary by Apotheco Pharmacy",
    "price": null,
    "categoryName": "Pharmacy",
    "address": "811 S Aiken Ave, Pittsburgh, PA 15232",
    "neighborhood": "Shadyside",
    "street": "811 S Aiken Ave",
    "city": "Pittsburgh",
    "postalCode": "15232",
    "state": "Pennsylvania",
    "countryCode": "US",
    "website": "https://www.apothecopharmacy.com/location/schillers-apothecary/?utm_source=GMBlisting&utm_medium=organic",
    "phone": "(412) 621-5900",
    "phoneUnformatted": "+14126215900",
    "claimThisBusiness": false,
    "location": {
      "lat": 40.4506251,
      "lng": -79.9352741
    },
    "totalScore": 4.9,
    "permanentlyClosed": false,
    "temporarilyClosed": false,
    "placeId": "ChIJWQ7xzxDyNIgRjLbHsnTcnjE",
    "categories": [
      "Pharmacy",
      "Wellness center"
    ],
    "fid": "0x8834f210cff10e59:0x319edc74b2c7b68c",
    "cid": "3575537547952502412",
    "reviewsCount": 709,
    "imagesCount": 27,
    "imageCategories": [],
    "scrapedAt": "2025-06-22T06:33:11.737Z",
    "googleFoodUrl": null,
    "hotelAds": [],
    "openingHours": [
      {
        "day": "Monday",
        "hours": "9 AM to 6 PM"
      },
      {
        "day": "Tuesday",
        "hours": "9 AM to 6 PM"
      },
      {
        "day": "Wednesday",
        "hours": "9 AM to 6 PM"
      },
      {
        "day": "Thursday",
        "hours": "9 AM to 6 PM"
      },
      {
        "day": "Friday",
        "hours": "9 AM to 6 PM"
      },
      {
        "day": "Saturday",
        "hours": "Closed"
      },
      {
        "day": "Sunday",
        "hours": "Closed"
      }
    ],
    "peopleAlsoSearch": [],
    "placesTags": [],
    "reviewsTags": [],
    "additionalInfo": {
      "Service options": [
        {
          "Delivery": true
        },
        {
          "In-store pickup": true
        },
        {
          "In-store shopping": true
        },
        {
          "Same-day delivery": true
        }
      ],
      "Accessibility": [
        {
          "Wheelchair accessible entrance": true
        },
        {
          "Wheelchair accessible parking lot": true
        }
      ],
      "Payments": [
        {
          "Credit cards": true
        },
        {
          "Debit cards": true
        },
        {
          "NFC mobile payments": true
        },
        {
          "Credit cards": true
        }
      ]
    },
    "gasPrices": [],
    "url": "https://www.google.com/maps/search/?api=1&query=Schiller's%20Apothecary%20by%20Apotheco%20Pharmacy&query_place_id=ChIJWQ7xzxDyNIgRjLbHsnTcnjE",
    "searchPageUrl": "https://www.google.com/maps/search/independent%20pharmacy%20Pittsburgh%20PA/@59.485012656044645,-145.05491807162034,9z?hl=en",
    "searchString": "independent pharmacy Pittsburgh PA",
    "language": "en",
    "rank": 3,
    "isAdvertisement": false,
    "imageUrl": "https://lh3.googleusercontent.com/p/AF1QipM9gHEaHdpbZNTKPwRLeL-hgoe5pkeRU_K7preq=w408-h308-k-no",
    "kgmid": "/g/1vs5xcsh"
  },
  {
    "title": "Lebanon Shops Pharmacy",
    "price": null,
    "categoryName": "Pharmacy",
    "address": "300 Mt Lebanon Blvd #23, Pittsburgh, PA 15234",
    "neighborhood": null,
    "street": "300 Mt Lebanon Blvd #23",
    "city": "Pittsburgh",
    "postalCode": "15234",
    "state": "Pennsylvania",
    "countryCode": "US",
    "website": "https://www.lebanonshopspharmacy.com/",
    "phone": "(412) 344-6700",
    "phoneUnformatted": "+14123446700",
    "claimThisBusiness": false,
    "location": {
      "lat": 40.3689594,
      "lng": -80.034293
    },
    "totalScore": 4.4,
    "permanentlyClosed": false,
    "temporarilyClosed": false,
    "placeId": "ChIJJV5fr2H3NIgRY3qGSyftGUM",
    "categories": [
      "Pharmacy",
      "Drug store",
      "Medical equipment supplier",
      "Medical supply store"
    ],
    "fid": "0x8834f761af5f5e25:0x4319ed274b867a63",
    "cid": "4835156427985549923",
    "reviewsCount": 45,
    "imagesCount": 4,
    "imageCategories": [],
    "scrapedAt": "2025-06-22T06:33:11.737Z",
    "googleFoodUrl": null,
    "hotelAds": [],
    "openingHours": [
      {
        "day": "Monday",
        "hours": "9 AM to 7 PM"
      },
      {
        "day": "Tuesday",
        "hours": "9 AM to 7 PM"
      },
      {
        "day": "Wednesday",
        "hours": "9 AM to 7 PM"
      },
      {
        "day": "Thursday",
        "hours": "9 AM to 7 PM"
      },
      {
        "day": "Friday",
        "hours": "9 AM to 7 PM"
      },
      {
        "day": "Saturday",
        "hours": "9 AM to 4 PM"
      },
      {
        "day": "Sunday",
        "hours": "10 AM to 3 PM"
      }
    ],
    "peopleAlsoSearch": [],
    "placesTags": [],
    "reviewsTags": [],
    "additionalInfo": {
      "From the business": [
        {
          "Small business": true
        }
      ],
      "Service options": [
        {
          "Curbside pickup": true
        },
        {
          "Delivery": true
        },
        {
          "In-store pickup": true
        },
        {
          "Same-day delivery": true
        }
      ],
      "Accessibility": [
        {
          "Wheelchair accessible entrance": true
        },
        {
          "Wheelchair accessible parking lot": true
        }
      ],
      "Planning": [
        {
          "Quick visit": true
        }
      ],
      "Payments": [
        {
          "Checks": true
        },
        {
          "Credit cards": true
        },
        {
          "Debit cards": true
        },
        {
          "NFC mobile payments": true
        },
        {
          "Credit cards": true
        }
      ],
      "Parking": [
        {
          "Free parking lot": true
        }
      ]
    },
    "gasPrices": [],
    "url": "https://www.google.com/maps/search/?api=1&query=Lebanon%20Shops%20Pharmacy&query_place_id=ChIJJV5fr2H3NIgRY3qGSyftGUM",
    "searchPageUrl": "https://www.google.com/maps/search/independent%20pharmacy%20Pittsburgh%20PA/@59.485012656044645,-145.05491807162034,9z?hl=en",
    "searchString": "independent pharmacy Pittsburgh PA",
    "language": "en",
    "rank": 4,
    "isAdvertisement": false,
    "imageUrl": "https://streetviewpixels-pa.googleapis.com/v1/thumbnail?panoid=jvVxj62zdJ6DXYe5NN7jQg&cb_client=search.gws-prod.gps&w=408&h=240&yaw=160.0376&pitch=0&thumbfov=100",
    "kgmid": "/g/1tdm8zy_"
  },
  {
    "title": "Lincoln Pharmacy",
    "price": null,
    "categoryName": "Pharmacy",
    "address": "232 North Ave, Pittsburgh, PA 15209",
    "neighborhood": null,
    "street": "232 North Ave",
    "city": "Pittsburgh",
    "postalCode": "15209",
    "state": "Pennsylvania",
    "countryCode": "US",
    "website": "http://www.lincolnpharmacy.com/",
    "phone": "(412) 821-2379",
    "phoneUnformatted": "+14128212379",
    "claimThisBusiness": false,
    "location": {
      "lat": 40.4814278,
      "lng": -79.9743785
    },
    "totalScore": 5,
    "permanentlyClosed": false,
    "temporarilyClosed": false,
    "placeId": "ChIJZymKEajzNIgR63yeyBMEH1U",
    "categories": [
      "Pharmacy"
    ],
    "fid": "0x8834f3a8118a2967:0x551f0413c89e7ceb",
    "cid": "6133625700518624491",
    "reviewsCount": 27,
    "imagesCount": 1,
    "imageCategories": [],
    "scrapedAt": "2025-06-22T06:33:11.737Z",
    "googleFoodUrl": null,
    "hotelAds": [],
    "openingHours": [
      {
        "day": "Monday",
        "hours": "9 AM to 6 PM"
      },
      {
        "day": "Tuesday",
        "hours": "9 AM to 6 PM"
      },
      {
        "day": "Wednesday",
        "hours": "9 AM to 6 PM"
      },
      {
        "day": "Thursday",
        "hours": "9 AM to 6 PM"
      },
      {
        "day": "Friday",
        "hours": "9 AM to 6 PM"
      },
      {
        "day": "Saturday",
        "hours": "9 AM to 2 PM"
      },
      {
        "day": "Sunday",
        "hours": "Closed"
      }
    ],
    "peopleAlsoSearch": [],
    "placesTags": [],
    "reviewsTags": [],
    "additionalInfo": {
      "Service options": [
        {
          "Delivery": true
        },
        {
          "In-store pickup": true
        }
      ],
      "Accessibility": [
        {
          "Wheelchair accessible entrance": true
        },
        {
          "Wheelchair accessible parking lot": true
        }
      ],
      "Planning": [
        {
          "Quick visit": true
        }
      ],
      "Payments": [
        {
          "Credit cards": true
        },
        {
          "Debit cards": true
        },
        {
          "NFC mobile payments": true
        },
        {
          "Credit cards": true
        }
      ]
    },
    "gasPrices": [],
    "url": "https://www.google.com/maps/search/?api=1&query=Lincoln%20Pharmacy&query_place_id=ChIJZymKEajzNIgR63yeyBMEH1U",
    "searchPageUrl": "https://www.google.com/maps/search/independent%20pharmacy%20Pittsburgh%20PA/@59.485012656044645,-145.05491807162034,9z?hl=en",
    "searchString": "independent pharmacy Pittsburgh PA",
    "language": "en",
    "rank": 5,
    "isAdvertisement": false,
    "imageUrl": "https://streetviewpixels-pa.googleapis.com/v1/thumbnail?panoid=M-I5Eo1RkAoBpCgS7OGDLw&cb_client=search.gws-prod.gps&w=408&h=240&yaw=120.69592&pitch=0&thumbfov=100",
    "kgmid": "/g/1v831rts"
  },
  {
    "title": "Hilltop Pharmacy",
    "price": null,
    "categoryName": "Pharmacy",
    "address": "818 E Warrington Ave, Pittsburgh, PA 15210",
    "neighborhood": "Allentown",
    "street": "818 E Warrington Ave",
    "city": "Pittsburgh",
    "postalCode": "15210",
    "state": "Pennsylvania",
    "countryCode": "US",
    "website": "http://www.hilltoppharmacyrx.com/",
    "phone": "(412) 431-5766",
    "phoneUnformatted": "+14124315766",
    "claimThisBusiness": false,
    "location": {
      "lat": 40.421662,
      "lng": -79.9929062
    },
    "totalScore": 4.6,
    "permanentlyClosed": false,
    "temporarilyClosed": false,
    "placeId": "ChIJ8beSxDjxNIgROxuc_PMDFyk",
    "categories": [
      "Pharmacy",
      "Drug store",
      "Health counselor"
    ],
    "fid": "0x8834f138c492b7f1:0x291703f3fc9c1b3b",
    "cid": "2960839626469415739",
    "reviewsCount": 43,
    "imagesCount": 10,
    "imageCategories": [],
    "scrapedAt": "2025-06-22T06:33:11.738Z",
    "googleFoodUrl": null,
    "hotelAds": [],
    "openingHours": [
      {
        "day": "Monday",
        "hours": "9 AM to 6 PM"
      },
      {
        "day": "Tuesday",
        "hours": "9 AM to 6 PM"
      },
      {
        "day": "Wednesday",
        "hours": "9 AM to 6 PM"
      },
      {
        "day": "Thursday",
        "hours": "9 AM to 6 PM"
      },
      {
        "day": "Friday",
        "hours": "9 AM to 6 PM"
      },
      {
        "day": "Saturday",
        "hours": "9 AM to 1 PM"
      },
      {
        "day": "Sunday",
        "hours": "Closed"
      }
    ],
    "peopleAlsoSearch": [],
    "placesTags": [],
    "reviewsTags": [],
    "additionalInfo": {
      "From the business": [
        {
          "Identifies as women-owned": true
        },
        {
          "Small business": true
        }
      ],
      "Service options": [
        {
          "Delivery": true
        },
        {
          "In-store pickup": true
        },
        {
          "In-store shopping": true
        },
        {
          "Onsite services": true
        },
        {
          "Same-day delivery": true
        }
      ],
      "Accessibility": [
        {
          "Wheelchair accessible entrance": true
        },
        {
          "Wheelchair accessible parking lot": true
        }
      ],
      "Offerings": [
        {
          "Medication disposal": true
        }
      ],
      "Amenities": [
        {
          "Wi-Fi": true
        },
        {
          "Free Wi-Fi": true
        }
      ],
      "Crowd": [
        {
          "LGBTQ+ friendly": true
        },
        {
          "Transgender safespace": true
        }
      ],
      "Planning": [
        {
          "Quick visit": true
        }
      ],
      "Payments": [
        {
          "Checks": true
        },
        {
          "Credit cards": true
        },
        {
          "Debit cards": true
        }
      ]
    },
    "gasPrices": [],
    "url": "https://www.google.com/maps/search/?api=1&query=Hilltop%20Pharmacy&query_place_id=ChIJ8beSxDjxNIgROxuc_PMDFyk",
    "searchPageUrl": "https://www.google.com/maps/search/independent%20pharmacy%20Pittsburgh%20PA/@59.485012656044645,-145.05491807162034,9z?hl=en",
    "searchString": "independent pharmacy Pittsburgh PA",
    "language": "en",
    "rank": 6,
    "isAdvertisement": false,
    "imageUrl": "https://lh3.googleusercontent.com/p/AF1QipMnMCWP_UyJI7Fz9q9kFIEkTOHMQy6JEXPEx25Z=w408-h544-k-no",
    "kgmid": "/g/1wbg01mf"
  },
  {
    "title": "Hieber's Pharmacy",
    "price": null,
    "categoryName": "Pharmacy",
    "address": "1759 Smallman St, Pittsburgh, PA 15222",
    "neighborhood": "Strip District",
    "street": "1759 Smallman St",
    "city": "Pittsburgh",
    "postalCode": "15222",
    "state": "Pennsylvania",
    "countryCode": "US",
    "website": "https://www.hiebers.com/",
    "phone": "(412) 681-6400",
    "phoneUnformatted": "+14126816400",
    "claimThisBusiness": false,
    "location": {
      "lat": 40.4508666,
      "lng": -79.986264
    },
    "totalScore": 4.6,
    "permanentlyClosed": false,
    "temporarilyClosed": false,
    "placeId": "ChIJM24rmYDxNIgRZYLk8MbpP-Y",
    "categories": [
      "Pharmacy",
      "Alternative medicine practitioner",
      "Veterinary pharmacy",
      "Vitamin & supplements store"
    ],
    "fid": "0x8834f180992b6e33:0xe63fe9c6f0e48265",
    "cid": "16591236592910500453",
    "reviewsCount": 50,
    "imagesCount": 33,
    "imageCategories": [],
    "scrapedAt": "2025-06-22T06:33:11.738Z",
    "googleFoodUrl": null,
    "hotelAds": [],
    "openingHours": [
      {
        "day": "Monday",
        "hours": "10 AM to 6 PM"
      },
      {
        "day": "Tuesday",
        "hours": "10 AM to 6 PM"
      },
      {
        "day": "Wednesday",
        "hours": "10 AM to 6 PM"
      },
      {
        "day": "Thursday",
        "hours": "10 AM to 6 PM"
      },
      {
        "day": "Friday",
        "hours": "10 AM to 6 PM"
      },
      {
        "day": "Saturday",
        "hours": "10 AM to 6 PM"
      },
      {
        "day": "Sunday",
        "hours": "Closed"
      }
    ],
    "peopleAlsoSearch": [],
    "placesTags": [],
    "reviewsTags": [],
    "additionalInfo": {
      "From the business": [
        {
          "Identifies as women-owned": true
        },
        {
          "Small business": true
        }
      ],
      "Service options": [
        {
          "Curbside pickup": true
        },
        {
          "In-store pickup": true
        },
        {
          "In-store shopping": true
        },
        {
          "Same-day delivery": false
        },
        {
          "English": true
        }
      ],
      "Accessibility": [
        {
          "Wheelchair accessible entrance": true
        },
        {
          "Wheelchair accessible seating": true
        }
      ],
      "Amenities": [
        {
          "Gender-neutral restroom": true
        }
      ],
      "Crowd": [
        {
          "LGBTQ+ friendly": true
        },
        {
          "Transgender safespace": true
        }
      ],
      "Planning": [
        {
          "Quick visit": true
        }
      ],
      "Payments": [
        {
          "Checks": true
        },
        {
          "Credit cards": true
        },
        {
          "Debit cards": true
        },
        {
          "NFC mobile payments": true
        },
        {
          "Credit cards": true
        }
      ],
      "Parking": [
        {
          "On-site parking": true
        },
        {
          "Paid parking garage": true
        },
        {
          "Paid parking lot": true
        },
        {
          "Paid street parking": true
        }
      ]
    },
    "gasPrices": [],
    "url": "https://www.google.com/maps/search/?api=1&query=Hieber's%20Pharmacy&query_place_id=ChIJM24rmYDxNIgRZYLk8MbpP-Y",
    "searchPageUrl": "https://www.google.com/maps/search/independent%20pharmacy%20Pittsburgh%20PA/@59.485012656044645,-145.05491807162034,9z?hl=en",
    "searchString": "independent pharmacy Pittsburgh PA",
    "language": "en",
    "rank": 7,
    "isAdvertisement": false,
    "imageUrl": "https://lh3.googleusercontent.com/gps-cs-s/AC9h4nrIIG3FAcVdqkEINtwRS9hna_jc7qeWFfF654DCDdBBnDBqcInzOlk1aXXFcs-bS-uq2Cwh4FBa_aRPetPSNQwztBDBF4_4alKT_reVKH5ERyMfBX6BzVjSxvRu9_KAGrHg6OG0mQ=w408-h544-k-no",
    "kgmid": "/g/1tfl0w8d"
  },
  {
    "title": "Carrick Pharmacy",
    "price": null,
    "categoryName": "Pharmacy",
    "address": "2717 Brownsville Rd, Pittsburgh, PA 15227",
    "neighborhood": null,
    "street": "2717 Brownsville Rd",
    "city": "Pittsburgh",
    "postalCode": "15227",
    "state": "Pennsylvania",
    "countryCode": "US",
    "website": "http://www.carrickpharmacy.com/",
    "phone": "(412) 206-0996",
    "phoneUnformatted": "+14122060996",
    "claimThisBusiness": false,
    "location": {
      "lat": 40.3839028,
      "lng": -79.9772639
    },
    "totalScore": 4.8,
    "permanentlyClosed": false,
    "temporarilyClosed": false,
    "placeId": "ChIJYVktD-3wNIgRfj1RoQa6InQ",
    "categories": [
      "Pharmacy"
    ],
    "fid": "0x8834f0ed0f2d5961:0x7422ba06a1513d7e",
    "cid": "8368455595246828926",
    "reviewsCount": 28,
    "imagesCount": 17,
    "imageCategories": [],
    "scrapedAt": "2025-06-22T06:33:11.738Z",
    "googleFoodUrl": null,
    "hotelAds": [],
    "openingHours": [
      {
        "day": "Monday",
        "hours": "9 AM to 6 PM"
      },
      {
        "day": "Tuesday",
        "hours": "9 AM to 6 PM"
      },
      {
        "day": "Wednesday",
        "hours": "9 AM to 6 PM"
      },
      {
        "day": "Thursday",
        "hours": "9 AM to 6 PM"
      },
      {
        "day": "Friday",
        "hours": "9 AM to 6 PM"
      },
      {
        "day": "Saturday",
        "hours": "Closed"
      },
      {
        "day": "Sunday",
        "hours": "Closed"
      }
    ],
    "peopleAlsoSearch": [],
    "placesTags": [],
    "reviewsTags": [],
    "additionalInfo": {
      "From the business": [
        {
          "Small business": true
        }
      ],
      "Service options": [
        {
          "Delivery": true
        },
        {
          "In-store pickup": true
        },
        {
          "Same-day delivery": true
        }
      ],
      "Accessibility": [
        {
          "Wheelchair accessible entrance": true
        },
        {
          "Wheelchair accessible parking lot": true
        }
      ],
      "Planning": [
        {
          "Quick visit": true
        }
      ],
      "Payments": [
        {
          "Checks": true
        },
        {
          "Credit cards": true
        },
        {
          "Debit cards": true
        },
        {
          "NFC mobile payments": true
        },
        {
          "SNAP/EBT": true
        },
        {
          "Credit cards": true
        }
      ]
    },
    "gasPrices": [],
    "url": "https://www.google.com/maps/search/?api=1&query=Carrick%20Pharmacy&query_place_id=ChIJYVktD-3wNIgRfj1RoQa6InQ",
    "searchPageUrl": "https://www.google.com/maps/search/independent%20pharmacy%20Pittsburgh%20PA/@59.485012656044645,-145.05491807162034,9z?hl=en",
    "searchString": "independent pharmacy Pittsburgh PA",
    "language": "en",
    "rank": 8,
    "isAdvertisement": false,
    "imageUrl": "https://lh3.googleusercontent.com/gps-cs-s/AC9h4nrdhZzJBLdICbkk9_7Qg_uu3jzuSxw8A94Cv33mBBLV1IVa4tac_4DrlWzVF3rjsUw6zubO3DKRrlhE8AxMhiG2cYaHChF4he0XgViN3OjYBdAapZNOaxa0I2GAQkpDzaPBQqsJ=w408-h306-k-no",
    "kgmid": "/g/11b5_2pj86"
  },
  {
    "title": "Stanton Negley Drug Company",
    "price": null,
    "categoryName": "Pharmacy",
    "address": "804 N Negley Ave, Pittsburgh, PA 15206",
    "neighborhood": "Highland Park",
    "street": "804 N Negley Ave",
    "city": "Pittsburgh",
    "postalCode": "15206",
    "state": "Pennsylvania",
    "countryCode": "US",
    "phone": "(412) 661-3315",
    "phoneUnformatted": "+14126613315",
    "claimThisBusiness": false,
    "location": {
      "lat": 40.4717079,
      "lng": -79.9260752
    },
    "totalScore": 4.4,
    "permanentlyClosed": false,
    "temporarilyClosed": false,
    "placeId": "ChIJp3w9wXvyNIgRaPh8yj29MtI",
    "categories": [
      "Pharmacy",
      "Drug store"
    ],
    "fid": "0x8834f27bc13d7ca7:0xd232bd3dca7cf868",
    "cid": "15146376569888241768",
    "reviewsCount": 115,
    "imagesCount": 13,
    "imageCategories": [],
    "scrapedAt": "2025-06-22T06:33:11.738Z",
    "googleFoodUrl": null,
    "hotelAds": [],
    "openingHours": [
      {
        "day": "Monday",
        "hours": "9 AM to 5 PM"
      },
      {
        "day": "Tuesday",
        "hours": "9 AM to 5 PM"
      },
      {
        "day": "Wednesday",
        "hours": "9 AM to 5 PM"
      },
      {
        "day": "Thursday",
        "hours": "9 AM to 5 PM"
      },
      {
        "day": "Friday",
        "hours": "9 AM to 5 PM"
      },
      {
        "day": "Saturday",
        "hours": "9 AM to 2 PM"
      },
      {
        "day": "Sunday",
        "hours": "9 AM to 2 PM"
      }
    ],
    "peopleAlsoSearch": [],
    "placesTags": [],
    "reviewsTags": [],
    "additionalInfo": {
      "From the business": [
        {
          "Small business": true
        }
      ],
      "Service options": [
        {
          "Delivery": true
        },
        {
          "In-store pickup": true
        }
      ],
      "Accessibility": [
        {
          "Wheelchair accessible entrance": true
        },
        {
          "Wheelchair accessible parking lot": false
        }
      ],
      "Planning": [
        {
          "Quick visit": true
        }
      ],
      "Payments": [
        {
          "Credit cards": true
        },
        {
          "Debit cards": true
        },
        {
          "NFC mobile payments": true
        },
        {
          "SNAP/EBT": true
        },
        {
          "Credit cards": true
        }
      ]
    },
    "gasPrices": [],
    "url": "https://www.google.com/maps/search/?api=1&query=Stanton%20Negley%20Drug%20Company&query_place_id=ChIJp3w9wXvyNIgRaPh8yj29MtI",
    "searchPageUrl": "https://www.google.com/maps/search/independent%20pharmacy%20Pittsburgh%20PA/@59.485012656044645,-145.05491807162034,9z?hl=en",
    "searchString": "independent pharmacy Pittsburgh PA",
    "language": "en",
    "rank": 9,
    "isAdvertisement": false,
    "imageUrl": "https://lh3.googleusercontent.com/gps-cs-s/AC9h4npDGziZPyzk-d7aUFVmCon--gIwG8mkvWx_yNamqOdVocpNr12PermwpN_-RHtO4Lcff1UHEcpUgP4wkFcKw08npBGxLQpxuCGWaEn8kYTQ-a1DlliDMph-P0XbfT9ZsHPWPF0=w487-h240-k-no",
    "kgmid": "/g/1thsgl4s"
  },
  {
    "title": "Kevin's Pharmacy",
    "price": null,
    "categoryName": "Pharmacy",
    "address": "799 Castle Shannon Blvd, Pittsburgh, PA 15234",
    "neighborhood": null,
    "street": "799 Castle Shannon Blvd",
    "city": "Pittsburgh",
    "postalCode": "15234",
    "state": "Pennsylvania",
    "countryCode": "US",
    "website": "http://www.kevinspharmacy.com/?utm_source=google&utm_medium=gmb",
    "phone": "(412) 561-2417",
    "phoneUnformatted": "+14125612417",
    "claimThisBusiness": false,
    "location": {
      "lat": 40.3688802,
      "lng": -80.0286003
    },
    "totalScore": 4.7,
    "permanentlyClosed": false,
    "temporarilyClosed": false,
    "placeId": "ChIJC21D_173NIgRz-mMVCwoBLc",
    "categories": [
      "Pharmacy",
      "Medical supply store"
    ],
    "fid": "0x8834f75eff436d0b:0xb704282c548ce9cf",
    "cid": "13187709779709848015",
    "reviewsCount": 29,
    "imagesCount": 2,
    "imageCategories": [],
    "scrapedAt": "2025-06-22T06:33:11.738Z",
    "googleFoodUrl": null,
    "hotelAds": [],
    "openingHours": [
      {
        "day": "Monday",
        "hours": "9 AM to 7 PM"
      },
      {
        "day": "Tuesday",
        "hours": "9 AM to 7 PM"
      },
      {
        "day": "Wednesday",
        "hours": "9 AM to 7 PM"
      },
      {
        "day": "Thursday",
        "hours": "9 AM to 7 PM"
      },
      {
        "day": "Friday",
        "hours": "9 AM to 7 PM"
      },
      {
        "day": "Saturday",
        "hours": "9 AM to 3 PM"
      },
      {
        "day": "Sunday",
        "hours": "Closed"
      }
    ],
    "peopleAlsoSearch": [],
    "placesTags": [],
    "reviewsTags": [],
    "additionalInfo": {
      "From the business": [
        {
          "Small business": true
        }
      ],
      "Service options": [
        {
          "Delivery": true
        },
        {
          "In-store pickup": true
        },
        {
          "Onsite services": true
        },
        {
          "Same-day delivery": true
        }
      ],
      "Accessibility": [
        {
          "Wheelchair accessible entrance": true
        },
        {
          "Wheelchair accessible parking lot": true
        },
        {
          "Wheelchair accessible restroom": true
        },
        {
          "Wheelchair accessible seating": true
        }
      ],
      "Planning": [
        {
          "Quick visit": true
        }
      ],
      "Payments": [
        {
          "Credit cards": true
        }
      ]
    },
    "gasPrices": [],
    "url": "https://www.google.com/maps/search/?api=1&query=Kevin's%20Pharmacy&query_place_id=ChIJC21D_173NIgRz-mMVCwoBLc",
    "searchPageUrl": "https://www.google.com/maps/search/independent%20pharmacy%20Pittsburgh%20PA/@59.485012656044645,-145.05491807162034,9z?hl=en",
    "searchString": "independent pharmacy Pittsburgh PA",
    "language": "en",
    "rank": 10,
    "isAdvertisement": false,
    "imageUrl": "https://lh3.googleusercontent.com/p/AF1QipMbN5Ap2zlmchVmA4BSIqlrmMkfiGsOelbRdiuX=w464-h240-k-no",
    "kgmid": "/g/12hkwjl1t"
  },
  {
    "title": "Asti's South Hills Pharmacy",
    "price": null,
    "categoryName": "Pharmacy",
    "address": "250 Mt Lebanon Blvd, Pittsburgh, PA 15234",
    "neighborhood": null,
    "street": "250 Mt Lebanon Blvd",
    "city": "Pittsburgh",
    "postalCode": "15234",
    "state": "Pennsylvania",
    "countryCode": "US",
    "website": "http://www.astisrx.com/",
    "phone": "(412) 561-2347",
    "phoneUnformatted": "+14125612347",
    "claimThisBusiness": false,
    "location": {
      "lat": 40.3681597,
      "lng": -80.0369578
    },
    "totalScore": 4.2,
    "permanentlyClosed": false,
    "temporarilyClosed": false,
    "placeId": "ChIJ7XcT9WH3NIgRUbv77VuDyGc",
    "categories": [
      "Pharmacy"
    ],
    "fid": "0x8834f761f51377ed:0x67c8835bedfbbb51",
    "cid": "7478371612106668881",
    "reviewsCount": 154,
    "imagesCount": 21,
    "imageCategories": [],
    "scrapedAt": "2025-06-22T06:33:11.738Z",
    "googleFoodUrl": null,
    "hotelAds": [],
    "openingHours": [
      {
        "day": "Monday",
        "hours": "8 AM to 6 PM"
      },
      {
        "day": "Tuesday",
        "hours": "8 AM to 6 PM"
      },
      {
        "day": "Wednesday",
        "hours": "8 AM to 6 PM"
      },
      {
        "day": "Thursday",
        "hours": "8 AM to 6 PM"
      },
      {
        "day": "Friday",
        "hours": "8 AM to 6 PM"
      },
      {
        "day": "Saturday",
        "hours": "Closed"
      },
      {
        "day": "Sunday",
        "hours": "Closed"
      }
    ],
    "peopleAlsoSearch": [],
    "placesTags": [],
    "reviewsTags": [],
    "additionalInfo": {
      "From the business": [
        {
          "Small business": true
        }
      ],
      "Service options": [
        {
          "Curbside pickup": true
        },
        {
          "Delivery": true
        },
        {
          "In-store pickup": true
        },
        {
          "In-store shopping": true
        },
        {
          "Onsite services": true
        },
        {
          "Same-day delivery": true
        }
      ],
      "Accessibility": [
        {
          "Wheelchair accessible entrance": true
        },
        {
          "Wheelchair accessible parking lot": true
        }
      ],
      "Planning": [
        {
          "Quick visit": true
        }
      ],
      "Payments": [
        {
          "Credit cards": true
        },
        {
          "Debit cards": true
        },
        {
          "NFC mobile payments": true
        },
        {
          "Credit cards": true
        }
      ]
    },
    "gasPrices": [],
    "url": "https://www.google.com/maps/search/?api=1&query=Asti's%20South%20Hills%20Pharmacy&query_place_id=ChIJ7XcT9WH3NIgRUbv77VuDyGc",
    "searchPageUrl": "https://www.google.com/maps/search/independent%20pharmacy%20Pittsburgh%20PA/@59.485012656044645,-145.05491807162034,9z?hl=en",
    "searchString": "independent pharmacy Pittsburgh PA",
    "language": "en",
    "rank": 11,
    "isAdvertisement": false,
    "imageUrl": "https://lh3.googleusercontent.com/gps-cs-s/AC9h4nqFJuR4cQged7QDa5jxZggWck0LIgsFjT1L93i6WB897zZaTlxNRepRvmi1TjLTCI6r2S_ZohyCiFMkCkHUw1FJcXP4BLijcaF_Ri_U1cgbD-5e3WifQrXnZ6nAhYpHPdq8P4W6=w408-h544-k-no",
    "kgmid": "/g/1tj9t_5b"
  },
  {
    "title": "Spartan Pharmacy",
    "price": null,
    "categoryName": "Pharmacy",
    "address": "3526 Brownsville Rd, Brentwood, PA 15227",
    "neighborhood": null,
    "street": "3526 Brownsville Rd",
    "city": "Brentwood",
    "postalCode": "15227",
    "state": "Pennsylvania",
    "countryCode": "US",
    "website": "http://www.spartanpharmacy.com/",
    "phone": "(412) 884-4400",
    "phoneUnformatted": "+14128844400",
    "claimThisBusiness": false,
    "location": {
      "lat": 40.3741536,
      "lng": -79.9758745
    },
    "totalScore": 4.6,
    "permanentlyClosed": false,
    "temporarilyClosed": false,
    "placeId": "ChIJYwjV0JHwNIgRDEfHVwRppFc",
    "categories": [
      "Pharmacy",
      "Drug store"
    ],
    "fid": "0x8834f091d0d50863:0x57a4690457c7470c",
    "cid": "6315288044853741324",
    "reviewsCount": 107,
    "imagesCount": 6,
    "imageCategories": [],
    "scrapedAt": "2025-06-22T06:33:11.738Z",
    "googleFoodUrl": null,
    "hotelAds": [],
    "openingHours": [
      {
        "day": "Monday",
        "hours": "9 AM to 7 PM"
      },
      {
        "day": "Tuesday",
        "hours": "9 AM to 7 PM"
      },
      {
        "day": "Wednesday",
        "hours": "9 AM to 7 PM"
      },
      {
        "day": "Thursday",
        "hours": "9 AM to 7 PM"
      },
      {
        "day": "Friday",
        "hours": "9 AM to 7 PM"
      },
      {
        "day": "Saturday",
        "hours": "9 AM to 4 PM"
      },
      {
        "day": "Sunday",
        "hours": "10 AM to 2 PM"
      }
    ],
    "additionalOpeningHours": {
      "Delivery": [
        {
          "day": "Monday",
          "hours": "9 AM–5 PM"
        },
        {
          "day": "Tuesday",
          "hours": "9 AM–5 PM"
        },
        {
          "day": "Wednesday",
          "hours": "9 AM–5 PM"
        },
        {
          "day": "Thursday",
          "hours": "9 AM–5 PM"
        },
        {
          "day": "Friday",
          "hours": "9 AM–5 PM"
        },
        {
          "day": "Saturday",
          "hours": "Closed"
        },
        {
          "day": "Sunday",
          "hours": "Closed"
        }
      ]
    },
    "peopleAlsoSearch": [],
    "placesTags": [],
    "reviewsTags": [],
    "additionalInfo": {
      "Service options": [
        {
          "Delivery": true
        },
        {
          "In-store pickup": true
        },
        {
          "Same-day delivery": true
        }
      ],
      "Accessibility": [
        {
          "Wheelchair accessible entrance": true
        },
        {
          "Wheelchair accessible parking lot": true
        }
      ],
      "Planning": [
        {
          "Quick visit": true
        }
      ],
      "Payments": [
        {
          "Checks": true
        },
        {
          "Credit cards": true
        },
        {
          "Debit cards": true
        },
        {
          "NFC mobile payments": true
        },
        {
          "Credit cards": true
        }
      ]
    },
    "gasPrices": [],
    "url": "https://www.google.com/maps/search/?api=1&query=Spartan%20Pharmacy&query_place_id=ChIJYwjV0JHwNIgRDEfHVwRppFc",
    "searchPageUrl": "https://www.google.com/maps/search/independent%20pharmacy%20Pittsburgh%20PA/@59.485012656044645,-145.05491807162034,9z?hl=en",
    "searchString": "independent pharmacy Pittsburgh PA",
    "language": "en",
    "rank": 12,
    "isAdvertisement": false,
    "imageUrl": "https://lh3.googleusercontent.com/gps-cs-s/AC9h4nrLTIB0SgIbLEshJMUYjhSxkPQYeM7nQui6HKf5oa8xGqCmECr5mVfLNk0SsaWV_x7b4Uzh5KSLjurs3HorenMFtzQX2kek_rDumLYhg-lrmWXZ9bsymz2_AWeRKGsZEHYGOaM=w408-h309-k-no",
    "kgmid": "/g/1tdp13fr"
  },
  {
    "title": "Adzema Pharmacy",
    "price": null,
    "categoryName": "Pharmacy",
    "address": "8105 Perry Hwy, Pittsburgh, PA 15237",
    "neighborhood": null,
    "street": "8105 Perry Hwy",
    "city": "Pittsburgh",
    "postalCode": "15237",
    "state": "Pennsylvania",
    "countryCode": "US",
    "website": "http://www.adzemapharmacy.com/",
    "phone": "(412) 364-7000",
    "phoneUnformatted": "+14123647000",
    "claimThisBusiness": false,
    "location": {
      "lat": 40.55447,
      "lng": -80.0388675
    },
    "totalScore": 4.8,
    "permanentlyClosed": false,
    "temporarilyClosed": false,
    "placeId": "ChIJo-2a3xCLNIgRYOXXDWnd2KM",
    "categories": [
      "Pharmacy"
    ],
    "fid": "0x88348b10df9aeda3:0xa3d8dd690dd7e560",
    "cid": "11806429866425312608",
    "reviewsCount": 62,
    "imagesCount": 14,
    "imageCategories": [],
    "scrapedAt": "2025-06-22T06:33:11.738Z",
    "googleFoodUrl": null,
    "hotelAds": [],
    "openingHours": [
      {
        "day": "Monday",
        "hours": "8 AM to 7 PM"
      },
      {
        "day": "Tuesday",
        "hours": "8 AM to 7 PM"
      },
      {
        "day": "Wednesday",
        "hours": "8 AM to 7 PM"
      },
      {
        "day": "Thursday",
        "hours": "8 AM to 7 PM"
      },
      {
        "day": "Friday",
        "hours": "8 AM to 7 PM"
      },
      {
        "day": "Saturday",
        "hours": "8 AM to 3 PM"
      },
      {
        "day": "Sunday",
        "hours": "9 AM to 2 PM"
      }
    ],
    "peopleAlsoSearch": [],
    "placesTags": [],
    "reviewsTags": [],
    "additionalInfo": {
      "From the business": [
        {
          "Small business": true
        }
      ],
      "Service options": [
        {
          "Curbside pickup": true
        },
        {
          "Delivery": true
        },
        {
          "In-store pickup": true
        },
        {
          "In-store shopping": true
        },
        {
          "Onsite services": true
        },
        {
          "Same-day delivery": true
        }
      ],
      "Accessibility": [
        {
          "Wheelchair accessible entrance": true
        },
        {
          "Wheelchair accessible parking lot": true
        }
      ],
      "Amenities": [
        {
          "Wi-Fi": true
        },
        {
          "Free Wi-Fi": true
        }
      ],
      "Crowd": [
        {
          "LGBTQ+ friendly": true
        },
        {
          "Transgender safespace": true
        }
      ],
      "Planning": [
        {
          "Quick visit": true
        }
      ],
      "Payments": [
        {
          "Checks": true
        },
        {
          "Credit cards": true
        },
        {
          "Debit cards": true
        },
        {
          "NFC mobile payments": true
        },
        {
          "Credit cards": true
        }
      ]
    },
    "gasPrices": [],
    "url": "https://www.google.com/maps/search/?api=1&query=Adzema%20Pharmacy&query_place_id=ChIJo-2a3xCLNIgRYOXXDWnd2KM",
    "searchPageUrl": "https://www.google.com/maps/search/independent%20pharmacy%20Pittsburgh%20PA/@59.485012656044645,-145.05491807162034,9z?hl=en",
    "searchString": "independent pharmacy Pittsburgh PA",
    "language": "en",
    "rank": 13,
    "isAdvertisement": false,
    "imageUrl": "https://lh3.googleusercontent.com/gps-cs-s/AC9h4npeJ3tbpmvvlHTm18AoaQNjLYUg-QBcMjDZjs266cXK6RZVe2WhJTrOBkoG-XaWT0P1-Ux21jfzSvoqzB_2zruvqFgYdC42PQ1Ym3hAEoIB9UGJPuo3cry2fT13_vzCLWhtGamK=w426-h240-k-no",
    "kgmid": "/g/1tdhmgw8"
  },
  {
    "title": "Waltmire Pharmacy",
    "price": null,
    "categoryName": "Pharmacy",
    "address": "1435 Spring Garden Ave, Pittsburgh, PA 15212",
    "neighborhood": null,
    "street": "1435 Spring Garden Ave",
    "city": "Pittsburgh",
    "postalCode": "15212",
    "state": "Pennsylvania",
    "countryCode": "US",
    "website": "https://www.mygnp.com/pharmacies/waltmire-pharmacy-pittsburgh-pa-15212/?utm_source=google&utm_medium=local&utm_campaign=localmaps&utm_content=6001426",
    "phone": "(412) 323-1801",
    "phoneUnformatted": "+14123231801",
    "claimThisBusiness": false,
    "location": {
      "lat": 40.4626879,
      "lng": -79.9867864
    },
    "totalScore": 4.8,
    "permanentlyClosed": false,
    "temporarilyClosed": false,
    "placeId": "ChIJAXPVp-rzNIgR-hPe_dSXvh0",
    "categories": [
      "Pharmacy",
      "Drug store"
    ],
    "fid": "0x8834f3eaa7d57301:0x1dbe97d4fdde13fa",
    "cid": "2143317413722985466",
    "reviewsCount": 35,
    "imagesCount": 1,
    "imageCategories": [],
    "scrapedAt": "2025-06-22T06:33:11.739Z",
    "googleFoodUrl": null,
    "hotelAds": [],
    "openingHours": [
      {
        "day": "Monday",
        "hours": "9:30 AM to 6 PM"
      },
      {
        "day": "Tuesday",
        "hours": "9:30 AM to 6 PM"
      },
      {
        "day": "Wednesday",
        "hours": "9:30 AM to 6 PM"
      },
      {
        "day": "Thursday",
        "hours": "9:30 AM to 6 PM"
      },
      {
        "day": "Friday",
        "hours": "9:30 AM to 6 PM"
      },
      {
        "day": "Saturday",
        "hours": "Closed"
      },
      {
        "day": "Sunday",
        "hours": "Closed"
      }
    ],
    "peopleAlsoSearch": [],
    "placesTags": [],
    "reviewsTags": [],
    "additionalInfo": {
      "Service options": [
        {
          "Delivery": true
        },
        {
          "In-store pickup": true
        },
        {
          "In-store shopping": true
        },
        {
          "Onsite services": true
        },
        {
          "Same-day delivery": true
        }
      ],
      "Accessibility": [
        {
          "Wheelchair accessible entrance": true
        },
        {
          "Wheelchair accessible parking lot": true
        }
      ],
      "Planning": [
        {
          "Quick visit": true
        }
      ],
      "Payments": [
        {
          "Credit cards": true
        },
        {
          "Debit cards": true
        },
        {
          "NFC mobile payments": true
        },
        {
          "SNAP/EBT": true
        },
        {
          "Credit cards": true
        }
      ]
    },
    "gasPrices": [],
    "url": "https://www.google.com/maps/search/?api=1&query=Waltmire%20Pharmacy&query_place_id=ChIJAXPVp-rzNIgR-hPe_dSXvh0",
    "searchPageUrl": "https://www.google.com/maps/search/independent%20pharmacy%20Pittsburgh%20PA/@59.485012656044645,-145.05491807162034,9z?hl=en",
    "searchString": "independent pharmacy Pittsburgh PA",
    "language": "en",
    "rank": 14,
    "isAdvertisement": false,
    "imageUrl": "https://streetviewpixels-pa.googleapis.com/v1/thumbnail?panoid=FaqmR2fRPnE1lWRNmq9lRg&cb_client=search.gws-prod.gps&w=408&h=240&yaw=64.64527&pitch=0&thumbfov=100",
    "kgmid": "/g/1tr8m751"
  },
  {
    "title": "North Shore Health Mart Pharmacy",
    "price": null,
    "categoryName": "Pharmacy",
    "address": "127 Anderson St, Pittsburgh, PA 15212",
    "neighborhood": "North Shore",
    "street": "127 Anderson St",
    "city": "Pittsburgh",
    "postalCode": "15212",
    "state": "Pennsylvania",
    "countryCode": "US",
    "website": "https://northshore.memawrx.com/",
    "phone": "(412) 209-3866",
    "phoneUnformatted": "+14122093866",
    "claimThisBusiness": false,
    "location": {
      "lat": 40.4487058,
      "lng": -80.0011531
    },
    "totalScore": 3.4,
    "permanentlyClosed": false,
    "temporarilyClosed": false,
    "placeId": "ChIJleN607_zNIgRN14rkDP_7w0",
    "categories": [
      "Pharmacy"
    ],
    "fid": "0x8834f3bfd37ae395:0xdefff33902b5e37",
    "cid": "1004301838854086199",
    "reviewsCount": 7,
    "imagesCount": 3,
    "imageCategories": [],
    "scrapedAt": "2025-06-22T06:33:11.739Z",
    "googleFoodUrl": null,
    "hotelAds": [],
    "openingHours": [
      {
        "day": "Monday",
        "hours": "9 AM to 7 PM"
      },
      {
        "day": "Tuesday",
        "hours": "9 AM to 5 PM"
      },
      {
        "day": "Wednesday",
        "hours": "9 AM to 5 PM"
      },
      {
        "day": "Thursday",
        "hours": "9 AM to 7 PM"
      },
      {
        "day": "Friday",
        "hours": "10 AM to 5 PM"
      },
      {
        "day": "Saturday",
        "hours": "Closed"
      },
      {
        "day": "Sunday",
        "hours": "Closed"
      }
    ],
    "peopleAlsoSearch": [],
    "placesTags": [],
    "reviewsTags": [],
    "additionalInfo": {
      "Service options": [
        {
          "Delivery": true
        },
        {
          "Onsite services": true
        }
      ],
      "Accessibility": [
        {
          "Wheelchair accessible entrance": true
        }
      ],
      "Planning": [
        {
          "Quick visit": true
        }
      ],
      "Payments": [
        {
          "Credit cards": true
        }
      ]
    },
    "gasPrices": [],
    "url": "https://www.google.com/maps/search/?api=1&query=North%20Shore%20Health%20Mart%20Pharmacy&query_place_id=ChIJleN607_zNIgRN14rkDP_7w0",
    "searchPageUrl": "https://www.google.com/maps/search/independent%20pharmacy%20Pittsburgh%20PA/@59.485012656044645,-145.05491807162034,9z?hl=en",
    "searchString": "independent pharmacy Pittsburgh PA",
    "language": "en",
    "rank": 15,
    "isAdvertisement": false,
    "imageUrl": "https://lh3.googleusercontent.com/p/AF1QipO0KQ6_aWIxhxlK10xiQZCu4QPqbcalAYwCPB5X=w690-h240-k-no",
    "kgmid": "/g/11vypcz5df"
  },
  {
    "title": "The Medicine Shoppe Pharmacy",
    "price": null,
    "categoryName": "Pharmacy",
    "address": "524 Brookline Blvd, Pittsburgh, PA 15226, United States",
    "neighborhood": "Brookline",
    "street": "524 Brookline Blvd",
    "city": "Pittsburgh",
    "postalCode": "15226",
    "state": "Pennsylvania",
    "countryCode": "US",
    "website": "https://www.medicineshoppebrookline.com/",
    "phone": "+1 412-561-3180",
    "phoneUnformatted": "+14125613180",
    "claimThisBusiness": false,
    "location": {
      "lat": 40.3956465,
      "lng": -80.0230242
    },
    "totalScore": 4.9,
    "permanentlyClosed": false,
    "temporarilyClosed": false,
    "placeId": "ChIJySnlKzv3NIgRl-XYrXcz0Xo",
    "categories": [
      "Pharmacy",
      "Drug store"
    ],
    "fid": "0x8834f73b2be529c9:0x7ad13377add8e597",
    "cid": "8849911331870533015",
    "reviewsCount": 41,
    "imagesCount": 9,
    "imageCategories": [],
    "scrapedAt": "2025-06-22T06:33:20.213Z",
    "googleFoodUrl": null,
    "hotelAds": [],
    "openingHours": [
      {
        "day": "Monday",
        "hours": "9 AM to 6 PM"
      },
      {
        "day": "Tuesday",
        "hours": "9 AM to 6 PM"
      },
      {
        "day": "Wednesday",
        "hours": "9 AM to 6 PM"
      },
      {
        "day": "Thursday",
        "hours": "9 AM to 6 PM"
      },
      {
        "day": "Friday",
        "hours": "9 AM to 6 PM"
      },
      {
        "day": "Saturday",
        "hours": "Closed"
      },
      {
        "day": "Sunday",
        "hours": "Closed"
      }
    ],
    "peopleAlsoSearch": [],
    "placesTags": [],
    "reviewsTags": [],
    "additionalInfo": {
      "Service options": [
        {
          "Delivery": true
        },
        {
          "Same-day delivery": true
        },
        {
          "English": true
        }
      ],
      "Accessibility": [
        {
          "Wheelchair-accessible car park": true
        },
        {
          "Wheelchair-accessible entrance": true
        }
      ],
      "Planning": [
        {
          "Quick visit": true
        }
      ],
      "Payments": [
        {
          "Cheques": true
        },
        {
          "Credit cards": true
        },
        {
          "Debit cards": true
        },
        {
          "NFC mobile payments": true
        },
        {
          "Credit cards": true
        }
      ]
    },
    "gasPrices": [],
    "url": "https://www.google.com/maps/search/?api=1&query=The%20Medicine%20Shoppe%20Pharmacy&query_place_id=ChIJySnlKzv3NIgRl-XYrXcz0Xo",
    "searchPageUrl": "https://www.google.com/maps/search/independent%20pharmacy%20Pittsburgh%20PA/@-10.989466511638566,-170.87145165435777,13z?hl=en",
    "searchString": "independent pharmacy Pittsburgh PA",
    "language": "en",
    "rank": 15,
    "isAdvertisement": false,
    "imageUrl": "https://lh3.googleusercontent.com/gps-cs-s/AC9h4nr5H9nTV1f45ieG4YrW-fsK2HkRxRnyBXd_rclqYpeaWJJLPkoVkOfR728xNdBlNv_UbFjrt_wqC78FhUU0u4HcvXyr6tjbpLEZ0oINuuv6CrVEgNstMyHfNLslSFP9vXnOp5g=w408-h417-k-no",
    "kgmid": "/g/1td6n9p7"
  },
  {
    "title": "Elizabeth Pharmacy",
    "price": null,
    "categoryName": "Pharmacy",
    "address": "5041 Second Avenue, Pittsburgh, PA 15207, United States",
    "neighborhood": "Hazelwood",
    "street": "5041 Second Avenue",
    "city": "Pittsburgh",
    "postalCode": "15207",
    "state": "Pennsylvania",
    "countryCode": "US",
    "website": "https://www.elizabethpharmacyinc.com/",
    "phone": "+1 412-421-0114",
    "phoneUnformatted": "+14124210114",
    "claimThisBusiness": false,
    "location": {
      "lat": 40.4071965,
      "lng": -79.9431787
    },
    "totalScore": 4.6,
    "permanentlyClosed": false,
    "temporarilyClosed": false,
    "placeId": "ChIJf5wluLfxNIgRJikI5cApsdw",
    "categories": [
      "Pharmacy"
    ],
    "fid": "0x8834f1b7b8259c7f:0xdcb129c0e5082926",
    "cid": "15902537667674908966",
    "reviewsCount": 19,
    "imagesCount": 3,
    "imageCategories": [],
    "scrapedAt": "2025-06-22T06:33:20.213Z",
    "googleFoodUrl": null,
    "hotelAds": [],
    "openingHours": [
      {
        "day": "Monday",
        "hours": "9 AM to 5 PM"
      },
      {
        "day": "Tuesday",
        "hours": "9 AM to 5 PM"
      },
      {
        "day": "Wednesday",
        "hours": "9 AM to 5 PM"
      },
      {
        "day": "Thursday",
        "hours": "9 AM to 5 PM"
      },
      {
        "day": "Friday",
        "hours": "9 AM to 5 PM"
      },
      {
        "day": "Saturday",
        "hours": "9 AM to 12 PM"
      },
      {
        "day": "Sunday",
        "hours": "Closed"
      }
    ],
    "peopleAlsoSearch": [],
    "placesTags": [],
    "reviewsTags": [],
    "additionalInfo": {
      "From the business": [
        {
          "Small Business": true
        }
      ],
      "Service options": [
        {
          "Delivery": true
        }
      ],
      "Accessibility": [
        {
          "Wheelchair-accessible car park": true
        },
        {
          "Wheelchair-accessible entrance": true
        }
      ],
      "Amenities": [
        {
          "Wi-Fi": true
        },
        {
          "Free Wi-Fi": true
        }
      ],
      "Planning": [
        {
          "Quick visit": true
        }
      ],
      "Payments": [
        {
          "Credit cards": true
        },
        {
          "Debit cards": true
        },
        {
          "NFC mobile payments": true
        },
        {
          "SNAP/EBT": true
        },
        {
          "Credit cards": true
        }
      ]
    },
    "gasPrices": [],
    "url": "https://www.google.com/maps/search/?api=1&query=Elizabeth%20Pharmacy&query_place_id=ChIJf5wluLfxNIgRJikI5cApsdw",
    "searchPageUrl": "https://www.google.com/maps/search/independent%20pharmacy%20Pittsburgh%20PA/@-10.989466511638566,-170.87145165435777,13z?hl=en",
    "searchString": "independent pharmacy Pittsburgh PA",
    "language": "en",
    "rank": 17,
    "isAdvertisement": false,
    "imageUrl": "https://lh3.googleusercontent.com/gps-cs-s/AC9h4npcXrtxsXd1zGKlpZ339r7bQXGlNkaB6_HiKwb5TdXtfoi_hZQDZ2aXQ6qb587tCZLiFFjuOZYq1K7bZEYd6eSSb73aLfJsEBivZxfuaqbAOHqwA7MLZQPeh_GKowzJh8mgjRNV=w408-h544-k-no",
    "kgmid": "/g/11ddwwj62x"
  },
  {
    "title": "Pleasant Hills Pharmacy",
    "price": null,
    "categoryName": "Pharmacy",
    "address": "25 Gill Hall Rd, Clairton, PA 15025, United States",
    "neighborhood": null,
    "street": "25 Gill Hall Rd",
    "city": "Clairton",
    "postalCode": "15025",
    "state": "Pennsylvania",
    "countryCode": "US",
    "website": "https://pleasanthillspharmacy.com/",
    "phone": "+1 412-653-7566",
    "phoneUnformatted": "+14126537566",
    "claimThisBusiness": false,
    "location": {
      "lat": 40.3218681,
      "lng": -79.9573296
    },
    "totalScore": 4.8,
    "permanentlyClosed": false,
    "temporarilyClosed": false,
    "placeId": "ChIJGTEJ2Ub7NIgR8484oI3mDiA",
    "categories": [
      "Pharmacy"
    ],
    "fid": "0x8834fb46d9093119:0x200ee68da0388ff3",
    "cid": "2310037154840481779",
    "reviewsCount": 40,
    "imagesCount": 1,
    "imageCategories": [],
    "scrapedAt": "2025-06-22T06:33:20.213Z",
    "googleFoodUrl": null,
    "hotelAds": [],
    "openingHours": [
      {
        "day": "Monday",
        "hours": "9:30 AM to 7 PM"
      },
      {
        "day": "Tuesday",
        "hours": "9:30 AM to 7 PM"
      },
      {
        "day": "Wednesday",
        "hours": "9:30 AM to 7 PM"
      },
      {
        "day": "Thursday",
        "hours": "9:30 AM to 7 PM"
      },
      {
        "day": "Friday",
        "hours": "9:30 AM to 7 PM"
      },
      {
        "day": "Saturday",
        "hours": "9:30 AM to 3 PM"
      },
      {
        "day": "Sunday",
        "hours": "Closed"
      }
    ],
    "peopleAlsoSearch": [],
    "placesTags": [],
    "reviewsTags": [],
    "additionalInfo": {
      "Service options": [
        {
          "Delivery": true
        },
        {
          "In-store pick-up": true
        },
        {
          "On-site services": true
        },
        {
          "Same-day delivery": true
        }
      ],
      "Accessibility": [
        {
          "Wheelchair-accessible car park": true
        },
        {
          "Wheelchair-accessible entrance": true
        }
      ],
      "Planning": [
        {
          "Quick visit": true
        }
      ],
      "Payments": [
        {
          "Credit cards": true
        },
        {
          "Debit cards": true
        },
        {
          "NFC mobile payments": true
        },
        {
          "Credit cards": true
        }
      ],
      "Parking": [
        {
          "Free multi-storey car park": true
        },
        {
          "Free parking lot": true
        },
        {
          "On-site parking": true
        }
      ]
    },
    "gasPrices": [],
    "url": "https://www.google.com/maps/search/?api=1&query=Pleasant%20Hills%20Pharmacy&query_place_id=ChIJGTEJ2Ub7NIgR8484oI3mDiA",
    "searchPageUrl": "https://www.google.com/maps/search/independent%20pharmacy%20Pittsburgh%20PA/@-10.989466511638566,-170.87145165435777,13z?hl=en",
    "searchString": "independent pharmacy Pittsburgh PA",
    "language": "en",
    "rank": 18,
    "isAdvertisement": false,
    "imageUrl": "https://streetviewpixels-pa.googleapis.com/v1/thumbnail?panoid=bVdAqxRbD0CMsk75_2zYGw&cb_client=search.gws-prod.gps&w=408&h=240&yaw=91.4363&pitch=0&thumbfov=100",
    "kgmid": "/g/1ts1n8_w"
  },
  {
    "title": "The Burgh Pharmacy",
    "price": null,
    "categoryName": "Pharmacy",
    "address": "7206 McKnight Rd Suite 103, Pittsburgh, PA 15237, United States",
    "neighborhood": null,
    "street": "7206 McKnight Rd Suite 103",
    "city": "Pittsburgh",
    "postalCode": "15237",
    "state": "Pennsylvania",
    "countryCode": "US",
    "website": "https://www.burghpharmacy.com/",
    "phone": "+1 412-837-3701",
    "phoneUnformatted": "+14128373701",
    "claimThisBusiness": false,
    "location": {
      "lat": 40.5354645,
      "lng": -80.010504
    },
    "totalScore": 4.4,
    "permanentlyClosed": false,
    "temporarilyClosed": false,
    "placeId": "ChIJ2XE95a6LNIgRAqwCXQC_Jas",
    "categories": [
      "Pharmacy"
    ],
    "fid": "0x88348baee53d71d9:0xab25bf005d02ac02",
    "cid": "12332473162905332738",
    "reviewsCount": 67,
    "imagesCount": 1,
    "imageCategories": [],
    "scrapedAt": "2025-06-22T06:33:20.213Z",
    "googleFoodUrl": null,
    "hotelAds": [],
    "openingHours": [
      {
        "day": "Monday",
        "hours": "9 AM to 5 PM"
      },
      {
        "day": "Tuesday",
        "hours": "9 AM to 5 PM"
      },
      {
        "day": "Wednesday",
        "hours": "9 AM to 5 PM"
      },
      {
        "day": "Thursday",
        "hours": "9 AM to 5 PM"
      },
      {
        "day": "Friday",
        "hours": "9 AM to 5 PM"
      },
      {
        "day": "Saturday",
        "hours": "10 AM to 2 PM"
      },
      {
        "day": "Sunday",
        "hours": "Closed"
      }
    ],
    "peopleAlsoSearch": [],
    "placesTags": [],
    "reviewsTags": [],
    "additionalInfo": {
      "From the business": [
        {
          "Small Business": true
        }
      ],
      "Service options": [
        {
          "Kerbside pickup": true
        },
        {
          "Delivery": true
        },
        {
          "In-store pick-up": true
        }
      ],
      "Accessibility": [
        {
          "Wheelchair-accessible car park": true
        },
        {
          "Wheelchair-accessible entrance": true
        }
      ],
      "Payments": [
        {
          "Credit cards": true
        },
        {
          "Debit cards": true
        },
        {
          "NFC mobile payments": true
        },
        {
          "Credit cards": true
        }
      ]
    },
    "gasPrices": [],
    "url": "https://www.google.com/maps/search/?api=1&query=The%20Burgh%20Pharmacy&query_place_id=ChIJ2XE95a6LNIgRAqwCXQC_Jas",
    "searchPageUrl": "https://www.google.com/maps/search/independent%20pharmacy%20Pittsburgh%20PA/@-10.989466511638566,-170.87145165435777,13z?hl=en",
    "searchString": "independent pharmacy Pittsburgh PA",
    "language": "en",
    "rank": 19,
    "isAdvertisement": false,
    "imageUrl": "https://streetviewpixels-pa.googleapis.com/v1/thumbnail?panoid=M2BSCxLzysVlvol1n7WOkw&cb_client=search.gws-prod.gps&w=408&h=240&yaw=61.79705&pitch=0&thumbfov=100",
    "kgmid": "/g/11gwmb4vx4"
  }
]