[
  {
    "title": "The Medicine Shoppe Pharmacy",
    "price": null,
    "categoryName": "Pharmacy",
    "address": "3159 Colorado Ave, Colorado Springs, CO 80904",
    "neighborhood": "West Colorado Springs",
    "street": "3159 Colorado Ave",
    "city": "Colorado Springs",
    "postalCode": "80904",
    "state": "Colorado",
    "countryCode": "US",
    "website": "http://www.medicineshoppe.com/0014",
    "phone": "(719) 475-9030",
    "phoneUnformatted": "+17194759030",
    "claimThisBusiness": false,
    "location": {
      "lat": 38.8542346,
      "lng": -104.8750575
    },
    "totalScore": 4.7,
    "permanentlyClosed": false,
    "temporarilyClosed": false,
    "placeId": "ChIJVQj3ApxaE4cR8H34_8zqZBI",
    "categories": [
      "Pharmacy"
    ],
    "fid": "0x87135a9c02f70855:0x1264eaccfff87df0",
    "cid": "1325442356542471664",
    "reviewsCount": 59,
    "imagesCount": 4,
    "imageCategories": [],
    "scrapedAt": "2025-06-22T04:17:37.268Z",
    "googleFoodUrl": null,
    "hotelAds": [],
    "openingHours": [
      {
        "day": "Monday",
        "hours": "9 AM to 6 PM"
      },
      {
        "day": "Tuesday",
        "hours": "9 AM to 6 PM"
      },
      {
        "day": "Wednesday",
        "hours": "9 AM to 6 PM"
      },
      {
        "day": "Thursday",
        "hours": "9 AM to 6 PM"
      },
      {
        "day": "Friday",
        "hours": "9 AM to 6 PM"
      },
      {
        "day": "Saturday",
        "hours": "9 AM to 1 PM"
      },
      {
        "day": "Sunday",
        "hours": "Closed"
      }
    ],
    "peopleAlsoSearch": [],
    "placesTags": [],
    "reviewsTags": [],
    "additionalInfo": {
      "Service options": [
        {
          "Delivery": true
        },
        {
          "In-store pickup": true
        },
        {
          "In-store shopping": true
        },
        {
          "Same-day delivery": true
        }
      ],
      "Accessibility": [
        {
          "Wheelchair accessible entrance": true
        },
        {
          "Wheelchair accessible parking lot": true
        }
      ],
      "Planning": [
        {
          "Quick visit": true
        }
      ],
      "Payments": [
        {
          "Credit cards": true
        },
        {
          "Debit cards": true
        },
        {
          "NFC mobile payments": true
        },
        {
          "Credit cards": true
        }
      ]
    },
    "gasPrices": [],
    "url": "https://www.google.com/maps/search/?api=1&query=The%20Medicine%20Shoppe%20Pharmacy&query_place_id=ChIJVQj3ApxaE4cR8H34_8zqZBI",
    "searchPageUrl": "https://www.google.com/maps/search/independent%20pharmacy%20Colorado%20Springs%20CO/@63.653579074253855,-140.45172212891654,9z?hl=en",
    "searchString": "independent pharmacy Colorado Springs CO",
    "language": "en",
    "rank": 1,
    "isAdvertisement": false,
    "imageUrl": "https://lh3.googleusercontent.com/gps-cs-s/AC9h4nrMv9eMl022wGojIXeM5A44KYZ3aE1wnSJw_2cE91TKfGcKfeef72lD9PfZaysxiQOvAOoM6M0bO29UMUtTcVGXQM8MSkKF4HLv5Su45sIyb5AlAXfv0N2iJVWeOc7rP62r1Leh4Q=w426-h240-k-no",
    "kgmid": "/g/1tgcmrgs"
  },
  {
    "title": "Ivywild Pharmacy",
    "price": null,
    "categoryName": "Pharmacy",
    "address": "311 S Nevada Ave, Colorado Springs, CO 80903",
    "neighborhood": "Downtown",
    "street": "311 S Nevada Ave",
    "city": "Colorado Springs",
    "postalCode": "80903",
    "state": "Colorado",
    "countryCode": "US",
    "website": "https://www.ivywildpharmacy.com/",
    "phone": "(719) 634-5541",
    "phoneUnformatted": "+17196345541",
    "claimThisBusiness": false,
    "location": {
      "lat": 38.828918,
      "lng": -104.821566
    },
    "totalScore": 4.2,
    "permanentlyClosed": false,
    "temporarilyClosed": false,
    "placeId": "ChIJOdKX-MFEE4cRG-39VNS10XQ",
    "categories": [
      "Pharmacy"
    ],
    "fid": "0x871344c1f897d239:0x74d1b5d454fded1b",
    "cid": "8417709102095789339",
    "reviewsCount": 50,
    "imagesCount": 1,
    "imageCategories": [],
    "scrapedAt": "2025-06-22T04:17:37.269Z",
    "googleFoodUrl": null,
    "hotelAds": [],
    "openingHours": [
      {
        "day": "Monday",
        "hours": "9 AM to 5 PM"
      },
      {
        "day": "Tuesday",
        "hours": "9 AM to 5 PM"
      },
      {
        "day": "Wednesday",
        "hours": "9 AM to 5 PM"
      },
      {
        "day": "Thursday",
        "hours": "9 AM to 5 PM"
      },
      {
        "day": "Friday",
        "hours": "9 AM to 5 PM"
      },
      {
        "day": "Saturday",
        "hours": "Closed"
      },
      {
        "day": "Sunday",
        "hours": "Closed"
      }
    ],
    "peopleAlsoSearch": [],
    "placesTags": [],
    "reviewsTags": [],
    "additionalInfo": {
      "From the business": [
        {
          "Small business": true
        }
      ],
      "Service options": [
        {
          "Delivery": true
        },
        {
          "In-store pickup": true
        },
        {
          "In-store shopping": true
        }
      ],
      "Accessibility": [
        {
          "Wheelchair accessible entrance": true
        },
        {
          "Wheelchair accessible parking lot": true
        }
      ],
      "Planning": [
        {
          "Quick visit": true
        }
      ],
      "Payments": [
        {
          "Credit cards": true
        }
      ]
    },
    "gasPrices": [],
    "url": "https://www.google.com/maps/search/?api=1&query=Ivywild%20Pharmacy&query_place_id=ChIJOdKX-MFEE4cRG-39VNS10XQ",
    "searchPageUrl": "https://www.google.com/maps/search/independent%20pharmacy%20Colorado%20Springs%20CO/@63.653579074253855,-140.45172212891654,9z?hl=en",
    "searchString": "independent pharmacy Colorado Springs CO",
    "language": "en",
    "rank": 2,
    "isAdvertisement": false,
    "imageUrl": "https://streetviewpixels-pa.googleapis.com/v1/thumbnail?panoid=c4LtljnPafOI2R7XkSVZLA&cb_client=search.gws-prod.gps&w=408&h=240&yaw=217.5422&pitch=0&thumbfov=100",
    "kgmid": "/g/1tdnlk_s"
  },
  {
    "title": "PharMerica – Colorado Springs, CO",
    "price": null,
    "categoryName": "Pharmacy",
    "address": "1041 Elkton Dr, Colorado Springs, CO 80907",
    "neighborhood": "Northeast Colorado Springs",
    "street": "1041 Elkton Dr",
    "city": "Colorado Springs",
    "postalCode": "80907",
    "state": "Colorado",
    "countryCode": "US",
    "website": "http://www.pharmerica.com/",
    "phone": "(800) 288-0397",
    "phoneUnformatted": "+18002880397",
    "claimThisBusiness": false,
    "location": {
      "lat": 38.8992488,
      "lng": -104.8461172
    },
    "totalScore": 3.8,
    "permanentlyClosed": false,
    "temporarilyClosed": false,
    "placeId": "ChIJA06PFipQE4cRAlZ9nL31cts",
    "categories": [
      "Pharmacy"
    ],
    "fid": "0x8713502a168f4e03:0xdb72f5bd9c7d5602",
    "cid": "15812971436374316546",
    "reviewsCount": 4,
    "imagesCount": 1,
    "imageCategories": [],
    "scrapedAt": "2025-06-22T04:17:37.269Z",
    "googleFoodUrl": null,
    "hotelAds": [],
    "openingHours": [
      {
        "day": "Monday",
        "hours": "Open 24 hours"
      },
      {
        "day": "Tuesday",
        "hours": "Open 24 hours"
      },
      {
        "day": "Wednesday",
        "hours": "Open 24 hours"
      },
      {
        "day": "Thursday",
        "hours": "Open 24 hours"
      },
      {
        "day": "Friday",
        "hours": "Open 24 hours"
      },
      {
        "day": "Saturday",
        "hours": "Open 24 hours"
      },
      {
        "day": "Sunday",
        "hours": "Open 24 hours"
      }
    ],
    "peopleAlsoSearch": [],
    "placesTags": [],
    "reviewsTags": [],
    "additionalInfo": {
      "Accessibility": [
        {
          "Wheelchair accessible entrance": true
        },
        {
          "Wheelchair accessible parking lot": true
        }
      ],
      "Payments": [
        {
          "Credit cards": true
        }
      ]
    },
    "gasPrices": [],
    "url": "https://www.google.com/maps/search/?api=1&query=PharMerica%20%E2%80%93%20Colorado%20Springs%2C%20CO&query_place_id=ChIJA06PFipQE4cRAlZ9nL31cts",
    "searchPageUrl": "https://www.google.com/maps/search/independent%20pharmacy%20Colorado%20Springs%20CO/@63.653579074253855,-140.45172212891654,9z?hl=en",
    "searchString": "independent pharmacy Colorado Springs CO",
    "language": "en",
    "rank": 3,
    "isAdvertisement": false,
    "imageUrl": "https://streetviewpixels-pa.googleapis.com/v1/thumbnail?panoid=EvaHhAIw87s6G9eUIe5ZTA&cb_client=search.gws-prod.gps&w=408&h=240&yaw=263.1205&pitch=0&thumbfov=100",
    "kgmid": "/g/1td6spjh"
  },
  {
    "title": "College Pharmacy",
    "price": null,
    "categoryName": "Pharmacy",
    "address": "3505 Austin Bluffs Pkwy #101, Colorado Springs, CO 80918",
    "neighborhood": "Northeast Colorado Springs",
    "street": "3505 Austin Bluffs Pkwy #101",
    "city": "Colorado Springs",
    "postalCode": "80918",
    "state": "Colorado",
    "countryCode": "US",
    "website": "https://www.collegepharmacy.com/",
    "phone": "(719) 262-0022",
    "phoneUnformatted": "+17192620022",
    "claimThisBusiness": false,
    "location": {
      "lat": 38.8903984,
      "lng": -104.7626766
    },
    "totalScore": 3,
    "permanentlyClosed": false,
    "temporarilyClosed": false,
    "placeId": "ChIJKcqnv0hPE4cR6d2bd53Hg-A",
    "categories": [
      "Pharmacy",
      "Pharmaceutical company",
      "Pharmaceutical lab"
    ],
    "fid": "0x87134f48bfa7ca29:0xe083c79d779bdde9",
    "cid": "16177993765575450089",
    "reviewsCount": 32,
    "imagesCount": 7,
    "imageCategories": [],
    "scrapedAt": "2025-06-22T04:17:37.269Z",
    "googleFoodUrl": null,
    "hotelAds": [],
    "openingHours": [
      {
        "day": "Monday",
        "hours": "8:30 AM to 6 PM"
      },
      {
        "day": "Tuesday",
        "hours": "8:30 AM to 6 PM"
      },
      {
        "day": "Wednesday",
        "hours": "8:30 AM to 6 PM"
      },
      {
        "day": "Thursday",
        "hours": "8:30 AM to 6 PM"
      },
      {
        "day": "Friday",
        "hours": "8:30 AM to 6 PM"
      },
      {
        "day": "Saturday",
        "hours": "Closed"
      },
      {
        "day": "Sunday",
        "hours": "Closed"
      }
    ],
    "peopleAlsoSearch": [],
    "placesTags": [],
    "reviewsTags": [],
    "additionalInfo": {
      "Service options": [
        {
          "Delivery": true
        },
        {
          "In-store pickup": true
        }
      ],
      "Accessibility": [
        {
          "Wheelchair accessible entrance": true
        },
        {
          "Wheelchair accessible parking lot": true
        }
      ],
      "Payments": [
        {
          "Credit cards": true
        },
        {
          "Debit cards": true
        },
        {
          "NFC mobile payments": true
        },
        {
          "Credit cards": true
        }
      ]
    },
    "gasPrices": [],
    "url": "https://www.google.com/maps/search/?api=1&query=College%20Pharmacy&query_place_id=ChIJKcqnv0hPE4cR6d2bd53Hg-A",
    "searchPageUrl": "https://www.google.com/maps/search/independent%20pharmacy%20Colorado%20Springs%20CO/@63.653579074253855,-140.45172212891654,9z?hl=en",
    "searchString": "independent pharmacy Colorado Springs CO",
    "language": "en",
    "rank": 4,
    "isAdvertisement": false,
    "imageUrl": "https://lh3.googleusercontent.com/gps-cs-s/AC9h4npDB9WBqsDtMXZT9PgFqGmcFJ6-ThlxtMToomt4qdJ7REVciZZ7H6HNc6ObJCBx7PCnxozcEpU3H1XatnbEHZVGKuOPo2Ay-xTKKLw1uwMvK6UXowvUjjrMsVE7XYt3rGm7by_I=w408-h306-k-no",
    "kgmid": "/g/1tmk8yz9"
  },
  {
    "title": "Medicine Shoppe",
    "price": null,
    "categoryName": "Pharmacy",
    "address": "2306 N Wahsatch Ave, Colorado Springs, CO 80907",
    "neighborhood": "East Colorado Springs",
    "street": "2306 N Wahsatch Ave",
    "city": "Colorado Springs",
    "postalCode": "80907",
    "state": "Colorado",
    "countryCode": "US",
    "website": "https://coloradospringswahsatch.medicineshoppe.com/",
    "phone": "(719) 471-3600",
    "phoneUnformatted": "+17194713600",
    "claimThisBusiness": false,
    "location": {
      "lat": 38.8657112,
      "lng": -104.8170883
    },
    "totalScore": 4.6,
    "permanentlyClosed": false,
    "temporarilyClosed": false,
    "placeId": "ChIJhUtL-GFFE4cRH9TZSmb0sDk",
    "categories": [
      "Pharmacy"
    ],
    "fid": "0x87134561f84b4b85:0x39b0f4664ad9d41f",
    "cid": "4157091176242598943",
    "reviewsCount": 112,
    "imagesCount": 5,
    "imageCategories": [],
    "scrapedAt": "2025-06-22T04:17:37.269Z",
    "googleFoodUrl": null,
    "hotelAds": [],
    "openingHours": [
      {
        "day": "Monday",
        "hours": "9 AM to 6 PM"
      },
      {
        "day": "Tuesday",
        "hours": "9 AM to 6 PM"
      },
      {
        "day": "Wednesday",
        "hours": "9 AM to 6 PM"
      },
      {
        "day": "Thursday",
        "hours": "9 AM to 6 PM"
      },
      {
        "day": "Friday",
        "hours": "9 AM to 6 PM"
      },
      {
        "day": "Saturday",
        "hours": "9 AM to 1 PM"
      },
      {
        "day": "Sunday",
        "hours": "Closed"
      }
    ],
    "peopleAlsoSearch": [],
    "placesTags": [],
    "reviewsTags": [],
    "additionalInfo": {
      "Service options": [
        {
          "Curbside pickup": true
        },
        {
          "Delivery": true
        },
        {
          "In-store pickup": true
        },
        {
          "Same-day delivery": true
        }
      ],
      "Accessibility": [
        {
          "Wheelchair accessible entrance": true
        },
        {
          "Wheelchair accessible parking lot": true
        }
      ],
      "Planning": [
        {
          "Quick visit": true
        }
      ],
      "Payments": [
        {
          "Credit cards": true
        },
        {
          "Debit cards": true
        },
        {
          "Credit cards": true
        }
      ]
    },
    "gasPrices": [],
    "url": "https://www.google.com/maps/search/?api=1&query=Medicine%20Shoppe&query_place_id=ChIJhUtL-GFFE4cRH9TZSmb0sDk",
    "searchPageUrl": "https://www.google.com/maps/search/independent%20pharmacy%20Colorado%20Springs%20CO/@63.653579074253855,-140.45172212891654,9z?hl=en",
    "searchString": "independent pharmacy Colorado Springs CO",
    "language": "en",
    "rank": 5,
    "isAdvertisement": false,
    "imageUrl": "https://lh3.googleusercontent.com/gps-cs-s/AC9h4nqNS88nVBpN-_GyokW2LufIuvilc32GNClV3yRlWZwSztYNwgOUjyYMuiaNLKgYjtihzslT5q0tm_MjHXqvYN1iWKayfm507TYa06NOSH4HRmQYmLk9Ehd4oOa3_Gj6pZmaxFsF=w408-h544-k-no",
    "kgmid": "/g/1tfh5350"
  },
  {
    "title": "Medicine Shoppe",
    "price": null,
    "categoryName": "Pharmacy",
    "address": "2431 N Union Blvd, Colorado Springs, CO 80909",
    "neighborhood": "East Colorado Springs",
    "street": "2431 N Union Blvd",
    "city": "Colorado Springs",
    "postalCode": "80909",
    "state": "Colorado",
    "countryCode": "US",
    "website": "http://northunion.medicineshoppe.com/",
    "phone": "(719) 630-3154",
    "phoneUnformatted": "+17196303154",
    "claimThisBusiness": false,
    "location": {
      "lat": 38.867198,
      "lng": -104.793678
    },
    "totalScore": 4.4,
    "permanentlyClosed": false,
    "temporarilyClosed": false,
    "placeId": "ChIJPx2dKIFFE4cRxzryc_ZQMOQ",
    "categories": [
      "Pharmacy"
    ],
    "fid": "0x87134581289d1d3f:0xe43050f673f23ac7",
    "cid": "16442731258967112391",
    "reviewsCount": 138,
    "imagesCount": 20,
    "imageCategories": [],
    "scrapedAt": "2025-06-22T04:17:37.270Z",
    "googleFoodUrl": null,
    "hotelAds": [],
    "openingHours": [
      {
        "day": "Monday",
        "hours": "9 AM to 6 PM"
      },
      {
        "day": "Tuesday",
        "hours": "9 AM to 6 PM"
      },
      {
        "day": "Wednesday",
        "hours": "9 AM to 6 PM"
      },
      {
        "day": "Thursday",
        "hours": "9 AM to 6 PM"
      },
      {
        "day": "Friday",
        "hours": "9 AM to 6 PM"
      },
      {
        "day": "Saturday",
        "hours": "9 AM to 1 PM"
      },
      {
        "day": "Sunday",
        "hours": "Closed"
      }
    ],
    "peopleAlsoSearch": [],
    "placesTags": [],
    "reviewsTags": [],
    "additionalInfo": {
      "Service options": [
        {
          "Delivery": true
        },
        {
          "In-store pickup": true
        },
        {
          "In-store shopping": true
        },
        {
          "Same-day delivery": true
        }
      ],
      "Accessibility": [
        {
          "Wheelchair accessible entrance": true
        },
        {
          "Wheelchair accessible parking lot": true
        }
      ],
      "Planning": [
        {
          "Quick visit": true
        }
      ],
      "Payments": [
        {
          "Credit cards": true
        },
        {
          "Debit cards": true
        },
        {
          "NFC mobile payments": true
        },
        {
          "Credit cards": true
        }
      ]
    },
    "gasPrices": [],
    "url": "https://www.google.com/maps/search/?api=1&query=Medicine%20Shoppe&query_place_id=ChIJPx2dKIFFE4cRxzryc_ZQMOQ",
    "searchPageUrl": "https://www.google.com/maps/search/independent%20pharmacy%20Colorado%20Springs%20CO/@63.653579074253855,-140.45172212891654,9z?hl=en",
    "searchString": "independent pharmacy Colorado Springs CO",
    "language": "en",
    "rank": 6,
    "isAdvertisement": false,
    "imageUrl": "https://lh3.googleusercontent.com/p/AF1QipN8wYUBSrRFV4izOvhHRFEcIPvGxviDkkgGlTxC=w408-h306-k-no",
    "kgmid": "/g/1tk1nfr_"
  },
  {
    "title": "Genoa Healthcare",
    "price": null,
    "categoryName": "Pharmacy",
    "address": "875 W Moreno Ave, Colorado Springs, CO 80905",
    "neighborhood": null,
    "street": "875 W Moreno Ave",
    "city": "Colorado Springs",
    "postalCode": "80905",
    "state": "Colorado",
    "countryCode": "US",
    "website": "http://www.genoahealthcare.com/",
    "phone": "(719) 630-3421",
    "phoneUnformatted": "+17196303421",
    "claimThisBusiness": false,
    "location": {
      "lat": 38.8247934,
      "lng": -104.8422741
    },
    "totalScore": 4.2,
    "permanentlyClosed": false,
    "temporarilyClosed": false,
    "placeId": "ChIJm0QaVipFE4cR9mZrTTPg6FI",
    "categories": [
      "Pharmacy"
    ],
    "fid": "0x8713452a561a449b:0x52e8e0334d6b66f6",
    "cid": "5974271416653801206",
    "reviewsCount": 18,
    "imagesCount": 1,
    "imageCategories": [],
    "scrapedAt": "2025-06-22T04:17:43.920Z",
    "googleFoodUrl": null,
    "hotelAds": [],
    "openingHours": [
      {
        "day": "Monday",
        "hours": "8:30 AM to 5 PM"
      },
      {
        "day": "Tuesday",
        "hours": "8:30 AM to 5 PM"
      },
      {
        "day": "Wednesday",
        "hours": "8:30 AM to 5 PM"
      },
      {
        "day": "Thursday",
        "hours": "8:30 AM to 5 PM"
      },
      {
        "day": "Friday",
        "hours": "8:30 AM to 5 PM"
      },
      {
        "day": "Saturday",
        "hours": "Closed"
      },
      {
        "day": "Sunday",
        "hours": "Closed"
      }
    ],
    "peopleAlsoSearch": [],
    "placesTags": [],
    "reviewsTags": [],
    "additionalInfo": {
      "Service options": [
        {
          "Delivery": true
        }
      ],
      "Accessibility": [
        {
          "Wheelchair accessible entrance": true
        },
        {
          "Wheelchair accessible parking lot": true
        }
      ],
      "Payments": [
        {
          "Credit cards": true
        }
      ]
    },
    "gasPrices": [],
    "url": "https://www.google.com/maps/search/?api=1&query=Genoa%20Healthcare&query_place_id=ChIJm0QaVipFE4cR9mZrTTPg6FI",
    "searchPageUrl": "https://www.google.com/maps/search/independent%20pharmacy%20Colorado%20Springs%20CO/@52.14797767021313,-175.18989231722472,11z?hl=en",
    "searchString": "independent pharmacy Colorado Springs CO",
    "language": "en",
    "rank": 6,
    "isAdvertisement": false,
    "imageUrl": "https://streetviewpixels-pa.googleapis.com/v1/thumbnail?panoid=1GGHGOJkL8PlxeedPw8Wbw&cb_client=search.gws-prod.gps&w=408&h=240&yaw=126.37833&pitch=0&thumbfov=100",
    "kgmid": "/g/11c5gh251m"
  },
  {
    "title": "TLC Pharmacy",
    "price": null,
    "categoryName": "Pharmacy",
    "address": "555 E Costilla St, Colorado Springs, CO 80903",
    "neighborhood": "Southeast Colorado Springs",
    "street": "555 E Costilla St",
    "city": "Colorado Springs",
    "postalCode": "80903",
    "state": "Colorado",
    "countryCode": "US",
    "phone": "(719) 596-4449",
    "phoneUnformatted": "+17195964449",
    "claimThisBusiness": true,
    "location": {
      "lat": 38.8275712,
      "lng": -104.8135651
    },
    "totalScore": 4.8,
    "permanentlyClosed": false,
    "temporarilyClosed": false,
    "placeId": "ChIJv5AOnx1FE4cRFe3tIgS5EvU",
    "categories": [
      "Pharmacy"
    ],
    "fid": "0x8713451d9f0e90bf:0xf512b90422eded15",
    "cid": "17659380516290161941",
    "reviewsCount": 6,
    "imagesCount": 2,
    "imageCategories": [],
    "scrapedAt": "2025-06-22T04:17:50.638Z",
    "googleFoodUrl": null,
    "hotelAds": [],
    "openingHours": [
      {
        "day": "Monday",
        "hours": "Closed"
      },
      {
        "day": "Tuesday",
        "hours": "5 to 9 PM"
      },
      {
        "day": "Wednesday",
        "hours": "Closed"
      },
      {
        "day": "Thursday",
        "hours": "10 AM to 2 PM"
      },
      {
        "day": "Friday",
        "hours": "Closed"
      },
      {
        "day": "Saturday",
        "hours": "9 AM to 1 PM"
      },
      {
        "day": "Sunday",
        "hours": "Closed"
      }
    ],
    "peopleAlsoSearch": [],
    "placesTags": [],
    "reviewsTags": [],
    "additionalInfo": {
      "Accessibility": [
        {
          "Wheelchair accessible entrance": true
        },
        {
          "Wheelchair accessible parking lot": true
        }
      ]
    },
    "gasPrices": [],
    "url": "https://www.google.com/maps/search/?api=1&query=TLC%20Pharmacy&query_place_id=ChIJv5AOnx1FE4cRFe3tIgS5EvU",
    "searchPageUrl": "https://www.google.com/maps/search/independent%20pharmacy%20Colorado%20Springs%20CO/@23.24965929716541,-161.85289204136058,13z?hl=en",
    "searchString": "independent pharmacy Colorado Springs CO",
    "language": "en",
    "rank": 6,
    "isAdvertisement": false,
    "imageUrl": "https://lh3.googleusercontent.com/gps-cs-s/AC9h4nqiSgg03fCOi62MfjhFI7ACSCJjFc0ZDaeOLMhcSLSJ706VdQGrcP1v6WgTEO9kE52VoV2k929NIhCxb0utPGRYNIGWu-V5XCD-VAWXEFU7nVqURaMxbJ_RqT6QQywfsPQGuRVarA=w408-h306-k-no",
    "kgmid": "/g/113d_kkmg"
  },
  {
    "title": "Patrick Scheels, PharmD",
    "price": null,
    "categoryName": "Pharmacy",
    "address": "2431 N Union Blvd, Colorado Springs, CO 80909",
    "neighborhood": "East Colorado Springs",
    "street": "2431 N Union Blvd",
    "city": "Colorado Springs",
    "postalCode": "80909",
    "state": "Colorado",
    "countryCode": "US",
    "website": "https://northunion.medicineshoppe.com/about",
    "phone": "(719) 630-3154",
    "phoneUnformatted": "+17196303154",
    "claimThisBusiness": true,
    "location": {
      "lat": 38.8671841,
      "lng": -104.7936072
    },
    "permanentlyClosed": false,
    "temporarilyClosed": false,
    "placeId": "ChIJ1YFuKIFFE4cRSQfQBLtQsRM",
    "categories": [
      "Pharmacy"
    ],
    "fid": "0x87134581286e81d5:0x13b150bb04d00749",
    "cid": "1419004121768265545",
    "reviewsCount": 0,
    "imagesCount": 1,
    "imageCategories": [],
    "scrapedAt": "2025-06-22T04:17:50.638Z",
    "googleFoodUrl": null,
    "hotelAds": [],
    "openingHours": [
      {
        "day": "Monday",
        "hours": "9 AM to 6 PM"
      },
      {
        "day": "Tuesday",
        "hours": "9 AM to 6 PM"
      },
      {
        "day": "Wednesday",
        "hours": "9 AM to 6 PM"
      },
      {
        "day": "Thursday",
        "hours": "9 AM to 6 PM"
      },
      {
        "day": "Friday",
        "hours": "9 AM to 6 PM"
      },
      {
        "day": "Saturday",
        "hours": "9 AM to 1 PM"
      },
      {
        "day": "Sunday",
        "hours": "Closed"
      }
    ],
    "peopleAlsoSearch": [],
    "placesTags": [],
    "reviewsTags": [],
    "additionalInfo": {
      "Service options": [
        {
          "Delivery": true
        },
        {
          "Same-day delivery": true
        }
      ],
      "Accessibility": [
        {
          "Wheelchair accessible entrance": true
        },
        {
          "Wheelchair accessible parking lot": true
        }
      ],
      "Payments": [
        {
          "Credit cards": true
        }
      ]
    },
    "gasPrices": [],
    "url": "https://www.google.com/maps/search/?api=1&query=Patrick%20Scheels%2C%20PharmD&query_place_id=ChIJ1YFuKIFFE4cRSQfQBLtQsRM",
    "searchPageUrl": "https://www.google.com/maps/search/independent%20pharmacy%20Colorado%20Springs%20CO/@23.24965929716541,-161.85289204136058,13z?hl=en",
    "searchString": "independent pharmacy Colorado Springs CO",
    "language": "en",
    "rank": 7,
    "isAdvertisement": false,
    "imageUrl": "https://streetviewpixels-pa.googleapis.com/v1/thumbnail?panoid=Sn0Gl8Dbfja4gkA_egqYxg&cb_client=search.gws-prod.gps&w=408&h=240&yaw=310.41876&pitch=0&thumbfov=100",
    "kgmid": "/g/11qh5h0nrp"
  },
  {
    "title": "Peak Vista Pharmacy",
    "price": null,
    "categoryName": "Pharmacy",
    "address": "225 S Union Blvd #225, Colorado Springs, CO 80910",
    "neighborhood": "Southeast Colorado Springs",
    "street": "225 S Union Blvd #225",
    "city": "Colorado Springs",
    "postalCode": "80910",
    "state": "Colorado",
    "countryCode": "US",
    "website": "https://www.peakvista.org/services/pharmacy",
    "phone": "(719) 344-6464",
    "phoneUnformatted": "+17193446464",
    "claimThisBusiness": true,
    "location": {
      "lat": 38.8283774,
      "lng": -104.7941207
    },
    "totalScore": 4.3,
    "permanentlyClosed": false,
    "temporarilyClosed": false,
    "placeId": "ChIJ93AowM1FE4cRBshd81L-Y48",
    "categories": [
      "Pharmacy"
    ],
    "fid": "0x871345cdc02870f7:0x8f63fe52f35dc806",
    "cid": "10332381602341832710",
    "reviewsCount": 6,
    "imagesCount": 1,
    "imageCategories": [],
    "scrapedAt": "2025-06-22T04:17:50.638Z",
    "googleFoodUrl": null,
    "hotelAds": [],
    "openingHours": [
      {
        "day": "Monday",
        "hours": "8:30 AM to 12:30 PM, 1:30 to 5:30 PM"
      },
      {
        "day": "Tuesday",
        "hours": "8:30 AM to 12:30 PM, 1:30 to 5:30 PM"
      },
      {
        "day": "Wednesday",
        "hours": "8:30 AM to 12:30 PM, 1:30 to 5:30 PM"
      },
      {
        "day": "Thursday",
        "hours": "8:30 AM to 12:30 PM, 1:30 to 5:30 PM"
      },
      {
        "day": "Friday",
        "hours": "8:30 AM to 12:30 PM, 1:30 to 5:30 PM"
      },
      {
        "day": "Saturday",
        "hours": "Closed"
      },
      {
        "day": "Sunday",
        "hours": "Closed"
      }
    ],
    "peopleAlsoSearch": [],
    "placesTags": [],
    "reviewsTags": [],
    "additionalInfo": {
      "Accessibility": [
        {
          "Wheelchair accessible entrance": true
        },
        {
          "Wheelchair accessible parking lot": true
        }
      ],
      "Payments": [
        {
          "Credit cards": true
        },
        {
          "Debit cards": true
        },
        {
          "NFC mobile payments": true
        },
        {
          "Credit cards": true
        }
      ]
    },
    "gasPrices": [],
    "url": "https://www.google.com/maps/search/?api=1&query=Peak%20Vista%20Pharmacy&query_place_id=ChIJ93AowM1FE4cRBshd81L-Y48",
    "searchPageUrl": "https://www.google.com/maps/search/independent%20pharmacy%20Colorado%20Springs%20CO/@23.24965929716541,-161.85289204136058,13z?hl=en",
    "searchString": "independent pharmacy Colorado Springs CO",
    "language": "en",
    "rank": 8,
    "isAdvertisement": false,
    "imageUrl": "https://streetviewpixels-pa.googleapis.com/v1/thumbnail?panoid=fKm0HsqVgMdykbjdZoxjRg&cb_client=search.gws-prod.gps&w=408&h=240&yaw=299.1851&pitch=0&thumbfov=100",
    "kgmid": "/g/11trp9zc31"
  }
]