[
  {
    "title": "Medical Clinic Pharmacy",
    "price": null,
    "categoryName": "Pharmacy",
    "address": "315 E Elm St #150, Caldwell, ID 83605",
    "neighborhood": null,
    "street": "315 E Elm St #150",
    "city": "Caldwell",
    "postalCode": "83605",
    "state": "Idaho",
    "countryCode": "US",
    "website": "http://www.medicalclinicpharmacy.com/",
    "phone": "(208) 459-1503",
    "phoneUnformatted": "+12084591503",
    "claimThisBusiness": false,
    "location": {
      "lat": 43.6540593,
      "lng": -116.6938514
    },
    "totalScore": 4.7,
    "permanentlyClosed": false,
    "temporarilyClosed": false,
    "placeId": "ChIJQ4N3y0G0r1QRlwSBpsu5MzM",
    "categories": [
      "Pharmacy"
    ],
    "fid": "0x54afb441cb778343:0x3333b9cba6810497",
    "cid": "3689496804069541015",
    "reviewsCount": 70,
    "imagesCount": 10,
    "imageCategories": [],
    "scrapedAt": "2025-06-22T07:50:35.855Z",
    "googleFoodUrl": null,
    "hotelAds": [],
    "openingHours": [
      {
        "day": "Monday",
        "hours": "8 AM to 6 PM"
      },
      {
        "day": "Tuesday",
        "hours": "8 AM to 6 PM"
      },
      {
        "day": "Wednesday",
        "hours": "8 AM to 6 PM"
      },
      {
        "day": "Thursday",
        "hours": "8 AM to 6 PM"
      },
      {
        "day": "Friday",
        "hours": "8 AM to 6 PM"
      },
      {
        "day": "Saturday",
        "hours": "9 AM to 2 PM"
      },
      {
        "day": "Sunday",
        "hours": "Closed"
      }
    ],
    "peopleAlsoSearch": [],
    "placesTags": [],
    "reviewsTags": [],
    "additionalInfo": {
      "From the business": [
        {
          "Small business": true
        }
      ],
      "Service options": [
        {
          "Delivery": true
        },
        {
          "Drive-through": true
        },
        {
          "In-store pickup": true
        },
        {
          "Same-day delivery": true
        }
      ],
      "Accessibility": [
        {
          "Wheelchair accessible entrance": true
        },
        {
          "Wheelchair accessible parking lot": true
        }
      ],
      "Amenities": [
        {
          "Wi-Fi": true
        },
        {
          "Free Wi-Fi": true
        }
      ],
      "Planning": [
        {
          "Quick visit": true
        }
      ],
      "Payments": [
        {
          "Credit cards": true
        },
        {
          "Debit cards": true
        },
        {
          "NFC mobile payments": true
        },
        {
          "Credit cards": true
        }
      ]
    },
    "gasPrices": [],
    "url": "https://www.google.com/maps/search/?api=1&query=Medical%20Clinic%20Pharmacy&query_place_id=ChIJQ4N3y0G0r1QRlwSBpsu5MzM",
    "searchPageUrl": "https://www.google.com/maps/search/independent%20pharmacy%20Caldwell%20ID/@55.584301372022004,-157.33936736968505,13z?hl=en",
    "searchString": "independent pharmacy Caldwell ID",
    "language": "en",
    "rank": 1,
    "isAdvertisement": false,
    "imageUrl": "https://lh3.googleusercontent.com/p/AF1QipNFNkXB-nSWARbqcLW8o5cKVyECaUy9q7KRv49W=w412-h240-k-no",
    "kgmid": "/g/1th5c93c"
  },
  {
    "title": "Medicap Pharmacy",
    "price": null,
    "categoryName": "Pharmacy",
    "address": "4618 Beacon Ln #100, Caldwell, ID 83605",
    "neighborhood": null,
    "street": "4618 Beacon Ln #100",
    "city": "Caldwell",
    "postalCode": "83605",
    "state": "Idaho",
    "countryCode": "US",
    "website": "https://www.medicapidaho.com/",
    "phone": "(208) 204-5900",
    "phoneUnformatted": "+12082045900",
    "claimThisBusiness": false,
    "location": {
      "lat": 43.663478,
      "lng": -116.641324
    },
    "totalScore": 4.9,
    "permanentlyClosed": false,
    "temporarilyClosed": false,
    "placeId": "ChIJSxCRl8izr1QR7xOa80kz1yU",
    "categories": [
      "Pharmacy"
    ],
    "fid": "0x54afb3c89791104b:0x25d73349f39a13ef",
    "cid": "2726704492108714991",
    "reviewsCount": 55,
    "imagesCount": 2,
    "imageCategories": [],
    "scrapedAt": "2025-06-22T07:50:35.857Z",
    "googleFoodUrl": null,
    "hotelAds": [],
    "openingHours": [
      {
        "day": "Monday",
        "hours": "9 AM to 6 PM"
      },
      {
        "day": "Tuesday",
        "hours": "9 AM to 6 PM"
      },
      {
        "day": "Wednesday",
        "hours": "9 AM to 6 PM"
      },
      {
        "day": "Thursday",
        "hours": "9 AM to 6 PM"
      },
      {
        "day": "Friday",
        "hours": "9 AM to 6 PM"
      },
      {
        "day": "Saturday",
        "hours": "9 AM to 1 PM"
      },
      {
        "day": "Sunday",
        "hours": "Closed"
      }
    ],
    "peopleAlsoSearch": [],
    "placesTags": [],
    "reviewsTags": [],
    "additionalInfo": {
      "Service options": [
        {
          "Delivery": true
        },
        {
          "Drive-through": true
        }
      ],
      "Accessibility": [
        {
          "Wheelchair accessible entrance": true
        },
        {
          "Wheelchair accessible parking lot": true
        }
      ],
      "Payments": [
        {
          "Credit cards": true
        },
        {
          "Debit cards": true
        },
        {
          "NFC mobile payments": true
        },
        {
          "Credit cards": true
        }
      ]
    },
    "gasPrices": [],
    "url": "https://www.google.com/maps/search/?api=1&query=Medicap%20Pharmacy&query_place_id=ChIJSxCRl8izr1QR7xOa80kz1yU",
    "searchPageUrl": "https://www.google.com/maps/search/independent%20pharmacy%20Caldwell%20ID/@55.584301372022004,-157.33936736968505,13z?hl=en",
    "searchString": "independent pharmacy Caldwell ID",
    "language": "en",
    "rank": 2,
    "isAdvertisement": false,
    "imageUrl": "https://lh3.googleusercontent.com/p/AF1QipMEq5qGmV093d35rY-NfqLpRp2qKXJ1KbXCWeJ_=w408-h306-k-no",
    "kgmid": "/g/11t1905xhj"
  },
  {
    "title": "Terry Reilly Health Services Pharmacy - Caldwell",
    "price": null,
    "categoryName": "Pharmacy",
    "address": "808 Cleveland Blvd, Caldwell, ID 83605",
    "neighborhood": null,
    "street": "808 Cleveland Blvd",
    "city": "Caldwell",
    "postalCode": "83605",
    "state": "Idaho",
    "countryCode": "US",
    "website": "http://www.trhs.org/",
    "phone": "(208) 318-1334",
    "phoneUnformatted": "+12083181334",
    "claimThisBusiness": false,
    "location": {
      "lat": 43.6640669,
      "lng": -116.689686
    },
    "totalScore": 5,
    "permanentlyClosed": false,
    "temporarilyClosed": false,
    "placeId": "ChIJS_U5TPa1r1QRt3gpSvfWd9Q",
    "categories": [
      "Pharmacy"
    ],
    "fid": "0x54afb5f64c39f54b:0xd477d6f74a2978b7",
    "cid": "15309941815858788535",
    "reviewsCount": 3,
    "imagesCount": 7,
    "imageCategories": [],
    "scrapedAt": "2025-06-22T07:50:35.857Z",
    "googleFoodUrl": null,
    "hotelAds": [],
    "openingHours": [
      {
        "day": "Monday",
        "hours": "8 AM to 6 PM"
      },
      {
        "day": "Tuesday",
        "hours": "8 AM to 6 PM"
      },
      {
        "day": "Wednesday",
        "hours": "8 AM to 6 PM"
      },
      {
        "day": "Thursday",
        "hours": "8 AM to 6 PM"
      },
      {
        "day": "Friday",
        "hours": "8 AM to 6 PM"
      },
      {
        "day": "Saturday",
        "hours": "Closed"
      },
      {
        "day": "Sunday",
        "hours": "Closed"
      }
    ],
    "peopleAlsoSearch": [],
    "placesTags": [],
    "reviewsTags": [],
    "additionalInfo": {
      "Service options": [
        {
          "In-store pickup": true
        }
      ],
      "Accessibility": [
        {
          "Wheelchair accessible entrance": true
        },
        {
          "Wheelchair accessible parking lot": true
        },
        {
          "Wheelchair accessible restroom": true
        },
        {
          "Wheelchair accessible seating": true
        }
      ],
      "Payments": [
        {
          "Credit cards": true
        }
      ]
    },
    "gasPrices": [],
    "url": "https://www.google.com/maps/search/?api=1&query=Terry%20Reilly%20Health%20Services%20Pharmacy%20-%20Caldwell&query_place_id=ChIJS_U5TPa1r1QRt3gpSvfWd9Q",
    "searchPageUrl": "https://www.google.com/maps/search/independent%20pharmacy%20Caldwell%20ID/@55.584301372022004,-157.33936736968505,13z?hl=en",
    "searchString": "independent pharmacy Caldwell ID",
    "language": "en",
    "rank": 3,
    "isAdvertisement": false,
    "imageUrl": "https://lh3.googleusercontent.com/p/AF1QipN0_r88NbQhYTsK4LduzuU3P2c_0TnuquZsQAev=w408-h306-k-no",
    "kgmid": "/g/11rwzslm5n"
  },
  {
    "title": "Walgreens Pharmacy",
    "description": "Department of the Walgreens chain providing prescription medications & other health-related items.",
    "price": "$$",
    "categoryName": "Pharmacy",
    "address": "4110 S 10th Ave, Caldwell, ID 83605",
    "neighborhood": null,
    "street": "4110 S 10th Ave",
    "city": "Caldwell",
    "postalCode": "83605",
    "state": "Idaho",
    "countryCode": "US",
    "website": "https://www.walgreens.com/locator/walgreens-4110+s+10th+ave-caldwell-id-83605/id=11541",
    "phone": "(208) 402-0154",
    "phoneUnformatted": "+12084020154",
    "claimThisBusiness": false,
    "location": {
      "lat": 43.6329322,
      "lng": -116.6937599
    },
    "totalScore": 3.6,
    "permanentlyClosed": false,
    "temporarilyClosed": false,
    "placeId": "ChIJh_LwXPm0r1QRC8hWZ4nQJIo",
    "categories": [
      "Pharmacy"
    ],
    "fid": "0x54afb4f95cf0f287:0x8a24d0896756c80b",
    "cid": "9954310364958476299",
    "reviewsCount": 10,
    "imagesCount": 3,
    "imageCategories": [],
    "scrapedAt": "2025-06-22T07:50:35.857Z",
    "googleFoodUrl": null,
    "hotelAds": [],
    "openingHours": [
      {
        "day": "Monday",
        "hours": "9 AM to 1:30 PM, 2 to 9 PM"
      },
      {
        "day": "Tuesday",
        "hours": "9 AM to 1:30 PM, 2 to 9 PM"
      },
      {
        "day": "Wednesday",
        "hours": "9 AM to 1:30 PM, 2 to 9 PM"
      },
      {
        "day": "Thursday",
        "hours": "9 AM to 1:30 PM, 2 to 9 PM"
      },
      {
        "day": "Friday",
        "hours": "9 AM to 1:30 PM, 2 to 9 PM"
      },
      {
        "day": "Saturday",
        "hours": "9 AM to 1:30 PM, 2 to 5 PM"
      },
      {
        "day": "Sunday",
        "hours": "9 AM to 1:30 PM, 2 to 5 PM"
      }
    ],
    "additionalOpeningHours": {
      "Drive through": [
        {
          "day": "Monday",
          "hours": "9 AM–1:30 PM"
        },
        {
          "day": "Tuesday",
          "hours": "9 AM–1:30 PM"
        },
        {
          "day": "Wednesday",
          "hours": "9 AM–1:30 PM"
        },
        {
          "day": "Thursday",
          "hours": "9 AM–1:30 PM"
        },
        {
          "day": "Friday",
          "hours": "9 AM–1:30 PM"
        },
        {
          "day": "Saturday",
          "hours": "9 AM–1:30 PM"
        },
        {
          "day": "Sunday",
          "hours": "9 AM–1:30 PM"
        }
      ]
    },
    "peopleAlsoSearch": [],
    "placesTags": [],
    "reviewsTags": [],
    "additionalInfo": {
      "Service options": [
        {
          "Drive-through": true
        },
        {
          "In-store pickup": true
        }
      ],
      "Accessibility": [
        {
          "Wheelchair accessible entrance": true
        },
        {
          "Wheelchair accessible parking lot": true
        }
      ],
      "Offerings": [
        {
          "Naloxone": true
        },
        {
          "Passport photos": true
        }
      ],
      "Planning": [
        {
          "Quick visit": true
        }
      ],
      "Payments": [
        {
          "Checks": true
        },
        {
          "Credit cards": true
        },
        {
          "Debit cards": true
        }
      ]
    },
    "gasPrices": [],
    "url": "https://www.google.com/maps/search/?api=1&query=Walgreens%20Pharmacy&query_place_id=ChIJh_LwXPm0r1QRC8hWZ4nQJIo",
    "searchPageUrl": "https://www.google.com/maps/search/independent%20pharmacy%20Caldwell%20ID/@55.584301372022004,-157.33936736968505,13z?hl=en",
    "searchString": "independent pharmacy Caldwell ID",
    "language": "en",
    "rank": 4,
    "isAdvertisement": false,
    "imageUrl": "https://lh3.googleusercontent.com/p/AF1QipML_zFkHFD9aiECyfu2AOe5TMf2fJv6JQDe_ziE=w525-h240-k-no",
    "kgmid": "/g/11cn93fyjq"
  },
  {
    "title": "Albertsons Pharmacy",
    "price": "$$",
    "categoryName": "Pharmacy",
    "address": "2500 Blaine St, Caldwell, ID 83605",
    "neighborhood": null,
    "street": "2500 Blaine St",
    "city": "Caldwell",
    "postalCode": "83605",
    "state": "Idaho",
    "countryCode": "US",
    "website": "https://local.pharmacy.albertsons.com/id/caldwell/2500-blaine-st.html",
    "phone": "(208) 454-0484",
    "phoneUnformatted": "+12084540484",
    "claimThisBusiness": false,
    "location": {
      "lat": 43.6522802,
      "lng": -116.6711757
    },
    "totalScore": 3.3,
    "permanentlyClosed": false,
    "temporarilyClosed": false,
    "placeId": "ChIJz0vpdXq0r1QR8NYIJg6h1E4",
    "categories": [
      "Pharmacy",
      "Drug store",
      "Vitamin & supplements store"
    ],
    "fid": "0x54afb47a75e94bcf:0x4ed4a10e2608d6f0",
    "cid": "5680342112160765680",
    "reviewsCount": 56,
    "imagesCount": 5,
    "imageCategories": [],
    "scrapedAt": "2025-06-22T07:50:35.857Z",
    "googleFoodUrl": null,
    "hotelAds": [],
    "openingHours": [
      {
        "day": "Monday",
        "hours": "8 AM to 8 PM"
      },
      {
        "day": "Tuesday",
        "hours": "8 AM to 8 PM"
      },
      {
        "day": "Wednesday",
        "hours": "8 AM to 8 PM"
      },
      {
        "day": "Thursday",
        "hours": "8 AM to 8 PM"
      },
      {
        "day": "Friday",
        "hours": "8 AM to 8 PM"
      },
      {
        "day": "Saturday",
        "hours": "9 AM to 6 PM"
      },
      {
        "day": "Sunday",
        "hours": "10 AM to 4 PM"
      }
    ],
    "peopleAlsoSearch": [],
    "placesTags": [],
    "reviewsTags": [],
    "additionalInfo": {
      "Service options": [
        {
          "Delivery": true
        },
        {
          "Drive-through": true
        },
        {
          "In-store pickup": true
        },
        {
          "In-store shopping": true
        },
        {
          "Onsite services": true
        },
        {
          "Same-day delivery": true
        }
      ],
      "Accessibility": [
        {
          "Wheelchair accessible entrance": true
        },
        {
          "Wheelchair accessible parking lot": true
        }
      ],
      "Crowd": [
        {
          "LGBTQ+ friendly": true
        }
      ],
      "Planning": [
        {
          "Appointment required": true
        },
        {
          "Quick visit": true
        }
      ],
      "Payments": [
        {
          "Checks": true
        },
        {
          "Debit cards": true
        },
        {
          "Credit cards": true
        }
      ]
    },
    "gasPrices": [],
    "url": "https://www.google.com/maps/search/?api=1&query=Albertsons%20Pharmacy&query_place_id=ChIJz0vpdXq0r1QR8NYIJg6h1E4",
    "searchPageUrl": "https://www.google.com/maps/search/independent%20pharmacy%20Caldwell%20ID/@55.584301372022004,-157.33936736968505,13z?hl=en",
    "searchString": "independent pharmacy Caldwell ID",
    "language": "en",
    "rank": 5,
    "isAdvertisement": false,
    "imageUrl": "https://lh3.googleusercontent.com/p/AF1QipNHiWmTZYBikUaB5VChjyiemfpzXD4pW6l8DDBz=w427-h240-k-no",
    "kgmid": "/g/1wd3vsbl"
  },
  {
    "title": "Walgreens Pharmacy",
    "description": "Department of the Walgreens chain providing prescription medications & other health-related items.",
    "price": "$$",
    "categoryName": "Pharmacy",
    "address": "1012 Cleveland Blvd, Caldwell, ID 83605",
    "neighborhood": null,
    "street": "1012 Cleveland Blvd",
    "city": "Caldwell",
    "postalCode": "83605",
    "state": "Idaho",
    "countryCode": "US",
    "website": "https://www.walgreens.com/locator/walgreens-1012+cleveland+blvd-caldwell-id-83605/id=7276",
    "phone": "(208) 455-1792",
    "phoneUnformatted": "+12084551792",
    "claimThisBusiness": false,
    "location": {
      "lat": 43.6620372,
      "lng": -116.6874723
    },
    "totalScore": 3.8,
    "permanentlyClosed": false,
    "temporarilyClosed": false,
    "placeId": "ChIJkWiZFBK0r1QRPuTK6fwpuD8",
    "categories": [
      "Pharmacy"
    ],
    "fid": "0x54afb41214996891:0x3fb829fce9cae43e",
    "cid": "4591465986335106110",
    "reviewsCount": 19,
    "imagesCount": 4,
    "imageCategories": [],
    "scrapedAt": "2025-06-22T07:50:35.857Z",
    "googleFoodUrl": null,
    "hotelAds": [],
    "openingHours": [
      {
        "day": "Monday",
        "hours": "9 AM to 1:30 PM, 2 to 9 PM"
      },
      {
        "day": "Tuesday",
        "hours": "9 AM to 1:30 PM, 2 to 9 PM"
      },
      {
        "day": "Wednesday",
        "hours": "9 AM to 1:30 PM, 2 to 9 PM"
      },
      {
        "day": "Thursday",
        "hours": "9 AM to 1:30 PM, 2 to 9 PM"
      },
      {
        "day": "Friday",
        "hours": "9 AM to 1:30 PM, 2 to 9 PM"
      },
      {
        "day": "Saturday",
        "hours": "9 AM to 1:30 PM, 2 to 5 PM"
      },
      {
        "day": "Sunday",
        "hours": "9 AM to 1:30 PM, 2 to 5 PM"
      }
    ],
    "additionalOpeningHours": {
      "Drive through": [
        {
          "day": "Monday",
          "hours": "9 AM–1:30 PM"
        },
        {
          "day": "Tuesday",
          "hours": "9 AM–1:30 PM"
        },
        {
          "day": "Wednesday",
          "hours": "9 AM–1:30 PM"
        },
        {
          "day": "Thursday",
          "hours": "9 AM–1:30 PM"
        },
        {
          "day": "Friday",
          "hours": "9 AM–1:30 PM"
        },
        {
          "day": "Saturday",
          "hours": "9 AM–1:30 PM"
        },
        {
          "day": "Sunday",
          "hours": "9 AM–1:30 PM"
        }
      ]
    },
    "peopleAlsoSearch": [],
    "placesTags": [],
    "reviewsTags": [],
    "additionalInfo": {
      "Service options": [
        {
          "Drive-through": true
        },
        {
          "In-store pickup": true
        }
      ],
      "Accessibility": [
        {
          "Wheelchair accessible entrance": true
        },
        {
          "Wheelchair accessible parking lot": true
        }
      ],
      "Offerings": [
        {
          "Naloxone": true
        }
      ],
      "Planning": [
        {
          "Quick visit": true
        }
      ],
      "Payments": [
        {
          "Credit cards": true
        },
        {
          "Debit cards": true
        }
      ]
    },
    "gasPrices": [],
    "url": "https://www.google.com/maps/search/?api=1&query=Walgreens%20Pharmacy&query_place_id=ChIJkWiZFBK0r1QRPuTK6fwpuD8",
    "searchPageUrl": "https://www.google.com/maps/search/independent%20pharmacy%20Caldwell%20ID/@55.584301372022004,-157.33936736968505,13z?hl=en",
    "searchString": "independent pharmacy Caldwell ID",
    "language": "en",
    "rank": 6,
    "isAdvertisement": false,
    "imageUrl": "https://lh3.googleusercontent.com/gps-cs-s/AC9h4nq0OOeelYQ3a3hnnWqZ-vY49h7YtMLx6hYesLVbvVvHdFl9da6Z_tJI1Zi0HSSKopRLN3kJn5tgC0a9U3cOumivt4PvJPbDhnzoBsLwT0B3DWABXWCTBiTJY17tJ9DEouu2m57G=w426-h240-k-no",
    "kgmid": "/g/11cn95crh4"
  },
  {
    "title": "Albertsons Pharmacy",
    "price": "$$",
    "categoryName": "Pharmacy",
    "address": "415 Cleveland Blvd, Caldwell, ID 83605",
    "neighborhood": null,
    "street": "415 Cleveland Blvd",
    "city": "Caldwell",
    "postalCode": "83605",
    "state": "Idaho",
    "countryCode": "US",
    "website": "https://local.pharmacy.albertsons.com/id/caldwell/415-cleveland-blvd.html",
    "phone": "(208) 459-1756",
    "phoneUnformatted": "+12084591756",
    "claimThisBusiness": false,
    "location": {
      "lat": 43.6672352,
      "lng": -116.6929579
    },
    "totalScore": 3.8,
    "permanentlyClosed": false,
    "temporarilyClosed": false,
    "placeId": "ChIJowgqoxq0r1QRnFxe_C7U-gc",
    "categories": [
      "Pharmacy",
      "Drug store",
      "Vitamin & supplements store"
    ],
    "fid": "0x54afb41aa32a08a3:0x7fad42efc5e5c9c",
    "cid": "575005200710786204",
    "reviewsCount": 22,
    "imagesCount": 4,
    "imageCategories": [],
    "scrapedAt": "2025-06-22T07:50:35.857Z",
    "googleFoodUrl": null,
    "hotelAds": [],
    "openingHours": [
      {
        "day": "Monday",
        "hours": "8 AM to 8 PM"
      },
      {
        "day": "Tuesday",
        "hours": "8 AM to 8 PM"
      },
      {
        "day": "Wednesday",
        "hours": "8 AM to 8 PM"
      },
      {
        "day": "Thursday",
        "hours": "8 AM to 8 PM"
      },
      {
        "day": "Friday",
        "hours": "8 AM to 8 PM"
      },
      {
        "day": "Saturday",
        "hours": "9 AM to 6 PM"
      },
      {
        "day": "Sunday",
        "hours": "10 AM to 4 PM"
      }
    ],
    "peopleAlsoSearch": [],
    "placesTags": [],
    "reviewsTags": [],
    "additionalInfo": {
      "Service options": [
        {
          "Delivery": true
        },
        {
          "In-store pickup": true
        },
        {
          "In-store shopping": true
        },
        {
          "Same-day delivery": true
        }
      ],
      "Accessibility": [
        {
          "Wheelchair accessible entrance": true
        },
        {
          "Wheelchair accessible parking lot": true
        }
      ],
      "Crowd": [
        {
          "LGBTQ+ friendly": true
        }
      ],
      "Planning": [
        {
          "Appointment required": true
        },
        {
          "Quick visit": true
        }
      ],
      "Payments": [
        {
          "Checks": true
        },
        {
          "Debit cards": true
        },
        {
          "Credit cards": true
        }
      ]
    },
    "gasPrices": [],
    "url": "https://www.google.com/maps/search/?api=1&query=Albertsons%20Pharmacy&query_place_id=ChIJowgqoxq0r1QRnFxe_C7U-gc",
    "searchPageUrl": "https://www.google.com/maps/search/independent%20pharmacy%20Caldwell%20ID/@55.584301372022004,-157.33936736968505,13z?hl=en",
    "searchString": "independent pharmacy Caldwell ID",
    "language": "en",
    "rank": 7,
    "isAdvertisement": false,
    "imageUrl": "https://lh3.googleusercontent.com/p/AF1QipMcTEPYB5SahDK57oIRDuTryY3RzAfiE_YQ0WLv=w427-h240-k-no",
    "kgmid": "/g/11cjkvs97_"
  },
  {
    "title": "Rite Aid",
    "price": "$$",
    "categoryName": "Drug store",
    "address": "2107 Blaine St, Caldwell, ID 83605",
    "neighborhood": null,
    "street": "2107 Blaine St",
    "city": "Caldwell",
    "postalCode": "83605",
    "state": "Idaho",
    "countryCode": "US",
    "website": "https://www.riteaid.com/locations/id/caldwell/2107-blaine-street.html",
    "phone": "(208) 455-1094",
    "phoneUnformatted": "+12084551094",
    "claimThisBusiness": false,
    "location": {
      "lat": 43.6559941,
      "lng": -116.6744134
    },
    "totalScore": 3.4,
    "permanentlyClosed": false,
    "temporarilyClosed": false,
    "placeId": "ChIJI0fU5Xu0r1QRaGVgjxDGdLE",
    "categories": [
      "Drug store",
      "Beauty supply store",
      "Convenience store",
      "General store",
      "Greeting card shop"
    ],
    "fid": "0x54afb47be5d44723:0xb174c6108f606568",
    "cid": "12787063016438916456",
    "reviewsCount": 68,
    "imagesCount": 21,
    "imageCategories": [],
    "scrapedAt": "2025-06-22T07:50:35.857Z",
    "googleFoodUrl": null,
    "hotelAds": [],
    "openingHours": [
      {
        "day": "Monday",
        "hours": "9 AM to 9 PM"
      },
      {
        "day": "Tuesday",
        "hours": "9 AM to 9 PM"
      },
      {
        "day": "Wednesday",
        "hours": "9 AM to 9 PM"
      },
      {
        "day": "Thursday",
        "hours": "9 AM to 9 PM"
      },
      {
        "day": "Friday",
        "hours": "9 AM to 9 PM"
      },
      {
        "day": "Saturday",
        "hours": "9 AM to 6 PM"
      },
      {
        "day": "Sunday",
        "hours": "10 AM to 6 PM"
      }
    ],
    "peopleAlsoSearch": [],
    "placesTags": [],
    "reviewsTags": [],
    "additionalInfo": {
      "Service options": [
        {
          "Delivery": true
        },
        {
          "Drive-through": true
        },
        {
          "In-store pickup": true
        },
        {
          "Onsite services": true
        }
      ],
      "Accessibility": [
        {
          "Wheelchair accessible parking lot": true
        }
      ],
      "Offerings": [
        {
          "Naloxone": true
        }
      ],
      "Planning": [
        {
          "Quick visit": true
        }
      ],
      "Payments": [
        {
          "Checks": true
        },
        {
          "Credit cards": true
        },
        {
          "Debit cards": true
        },
        {
          "NFC mobile payments": true
        },
        {
          "Credit cards": true
        }
      ]
    },
    "gasPrices": [],
    "url": "https://www.google.com/maps/search/?api=1&query=Rite%20Aid&query_place_id=ChIJI0fU5Xu0r1QRaGVgjxDGdLE",
    "searchPageUrl": "https://www.google.com/maps/search/independent%20pharmacy%20Caldwell%20ID/@55.584301372022004,-157.33936736968505,13z?hl=en",
    "searchString": "independent pharmacy Caldwell ID",
    "language": "en",
    "rank": 9,
    "isAdvertisement": false,
    "imageUrl": "https://lh3.googleusercontent.com/gps-cs-s/AC9h4nrQLTB8qdn4REPQDv5m2IXIySyYA_0jG_ShqEHSA-DkI5x4yd6g9SuUzYHJbdGy6QP6nmduS4OifYwQ3bjkJ4IAUk4ivp_MeXxRAq10_UygvqASP5HFJiF5Usdk5Ir14Ec4VFSj=w408-h306-k-no",
    "kgmid": "/g/11b7hg9y4b"
  },
  {
    "title": "Walmart Pharmacy",
    "price": "$",
    "categoryName": "Pharmacy",
    "address": "622 E Ustick Rd, Caldwell, ID 83605",
    "neighborhood": null,
    "street": "622 E Ustick Rd",
    "city": "Caldwell",
    "postalCode": "83605",
    "state": "Idaho",
    "countryCode": "US",
    "website": "https://www.walmart.com/store/4494-caldwell-id/pharmacy/?veh=seo_loc",
    "phone": "(208) 453-2852",
    "phoneUnformatted": "+12084532852",
    "claimThisBusiness": false,
    "location": {
      "lat": 43.6322484,
      "lng": -116.6913367
    },
    "totalScore": 3.2,
    "permanentlyClosed": false,
    "temporarilyClosed": false,
    "placeId": "ChIJfd0dg_m0r1QRGBT_8paWdZ8",
    "categories": [
      "Pharmacy",
      "Herbal medicine store",
      "Medical supply store",
      "Parapharmacy",
      "Vitamin & supplements store"
    ],
    "fid": "0x54afb4f9831ddd7d:0x9f759696f2ff1418",
    "cid": "11490255599371752472",
    "reviewsCount": 32,
    "imagesCount": 5,
    "imageCategories": [],
    "scrapedAt": "2025-06-22T07:50:35.858Z",
    "googleFoodUrl": null,
    "hotelAds": [],
    "openingHours": [
      {
        "day": "Monday",
        "hours": "9 AM to 7 PM"
      },
      {
        "day": "Tuesday",
        "hours": "9 AM to 7 PM"
      },
      {
        "day": "Wednesday",
        "hours": "9 AM to 7 PM"
      },
      {
        "day": "Thursday",
        "hours": "9 AM to 7 PM"
      },
      {
        "day": "Friday",
        "hours": "9 AM to 7 PM"
      },
      {
        "day": "Saturday",
        "hours": "9 AM to 7 PM"
      },
      {
        "day": "Sunday",
        "hours": "10 AM to 6 PM"
      }
    ],
    "peopleAlsoSearch": [],
    "placesTags": [],
    "reviewsTags": [],
    "additionalInfo": {
      "Service options": [
        {
          "Curbside pickup": true
        },
        {
          "Delivery": true
        },
        {
          "Drive-through": true
        },
        {
          "In-store pickup": true
        },
        {
          "In-store shopping": true
        }
      ],
      "Accessibility": [
        {
          "Wheelchair accessible entrance": true
        },
        {
          "Wheelchair accessible parking lot": true
        },
        {
          "Wheelchair accessible restroom": true
        }
      ],
      "Offerings": [
        {
          "Passport photos": true
        }
      ],
      "Amenities": [
        {
          "Wi-Fi": true
        },
        {
          "Free Wi-Fi": true
        }
      ],
      "Planning": [
        {
          "Quick visit": true
        }
      ],
      "Payments": [
        {
          "Credit cards": true
        },
        {
          "Debit cards": true
        },
        {
          "Credit cards": true
        }
      ]
    },
    "gasPrices": [],
    "url": "https://www.google.com/maps/search/?api=1&query=Walmart%20Pharmacy&query_place_id=ChIJfd0dg_m0r1QRGBT_8paWdZ8",
    "searchPageUrl": "https://www.google.com/maps/search/independent%20pharmacy%20Caldwell%20ID/@55.584301372022004,-157.33936736968505,13z?hl=en",
    "searchString": "independent pharmacy Caldwell ID",
    "language": "en",
    "rank": 10,
    "isAdvertisement": false,
    "imageUrl": "https://lh3.googleusercontent.com/p/AF1QipMpNX9MCba2zAyEwwiHwxTmXWBZzcD1oxTjzRso=w408-h306-k-no",
    "kgmid": "/g/11c20dnnp0"
  },
  {
    "title": "Walmart Pharmacy",
    "price": "$",
    "categoryName": "Pharmacy",
    "address": "5108 Cleveland Blvd, Caldwell, ID 83607",
    "neighborhood": null,
    "street": "5108 Cleveland Blvd",
    "city": "Caldwell",
    "postalCode": "83607",
    "state": "Idaho",
    "countryCode": "US",
    "website": "https://www.walmart.com/store/2780-caldwell-id/pharmacy/?veh=seo_loc",
    "phone": "(208) 455-0800",
    "phoneUnformatted": "+12084550800",
    "claimThisBusiness": false,
    "location": {
      "lat": 43.6316459,
      "lng": -116.6460373
    },
    "totalScore": 3.2,
    "permanentlyClosed": false,
    "temporarilyClosed": false,
    "placeId": "ChIJHa1pF5-0r1QRMskxAu-VhZA",
    "categories": [
      "Pharmacy",
      "Herbal medicine store",
      "Medical supply store",
      "Parapharmacy",
      "Vitamin & supplements store"
    ],
    "fid": "0x54afb49f1769ad1d:0x908595ef0231c932",
    "cid": "10413894567130679602",
    "reviewsCount": 29,
    "imagesCount": 5,
    "imageCategories": [],
    "scrapedAt": "2025-06-22T07:50:35.858Z",
    "googleFoodUrl": null,
    "hotelAds": [],
    "openingHours": [
      {
        "day": "Monday",
        "hours": "9 AM to 7 PM"
      },
      {
        "day": "Tuesday",
        "hours": "9 AM to 7 PM"
      },
      {
        "day": "Wednesday",
        "hours": "9 AM to 7 PM"
      },
      {
        "day": "Thursday",
        "hours": "9 AM to 7 PM"
      },
      {
        "day": "Friday",
        "hours": "9 AM to 7 PM"
      },
      {
        "day": "Saturday",
        "hours": "9 AM to 7 PM"
      },
      {
        "day": "Sunday",
        "hours": "10 AM to 6 PM"
      }
    ],
    "peopleAlsoSearch": [],
    "placesTags": [],
    "reviewsTags": [],
    "additionalInfo": {
      "Service options": [
        {
          "Delivery": true
        },
        {
          "In-store pickup": true
        },
        {
          "In-store shopping": true
        },
        {
          "Onsite services": true
        }
      ],
      "Accessibility": [
        {
          "Wheelchair accessible entrance": true
        },
        {
          "Wheelchair accessible parking lot": true
        },
        {
          "Wheelchair accessible restroom": true
        }
      ],
      "Offerings": [
        {
          "Passport photos": true
        }
      ],
      "Amenities": [
        {
          "Wi-Fi": true
        },
        {
          "Free Wi-Fi": true
        }
      ],
      "Planning": [
        {
          "Quick visit": true
        }
      ],
      "Payments": [
        {
          "Credit cards": true
        },
        {
          "Debit cards": true
        },
        {
          "Credit cards": true
        }
      ]
    },
    "gasPrices": [],
    "url": "https://www.google.com/maps/search/?api=1&query=Walmart%20Pharmacy&query_place_id=ChIJHa1pF5-0r1QRMskxAu-VhZA",
    "searchPageUrl": "https://www.google.com/maps/search/independent%20pharmacy%20Caldwell%20ID/@55.584301372022004,-157.33936736968505,13z?hl=en",
    "searchString": "independent pharmacy Caldwell ID",
    "language": "en",
    "rank": 11,
    "isAdvertisement": false,
    "imageUrl": "https://lh3.googleusercontent.com/p/AF1QipPIC06RtHgzQC-qR51UBEm1OB4yGMQC6yoiwJdc=w408-h306-k-no",
    "kgmid": "/g/1hf07h8f6"
  },
  {
    "title": "Rite Aid Pharmacy",
    "price": null,
    "categoryName": "Pharmacy",
    "address": "2107 Blaine St, Caldwell, ID 83605",
    "neighborhood": null,
    "street": "2107 Blaine St",
    "city": "Caldwell",
    "postalCode": "83605",
    "state": "Idaho",
    "countryCode": "US",
    "website": "https://www.riteaid.com/locations/id/caldwell/2107-blaine-street.html",
    "phone": "(208) 455-1094",
    "phoneUnformatted": "+12084551094",
    "claimThisBusiness": false,
    "location": {
      "lat": 43.6559941,
      "lng": -116.6744134
    },
    "totalScore": 5,
    "permanentlyClosed": false,
    "temporarilyClosed": true,
    "placeId": "ChIJaYll92q1r1QRz7ZlXF1oJ00",
    "categories": [
      "Pharmacy"
    ],
    "fid": "0x54afb56af7658969:0x4d27685d5c65b6cf",
    "cid": "5559527015203583695",
    "reviewsCount": 1,
    "imagesCount": 7,
    "imageCategories": [],
    "scrapedAt": "2025-06-22T07:50:35.858Z",
    "googleFoodUrl": null,
    "hotelAds": [],
    "openingHours": [],
    "additionalOpeningHours": {
      "Drive through": [
        {
          "day": "Monday",
          "hours": "9 AM–8 PM"
        },
        {
          "day": "Tuesday",
          "hours": "9 AM–8 PM"
        },
        {
          "day": "Wednesday",
          "hours": "9 AM–8 PM"
        },
        {
          "day": "Thursday",
          "hours": "9 AM–8 PM"
        },
        {
          "day": "Friday",
          "hours": "9 AM–8 PM"
        },
        {
          "day": "Saturday",
          "hours": "9 AM–6 PM"
        },
        {
          "day": "Sunday",
          "hours": "10 AM–6 PM"
        }
      ]
    },
    "peopleAlsoSearch": [],
    "placesTags": [],
    "reviewsTags": [],
    "additionalInfo": {
      "Service options": [
        {
          "Delivery": true
        },
        {
          "Drive-through": true
        },
        {
          "In-store pickup": true
        }
      ],
      "Accessibility": [
        {
          "Wheelchair accessible entrance": true
        },
        {
          "Wheelchair accessible parking lot": true
        }
      ],
      "Planning": [
        {
          "Quick visit": true
        }
      ],
      "Payments": [
        {
          "Checks": true
        },
        {
          "Credit cards": true
        },
        {
          "Debit cards": true
        },
        {
          "NFC mobile payments": true
        },
        {
          "Credit cards": true
        }
      ]
    },
    "gasPrices": [],
    "url": "https://www.google.com/maps/search/?api=1&query=Rite%20Aid%20Pharmacy&query_place_id=ChIJaYll92q1r1QRz7ZlXF1oJ00",
    "searchPageUrl": "https://www.google.com/maps/search/independent%20pharmacy%20Caldwell%20ID/@55.584301372022004,-157.33936736968505,13z?hl=en",
    "searchString": "independent pharmacy Caldwell ID",
    "language": "en",
    "rank": 12,
    "isAdvertisement": false,
    "imageUrl": "https://lh3.googleusercontent.com/p/AF1QipNi11-bmovHrAYrH7Zo5_oxT0fm_eis8d6SUWL1=w408-h406-k-no",
    "kgmid": "/g/11sw0lf6q3"
  },
  {
    "title": "Walgreens",
    "description": "Drugstore chain with health & beauty aids, prescriptions & photo services, plus mini-mart basics.",
    "price": "$$",
    "categoryName": "Drug store",
    "address": "1012 Cleveland Blvd, Caldwell, ID 83605",
    "neighborhood": null,
    "street": "1012 Cleveland Blvd",
    "city": "Caldwell",
    "postalCode": "83605",
    "state": "Idaho",
    "countryCode": "US",
    "website": "https://www.walgreens.com/locator/walgreens-1012+cleveland+blvd-caldwell-id-83605/id=7276",
    "phone": "(208) 455-1792",
    "phoneUnformatted": "+12084551792",
    "claimThisBusiness": false,
    "location": {
      "lat": 43.6620178,
      "lng": -116.6874795
    },
    "locatedIn": "Walgreens Pharmacy",
    "totalScore": 3.4,
    "permanentlyClosed": false,
    "temporarilyClosed": false,
    "placeId": "ChIJT-TSBBK0r1QRIyuAFpkdXUI",
    "categories": [
      "Drug store",
      "Beauty supply store",
      "Convenience store",
      "Cosmetics store",
      "Greeting card shop",
      "Perfume store",
      "Stationery store"
    ],
    "fid": "0x54afb41204d2e44f:0x425d1d9916802b23",
    "cid": "4782010922682034979",
    "reviewsCount": 81,
    "imagesCount": 9,
    "imageCategories": [],
    "scrapedAt": "2025-06-22T07:50:39.903Z",
    "googleFoodUrl": null,
    "hotelAds": [],
    "openingHours": [
      {
        "day": "Monday",
        "hours": "7 AM to 12 AM"
      },
      {
        "day": "Tuesday",
        "hours": "7 AM to 12 AM"
      },
      {
        "day": "Wednesday",
        "hours": "7 AM to 12 AM"
      },
      {
        "day": "Thursday",
        "hours": "7 AM to 12 AM"
      },
      {
        "day": "Friday",
        "hours": "7 AM to 12 AM"
      },
      {
        "day": "Saturday",
        "hours": "7 AM to 12 AM"
      },
      {
        "day": "Sunday",
        "hours": "7 AM to 12 AM"
      }
    ],
    "additionalOpeningHours": {
      "Walgreens Pharmacy": [
        {
          "day": "Monday",
          "hours": "9 AM–1:30 PM"
        },
        {
          "day": "Tuesday",
          "hours": "9 AM–1:30 PM"
        },
        {
          "day": "Wednesday",
          "hours": "9 AM–1:30 PM"
        },
        {
          "day": "Thursday",
          "hours": "9 AM–1:30 PM"
        },
        {
          "day": "Friday",
          "hours": "9 AM–1:30 PM"
        },
        {
          "day": "Saturday",
          "hours": "9 AM–1:30 PM"
        },
        {
          "day": "Sunday",
          "hours": "9 AM–1:30 PM"
        }
      ],
      "Walgreens Photo": [
        {
          "day": "Monday",
          "hours": "7 AM–12 AM"
        },
        {
          "day": "Tuesday",
          "hours": "7 AM–12 AM"
        },
        {
          "day": "Wednesday",
          "hours": "7 AM–12 AM"
        },
        {
          "day": "Thursday",
          "hours": "7 AM–12 AM"
        },
        {
          "day": "Friday",
          "hours": "7 AM–12 AM"
        },
        {
          "day": "Saturday",
          "hours": "7 AM–12 AM"
        },
        {
          "day": "Sunday",
          "hours": "7 AM–12 AM"
        }
      ],
      "Pickup": [
        {
          "day": "Monday",
          "hours": "7 AM–12 AM"
        },
        {
          "day": "Tuesday",
          "hours": "7 AM–12 AM"
        },
        {
          "day": "Wednesday",
          "hours": "7 AM–12 AM"
        },
        {
          "day": "Thursday",
          "hours": "7 AM–12 AM"
        },
        {
          "day": "Friday",
          "hours": "7 AM–12 AM"
        },
        {
          "day": "Saturday",
          "hours": "7 AM–12 AM"
        },
        {
          "day": "Sunday",
          "hours": "7 AM–12 AM"
        }
      ]
    },
    "peopleAlsoSearch": [],
    "placesTags": [],
    "reviewsTags": [],
    "additionalInfo": {
      "Service options": [
        {
          "Curbside pickup": true
        },
        {
          "Delivery": true
        },
        {
          "Drive-through": true
        },
        {
          "In-store pickup": true
        },
        {
          "Onsite services": true
        }
      ],
      "Accessibility": [
        {
          "Wheelchair accessible entrance": true
        },
        {
          "Wheelchair accessible parking lot": true
        }
      ],
      "Offerings": [
        {
          "Passport photos": true
        }
      ],
      "Planning": [
        {
          "Quick visit": true
        }
      ],
      "Payments": [
        {
          "Checks": true
        },
        {
          "Credit cards": true
        },
        {
          "Debit cards": true
        },
        {
          "NFC mobile payments": true
        },
        {
          "SNAP/EBT": true
        },
        {
          "Credit cards": true
        }
      ]
    },
    "gasPrices": [],
    "url": "https://www.google.com/maps/search/?api=1&query=Walgreens&query_place_id=ChIJT-TSBBK0r1QRIyuAFpkdXUI",
    "searchPageUrl": "https://www.google.com/maps/search/independent%20pharmacy%20Caldwell%20ID/@62.95881800455232,-153.11051097135197,9z?hl=en",
    "searchString": "independent pharmacy Caldwell ID",
    "language": "en",
    "rank": 10,
    "isAdvertisement": false,
    "imageUrl": "https://lh3.googleusercontent.com/gps-cs-s/AC9h4nqEsGuXMJ0_YadeIgu3gXdlc3mWXuREC20PnMZDVTqHL-PS45eSa1x7HUuA1C4oUXFVCQw_5D-3qqRf8Q_5bvN5jp_Gkc14YlOQFjwt9xRLYqouTgV1eRHApblGArx4BE8s_xJs=w408-h244-k-no",
    "kgmid": "/g/1vcq79w4"
  },
  {
    "title": "Caldwell Pharmacy",
    "price": null,
    "categoryName": "Pharmacy",
    "address": "808 Bloomfield Ave, West Caldwell, NJ 07006",
    "neighborhood": null,
    "street": "808 Bloomfield Ave",
    "city": "West Caldwell",
    "postalCode": "07006",
    "state": "New Jersey",
    "countryCode": "US",
    "website": "http://www.caldwellpharmacyrx.com/",
    "phone": "(973) 808-1800",
    "phoneUnformatted": "+19738081800",
    "claimThisBusiness": false,
    "location": {
      "lat": 40.8499865,
      "lng": -74.2961001
    },
    "totalScore": 4.8,
    "permanentlyClosed": false,
    "temporarilyClosed": false,
    "placeId": "ChIJTX2usWYBw4kRAfAt9e3E4-Y",
    "categories": [
      "Pharmacy"
    ],
    "fid": "0x89c30166b1ae7d4d:0xe6e3c4edf52df001",
    "cid": "16637357974736465921",
    "reviewsCount": 50,
    "imagesCount": 6,
    "imageCategories": [],
    "scrapedAt": "2025-06-22T07:50:40.787Z",
    "googleFoodUrl": null,
    "hotelAds": [],
    "openingHours": [
      {
        "day": "Monday",
        "hours": "9 AM to 8 PM"
      },
      {
        "day": "Tuesday",
        "hours": "9 AM to 8 PM"
      },
      {
        "day": "Wednesday",
        "hours": "9 AM to 8 PM"
      },
      {
        "day": "Thursday",
        "hours": "9 AM to 8 PM"
      },
      {
        "day": "Friday",
        "hours": "9 AM to 7 PM"
      },
      {
        "day": "Saturday",
        "hours": "10 AM to 4 PM"
      },
      {
        "day": "Sunday",
        "hours": "Closed"
      }
    ],
    "peopleAlsoSearch": [],
    "placesTags": [],
    "reviewsTags": [],
    "additionalInfo": {
      "From the business": [
        {
          "Small business": true
        }
      ],
      "Service options": [
        {
          "Delivery": true
        },
        {
          "In-store pickup": true
        }
      ],
      "Accessibility": [
        {
          "Wheelchair accessible entrance": true
        },
        {
          "Wheelchair accessible parking lot": true
        }
      ],
      "Planning": [
        {
          "Quick visit": true
        }
      ],
      "Payments": [
        {
          "Credit cards": true
        },
        {
          "Debit cards": true
        },
        {
          "Credit cards": true
        }
      ],
      "Parking": [
        {
          "On-site parking": true
        }
      ]
    },
    "gasPrices": [],
    "url": "https://www.google.com/maps/search/?api=1&query=Caldwell%20Pharmacy&query_place_id=ChIJTX2usWYBw4kRAfAt9e3E4-Y",
    "searchPageUrl": "https://www.google.com/maps/search/independent%20pharmacy%20Caldwell%20ID/@65.11578850760776,-167.73503139124153,13z?hl=en",
    "searchString": "independent pharmacy Caldwell ID",
    "language": "en",
    "rank": 11,
    "isAdvertisement": false,
    "imageUrl": "https://lh3.googleusercontent.com/p/AF1QipO3Zfhb8dGTY106HRASb6mxrLrtqf2nYRHw4fSP=w408-h272-k-no",
    "kgmid": "/g/11j4yfmpw9"
  },
  {
    "title": "Brookshire Brothers Pharmacy",
    "price": null,
    "categoryName": "Pharmacy",
    "address": "455 TX-36, Caldwell, TX 77836",
    "neighborhood": null,
    "street": "455 TX-36",
    "city": "Caldwell",
    "postalCode": "77836",
    "state": "Texas",
    "countryCode": "US",
    "website": "https://www.brookshirebrothers.com/store-location/store-44",
    "phone": "(979) 567-1446",
    "phoneUnformatted": "+19795671446",
    "claimThisBusiness": false,
    "location": {
      "lat": 30.5382566,
      "lng": -96.6999088
    },
    "totalScore": 3.3,
    "permanentlyClosed": false,
    "temporarilyClosed": false,
    "placeId": "ChIJPbp3O9g5RIYRwlT_O0lpt10",
    "categories": [
      "Pharmacy"
    ],
    "fid": "0x864439d83b77ba3d:0x5db769493bff54c2",
    "cid": "6752981929525466306",
    "reviewsCount": 8,
    "imagesCount": null,
    "imageCategories": [],
    "scrapedAt": "2025-06-22T07:50:45.776Z",
    "googleFoodUrl": null,
    "hotelAds": [],
    "openingHours": [
      {
        "day": "Monday",
        "hours": "8:30 AM to 6:30 PM"
      },
      {
        "day": "Tuesday",
        "hours": "8:30 AM to 6:30 PM"
      },
      {
        "day": "Wednesday",
        "hours": "8:30 AM to 6:30 PM"
      },
      {
        "day": "Thursday",
        "hours": "8:30 AM to 6:30 PM"
      },
      {
        "day": "Friday",
        "hours": "8:30 AM to 6:30 PM"
      },
      {
        "day": "Saturday",
        "hours": "9 AM to 2 PM"
      },
      {
        "day": "Sunday",
        "hours": "Closed"
      }
    ],
    "peopleAlsoSearch": [],
    "placesTags": [],
    "reviewsTags": [],
    "additionalInfo": {
      "Service options": [
        {
          "Drive-through": true
        },
        {
          "In-store pickup": true
        }
      ],
      "Accessibility": [
        {
          "Wheelchair accessible entrance": true
        },
        {
          "Wheelchair accessible parking lot": true
        }
      ],
      "Planning": [
        {
          "Quick visit": true
        }
      ],
      "Payments": [
        {
          "Credit cards": true
        }
      ]
    },
    "gasPrices": [],
    "url": "https://www.google.com/maps/search/?api=1&query=Brookshire%20Brothers%20Pharmacy&query_place_id=ChIJPbp3O9g5RIYRwlT_O0lpt10",
    "searchPageUrl": "https://www.google.com/maps/search/independent%20pharmacy%20Caldwell%20ID/@24.755066651789555,-82.87403485,12z?hl=en",
    "searchString": "independent pharmacy Caldwell ID",
    "language": "en",
    "rank": 5,
    "isAdvertisement": false,
    "kgmid": "/g/11c5zhn0hp"
  },
  {
    "title": "Caldwell Pharmacy",
    "price": null,
    "categoryName": "Pharmacy",
    "address": "7 N Main St, Caldwell, KS 67022",
    "neighborhood": null,
    "street": "7 N Main St",
    "city": "Caldwell",
    "postalCode": "67022",
    "state": "Kansas",
    "countryCode": "US",
    "website": "http://www.caldwellpharmacy.com/",
    "phone": "(620) 845-6916",
    "phoneUnformatted": "+16208456916",
    "claimThisBusiness": false,
    "location": {
      "lat": 37.0328564,
      "lng": -97.6071067
    },
    "totalScore": 5,
    "permanentlyClosed": false,
    "temporarilyClosed": false,
    "placeId": "ChIJ-UI4TwsIsIcRlE91OSg-_6A",
    "categories": [
      "Pharmacy",
      "Diabetes equipment supplier",
      "Drug store"
    ],
    "fid": "0x87b0080b4f3842f9:0xa0ff3e2839754f94",
    "cid": "11601059507613290388",
    "reviewsCount": 10,
    "imagesCount": 6,
    "imageCategories": [],
    "scrapedAt": "2025-06-22T07:50:45.776Z",
    "googleFoodUrl": null,
    "hotelAds": [],
    "openingHours": [
      {
        "day": "Monday",
        "hours": "9 AM to 5:30 PM"
      },
      {
        "day": "Tuesday",
        "hours": "9 AM to 5:30 PM"
      },
      {
        "day": "Wednesday",
        "hours": "9 AM to 5:30 PM"
      },
      {
        "day": "Thursday",
        "hours": "9 AM to 5:30 PM"
      },
      {
        "day": "Friday",
        "hours": "9 AM to 5:30 PM"
      },
      {
        "day": "Saturday",
        "hours": "Closed"
      },
      {
        "day": "Sunday",
        "hours": "Closed"
      }
    ],
    "peopleAlsoSearch": [],
    "placesTags": [],
    "reviewsTags": [],
    "additionalInfo": {
      "From the business": [
        {
          "Small business": true
        }
      ],
      "Service options": [
        {
          "Delivery": true
        },
        {
          "In-store pickup": true
        },
        {
          "In-store shopping": true
        },
        {
          "Same-day delivery": true
        }
      ],
      "Accessibility": [
        {
          "Wheelchair accessible entrance": true
        },
        {
          "Wheelchair accessible parking lot": true
        }
      ],
      "Planning": [
        {
          "Quick visit": true
        }
      ],
      "Payments": [
        {
          "Credit cards": true
        },
        {
          "Debit cards": true
        },
        {
          "NFC mobile payments": true
        },
        {
          "Credit cards": true
        }
      ]
    },
    "gasPrices": [],
    "url": "https://www.google.com/maps/search/?api=1&query=Caldwell%20Pharmacy&query_place_id=ChIJ-UI4TwsIsIcRlE91OSg-_6A",
    "searchPageUrl": "https://www.google.com/maps/search/independent%20pharmacy%20Caldwell%20ID/@24.755066651789555,-82.87403485,12z?hl=en",
    "searchString": "independent pharmacy Caldwell ID",
    "language": "en",
    "rank": 7,
    "isAdvertisement": false,
    "imageUrl": "https://lh3.googleusercontent.com/gps-cs-s/AC9h4nqEYw1g9S8uTEF8SM9P3-1VGhO9abNqBLGjhwXQVsCAH849xEsmNPkDZXl-caxpGK31yvMoUHDnF7UYsM1A2WNdyaNFZZidyG7P50N1uPYpAXtgQ3scLLsJoMWeS_OkT8cU2hXP=w408-h306-k-no",
    "kgmid": "/g/1v1tnlcy"
  },
  {
    "title": "Walgreens",
    "description": "Drugstore chain with health & beauty aids, prescriptions & photo services, plus mini-mart basics.",
    "price": "$$",
    "categoryName": "Drug store",
    "address": "4110 S 10th Ave, Caldwell, ID 83605",
    "neighborhood": null,
    "street": "4110 S 10th Ave",
    "city": "Caldwell",
    "postalCode": "83605",
    "state": "Idaho",
    "countryCode": "US",
    "website": "https://www.walgreens.com/locator/walgreens-4110+s+10th+ave-caldwell-id-83605/id=11541",
    "phone": "(208) 402-0154",
    "phoneUnformatted": "+12084020154",
    "claimThisBusiness": false,
    "location": {
      "lat": 43.6329284,
      "lng": -116.6937573
    },
    "locatedIn": "Walgreens Pharmacy",
    "totalScore": 3.3,
    "permanentlyClosed": false,
    "temporarilyClosed": false,
    "placeId": "ChIJOZvh5vu0r1QRSx6Ct8aEIzs",
    "categories": [
      "Drug store",
      "Beauty supply store",
      "Convenience store",
      "Cosmetics store",
      "Greeting card shop",
      "Perfume store",
      "Stationery store"
    ],
    "fid": "0x54afb4fbe6e19b39:0x3b2384c6b7821e4b",
    "cid": "4261395661439770187",
    "reviewsCount": 78,
    "imagesCount": 9,
    "imageCategories": [],
    "scrapedAt": "2025-06-22T07:50:47.244Z",
    "googleFoodUrl": null,
    "hotelAds": [],
    "openingHours": [
      {
        "day": "Monday",
        "hours": "7 AM to 10 PM"
      },
      {
        "day": "Tuesday",
        "hours": "7 AM to 10 PM"
      },
      {
        "day": "Wednesday",
        "hours": "7 AM to 10 PM"
      },
      {
        "day": "Thursday",
        "hours": "7 AM to 10 PM"
      },
      {
        "day": "Friday",
        "hours": "7 AM to 10 PM"
      },
      {
        "day": "Saturday",
        "hours": "7 AM to 10 PM"
      },
      {
        "day": "Sunday",
        "hours": "7 AM to 10 PM"
      }
    ],
    "additionalOpeningHours": {
      "Walgreens Pharmacy": [
        {
          "day": "Monday",
          "hours": "9 AM–1:30 PM"
        },
        {
          "day": "Tuesday",
          "hours": "9 AM–1:30 PM"
        },
        {
          "day": "Wednesday",
          "hours": "9 AM–1:30 PM"
        },
        {
          "day": "Thursday",
          "hours": "9 AM–1:30 PM"
        },
        {
          "day": "Friday",
          "hours": "9 AM–1:30 PM"
        },
        {
          "day": "Saturday",
          "hours": "9 AM–1:30 PM"
        },
        {
          "day": "Sunday",
          "hours": "9 AM–1:30 PM"
        }
      ],
      "Walgreens Photo": [
        {
          "day": "Monday",
          "hours": "7 AM–10 PM"
        },
        {
          "day": "Tuesday",
          "hours": "7 AM–10 PM"
        },
        {
          "day": "Wednesday",
          "hours": "7 AM–10 PM"
        },
        {
          "day": "Thursday",
          "hours": "7 AM–10 PM"
        },
        {
          "day": "Friday",
          "hours": "7 AM–10 PM"
        },
        {
          "day": "Saturday",
          "hours": "7 AM–10 PM"
        },
        {
          "day": "Sunday",
          "hours": "7 AM–10 PM"
        }
      ],
      "Pickup": [
        {
          "day": "Monday",
          "hours": "7 AM–10 PM"
        },
        {
          "day": "Tuesday",
          "hours": "7 AM–10 PM"
        },
        {
          "day": "Wednesday",
          "hours": "7 AM–10 PM"
        },
        {
          "day": "Thursday",
          "hours": "7 AM–10 PM"
        },
        {
          "day": "Friday",
          "hours": "7 AM–10 PM"
        },
        {
          "day": "Saturday",
          "hours": "7 AM–10 PM"
        },
        {
          "day": "Sunday",
          "hours": "7 AM–10 PM"
        }
      ]
    },
    "peopleAlsoSearch": [],
    "placesTags": [],
    "reviewsTags": [],
    "additionalInfo": {
      "Service options": [
        {
          "Curbside pickup": true
        },
        {
          "Delivery": true
        },
        {
          "Drive-through": true
        },
        {
          "In-store pickup": true
        },
        {
          "Onsite services": true
        }
      ],
      "Accessibility": [
        {
          "Wheelchair accessible entrance": true
        },
        {
          "Wheelchair accessible parking lot": true
        }
      ],
      "Planning": [
        {
          "Quick visit": true
        }
      ],
      "Payments": [
        {
          "Checks": true
        },
        {
          "Credit cards": true
        },
        {
          "Debit cards": true
        },
        {
          "NFC mobile payments": true
        },
        {
          "SNAP/EBT": true
        },
        {
          "Credit cards": true
        }
      ]
    },
    "gasPrices": [],
    "url": "https://www.google.com/maps/search/?api=1&query=Walgreens&query_place_id=ChIJOZvh5vu0r1QRSx6Ct8aEIzs",
    "searchPageUrl": "https://www.google.com/maps/search/independent%20pharmacy%20Caldwell%20ID/@53.23216302873083,-170.3724957564912,9z?hl=en",
    "searchString": "independent pharmacy Caldwell ID",
    "language": "en",
    "rank": 12,
    "isAdvertisement": false,
    "imageUrl": "https://lh3.googleusercontent.com/gps-cs-s/AC9h4nrWCycH9FQ3H6ppWeZsSXLTl6-eODCPbvbMh2KUpp2Eavusj3FGFUf5vhfdl3EFlIQORkgtbKODbqtdclrZNuJTcMVnlDaZOo9iq6GNqZZRA9ny57TONOGAbPAg1aqTsyfQF3dq=w408-h249-k-no",
    "kgmid": "/g/1tdxq58y"
  },
  {
    "title": "Reddish Pharmacy",
    "price": null,
    "categoryName": "Pharmacy",
    "address": "215 E Hawaii Ave #100, Nampa, ID 83686",
    "neighborhood": null,
    "street": "215 E Hawaii Ave #100",
    "city": "Nampa",
    "postalCode": "83686",
    "state": "Idaho",
    "countryCode": "US",
    "website": "https://www.reddishpharmacy.com/",
    "phone": "(208) 466-7823",
    "phoneUnformatted": "+12084667823",
    "claimThisBusiness": false,
    "location": {
      "lat": 43.554544,
      "lng": -116.570748
    },
    "totalScore": 4.9,
    "permanentlyClosed": false,
    "temporarilyClosed": false,
    "placeId": "ChIJnRLfMfxLrlQR2jCSx_adDf4",
    "categories": [
      "Pharmacy"
    ],
    "fid": "0x54ae4bfc31df129d:0xfe0d9df6c79230da",
    "cid": "18306461743566696666",
    "reviewsCount": 95,
    "imagesCount": 1,
    "imageCategories": [],
    "scrapedAt": "2025-06-22T07:51:03.197Z",
    "googleFoodUrl": null,
    "hotelAds": [],
    "openingHours": [
      {
        "day": "Monday",
        "hours": "9 AM to 6 PM"
      },
      {
        "day": "Tuesday",
        "hours": "9 AM to 6 PM"
      },
      {
        "day": "Wednesday",
        "hours": "9 AM to 6 PM"
      },
      {
        "day": "Thursday",
        "hours": "9 AM to 6 PM"
      },
      {
        "day": "Friday",
        "hours": "9 AM to 6 PM"
      },
      {
        "day": "Saturday",
        "hours": "9 AM to 12 PM"
      },
      {
        "day": "Sunday",
        "hours": "Closed"
      }
    ],
    "peopleAlsoSearch": [],
    "placesTags": [],
    "reviewsTags": [],
    "additionalInfo": {
      "From the business": [
        {
          "Small business": true
        }
      ],
      "Service options": [
        {
          "Curbside pickup": true
        },
        {
          "Delivery": true
        },
        {
          "In-store pickup": true
        }
      ],
      "Accessibility": [
        {
          "Wheelchair accessible entrance": true
        },
        {
          "Wheelchair accessible parking lot": true
        }
      ],
      "Payments": [
        {
          "Credit cards": true
        },
        {
          "Debit cards": true
        },
        {
          "NFC mobile payments": true
        },
        {
          "Credit cards": true
        }
      ]
    },
    "gasPrices": [],
    "url": "https://www.google.com/maps/search/?api=1&query=Reddish%20Pharmacy&query_place_id=ChIJnRLfMfxLrlQR2jCSx_adDf4",
    "searchPageUrl": "https://www.google.com/maps/search/independent%20pharmacy%20Caldwell%20ID/@-0.010408262428264635,-176.5468073723057,13z?hl=en",
    "searchString": "independent pharmacy Caldwell ID",
    "language": "en",
    "rank": 12,
    "isAdvertisement": false,
    "imageUrl": "https://streetviewpixels-pa.googleapis.com/v1/thumbnail?panoid=C8wK0cKzGbj9c5DTIPZaWQ&cb_client=search.gws-prod.gps&w=408&h=240&yaw=352.6699&pitch=0&thumbfov=100",
    "kgmid": "/g/1v3hzq3v"
  }
]