[
  {
    "title": "Brooklyn Pharmacy",
    "price": null,
    "categoryName": "Pharmacy",
    "address": "3131 SE Milwaukie Ave, Portland, OR 97223",
    "neighborhood": "Southeast Portland",
    "street": "3131 SE Milwaukie Ave",
    "city": "Portland",
    "postalCode": "97223",
    "state": "Oregon",
    "countryCode": "US",
    "website": "https://brooklyn-pharmacyrx.com/",
    "phone": "(503) 234-8348",
    "phoneUnformatted": "+15032348348",
    "claimThisBusiness": false,
    "location": {
      "lat": 45.5004994,
      "lng": -122.6543635
    },
    "totalScore": 4.8,
    "permanentlyClosed": false,
    "temporarilyClosed": false,
    "placeId": "ChIJZwoEq3sKlVQRNNC7NGWq438",
    "categories": [
      "Pharmacy"
    ],
    "fid": "0x54950a7bab040a67:0x7fe3aa6534bbd034",
    "cid": "9215396614183309364",
    "reviewsCount": 222,
    "imagesCount": 7,
    "imageCategories": [],
    "scrapedAt": "2025-06-22T08:07:20.636Z",
    "googleFoodUrl": null,
    "hotelAds": [],
    "openingHours": [
      {
        "day": "Monday",
        "hours": "9 AM to 6 PM"
      },
      {
        "day": "Tuesday",
        "hours": "9 AM to 6 PM"
      },
      {
        "day": "Wednesday",
        "hours": "9 AM to 6 PM"
      },
      {
        "day": "Thursday",
        "hours": "9 AM to 6 PM"
      },
      {
        "day": "Friday",
        "hours": "9 AM to 6 PM"
      },
      {
        "day": "Saturday",
        "hours": "9 AM to 1 PM"
      },
      {
        "day": "Sunday",
        "hours": "Closed"
      }
    ],
    "peopleAlsoSearch": [],
    "placesTags": [],
    "reviewsTags": [],
    "additionalInfo": {
      "From the business": [
        {
          "Small business": true
        }
      ],
      "Service options": [
        {
          "Delivery": true
        },
        {
          "In-store pickup": true
        },
        {
          "Onsite services": true
        },
        {
          "Same-day delivery": true
        }
      ],
      "Accessibility": [
        {
          "Wheelchair accessible entrance": true
        },
        {
          "Wheelchair accessible parking lot": true
        }
      ],
      "Planning": [
        {
          "Quick visit": true
        }
      ],
      "Payments": [
        {
          "Credit cards": true
        },
        {
          "Debit cards": true
        },
        {
          "NFC mobile payments": true
        },
        {
          "Credit cards": true
        }
      ]
    },
    "gasPrices": [],
    "url": "https://www.google.com/maps/search/?api=1&query=Brooklyn%20Pharmacy&query_place_id=ChIJZwoEq3sKlVQRNNC7NGWq438",
    "searchPageUrl": "https://www.google.com/maps/search/independent%20pharmacy%20Portland%20ME/@56.01120730753697,-133.54692821486086,9z?hl=en",
    "searchString": "independent pharmacy Portland ME",
    "language": "en",
    "rank": 1,
    "isAdvertisement": false,
    "imageUrl": "https://lh3.googleusercontent.com/gps-cs-s/AC9h4noHz_mPKe3JSoXHSSPAZYYrRQV-c4Q0BYCjjaEkg3WeNSXaW93grl9MLCD5UODKWft-VWA_RJawRZCVrjUG4fX_mGSP7_-daFqEmPio_JmOzfdh_--KVUtYTqhITEaKV1UIppMWjjui5p3U=w408-h474-k-no",
    "kgmid": "/g/1tgnrcd_"
  },
  {
    "title": "Fairley's Pharmacy Inc",
    "description": "Local landmark providing old-fashioned milkshakes, coffee, sodas & medical items since 1914.",
    "price": "$",
    "categoryName": "Pharmacy",
    "address": "7206 NE Sandy Blvd, Portland, OR 97213",
    "neighborhood": "Roseway",
    "street": "7206 NE Sandy Blvd",
    "city": "Portland",
    "postalCode": "97213",
    "state": "Oregon",
    "countryCode": "US",
    "website": "https://fairleyspharmacy.com/",
    "phone": "(503) 284-1159",
    "phoneUnformatted": "+15032841159",
    "claimThisBusiness": false,
    "location": {
      "lat": 45.5483333,
      "lng": -122.5886111
    },
    "totalScore": 4.2,
    "permanentlyClosed": false,
    "temporarilyClosed": false,
    "placeId": "ChIJoTHMAEmhlVQRQMLMBDUOs5A",
    "categories": [
      "Pharmacy",
      "Coffee shop"
    ],
    "fid": "0x5495a14900cc31a1:0x90b30e3504ccc240",
    "cid": "10426693183169413696",
    "reviewsCount": 143,
    "imagesCount": 49,
    "imageCategories": [],
    "scrapedAt": "2025-06-22T08:07:20.638Z",
    "googleFoodUrl": null,
    "hotelAds": [],
    "openingHours": [
      {
        "day": "Monday",
        "hours": "9 AM to 5:30 PM"
      },
      {
        "day": "Tuesday",
        "hours": "9 AM to 5:30 PM"
      },
      {
        "day": "Wednesday",
        "hours": "9 AM to 5:30 PM"
      },
      {
        "day": "Thursday",
        "hours": "9 AM to 5:30 PM"
      },
      {
        "day": "Friday",
        "hours": "9 AM to 5:30 PM"
      },
      {
        "day": "Saturday",
        "hours": "9 AM to 2 PM"
      },
      {
        "day": "Sunday",
        "hours": "Closed"
      }
    ],
    "peopleAlsoSearch": [],
    "placesTags": [],
    "reviewsTags": [],
    "additionalInfo": {
      "From the business": [
        {
          "Small business": true
        }
      ],
      "Service options": [
        {
          "Delivery": true
        },
        {
          "In-store pickup": true
        },
        {
          "In-store shopping": true
        },
        {
          "Onsite services": true
        },
        {
          "Same-day delivery": true
        }
      ],
      "Accessibility": [
        {
          "Wheelchair accessible entrance": true
        }
      ],
      "Planning": [
        {
          "Quick visit": true
        }
      ],
      "Payments": [
        {
          "Credit cards": true
        },
        {
          "Debit cards": true
        },
        {
          "NFC mobile payments": true
        },
        {
          "Credit cards": true
        }
      ]
    },
    "gasPrices": [],
    "url": "https://www.google.com/maps/search/?api=1&query=Fairley's%20Pharmacy%20Inc&query_place_id=ChIJoTHMAEmhlVQRQMLMBDUOs5A",
    "searchPageUrl": "https://www.google.com/maps/search/independent%20pharmacy%20Portland%20ME/@56.01120730753697,-133.54692821486086,9z?hl=en",
    "searchString": "independent pharmacy Portland ME",
    "language": "en",
    "rank": 2,
    "isAdvertisement": false,
    "imageUrl": "https://lh3.googleusercontent.com/p/AF1QipMgYxyxlYL4D7ufbPaXIUnpfQ3zPx5q7Tpu5MTI=w408-h720-k-no",
    "kgmid": "/g/1tdrf25h"
  },
  {
    "title": "LECARE Pharmacy",
    "price": null,
    "categoryName": "Pharmacy",
    "address": "1619 NE 42nd Ave, Portland, OR 97213",
    "neighborhood": "Northeast Portland",
    "street": "1619 NE 42nd Ave",
    "city": "Portland",
    "postalCode": "97213",
    "state": "Oregon",
    "countryCode": "US",
    "website": "https://www.lecarepharmacy.com/",
    "phone": "(971) 358-6888",
    "phoneUnformatted": "+19713586888",
    "claimThisBusiness": false,
    "location": {
      "lat": 45.534809,
      "lng": -122.6204491
    },
    "totalScore": 4.9,
    "permanentlyClosed": false,
    "temporarilyClosed": false,
    "placeId": "ChIJOe0ck3ehlVQRZr7CHQlB0hc",
    "categories": [
      "Pharmacy"
    ],
    "fid": "0x5495a177931ced39:0x17d241091dc2be66",
    "cid": "1716505915391393382",
    "reviewsCount": 232,
    "imagesCount": 5,
    "imageCategories": [],
    "scrapedAt": "2025-06-22T08:07:20.638Z",
    "googleFoodUrl": null,
    "hotelAds": [],
    "openingHours": [
      {
        "day": "Monday",
        "hours": "9 AM to 6 PM"
      },
      {
        "day": "Tuesday",
        "hours": "9 AM to 6 PM"
      },
      {
        "day": "Wednesday",
        "hours": "9 AM to 6 PM"
      },
      {
        "day": "Thursday",
        "hours": "9 AM to 6 PM"
      },
      {
        "day": "Friday",
        "hours": "9 AM to 6 PM"
      },
      {
        "day": "Saturday",
        "hours": "9 AM to 1 PM"
      },
      {
        "day": "Sunday",
        "hours": "Closed"
      }
    ],
    "peopleAlsoSearch": [],
    "placesTags": [],
    "reviewsTags": [],
    "additionalInfo": {
      "From the business": [
        {
          "Small business": true
        }
      ],
      "Service options": [
        {
          "In-store pickup": true
        },
        {
          "In-store shopping": true
        }
      ],
      "Accessibility": [
        {
          "Wheelchair accessible entrance": true
        },
        {
          "Wheelchair accessible parking lot": true
        }
      ],
      "Payments": [
        {
          "Credit cards": true
        },
        {
          "Debit cards": true
        },
        {
          "NFC mobile payments": true
        },
        {
          "Credit cards": true
        }
      ]
    },
    "gasPrices": [],
    "url": "https://www.google.com/maps/search/?api=1&query=LECARE%20Pharmacy&query_place_id=ChIJOe0ck3ehlVQRZr7CHQlB0hc",
    "searchPageUrl": "https://www.google.com/maps/search/independent%20pharmacy%20Portland%20ME/@56.01120730753697,-133.54692821486086,9z?hl=en",
    "searchString": "independent pharmacy Portland ME",
    "language": "en",
    "rank": 3,
    "isAdvertisement": false,
    "imageUrl": "https://lh3.googleusercontent.com/gps-cs-s/AC9h4no9OvxbtOz8bjsYhzL9IydO9SwEgBdQvF4G682XlJ0TeMIpW4AfihEdWyd7O54AcVuwYLV71XdlDNJR7UKIAqsQuhTiQizU5Ipoq5wME9i60LRe77rG3DDKP1k3jyRV6sIgjVwiaQ=w408-h306-k-no",
    "kgmid": "/g/11nfq1b9vq"
  },
  {
    "title": "Pharmacy.com",
    "price": null,
    "categoryName": "Pharmacy",
    "address": "5253 SE 82nd Ave UNIT 27, Portland, OR 97266",
    "neighborhood": "Foster - Powell",
    "street": "5253 SE 82nd Ave UNIT 27",
    "city": "Portland",
    "postalCode": "97266",
    "state": "Oregon",
    "countryCode": "US",
    "website": "https://pdxpharmacy.com/",
    "phone": "(503) 477-8453",
    "phoneUnformatted": "+15034778453",
    "claimThisBusiness": false,
    "location": {
      "lat": 45.4842142,
      "lng": -122.5800716
    },
    "totalScore": 3.1,
    "permanentlyClosed": false,
    "temporarilyClosed": false,
    "placeId": "ChIJAQAA2yKglVQRApBF7Avtqgc",
    "categories": [
      "Pharmacy"
    ],
    "fid": "0x5495a022db000001:0x7aaed0bec459002",
    "cid": "552514539770712066",
    "reviewsCount": 22,
    "imagesCount": 9,
    "imageCategories": [],
    "scrapedAt": "2025-06-22T08:07:20.638Z",
    "googleFoodUrl": null,
    "hotelAds": [],
    "openingHours": [
      {
        "day": "Monday",
        "hours": "9 AM to 5 PM"
      },
      {
        "day": "Tuesday",
        "hours": "9 AM to 5 PM"
      },
      {
        "day": "Wednesday",
        "hours": "9 AM to 5 PM"
      },
      {
        "day": "Thursday",
        "hours": "9 AM to 5 PM"
      },
      {
        "day": "Friday",
        "hours": "9 AM to 5 PM"
      },
      {
        "day": "Saturday",
        "hours": "10 AM to 3 PM"
      },
      {
        "day": "Sunday",
        "hours": "Closed"
      }
    ],
    "peopleAlsoSearch": [],
    "placesTags": [],
    "reviewsTags": [],
    "additionalInfo": {
      "From the business": [
        {
          "Small business": true
        }
      ],
      "Service options": [
        {
          "Curbside pickup": true
        },
        {
          "Delivery": true
        },
        {
          "In-store shopping": true
        },
        {
          "Same-day delivery": false
        },
        {
          "Cantonese": true
        }
      ],
      "Accessibility": [
        {
          "Wheelchair accessible entrance": true
        },
        {
          "Wheelchair accessible parking lot": true
        }
      ],
      "Amenities": [
        {
          "Wi-Fi": true
        },
        {
          "Free Wi-Fi": true
        }
      ],
      "Payments": [
        {
          "Credit cards": true
        },
        {
          "Debit cards": true
        },
        {
          "NFC mobile payments": true
        },
        {
          "Credit cards": true
        }
      ]
    },
    "gasPrices": [],
    "url": "https://www.google.com/maps/search/?api=1&query=Pharmacy.com&query_place_id=ChIJAQAA2yKglVQRApBF7Avtqgc",
    "searchPageUrl": "https://www.google.com/maps/search/independent%20pharmacy%20Portland%20ME/@56.01120730753697,-133.54692821486086,9z?hl=en",
    "searchString": "independent pharmacy Portland ME",
    "language": "en",
    "rank": 4,
    "isAdvertisement": false,
    "imageUrl": "https://lh3.googleusercontent.com/p/AF1QipNBG3iFdNi0GMH3X2x3lv-_XMdiq0R_xbV1L3xY=w408-h306-k-no",
    "kgmid": "/g/11ng7c13gb"
  },
  {
    "title": "CVS Pharmacy Specialty Services",
    "price": null,
    "categoryName": "Pharmacy",
    "address": "141 Preble St, Portland, ME 04101",
    "neighborhood": "Bayside",
    "street": "141 Preble St",
    "city": "Portland",
    "postalCode": "04101",
    "state": "Maine",
    "countryCode": "US",
    "website": "https://www.cvsspecialty.com/wps/portal/specialty?WT.mc_id=LS_GOOGLE_10728",
    "phone": "(877) 814-8447",
    "phoneUnformatted": "+18778148447",
    "claimThisBusiness": false,
    "location": {
      "lat": 43.6611061,
      "lng": -70.2638115
    },
    "totalScore": 4.5,
    "permanentlyClosed": false,
    "temporarilyClosed": false,
    "placeId": "ChIJT58HfXKcskwR-zFRLF1r5Ik",
    "categories": [
      "Pharmacy",
      "Health consultant",
      "Home health care service"
    ],
    "fid": "0x4cb29c727d079f4f:0x89e46b5d2c5131fb",
    "cid": "9936184725805806075",
    "reviewsCount": 39,
    "imagesCount": 2,
    "imageCategories": [],
    "scrapedAt": "2025-06-22T08:07:20.638Z",
    "googleFoodUrl": null,
    "hotelAds": [],
    "openingHours": [
      {
        "day": "Monday",
        "hours": "8 AM to 6 PM"
      },
      {
        "day": "Tuesday",
        "hours": "8 AM to 6 PM"
      },
      {
        "day": "Wednesday",
        "hours": "8 AM to 6 PM"
      },
      {
        "day": "Thursday",
        "hours": "8 AM to 6 PM"
      },
      {
        "day": "Friday",
        "hours": "8 AM to 6 PM"
      },
      {
        "day": "Saturday",
        "hours": "Closed"
      },
      {
        "day": "Sunday",
        "hours": "Closed"
      }
    ],
    "peopleAlsoSearch": [],
    "placesTags": [],
    "reviewsTags": [],
    "additionalInfo": {
      "From the business": [
        {
          "Small business": true
        }
      ],
      "Service options": [
        {
          "Delivery": true
        }
      ],
      "Accessibility": [
        {
          "Wheelchair accessible entrance": true
        },
        {
          "Wheelchair accessible parking lot": true
        }
      ],
      "Planning": [
        {
          "Quick visit": true
        }
      ],
      "Payments": [
        {
          "Credit cards": true
        }
      ]
    },
    "gasPrices": [],
    "url": "https://www.google.com/maps/search/?api=1&query=CVS%20Pharmacy%20Specialty%20Services&query_place_id=ChIJT58HfXKcskwR-zFRLF1r5Ik",
    "searchPageUrl": "https://www.google.com/maps/search/independent%20pharmacy%20Portland%20ME/@56.01120730753697,-133.54692821486086,9z?hl=en",
    "searchString": "independent pharmacy Portland ME",
    "language": "en",
    "rank": 5,
    "isAdvertisement": false,
    "imageUrl": "https://lh3.googleusercontent.com/p/AF1QipNztPIBeJlQC-WMp2Wm6aHIWx-0n2tFjt7fO_vF=w467-h240-k-no",
    "kgmid": "/g/1tc_kr68"
  },
  {
    "title": "Avita Pharmacy 1027",
    "price": null,
    "categoryName": "Pharmacy",
    "address": "2236 SE Belmont St Suite A, Portland, OR 97214",
    "neighborhood": "Southeast Portland",
    "street": "2236 SE Belmont St Suite A",
    "city": "Portland",
    "postalCode": "97214",
    "state": "Oregon",
    "countryCode": "US",
    "website": "http://www.avitapharmacy.com/",
    "phone": "(503) 379-0370",
    "phoneUnformatted": "+15033790370",
    "claimThisBusiness": false,
    "location": {
      "lat": 45.5162522,
      "lng": -122.6428119
    },
    "totalScore": 4.9,
    "permanentlyClosed": false,
    "temporarilyClosed": false,
    "placeId": "ChIJddMvz0ChlVQRshVYWggU67s",
    "categories": [
      "Pharmacy"
    ],
    "fid": "0x5495a140cf2fd375:0xbbeb14085a5815b2",
    "cid": "13540938730727544242",
    "reviewsCount": 39,
    "imagesCount": 2,
    "imageCategories": [],
    "scrapedAt": "2025-06-22T08:07:20.638Z",
    "googleFoodUrl": null,
    "hotelAds": [],
    "openingHours": [
      {
        "day": "Monday",
        "hours": "9 AM to 12:30 PM, 1 to 5:30 PM"
      },
      {
        "day": "Tuesday",
        "hours": "9 AM to 12:30 PM, 1 to 5:30 PM"
      },
      {
        "day": "Wednesday",
        "hours": "9 AM to 12:30 PM, 1 to 5:30 PM"
      },
      {
        "day": "Thursday",
        "hours": "9 AM to 12:30 PM, 1 to 5:30 PM"
      },
      {
        "day": "Friday",
        "hours": "9 AM to 12:30 PM, 1 to 5:30 PM"
      },
      {
        "day": "Saturday",
        "hours": "Closed"
      },
      {
        "day": "Sunday",
        "hours": "Closed"
      }
    ],
    "peopleAlsoSearch": [],
    "placesTags": [],
    "reviewsTags": [],
    "additionalInfo": {
      "From the business": [
        {
          "Identifies as women-owned": true
        }
      ],
      "Accessibility": [
        {
          "Wheelchair accessible entrance": true
        },
        {
          "Wheelchair accessible parking lot": true
        }
      ],
      "Crowd": [
        {
          "LGBTQ+ friendly": true
        },
        {
          "Transgender safespace": true
        }
      ],
      "Payments": [
        {
          "Credit cards": true
        },
        {
          "Debit cards": true
        },
        {
          "NFC mobile payments": true
        },
        {
          "Credit cards": true
        }
      ]
    },
    "gasPrices": [],
    "url": "https://www.google.com/maps/search/?api=1&query=Avita%20Pharmacy%201027&query_place_id=ChIJddMvz0ChlVQRshVYWggU67s",
    "searchPageUrl": "https://www.google.com/maps/search/independent%20pharmacy%20Portland%20ME/@56.01120730753697,-133.54692821486086,9z?hl=en",
    "searchString": "independent pharmacy Portland ME",
    "language": "en",
    "rank": 6,
    "isAdvertisement": false,
    "imageUrl": "https://lh3.googleusercontent.com/p/AF1QipOYyDtcWKM4LixEpnB9ittPcx9PykU7X1089Pyf=w426-h240-k-no",
    "kgmid": "/g/11j61bx0py"
  },
  {
    "title": "Walgreens Pharmacy",
    "description": "Department of the Walgreens chain providing prescription medications & other health-related items.",
    "price": "$$",
    "categoryName": "Pharmacy",
    "address": "5420 NE 33rd Ave, Portland, OR 97211",
    "neighborhood": "Northeast Portland",
    "street": "5420 NE 33rd Ave",
    "city": "Portland",
    "postalCode": "97211",
    "state": "Oregon",
    "countryCode": "US",
    "website": "https://www.walgreens.com/locator/walgreens-5420+ne+33rd+ave-portland-or-97211/id=7119",
    "phone": "(971) 230-0153",
    "phoneUnformatted": "+19712300153",
    "claimThisBusiness": false,
    "location": {
      "lat": 45.5622959,
      "lng": -122.6304942
    },
    "totalScore": 3.6,
    "permanentlyClosed": false,
    "temporarilyClosed": false,
    "placeId": "ChIJ2YTmN92mlVQRdPz54f0y1Q0",
    "categories": [
      "Pharmacy"
    ],
    "fid": "0x5495a6dd37e684d9:0xdd532fde1f9fc74",
    "cid": "996758958531804276",
    "reviewsCount": 22,
    "imagesCount": 3,
    "imageCategories": [],
    "scrapedAt": "2025-06-22T08:07:20.638Z",
    "googleFoodUrl": null,
    "hotelAds": [],
    "openingHours": [
      {
        "day": "Monday",
        "hours": "9 AM to 1:30 PM, 2 to 9 PM"
      },
      {
        "day": "Tuesday",
        "hours": "9 AM to 1:30 PM, 2 to 9 PM"
      },
      {
        "day": "Wednesday",
        "hours": "9 AM to 1:30 PM, 2 to 9 PM"
      },
      {
        "day": "Thursday",
        "hours": "9 AM to 1:30 PM, 2 to 9 PM"
      },
      {
        "day": "Friday",
        "hours": "9 AM to 1:30 PM, 2 to 9 PM"
      },
      {
        "day": "Saturday",
        "hours": "9 AM to 1:30 PM, 2 to 6 PM"
      },
      {
        "day": "Sunday",
        "hours": "10 AM to 1:30 PM, 2 to 6 PM"
      }
    ],
    "additionalOpeningHours": {
      "Drive through": [
        {
          "day": "Monday",
          "hours": "9 AM–1:30 PM"
        },
        {
          "day": "Tuesday",
          "hours": "9 AM–1:30 PM"
        },
        {
          "day": "Wednesday",
          "hours": "9 AM–1:30 PM"
        },
        {
          "day": "Thursday",
          "hours": "9 AM–1:30 PM"
        },
        {
          "day": "Friday",
          "hours": "9 AM–1:30 PM"
        },
        {
          "day": "Saturday",
          "hours": "9 AM–1:30 PM"
        },
        {
          "day": "Sunday",
          "hours": "10 AM–1:30 PM"
        }
      ]
    },
    "peopleAlsoSearch": [],
    "placesTags": [],
    "reviewsTags": [],
    "additionalInfo": {
      "Service options": [
        {
          "Curbside pickup": true
        },
        {
          "In-store pickup": true
        }
      ],
      "Accessibility": [
        {
          "Wheelchair accessible entrance": true
        },
        {
          "Wheelchair accessible parking lot": true
        }
      ],
      "Offerings": [
        {
          "Naloxone": true
        }
      ],
      "Planning": [
        {
          "Quick visit": true
        }
      ],
      "Payments": [
        {
          "Checks": true
        },
        {
          "Credit cards": true
        },
        {
          "Debit cards": true
        }
      ]
    },
    "gasPrices": [],
    "url": "https://www.google.com/maps/search/?api=1&query=Walgreens%20Pharmacy&query_place_id=ChIJ2YTmN92mlVQRdPz54f0y1Q0",
    "searchPageUrl": "https://www.google.com/maps/search/independent%20pharmacy%20Portland%20ME/@56.01120730753697,-133.54692821486086,9z?hl=en",
    "searchString": "independent pharmacy Portland ME",
    "language": "en",
    "rank": 7,
    "isAdvertisement": false,
    "imageUrl": "https://lh3.googleusercontent.com/p/AF1QipNxCzY3oGbNEA8610DFZkrTNeD0oxpn8b7aQePM=w525-h240-k-no",
    "kgmid": "/g/11cn95rkq2"
  },
  {
    "title": "NewEra Pharmacy",
    "price": null,
    "categoryName": "Pharmacy",
    "address": "1286 SE Holgate Blvd Ste. C2, Portland, OR 97202",
    "neighborhood": "Southeast Portland",
    "street": "1286 SE Holgate Blvd Ste. C2",
    "city": "Portland",
    "postalCode": "97202",
    "state": "Oregon",
    "countryCode": "US",
    "website": "https://newerapharmacy.com/",
    "phone": "(503) 222-4822",
    "phoneUnformatted": "+15032224822",
    "claimThisBusiness": false,
    "location": {
      "lat": 45.4899427,
      "lng": -122.6524247
    },
    "totalScore": 4.4,
    "permanentlyClosed": false,
    "temporarilyClosed": false,
    "placeId": "ChIJDXYADTEKlVQRu467f4VyG6c",
    "categories": [
      "Pharmacy"
    ],
    "fid": "0x54950a310d00760d:0xa71b72857fbb8ebb",
    "cid": "12041343946404368059",
    "reviewsCount": 92,
    "imagesCount": 8,
    "imageCategories": [],
    "scrapedAt": "2025-06-22T08:07:20.638Z",
    "googleFoodUrl": null,
    "hotelAds": [],
    "openingHours": [
      {
        "day": "Monday",
        "hours": "9 AM to 5 PM"
      },
      {
        "day": "Tuesday",
        "hours": "9 AM to 5 PM"
      },
      {
        "day": "Wednesday",
        "hours": "9 AM to 5 PM"
      },
      {
        "day": "Thursday",
        "hours": "9 AM to 5 PM"
      },
      {
        "day": "Friday",
        "hours": "9 AM to 5 PM"
      },
      {
        "day": "Saturday",
        "hours": "9 AM to 1 PM"
      },
      {
        "day": "Sunday",
        "hours": "Closed"
      }
    ],
    "peopleAlsoSearch": [],
    "placesTags": [],
    "reviewsTags": [],
    "additionalInfo": {
      "Service options": [
        {
          "Curbside pickup": true
        },
        {
          "Delivery": true
        },
        {
          "Same-day delivery": true
        }
      ],
      "Accessibility": [
        {
          "Wheelchair accessible entrance": true
        },
        {
          "Wheelchair accessible parking lot": true
        }
      ],
      "Crowd": [
        {
          "LGBTQ+ friendly": true
        },
        {
          "Transgender safespace": true
        }
      ],
      "Payments": [
        {
          "Credit cards": true
        },
        {
          "Debit cards": true
        },
        {
          "NFC mobile payments": true
        },
        {
          "Credit cards": true
        }
      ]
    },
    "gasPrices": [],
    "url": "https://www.google.com/maps/search/?api=1&query=NewEra%20Pharmacy&query_place_id=ChIJDXYADTEKlVQRu467f4VyG6c",
    "searchPageUrl": "https://www.google.com/maps/search/independent%20pharmacy%20Portland%20ME/@56.01120730753697,-133.54692821486086,9z?hl=en",
    "searchString": "independent pharmacy Portland ME",
    "language": "en",
    "rank": 8,
    "isAdvertisement": false,
    "imageUrl": "https://lh3.googleusercontent.com/p/AF1QipPFWStfwzRSRLvuwv9AMdtioXL8geIKa-O7zoaU=w408-h272-k-no",
    "kgmid": "/g/1tdcr74z"
  },
  {
    "title": "Bowman's Hillsdale Pharmacy",
    "price": null,
    "categoryName": "Pharmacy",
    "address": "6256 SW Capitol Hwy, Portland, OR 97239",
    "neighborhood": "Southwest Portland",
    "street": "6256 SW Capitol Hwy",
    "city": "Portland",
    "postalCode": "97239",
    "state": "Oregon",
    "countryCode": "US",
    "website": "http://www.facebook.com/BOWMANSHILLSDALEPHARMACY",
    "phone": "(503) 244-7582",
    "phoneUnformatted": "+15032447582",
    "claimThisBusiness": false,
    "location": {
      "lat": 45.4785052,
      "lng": -122.6936888
    },
    "totalScore": 3.8,
    "permanentlyClosed": false,
    "temporarilyClosed": false,
    "placeId": "ChIJZdKtzgALlVQRYS0e37X04tM",
    "categories": [
      "Pharmacy"
    ],
    "fid": "0x54950b00ceadd265:0xd3e2f4b5df1e2d61",
    "cid": "15268034748708957537",
    "reviewsCount": 51,
    "imagesCount": 41,
    "imageCategories": [],
    "scrapedAt": "2025-06-22T08:07:20.639Z",
    "googleFoodUrl": null,
    "hotelAds": [],
    "openingHours": [
      {
        "day": "Monday",
        "hours": "10 AM to 6 PM"
      },
      {
        "day": "Tuesday",
        "hours": "10 AM to 6 PM"
      },
      {
        "day": "Wednesday",
        "hours": "10 AM to 6 PM"
      },
      {
        "day": "Thursday",
        "hours": "10 AM to 6 PM"
      },
      {
        "day": "Friday",
        "hours": "10 AM to 6 PM"
      },
      {
        "day": "Saturday",
        "hours": "10 AM to 2 PM"
      },
      {
        "day": "Sunday",
        "hours": "Closed"
      }
    ],
    "peopleAlsoSearch": [],
    "placesTags": [],
    "reviewsTags": [],
    "additionalInfo": {
      "From the business": [
        {
          "Small business": true
        }
      ],
      "Service options": [
        {
          "Delivery": true
        },
        {
          "In-store pickup": true
        },
        {
          "In-store shopping": true
        },
        {
          "Same-day delivery": true
        }
      ],
      "Accessibility": [
        {
          "Wheelchair accessible entrance": true
        },
        {
          "Wheelchair accessible parking lot": true
        }
      ],
      "Planning": [
        {
          "Quick visit": true
        }
      ],
      "Payments": [
        {
          "Credit cards": true
        },
        {
          "Debit cards": true
        },
        {
          "NFC mobile payments": true
        },
        {
          "Credit cards": true
        }
      ]
    },
    "gasPrices": [],
    "url": "https://www.google.com/maps/search/?api=1&query=Bowman's%20Hillsdale%20Pharmacy&query_place_id=ChIJZdKtzgALlVQRYS0e37X04tM",
    "searchPageUrl": "https://www.google.com/maps/search/independent%20pharmacy%20Portland%20ME/@56.01120730753697,-133.54692821486086,9z?hl=en",
    "searchString": "independent pharmacy Portland ME",
    "language": "en",
    "rank": 9,
    "isAdvertisement": false,
    "imageUrl": "https://lh3.googleusercontent.com/gps-cs-s/AC9h4noz47ntZSitlfJ0Ra1O-1h8FLiD7F9pjhCfscXBx5Oosh2cBEFao15edoayh1rlrc2pf1N71l4E2bg_RqSEzr1zw_WKaq5JO_ftvFG5OBhisQF9LljET8FuTy-k-AGUhUEamOmD0Q=w408-h306-k-no",
    "kgmid": "/g/11_r_c__9"
  },
  {
    "title": "Gateway Medical Pharmacy | Long Term Care and Compounding Pharmacy",
    "price": null,
    "categoryName": "Pharmacy",
    "address": "1125 NE 99th Ave, Portland, OR 97220",
    "neighborhood": "Northeast Portland",
    "street": "1125 NE 99th Ave",
    "city": "Portland",
    "postalCode": "97220",
    "state": "Oregon",
    "countryCode": "US",
    "website": "https://www.gatewaymedicalrx.com/",
    "phone": "(503) 254-7383",
    "phoneUnformatted": "+15032547383",
    "claimThisBusiness": false,
    "location": {
      "lat": 45.531033,
      "lng": -122.562626
    },
    "totalScore": 4.4,
    "permanentlyClosed": false,
    "temporarilyClosed": false,
    "placeId": "ChIJgZ6EI3KhlVQRbDat8ms6eU0",
    "categories": [
      "Pharmacy",
      "Drug store",
      "Health consultant",
      "Health counselor",
      "Medical clinic"
    ],
    "fid": "0x5495a17223849e81:0x4d793a6bf2ad366c",
    "cid": "5582557448409790060",
    "reviewsCount": 51,
    "imagesCount": 8,
    "imageCategories": [],
    "scrapedAt": "2025-06-22T08:07:20.639Z",
    "googleFoodUrl": null,
    "hotelAds": [],
    "openingHours": [
      {
        "day": "Monday",
        "hours": "9 AM to 1:30 PM, 2 to 5:30 PM"
      },
      {
        "day": "Tuesday",
        "hours": "9 AM to 1:30 PM, 2 to 5:30 PM"
      },
      {
        "day": "Wednesday",
        "hours": "9 AM to 1:30 PM, 2 to 5:30 PM"
      },
      {
        "day": "Thursday",
        "hours": "9 AM to 1:30 PM, 2 to 5:30 PM"
      },
      {
        "day": "Friday",
        "hours": "9 AM to 1:30 PM, 2 to 5:30 PM"
      },
      {
        "day": "Saturday",
        "hours": "Closed"
      },
      {
        "day": "Sunday",
        "hours": "Closed"
      }
    ],
    "peopleAlsoSearch": [],
    "placesTags": [],
    "reviewsTags": [],
    "additionalInfo": {
      "From the business": [
        {
          "Identifies as women-owned": true
        },
        {
          "Small business": true
        }
      ],
      "Service options": [
        {
          "Delivery": true
        },
        {
          "In-store pickup": true
        },
        {
          "In-store shopping": true
        },
        {
          "Same-day delivery": true
        },
        {
          "English": true
        }
      ],
      "Accessibility": [
        {
          "Wheelchair accessible entrance": true
        },
        {
          "Wheelchair accessible parking lot": true
        },
        {
          "Wheelchair accessible seating": true
        },
        {
          "Wheelchair accessible restroom": false
        }
      ],
      "Crowd": [
        {
          "LGBTQ+ friendly": true
        },
        {
          "Transgender safespace": true
        }
      ],
      "Payments": [
        {
          "Credit cards": true
        },
        {
          "Debit cards": true
        },
        {
          "NFC mobile payments": true
        },
        {
          "Credit cards": true
        }
      ]
    },
    "gasPrices": [],
    "url": "https://www.google.com/maps/search/?api=1&query=Gateway%20Medical%20Pharmacy%20%7C%20Long%20Term%20Care%20and%20Compounding%20Pharmacy&query_place_id=ChIJgZ6EI3KhlVQRbDat8ms6eU0",
    "searchPageUrl": "https://www.google.com/maps/search/independent%20pharmacy%20Portland%20ME/@56.01120730753697,-133.54692821486086,9z?hl=en",
    "searchString": "independent pharmacy Portland ME",
    "language": "en",
    "rank": 11,
    "isAdvertisement": false,
    "imageUrl": "https://lh3.googleusercontent.com/p/AF1QipNfOQIP0BLMaXnEGPMEoCe_SumCwqvdd8NZkk5Q=w408-h272-k-no",
    "kgmid": "/g/1s047m038"
  },
  {
    "title": "division pharmacy inc",
    "price": null,
    "categoryName": "Pharmacy",
    "address": "10240 NE Halsey St, Portland, OR 97220",
    "neighborhood": "Northeast Portland",
    "street": "10240 NE Halsey St",
    "city": "Portland",
    "postalCode": "97220",
    "state": "Oregon",
    "countryCode": "US",
    "website": "https://www.divisionpharmacy.com/",
    "phone": "(503) 261-0303",
    "phoneUnformatted": "+15032610303",
    "claimThisBusiness": false,
    "location": {
      "lat": 45.5334321,
      "lng": -122.5573075
    },
    "totalScore": 4.9,
    "permanentlyClosed": false,
    "temporarilyClosed": false,
    "placeId": "ChIJVVVVVcahlVQRn2mAcqlpKTE",
    "categories": [
      "Pharmacy"
    ],
    "fid": "0x5495a1c655555555:0x312969a97280699f",
    "cid": "3542478758395013535",
    "reviewsCount": 25,
    "imagesCount": 8,
    "imageCategories": [],
    "scrapedAt": "2025-06-22T08:07:20.639Z",
    "googleFoodUrl": null,
    "hotelAds": [],
    "openingHours": [
      {
        "day": "Monday",
        "hours": "10 AM to 6 PM"
      },
      {
        "day": "Tuesday",
        "hours": "10 AM to 6 PM"
      },
      {
        "day": "Wednesday",
        "hours": "10 AM to 6 PM"
      },
      {
        "day": "Thursday",
        "hours": "10 AM to 6 PM"
      },
      {
        "day": "Friday",
        "hours": "10 AM to 6 PM"
      },
      {
        "day": "Saturday",
        "hours": "Closed"
      },
      {
        "day": "Sunday",
        "hours": "Closed"
      }
    ],
    "peopleAlsoSearch": [],
    "placesTags": [],
    "reviewsTags": [],
    "additionalInfo": {
      "From the business": [
        {
          "Small business": true
        }
      ],
      "Service options": [
        {
          "Delivery": true
        }
      ],
      "Accessibility": [
        {
          "Wheelchair accessible entrance": true
        },
        {
          "Wheelchair accessible parking lot": true
        }
      ],
      "Payments": [
        {
          "Credit cards": true
        }
      ]
    },
    "gasPrices": [],
    "url": "https://www.google.com/maps/search/?api=1&query=division%20pharmacy%20inc&query_place_id=ChIJVVVVVcahlVQRn2mAcqlpKTE",
    "searchPageUrl": "https://www.google.com/maps/search/independent%20pharmacy%20Portland%20ME/@56.01120730753697,-133.54692821486086,9z?hl=en",
    "searchString": "independent pharmacy Portland ME",
    "language": "en",
    "rank": 12,
    "isAdvertisement": false,
    "imageUrl": "https://lh3.googleusercontent.com/p/AF1QipNy1r5OYLCBntG_-yh7Ln8GUWC8Vzjztw0nxFa2=w408-h306-k-no",
    "kgmid": "/g/11kh1_h0l8"
  },
  {
    "title": "Coastal Pharmacy & Wellness",
    "price": null,
    "categoryName": "Pharmacy",
    "address": "29 Marginal Way Suite 4, Portland, ME 04101",
    "neighborhood": "Bayside",
    "street": "29 Marginal Way Suite 4",
    "city": "Portland",
    "postalCode": "04101",
    "state": "Maine",
    "countryCode": "US",
    "website": "https://www.coastalpharmacyandwellness.com/",
    "phone": "(207) 899-0886",
    "phoneUnformatted": "+12078990886",
    "claimThisBusiness": false,
    "location": {
      "lat": 43.6604871,
      "lng": -70.2669871
    },
    "totalScore": 4.7,
    "permanentlyClosed": false,
    "temporarilyClosed": false,
    "placeId": "ChIJW-RIZHKcskwRTX4oY-gjsUE",
    "categories": [
      "Pharmacy",
      "Store",
      "Veterinary pharmacy",
      "Vitamin & supplements store"
    ],
    "fid": "0x4cb29c726448e45b:0x41b123e863287e4d",
    "cid": "4733604164346084941",
    "reviewsCount": 66,
    "imagesCount": 96,
    "imageCategories": [],
    "scrapedAt": "2025-06-22T08:07:20.639Z",
    "googleFoodUrl": null,
    "hotelAds": [],
    "openingHours": [
      {
        "day": "Monday",
        "hours": "9 AM to 6 PM"
      },
      {
        "day": "Tuesday",
        "hours": "9 AM to 6 PM"
      },
      {
        "day": "Wednesday",
        "hours": "9 AM to 6 PM"
      },
      {
        "day": "Thursday",
        "hours": "9 AM to 6 PM"
      },
      {
        "day": "Friday",
        "hours": "9 AM to 6 PM"
      },
      {
        "day": "Saturday",
        "hours": "9 AM to 12 PM"
      },
      {
        "day": "Sunday",
        "hours": "Closed"
      }
    ],
    "peopleAlsoSearch": [],
    "placesTags": [],
    "reviewsTags": [],
    "additionalInfo": {
      "From the business": [
        {
          "Identifies as women-owned": true
        },
        {
          "Small business": true
        }
      ],
      "Service options": [
        {
          "Curbside pickup": true
        },
        {
          "Delivery": true
        },
        {
          "In-store pickup": true
        },
        {
          "In-store shopping": true
        },
        {
          "Onsite services": true
        },
        {
          "English": true
        }
      ],
      "Accessibility": [
        {
          "Wheelchair accessible entrance": true
        },
        {
          "Wheelchair accessible parking lot": true
        },
        {
          "Wheelchair accessible restroom": true
        }
      ],
      "Amenities": [
        {
          "Gender-neutral restroom": true
        }
      ],
      "Crowd": [
        {
          "LGBTQ+ friendly": true
        },
        {
          "Transgender safespace": true
        }
      ],
      "Planning": [
        {
          "Quick visit": true
        }
      ],
      "Payments": [
        {
          "Checks": true
        },
        {
          "Credit cards": true
        },
        {
          "Debit cards": true
        },
        {
          "NFC mobile payments": true
        },
        {
          "Credit cards": true
        }
      ],
      "Parking": [
        {
          "Free parking lot": true
        },
        {
          "Free street parking": true
        },
        {
          "On-site parking": true
        }
      ]
    },
    "gasPrices": [],
    "url": "https://www.google.com/maps/search/?api=1&query=Coastal%20Pharmacy%20%26%20Wellness&query_place_id=ChIJW-RIZHKcskwRTX4oY-gjsUE",
    "searchPageUrl": "https://www.google.com/maps/search/independent%20pharmacy%20Portland%20ME/@56.01120730753697,-133.54692821486086,9z?hl=en",
    "searchString": "independent pharmacy Portland ME",
    "language": "en",
    "rank": 13,
    "isAdvertisement": false,
    "imageUrl": "https://lh3.googleusercontent.com/gps-cs-s/AC9h4nqnyMtwTpIscKkUoBXld73QgCKgv4smhGq88nI9pTfA3nQU23757j0d-oPB_PDi0cI6WZ24efjR48Z5QEADPP2BhdGE-dddusR6gtz6AcpsuBmJgP1MElpKZtJj5AEuq5FJvXje=w408-h272-k-no",
    "kgmid": "/g/11clvz1rld"
  },
  {
    "title": "Rite Aid",
    "price": "$$",
    "categoryName": "Drug store",
    "address": "11190 SW Barnes Rd, Portland, OR 97225",
    "neighborhood": "Cedar Mill",
    "street": "11190 SW Barnes Rd",
    "city": "Portland",
    "postalCode": "97225",
    "state": "Oregon",
    "countryCode": "US",
    "website": "https://www.riteaid.com/locations/or/portland/11190-sw-barnes-rd.html",
    "phone": "(503) 526-9121",
    "phoneUnformatted": "+15035269121",
    "claimThisBusiness": false,
    "location": {
      "lat": 45.515245,
      "lng": -122.7920619
    },
    "locatedIn": "Rite Aid Pharmacy",
    "totalScore": 2.9,
    "permanentlyClosed": false,
    "temporarilyClosed": false,
    "placeId": "ChIJHVqOJTcJlVQRXTuBly2pt58",
    "categories": [
      "Drug store",
      "Beauty supply store",
      "Convenience store",
      "General store",
      "Greeting card shop"
    ],
    "fid": "0x54950937258e5a1d:0x9fb7a92d97813b5d",
    "cid": "11508853386049043293",
    "reviewsCount": 83,
    "imagesCount": 17,
    "imageCategories": [],
    "scrapedAt": "2025-06-22T08:07:20.639Z",
    "googleFoodUrl": null,
    "hotelAds": [],
    "openingHours": [
      {
        "day": "Monday",
        "hours": "8 AM to 10 PM"
      },
      {
        "day": "Tuesday",
        "hours": "8 AM to 10 PM"
      },
      {
        "day": "Wednesday",
        "hours": "8 AM to 10 PM"
      },
      {
        "day": "Thursday",
        "hours": "8 AM to 10 PM"
      },
      {
        "day": "Friday",
        "hours": "8 AM to 10 PM"
      },
      {
        "day": "Saturday",
        "hours": "9 AM to 7 PM"
      },
      {
        "day": "Sunday",
        "hours": "9 AM to 7 PM"
      }
    ],
    "additionalOpeningHours": {
      "Rite Aid Pharmacy": [
        {
          "day": "Monday",
          "hours": "9 AM–1:30 PM"
        },
        {
          "day": "Tuesday",
          "hours": "9 AM–1:30 PM"
        },
        {
          "day": "Wednesday",
          "hours": "9 AM–1:30 PM"
        },
        {
          "day": "Thursday",
          "hours": "9 AM–1:30 PM"
        },
        {
          "day": "Friday",
          "hours": "9 AM–1:30 PM"
        },
        {
          "day": "Saturday",
          "hours": "10 AM–1:30 PM"
        },
        {
          "day": "Sunday",
          "hours": "10 AM–1:30 PM"
        }
      ]
    },
    "peopleAlsoSearch": [],
    "placesTags": [],
    "reviewsTags": [],
    "additionalInfo": {
      "Service options": [
        {
          "Delivery": true
        },
        {
          "Drive-through": true
        },
        {
          "In-store pickup": true
        },
        {
          "Onsite services": true
        }
      ],
      "Accessibility": [
        {
          "Wheelchair accessible parking lot": true
        }
      ],
      "Offerings": [
        {
          "Naloxone": true
        }
      ],
      "Planning": [
        {
          "Quick visit": true
        }
      ],
      "Payments": [
        {
          "Checks": true
        },
        {
          "Credit cards": true
        },
        {
          "Debit cards": true
        },
        {
          "NFC mobile payments": true
        },
        {
          "SNAP/EBT": true
        },
        {
          "Credit cards": true
        }
      ]
    },
    "gasPrices": [],
    "url": "https://www.google.com/maps/search/?api=1&query=Rite%20Aid&query_place_id=ChIJHVqOJTcJlVQRXTuBly2pt58",
    "searchPageUrl": "https://www.google.com/maps/search/independent%20pharmacy%20Portland%20ME/@56.01120730753697,-133.54692821486086,9z?hl=en",
    "searchString": "independent pharmacy Portland ME",
    "language": "en",
    "rank": 14,
    "isAdvertisement": false,
    "imageUrl": "https://lh3.googleusercontent.com/gps-cs-s/AC9h4nqu9kpToF-E287Or-7WWfORkFSgzHml1w2_KEG0RCIl9_ydVpmZpt70bn1zQQyWufUSprCAxMQJ_vOzgL6LcaFFje8tq3sPFOjRPzuX4FP_45yRd4b8vVJv7KITfZQREwhxG0iK=w408-h306-k-no",
    "kgmid": "/g/1tp_62pc"
  },
  {
    "title": "CVS Pharmacy Specialty Services",
    "price": null,
    "categoryName": "Pharmacy",
    "address": "538 SW 4th Ave, Portland, OR 97204",
    "neighborhood": "Portland Downtown",
    "street": "538 SW 4th Ave",
    "city": "Portland",
    "postalCode": "97204",
    "state": "Oregon",
    "countryCode": "US",
    "website": "https://www.cvs.com/store-locator/cvs-pharmacy-address/538+Sw+4th+Ave-Portland-OR-94204/storeid=11280?WT.mc_id=LS_GOOGLE_11280",
    "phone": "(503) 227-0468",
    "phoneUnformatted": "+15032270468",
    "claimThisBusiness": false,
    "location": {
      "lat": 45.5192573,
      "lng": -122.675884
    },
    "totalScore": 4.2,
    "permanentlyClosed": false,
    "temporarilyClosed": false,
    "placeId": "ChIJgeZXxgUKlVQRmw1NrD9qDlw",
    "categories": [
      "Pharmacy",
      "Beauty products vending machine",
      "Convenience store",
      "Drug store",
      "Skin care products vending machine"
    ],
    "fid": "0x54950a05c657e681:0x5c0e6a3fac4d0d9b",
    "cid": "6633356122869534107",
    "reviewsCount": 48,
    "imagesCount": 55,
    "imageCategories": [],
    "scrapedAt": "2025-06-22T08:07:20.639Z",
    "googleFoodUrl": null,
    "hotelAds": [],
    "openingHours": [
      {
        "day": "Monday",
        "hours": "8 AM to 6 PM"
      },
      {
        "day": "Tuesday",
        "hours": "8 AM to 6 PM"
      },
      {
        "day": "Wednesday",
        "hours": "8 AM to 6 PM"
      },
      {
        "day": "Thursday",
        "hours": "8 AM to 6 PM"
      },
      {
        "day": "Friday",
        "hours": "8 AM to 6 PM"
      },
      {
        "day": "Saturday",
        "hours": "Closed"
      },
      {
        "day": "Sunday",
        "hours": "Closed"
      }
    ],
    "peopleAlsoSearch": [],
    "placesTags": [],
    "reviewsTags": [],
    "additionalInfo": {
      "Accessibility": [
        {
          "Wheelchair accessible entrance": true
        },
        {
          "Wheelchair accessible parking lot": true
        }
      ],
      "Planning": [
        {
          "Quick visit": true
        }
      ],
      "Payments": [
        {
          "Credit cards": true
        },
        {
          "NFC mobile payments": true
        }
      ]
    },
    "gasPrices": [],
    "url": "https://www.google.com/maps/search/?api=1&query=CVS%20Pharmacy%20Specialty%20Services&query_place_id=ChIJgeZXxgUKlVQRmw1NrD9qDlw",
    "searchPageUrl": "https://www.google.com/maps/search/independent%20pharmacy%20Portland%20ME/@56.01120730753697,-133.54692821486086,9z?hl=en",
    "searchString": "independent pharmacy Portland ME",
    "language": "en",
    "rank": 15,
    "isAdvertisement": false,
    "imageUrl": "https://lh3.googleusercontent.com/gps-proxy/ALd4DhENXJ6Dv4PAFPEKh_Ja09WlYJ66l_8_JIRqNB8-OLlySUi3du-OAMRckeZP673FZkZmYKlCAOhVNEGCeyRls5r8QtE_oGI7WXVVdpDAUCAiqOZnGa0TVJxcUoKAX8FxFX91YLeVdn7cXT_tKwp7au9RuOKF1EznhexODzb3VVccEkBbMZaB6YxDH2lSK3j-5kD5KI0=w408-h271-k-no",
    "kgmid": "/g/1tcyrjy0"
  },
  {
    "title": "Genoa Healthcare",
    "price": null,
    "categoryName": "Pharmacy",
    "address": "165 Lancaster St Apt P, Portland, ME 04101",
    "neighborhood": "Bayside",
    "street": "165 Lancaster St Apt P",
    "city": "Portland",
    "postalCode": "04101",
    "state": "Maine",
    "countryCode": "US",
    "website": "http://www.genoahealthcare.com/",
    "phone": "(207) 800-4681",
    "phoneUnformatted": "+12078004681",
    "claimThisBusiness": false,
    "location": {
      "lat": 43.6610669,
      "lng": -70.2614161
    },
    "totalScore": 5,
    "permanentlyClosed": false,
    "temporarilyClosed": false,
    "placeId": "ChIJ1ZqlncmdskwRMlNrh-KP79I",
    "categories": [
      "Pharmacy"
    ],
    "fid": "0x4cb29dc99da59ad5:0xd2ef8fe2876b5332",
    "cid": "15199525470496052018",
    "reviewsCount": 6,
    "imagesCount": 1,
    "imageCategories": [],
    "scrapedAt": "2025-06-22T08:07:20.639Z",
    "googleFoodUrl": null,
    "hotelAds": [],
    "openingHours": [
      {
        "day": "Monday",
        "hours": "8:30 AM to 5 PM"
      },
      {
        "day": "Tuesday",
        "hours": "8:30 AM to 5 PM"
      },
      {
        "day": "Wednesday",
        "hours": "8:30 AM to 5 PM"
      },
      {
        "day": "Thursday",
        "hours": "8:30 AM to 5 PM"
      },
      {
        "day": "Friday",
        "hours": "8:30 AM to 5 PM"
      },
      {
        "day": "Saturday",
        "hours": "Closed"
      },
      {
        "day": "Sunday",
        "hours": "Closed"
      }
    ],
    "peopleAlsoSearch": [],
    "placesTags": [],
    "reviewsTags": [],
    "additionalInfo": {
      "Accessibility": [
        {
          "Wheelchair accessible entrance": true
        },
        {
          "Wheelchair accessible parking lot": true
        }
      ],
      "Payments": [
        {
          "Credit cards": true
        }
      ]
    },
    "gasPrices": [],
    "url": "https://www.google.com/maps/search/?api=1&query=Genoa%20Healthcare&query_place_id=ChIJ1ZqlncmdskwRMlNrh-KP79I",
    "searchPageUrl": "https://www.google.com/maps/search/independent%20pharmacy%20Portland%20ME/@56.01120730753697,-133.54692821486086,9z?hl=en",
    "searchString": "independent pharmacy Portland ME",
    "language": "en",
    "rank": 16,
    "isAdvertisement": false,
    "imageUrl": "https://streetviewpixels-pa.googleapis.com/v1/thumbnail?panoid=Dv8JDTTN0aDSkKQ6XGkC0A&cb_client=search.gws-prod.gps&w=408&h=240&yaw=319.34387&pitch=0&thumbfov=100",
    "kgmid": "/g/11rc75vhtf"
  },
  {
    "title": "Fred Meyer Pharmacy",
    "price": null,
    "categoryName": "Pharmacy",
    "address": "1111 NE 102nd Ave, Portland, OR 97220",
    "neighborhood": "Northeast Portland",
    "street": "1111 NE 102nd Ave",
    "city": "Portland",
    "postalCode": "97220",
    "state": "Oregon",
    "countryCode": "US",
    "website": "https://www.fredmeyer.com/rx/pharmacy/details/701/00128?cid=loc_70100128P_gmb",
    "phone": "(503) 255-5494",
    "phoneUnformatted": "+15032555494",
    "claimThisBusiness": false,
    "location": {
      "lat": 45.5306462,
      "lng": -122.5601479
    },
    "totalScore": 2.6,
    "permanentlyClosed": false,
    "temporarilyClosed": false,
    "placeId": "ChIJLxY3dXGhlVQR8vNIsZsVszg",
    "categories": [
      "Pharmacy",
      "Drug store",
      "Health counselor",
      "Home health care service"
    ],
    "fid": "0x5495a1717537162f:0x38b3159bb148f3f2",
    "cid": "4085633045393634290",
    "reviewsCount": 95,
    "imagesCount": 15,
    "imageCategories": [],
    "scrapedAt": "2025-06-22T08:07:20.640Z",
    "googleFoodUrl": null,
    "hotelAds": [],
    "openingHours": [
      {
        "day": "Monday",
        "hours": "9 AM to 1 PM, 1:30 to 8 PM"
      },
      {
        "day": "Tuesday",
        "hours": "9 AM to 1 PM, 1:30 to 8 PM"
      },
      {
        "day": "Wednesday",
        "hours": "9 AM to 1 PM, 1:30 to 8 PM"
      },
      {
        "day": "Thursday",
        "hours": "9 AM to 1 PM, 1:30 to 8 PM"
      },
      {
        "day": "Friday",
        "hours": "9 AM to 1 PM, 1:30 to 8 PM"
      },
      {
        "day": "Saturday",
        "hours": "9 AM to 1 PM, 1:30 to 6 PM"
      },
      {
        "day": "Sunday",
        "hours": "10 AM to 1 PM, 1:30 to 5 PM"
      }
    ],
    "peopleAlsoSearch": [],
    "placesTags": [],
    "reviewsTags": [],
    "additionalInfo": {
      "Service options": [
        {
          "Curbside pickup": true
        },
        {
          "Delivery": true
        },
        {
          "In-store pickup": true
        },
        {
          "In-store shopping": true
        },
        {
          "Same-day delivery": true
        }
      ],
      "Accessibility": [
        {
          "Wheelchair accessible entrance": true
        },
        {
          "Wheelchair accessible parking lot": true
        },
        {
          "Wheelchair accessible restroom": true
        },
        {
          "Wheelchair accessible seating": true
        }
      ],
      "Amenities": [
        {
          "Wi-Fi": true
        }
      ],
      "Crowd": [
        {
          "LGBTQ+ friendly": true
        },
        {
          "Transgender safespace": true
        }
      ],
      "Planning": [
        {
          "Quick visit": true
        }
      ],
      "Payments": [
        {
          "Checks": true
        },
        {
          "Credit cards": true
        },
        {
          "Debit cards": true
        },
        {
          "NFC mobile payments": true
        },
        {
          "Credit cards": true
        }
      ]
    },
    "gasPrices": [],
    "url": "https://www.google.com/maps/search/?api=1&query=Fred%20Meyer%20Pharmacy&query_place_id=ChIJLxY3dXGhlVQR8vNIsZsVszg",
    "searchPageUrl": "https://www.google.com/maps/search/independent%20pharmacy%20Portland%20ME/@56.01120730753697,-133.54692821486086,9z?hl=en",
    "searchString": "independent pharmacy Portland ME",
    "language": "en",
    "rank": 17,
    "isAdvertisement": false,
    "imageUrl": "https://lh3.googleusercontent.com/gps-cs-s/AC9h4npaQz3C0KTyl8jUEFeGluAJTVIDr1UTYHa2URlzDi6BsRZcWSTSnzwJct6WSjV0wBPv80IXa_KIMTeoGWV1-Faj7JDjPLpt48rOXk_A9AVTrqcV6Rl-JzCmY6atFaBaeRa0Kmf9vA=w408-h306-k-no",
    "kgmid": "/g/11bbrl_2kb"
  },
  {
    "title": "Pharmacy at Coastal Pharmacy & Wellness",
    "price": null,
    "categoryName": "Pharmacy",
    "address": "29 Marginal Way, Portland, ME 04101",
    "neighborhood": "Bayside",
    "street": "29 Marginal Way",
    "city": "Portland",
    "postalCode": "04101",
    "state": "Maine",
    "countryCode": "US",
    "website": "https://www.coastalpharmacyandwellness.com/pharmacy",
    "phone": "(207) 899-0886",
    "phoneUnformatted": "+12078990886",
    "claimThisBusiness": false,
    "location": {
      "lat": 43.6604871,
      "lng": -70.2669871
    },
    "permanentlyClosed": false,
    "temporarilyClosed": false,
    "placeId": "ChIJBUeIbe6dskwRZkoNC3tyb8E",
    "categories": [
      "Pharmacy",
      "Veterinary pharmacy"
    ],
    "fid": "0x4cb29dee6d884705:0xc16f727b0b0d4a66",
    "cid": "13938485244526938726",
    "reviewsCount": 0,
    "imagesCount": 10,
    "imageCategories": [],
    "scrapedAt": "2025-06-22T08:07:20.640Z",
    "googleFoodUrl": null,
    "hotelAds": [],
    "openingHours": [
      {
        "day": "Monday",
        "hours": "9 AM to 6 PM"
      },
      {
        "day": "Tuesday",
        "hours": "9 AM to 6 PM"
      },
      {
        "day": "Wednesday",
        "hours": "9 AM to 6 PM"
      },
      {
        "day": "Thursday",
        "hours": "9 AM to 6 PM"
      },
      {
        "day": "Friday",
        "hours": "9 AM to 6 PM"
      },
      {
        "day": "Saturday",
        "hours": "9 AM to 12 PM"
      },
      {
        "day": "Sunday",
        "hours": "Closed"
      }
    ],
    "peopleAlsoSearch": [],
    "placesTags": [],
    "reviewsTags": [],
    "additionalInfo": {
      "From the business": [
        {
          "Identifies as women-owned": true
        },
        {
          "Small business": true
        }
      ],
      "Service options": [
        {
          "Curbside pickup": true
        },
        {
          "Delivery": true
        },
        {
          "In-store pickup": true
        },
        {
          "In-store shopping": true
        },
        {
          "Onsite services": true
        }
      ],
      "Accessibility": [
        {
          "Wheelchair accessible entrance": true
        },
        {
          "Wheelchair accessible parking lot": true
        },
        {
          "Wheelchair accessible restroom": true
        }
      ],
      "Amenities": [
        {
          "Gender-neutral restroom": true
        },
        {
          "Wi-Fi": true
        },
        {
          "Free Wi-Fi": true
        }
      ],
      "Crowd": [
        {
          "LGBTQ+ friendly": true
        },
        {
          "Transgender safespace": true
        }
      ],
      "Payments": [
        {
          "Checks": true
        },
        {
          "Credit cards": true
        },
        {
          "Debit cards": true
        },
        {
          "NFC mobile payments": true
        },
        {
          "Credit cards": true
        }
      ],
      "Parking": [
        {
          "Free parking lot": true
        },
        {
          "Paid street parking": true
        }
      ]
    },
    "gasPrices": [],
    "url": "https://www.google.com/maps/search/?api=1&query=Pharmacy%20at%20Coastal%20Pharmacy%20%26%20Wellness&query_place_id=ChIJBUeIbe6dskwRZkoNC3tyb8E",
    "searchPageUrl": "https://www.google.com/maps/search/independent%20pharmacy%20Portland%20ME/@56.01120730753697,-133.54692821486086,9z?hl=en",
    "searchString": "independent pharmacy Portland ME",
    "language": "en",
    "rank": 18,
    "isAdvertisement": false,
    "imageUrl": "https://lh3.googleusercontent.com/p/AF1QipP56bFFcaXCS3X1BgWAmCaHGz0NL7fM04ZSfXLy=w426-h240-k-no",
    "kgmid": "/g/11h_7lt8q_"
  },
  {
    "title": "Portland Pharmacy",
    "price": null,
    "categoryName": "Pharmacy",
    "address": "1295 Portland Ave Ste 2, Rochester, NY 14621",
    "neighborhood": "Group 14621",
    "street": "1295 Portland Ave Ste 2",
    "city": "Rochester",
    "postalCode": "14621",
    "state": "New York",
    "countryCode": "US",
    "website": "https://www.facebook.com/portlandpharmrx",
    "phone": "(585) 537-7081",
    "phoneUnformatted": "+15855377081",
    "claimThisBusiness": false,
    "location": {
      "lat": 43.1897145,
      "lng": -77.5854485
    },
    "totalScore": 4.9,
    "permanentlyClosed": false,
    "temporarilyClosed": false,
    "placeId": "ChIJ9TwCY-G11okRlYLk1XVACcI",
    "categories": [
      "Pharmacy",
      "Drug store"
    ],
    "fid": "0x89d6b5e163023cf5:0xc2094075d5e48295",
    "cid": "13981777392992289429",
    "reviewsCount": 52,
    "imagesCount": 24,
    "imageCategories": [],
    "scrapedAt": "2025-06-22T08:07:23.069Z",
    "googleFoodUrl": null,
    "hotelAds": [],
    "openingHours": [
      {
        "day": "Monday",
        "hours": "9 AM to 6 PM"
      },
      {
        "day": "Tuesday",
        "hours": "9 AM to 6 PM"
      },
      {
        "day": "Wednesday",
        "hours": "9 AM to 6 PM"
      },
      {
        "day": "Thursday",
        "hours": "9 AM to 6 PM"
      },
      {
        "day": "Friday",
        "hours": "9 AM to 1 PM, 2 to 6 PM"
      },
      {
        "day": "Saturday",
        "hours": "10 AM to 3 PM"
      },
      {
        "day": "Sunday",
        "hours": "Closed"
      }
    ],
    "additionalOpeningHours": {
      "Delivery": [
        {
          "day": "Monday",
          "hours": "9 AM–6 PM"
        },
        {
          "day": "Tuesday",
          "hours": "9 AM–6 PM"
        },
        {
          "day": "Wednesday",
          "hours": "9 AM–6 PM"
        },
        {
          "day": "Thursday",
          "hours": "9 AM–6 PM"
        },
        {
          "day": "Friday",
          "hours": "9 AM–6 PM"
        },
        {
          "day": "Saturday",
          "hours": "10 AM–3 PM"
        },
        {
          "day": "Sunday",
          "hours": "Closed"
        }
      ]
    },
    "peopleAlsoSearch": [],
    "placesTags": [],
    "reviewsTags": [],
    "additionalInfo": {
      "From the business": [
        {
          "Small business": true
        }
      ],
      "Service options": [
        {
          "Curbside pickup": true
        },
        {
          "Delivery": true
        },
        {
          "In-store pickup": true
        },
        {
          "In-store shopping": true
        },
        {
          "Same-day delivery": true
        },
        {
          "Arabic": true
        }
      ],
      "Accessibility": [
        {
          "Wheelchair accessible entrance": true
        },
        {
          "Wheelchair accessible parking lot": true
        }
      ],
      "Crowd": [
        {
          "LGBTQ+ friendly": true
        },
        {
          "Transgender safespace": true
        }
      ],
      "Planning": [
        {
          "Quick visit": true
        }
      ],
      "Payments": [
        {
          "Credit cards": true
        },
        {
          "Debit cards": true
        },
        {
          "NFC mobile payments": true
        },
        {
          "Credit cards": true
        }
      ]
    },
    "gasPrices": [],
    "url": "https://www.google.com/maps/search/?api=1&query=Portland%20Pharmacy&query_place_id=ChIJ9TwCY-G11okRlYLk1XVACcI",
    "searchPageUrl": "https://www.google.com/maps/search/independent%20pharmacy%20Portland%20ME/@42.54640259466427,-76.98739394329682,8z?hl=en",
    "searchString": "independent pharmacy Portland ME",
    "language": "en",
    "rank": 1,
    "isAdvertisement": false,
    "imageUrl": "https://lh3.googleusercontent.com/gps-cs-s/AC9h4nrnv_P5v6EF_BQSBFmEYY8_JOSCOd173E65r5yPw-cxpC73opjwLg9bRXH-jO5oGRYwFbENbOcqt6efADYiR1N3UrE5PNh_SH59vT7dCDM2f5UJLuaSS9LZcjdvJhw7j6oQTYY3zQ=w408-h306-k-no",
    "kgmid": "/g/11p4l8hc2j"
  },
  {
    "title": "PharMerica - Portland, ME",
    "price": null,
    "categoryName": "Pharmacy",
    "address": "97 McAlister Farm Rd, Portland, ME 04103",
    "neighborhood": "Riverton",
    "street": "97 McAlister Farm Rd",
    "city": "Portland",
    "postalCode": "04103",
    "state": "Maine",
    "countryCode": "US",
    "website": "http://www.pharmerica.com/",
    "phone": "(888) 797-4118",
    "phoneUnformatted": "+18887974118",
    "claimThisBusiness": false,
    "location": {
      "lat": 43.6907877,
      "lng": -70.3311666
    },
    "totalScore": 2.5,
    "permanentlyClosed": false,
    "temporarilyClosed": false,
    "placeId": "ChIJhxSdFPaaskwRvyZ_wvWVj9M",
    "categories": [
      "Pharmacy"
    ],
    "fid": "0x4cb29af6149d1487:0xd38f95f5c27f26bf",
    "cid": "15244568146435057343",
    "reviewsCount": 2,
    "imagesCount": 4,
    "imageCategories": [],
    "scrapedAt": "2025-06-22T08:07:23.069Z",
    "googleFoodUrl": null,
    "hotelAds": [],
    "openingHours": [
      {
        "day": "Monday",
        "hours": "Open 24 hours"
      },
      {
        "day": "Tuesday",
        "hours": "Open 24 hours"
      },
      {
        "day": "Wednesday",
        "hours": "Open 24 hours"
      },
      {
        "day": "Thursday",
        "hours": "Open 24 hours"
      },
      {
        "day": "Friday",
        "hours": "Open 24 hours"
      },
      {
        "day": "Saturday",
        "hours": "Open 24 hours"
      },
      {
        "day": "Sunday",
        "hours": "Open 24 hours"
      }
    ],
    "peopleAlsoSearch": [],
    "placesTags": [],
    "reviewsTags": [],
    "additionalInfo": {
      "Accessibility": [
        {
          "Wheelchair accessible entrance": true
        },
        {
          "Wheelchair accessible parking lot": true
        }
      ],
      "Offerings": [
        {
          "Medication disposal": true
        }
      ]
    },
    "gasPrices": [],
    "url": "https://www.google.com/maps/search/?api=1&query=PharMerica%20-%20Portland%2C%20ME&query_place_id=ChIJhxSdFPaaskwRvyZ_wvWVj9M",
    "searchPageUrl": "https://www.google.com/maps/search/independent%20pharmacy%20Portland%20ME/@42.54640259466427,-76.98739394329682,8z?hl=en",
    "searchString": "independent pharmacy Portland ME",
    "language": "en",
    "rank": 2,
    "isAdvertisement": false,
    "imageUrl": "https://lh3.googleusercontent.com/p/AF1QipMTY7E90j0MsCooUsFiHtV0d0722mUIlErTl8ya=w408-h408-k-no",
    "kgmid": "/g/11f3m3q54_"
  }
]