[
  {
    "title": "Hy-Vee Pharmacy",
    "price": "$$",
    "categoryName": "Pharmacy",
    "address": "1320 9th Ave SE, Watertown, SD 57201",
    "neighborhood": null,
    "street": "1320 9th Ave SE",
    "city": "Watertown",
    "postalCode": "57201",
    "state": "South Dakota",
    "countryCode": "US",
    "website": "https://www.hy-vee.com/my-pharmacy/pharmacy-finder/watertown-1320-9th-ave-se-watertown-sd/1871?utm_source=google&utm_medium=organic&utm_campaign=gmb-listing",
    "phone": "(605) 886-0661",
    "phoneUnformatted": "+16058860661",
    "claimThisBusiness": false,
    "location": {
      "lat": 44.888449,
      "lng": -97.093922
    },
    "totalScore": 2.8,
    "permanentlyClosed": false,
    "temporarilyClosed": false,
    "placeId": "ChIJxSG2BEvWzFIR5UNYs1iX-Wk",
    "categories": [
      "Pharmacy",
      "Drug store",
      "Herbal medicine store",
      "Homeopathic pharmacy",
      "Local medical services",
      "Medical Center",
      "Organic drug store",
      "Pharmaceutical company",
      "Pharmaceutical lab",
      "Toiletries store"
    ],
    "fid": "0x52ccd64b04b621c5:0x69f99758b35843e5",
    "cid": "7636301050405209061",
    "reviewsCount": 26,
    "imagesCount": 9,
    "imageCategories": [],
    "scrapedAt": "2025-06-22T09:51:46.507Z",
    "googleFoodUrl": null,
    "hotelAds": [],
    "openingHours": [
      {
        "day": "Monday",
        "hours": "8 AM to 8 PM"
      },
      {
        "day": "Tuesday",
        "hours": "8 AM to 8 PM"
      },
      {
        "day": "Wednesday",
        "hours": "8 AM to 8 PM"
      },
      {
        "day": "Thursday",
        "hours": "8 AM to 8 PM"
      },
      {
        "day": "Friday",
        "hours": "8 AM to 8 PM"
      },
      {
        "day": "Saturday",
        "hours": "9 AM to 6 PM"
      },
      {
        "day": "Sunday",
        "hours": "10 AM to 5 PM"
      }
    ],
    "peopleAlsoSearch": [],
    "placesTags": [],
    "reviewsTags": [],
    "additionalInfo": {
      "Service options": [
        {
          "Delivery": true
        },
        {
          "Drive-through": true
        },
        {
          "In-store pickup": true
        },
        {
          "Same-day delivery": true
        }
      ],
      "Accessibility": [
        {
          "Wheelchair accessible entrance": true
        },
        {
          "Wheelchair accessible parking lot": true
        },
        {
          "Wheelchair accessible restroom": true
        },
        {
          "Wheelchair accessible seating": true
        }
      ],
      "Amenities": [
        {
          "Wi-Fi": true
        }
      ],
      "Planning": [
        {
          "Quick visit": true
        }
      ],
      "Payments": [
        {
          "Credit cards": true
        },
        {
          "Debit cards": true
        },
        {
          "Credit cards": true
        }
      ]
    },
    "gasPrices": [],
    "url": "https://www.google.com/maps/search/?api=1&query=Hy-Vee%20Pharmacy&query_place_id=ChIJxSG2BEvWzFIR5UNYs1iX-Wk",
    "searchPageUrl": "https://www.google.com/maps/search/independent%20pharmacy%20Watertown%20SD/@53.926924098432366,-166.92009879946335,9z?hl=en",
    "searchString": "independent pharmacy Watertown SD",
    "language": "en",
    "rank": 1,
    "isAdvertisement": false,
    "imageUrl": "https://lh3.googleusercontent.com/p/AF1QipO_ilr1jDktkWt4PnUrDVxNk_EXbVAY_ZtAuw0O=w408-h408-k-no",
    "kgmid": "/g/1t_wn_q2"
  },
  {
    "title": "Genoa Healthcare",
    "price": null,
    "categoryName": "Pharmacy",
    "address": "123 19th St NE, Watertown, SD 57201",
    "neighborhood": null,
    "street": "123 19th St NE",
    "city": "Watertown",
    "postalCode": "57201",
    "state": "South Dakota",
    "countryCode": "US",
    "website": "http://www.genoahealthcare.com/",
    "phone": "(605) 882-9400",
    "phoneUnformatted": "+16058829400",
    "claimThisBusiness": false,
    "location": {
      "lat": 44.8998202,
      "lng": -97.0875518
    },
    "totalScore": 5,
    "permanentlyClosed": false,
    "temporarilyClosed": false,
    "placeId": "ChIJD3lyZq_XzFIRVfDtmhY_y7k",
    "categories": [
      "Pharmacy"
    ],
    "fid": "0x52ccd7af6672790f:0xb9cb3f169aedf055",
    "cid": "13387863683610046549",
    "reviewsCount": 4,
    "imagesCount": 1,
    "imageCategories": [],
    "scrapedAt": "2025-06-22T09:51:46.507Z",
    "googleFoodUrl": null,
    "hotelAds": [],
    "openingHours": [
      {
        "day": "Monday",
        "hours": "8 AM to 5 PM"
      },
      {
        "day": "Tuesday",
        "hours": "8 AM to 5 PM"
      },
      {
        "day": "Wednesday",
        "hours": "8 AM to 5 PM"
      },
      {
        "day": "Thursday",
        "hours": "8 AM to 5 PM"
      },
      {
        "day": "Friday",
        "hours": "8 AM to 5 PM"
      },
      {
        "day": "Saturday",
        "hours": "Closed"
      },
      {
        "day": "Sunday",
        "hours": "Closed"
      }
    ],
    "peopleAlsoSearch": [],
    "placesTags": [],
    "reviewsTags": [],
    "additionalInfo": {
      "Accessibility": [
        {
          "Wheelchair accessible entrance": true
        },
        {
          "Wheelchair accessible parking lot": true
        }
      ],
      "Payments": [
        {
          "Credit cards": true
        }
      ]
    },
    "gasPrices": [],
    "url": "https://www.google.com/maps/search/?api=1&query=Genoa%20Healthcare&query_place_id=ChIJD3lyZq_XzFIRVfDtmhY_y7k",
    "searchPageUrl": "https://www.google.com/maps/search/independent%20pharmacy%20Watertown%20SD/@53.926924098432366,-166.92009879946335,9z?hl=en",
    "searchString": "independent pharmacy Watertown SD",
    "language": "en",
    "rank": 2,
    "isAdvertisement": false,
    "imageUrl": "https://streetviewpixels-pa.googleapis.com/v1/thumbnail?panoid=5-lKaULvqM_CI3addxAqww&cb_client=search.gws-prod.gps&w=408&h=240&yaw=302.6214&pitch=0&thumbfov=100",
    "kgmid": "/g/1tdmdjvw"
  },
  {
    "title": "Brown Clinic Pharmacy",
    "price": null,
    "categoryName": "Pharmacy",
    "address": "506 1st Ave SE, Watertown, SD 57201",
    "neighborhood": null,
    "street": "506 1st Ave SE",
    "city": "Watertown",
    "postalCode": "57201",
    "state": "South Dakota",
    "countryCode": "US",
    "phone": "(605) 884-4234",
    "phoneUnformatted": "+16058844234",
    "claimThisBusiness": false,
    "location": {
      "lat": 44.8973883,
      "lng": -97.1065836
    },
    "totalScore": 4.7,
    "permanentlyClosed": false,
    "temporarilyClosed": false,
    "placeId": "ChIJ0-eJ3M7XzFIRXOzzAx40W-E",
    "categories": [
      "Pharmacy"
    ],
    "fid": "0x52ccd7cedc89e7d3:0xe15b341e03f3ec5c",
    "cid": "16238630184934435932",
    "reviewsCount": 12,
    "imagesCount": 8,
    "imageCategories": [],
    "scrapedAt": "2025-06-22T09:51:46.507Z",
    "googleFoodUrl": null,
    "hotelAds": [],
    "openingHours": [
      {
        "day": "Monday",
        "hours": "9 AM to 4:30 PM"
      },
      {
        "day": "Tuesday",
        "hours": "9 AM to 4:30 PM"
      },
      {
        "day": "Wednesday",
        "hours": "9 AM to 4:30 PM"
      },
      {
        "day": "Thursday",
        "hours": "9 AM to 4:30 PM"
      },
      {
        "day": "Friday",
        "hours": "9 AM to 4:30 PM"
      },
      {
        "day": "Saturday",
        "hours": "Closed"
      },
      {
        "day": "Sunday",
        "hours": "Closed"
      }
    ],
    "peopleAlsoSearch": [],
    "placesTags": [],
    "reviewsTags": [],
    "additionalInfo": {
      "From the business": [
        {
          "Identifies as women-owned": true
        },
        {
          "Small business": true
        }
      ],
      "Service options": [
        {
          "Delivery": true
        },
        {
          "In-store pickup": true
        },
        {
          "In-store shopping": true
        },
        {
          "Same-day delivery": true
        },
        {
          "American Sign Language": true
        }
      ],
      "Accessibility": [
        {
          "Wheelchair accessible entrance": true
        },
        {
          "Wheelchair accessible parking lot": true
        }
      ],
      "Crowd": [
        {
          "LGBTQ+ friendly": true
        },
        {
          "Transgender safespace": true
        }
      ],
      "Planning": [
        {
          "Quick visit": true
        }
      ],
      "Payments": [
        {
          "Checks": true
        },
        {
          "Credit cards": true
        },
        {
          "NFC mobile payments": true
        },
        {
          "Credit cards": true
        }
      ]
    },
    "gasPrices": [],
    "url": "https://www.google.com/maps/search/?api=1&query=Brown%20Clinic%20Pharmacy&query_place_id=ChIJ0-eJ3M7XzFIRXOzzAx40W-E",
    "searchPageUrl": "https://www.google.com/maps/search/independent%20pharmacy%20Watertown%20SD/@53.926924098432366,-166.92009879946335,9z?hl=en",
    "searchString": "independent pharmacy Watertown SD",
    "language": "en",
    "rank": 4,
    "isAdvertisement": false,
    "imageUrl": "https://lh3.googleusercontent.com/p/AF1QipNwL5cvvIIVVHyYaXHztjRJ5qFUs_h1lUjjgSVD=w408-h271-k-no",
    "kgmid": "/g/12m96z8c8"
  },
  {
    "title": "Prairie Lakes Campus Pharmacy",
    "price": null,
    "categoryName": "Pharmacy",
    "address": "401 9th Ave NW, Watertown, SD 57201",
    "neighborhood": null,
    "street": "401 9th Ave NW",
    "city": "Watertown",
    "postalCode": "57201",
    "state": "South Dakota",
    "countryCode": "US",
    "website": "https://www.prairielakes.com/your-health/medical-services/pharmacy.html",
    "phone": "(605) 882-7790",
    "phoneUnformatted": "+16058827790",
    "claimThisBusiness": true,
    "location": {
      "lat": 44.9111251,
      "lng": -97.1206302
    },
    "totalScore": 1,
    "permanentlyClosed": false,
    "temporarilyClosed": false,
    "placeId": "ChIJycnS0-DXzFIRzs1qq5w6xk8",
    "categories": [
      "Pharmacy"
    ],
    "fid": "0x52ccd7e0d3d2c9c9:0x4fc63a9cab6acdce",
    "cid": "5748346418950229454",
    "reviewsCount": 1,
    "imagesCount": 1,
    "imageCategories": [],
    "scrapedAt": "2025-06-22T09:51:46.507Z",
    "googleFoodUrl": null,
    "hotelAds": [],
    "openingHours": [
      {
        "day": "Monday",
        "hours": "8:30 AM to 5 PM"
      },
      {
        "day": "Tuesday",
        "hours": "8:30 AM to 5 PM"
      },
      {
        "day": "Wednesday",
        "hours": "8:30 AM to 5 PM"
      },
      {
        "day": "Thursday",
        "hours": "8:30 AM to 5 PM"
      },
      {
        "day": "Friday",
        "hours": "8:30 AM to 5 PM"
      },
      {
        "day": "Saturday",
        "hours": "Closed"
      },
      {
        "day": "Sunday",
        "hours": "Closed"
      }
    ],
    "peopleAlsoSearch": [],
    "placesTags": [],
    "reviewsTags": [],
    "additionalInfo": {
      "Service options": [
        {
          "Delivery": false
        },
        {
          "Same-day delivery": false
        }
      ],
      "Accessibility": [
        {
          "Wheelchair accessible entrance": true
        },
        {
          "Wheelchair accessible parking lot": true
        }
      ],
      "Payments": [
        {
          "Credit cards": true
        }
      ]
    },
    "gasPrices": [],
    "url": "https://www.google.com/maps/search/?api=1&query=Prairie%20Lakes%20Campus%20Pharmacy&query_place_id=ChIJycnS0-DXzFIRzs1qq5w6xk8",
    "searchPageUrl": "https://www.google.com/maps/search/independent%20pharmacy%20Watertown%20SD/@53.926924098432366,-166.92009879946335,9z?hl=en",
    "searchString": "independent pharmacy Watertown SD",
    "language": "en",
    "rank": 5,
    "isAdvertisement": false,
    "imageUrl": "https://streetviewpixels-pa.googleapis.com/v1/thumbnail?panoid=PndbLOMpvhiI1q2qu0ZsQw&cb_client=search.gws-prod.gps&w=408&h=240&yaw=8.110358&pitch=0&thumbfov=100",
    "kgmid": "/g/1tj7dq3f"
  },
  {
    "title": "Deidra J. Vangilder, PharmD",
    "price": null,
    "categoryName": "Pharmacy",
    "address": "506 1st Ave SE, Watertown, SD 57201",
    "neighborhood": null,
    "street": "506 1st Ave SE",
    "city": "Watertown",
    "postalCode": "57201",
    "state": "South Dakota",
    "countryCode": "US",
    "website": "http://www.brownclinic.org/",
    "phone": "(605) 886-8482",
    "phoneUnformatted": "+16058868482",
    "claimThisBusiness": true,
    "location": {
      "lat": 44.8972919,
      "lng": -97.1066125
    },
    "permanentlyClosed": false,
    "temporarilyClosed": false,
    "placeId": "ChIJv_BXrsjXzFIREb0NKZRczbI",
    "categories": [
      "Pharmacy"
    ],
    "fid": "0x52ccd7c8ae57f0bf:0xb2cd5c94290dbd11",
    "cid": "12884055900390538513",
    "reviewsCount": 0,
    "imagesCount": 1,
    "imageCategories": [],
    "scrapedAt": "2025-06-22T09:51:46.507Z",
    "googleFoodUrl": null,
    "hotelAds": [],
    "openingHours": [
      {
        "day": "Monday",
        "hours": "8 AM to 5 PM"
      },
      {
        "day": "Tuesday",
        "hours": "8 AM to 5 PM"
      },
      {
        "day": "Wednesday",
        "hours": "8 AM to 5 PM"
      },
      {
        "day": "Thursday",
        "hours": "8 AM to 5 PM"
      },
      {
        "day": "Friday",
        "hours": "8 AM to 5 PM"
      },
      {
        "day": "Saturday",
        "hours": "Closed"
      },
      {
        "day": "Sunday",
        "hours": "Closed"
      }
    ],
    "peopleAlsoSearch": [],
    "placesTags": [],
    "reviewsTags": [],
    "additionalInfo": {
      "Accessibility": [
        {
          "Wheelchair accessible entrance": true
        },
        {
          "Wheelchair accessible parking lot": true
        }
      ]
    },
    "gasPrices": [],
    "url": "https://www.google.com/maps/search/?api=1&query=Deidra%20J.%20Vangilder%2C%20PharmD&query_place_id=ChIJv_BXrsjXzFIREb0NKZRczbI",
    "searchPageUrl": "https://www.google.com/maps/search/independent%20pharmacy%20Watertown%20SD/@53.926924098432366,-166.92009879946335,9z?hl=en",
    "searchString": "independent pharmacy Watertown SD",
    "language": "en",
    "rank": 6,
    "isAdvertisement": false,
    "imageUrl": "https://streetviewpixels-pa.googleapis.com/v1/thumbnail?panoid=sAzzm1p_PZkqCXyBr3hPEw&cb_client=search.gws-prod.gps&w=408&h=240&yaw=225.25969&pitch=0&thumbfov=100",
    "kgmid": "/g/1td71nhg"
  },
  {
    "title": "Walgreens Pharmacy",
    "description": "Department of the Walgreens chain providing prescription medications & other health-related items.",
    "price": null,
    "categoryName": "Pharmacy",
    "address": "421 9th Ave SE, Watertown, SD 57201",
    "neighborhood": null,
    "street": "421 9th Ave SE",
    "city": "Watertown",
    "postalCode": "57201",
    "state": "South Dakota",
    "countryCode": "US",
    "website": "https://www.walgreens.com/locator/walgreens-421+9th+ave+se-watertown-sd-57201/id=10007",
    "phone": "(605) 882-3788",
    "phoneUnformatted": "+16058823788",
    "claimThisBusiness": false,
    "location": {
      "lat": 44.8905745,
      "lng": -97.1102773
    },
    "permanentlyClosed": false,
    "temporarilyClosed": false,
    "placeId": "ChIJR-HnYpDXzFIRuHCobmoQuEY",
    "categories": [
      "Pharmacy"
    ],
    "fid": "0x52ccd79062e7e147:0x46b8106a6ea870b8",
    "cid": "5095841027678826680",
    "reviewsCount": 0,
    "imagesCount": 3,
    "imageCategories": [],
    "scrapedAt": "2025-06-22T09:51:46.507Z",
    "googleFoodUrl": null,
    "hotelAds": [],
    "openingHours": [
      {
        "day": "Monday",
        "hours": "9 AM to 1:30 PM, 2 to 8 PM"
      },
      {
        "day": "Tuesday",
        "hours": "9 AM to 1:30 PM, 2 to 8 PM"
      },
      {
        "day": "Wednesday",
        "hours": "9 AM to 1:30 PM, 2 to 8 PM"
      },
      {
        "day": "Thursday",
        "hours": "9 AM to 1:30 PM, 2 to 8 PM"
      },
      {
        "day": "Friday",
        "hours": "9 AM to 1:30 PM, 2 to 8 PM"
      },
      {
        "day": "Saturday",
        "hours": "9 AM to 1:30 PM, 2 to 6 PM"
      },
      {
        "day": "Sunday",
        "hours": "10 AM to 1:30 PM, 2 to 6 PM"
      }
    ],
    "additionalOpeningHours": {
      "Drive through": [
        {
          "day": "Monday",
          "hours": "9 AM–1:30 PM"
        },
        {
          "day": "Tuesday",
          "hours": "9 AM–1:30 PM"
        },
        {
          "day": "Wednesday",
          "hours": "9 AM–1:30 PM"
        },
        {
          "day": "Thursday",
          "hours": "9 AM–1:30 PM"
        },
        {
          "day": "Friday",
          "hours": "9 AM–1:30 PM"
        },
        {
          "day": "Saturday",
          "hours": "9 AM–1:30 PM"
        },
        {
          "day": "Sunday",
          "hours": "10 AM–1:30 PM"
        }
      ],
      "Pickup": [
        {
          "day": "Monday",
          "hours": "9 AM–1:30 PM"
        },
        {
          "day": "Tuesday",
          "hours": "9 AM–1:30 PM"
        },
        {
          "day": "Wednesday",
          "hours": "9 AM–1:30 PM"
        },
        {
          "day": "Thursday",
          "hours": "9 AM–1:30 PM"
        },
        {
          "day": "Friday",
          "hours": "9 AM–1:30 PM"
        },
        {
          "day": "Saturday",
          "hours": "9 AM–1:30 PM"
        },
        {
          "day": "Sunday",
          "hours": "10 AM–1:30 PM"
        }
      ]
    },
    "peopleAlsoSearch": [],
    "placesTags": [],
    "reviewsTags": [],
    "additionalInfo": {
      "Service options": [
        {
          "Drive-through": true
        },
        {
          "In-store pickup": true
        }
      ],
      "Accessibility": [
        {
          "Wheelchair accessible entrance": true
        },
        {
          "Wheelchair accessible parking lot": true
        }
      ],
      "Offerings": [
        {
          "Passport photos": true
        }
      ],
      "Planning": [
        {
          "Quick visit": true
        }
      ],
      "Payments": [
        {
          "Credit cards": true
        },
        {
          "Debit cards": true
        }
      ]
    },
    "gasPrices": [],
    "url": "https://www.google.com/maps/search/?api=1&query=Walgreens%20Pharmacy&query_place_id=ChIJR-HnYpDXzFIRuHCobmoQuEY",
    "searchPageUrl": "https://www.google.com/maps/search/independent%20pharmacy%20Watertown%20SD/@53.926924098432366,-166.92009879946335,9z?hl=en",
    "searchString": "independent pharmacy Watertown SD",
    "language": "en",
    "rank": 7,
    "isAdvertisement": false,
    "imageUrl": "https://lh3.googleusercontent.com/p/AF1QipMovACoqqHFy_55t_bhawhRehRobVeQXEcQpvv8=w525-h240-k-no",
    "kgmid": "/g/11n6rkgf3h"
  },
  {
    "title": "Walmart Pharmacy",
    "price": "$",
    "categoryName": "Pharmacy",
    "address": "1201 29th St SE, Watertown, SD 57201",
    "neighborhood": null,
    "street": "1201 29th St SE",
    "city": "Watertown",
    "postalCode": "57201",
    "state": "South Dakota",
    "countryCode": "US",
    "website": "https://www.walmart.com/store/1500-watertown-sd/pharmacy/?veh=seo_loc",
    "phone": "(605) 886-8419",
    "phoneUnformatted": "+16058868419",
    "claimThisBusiness": false,
    "location": {
      "lat": 44.8866799,
      "lng": -97.0698144
    },
    "totalScore": 3.8,
    "permanentlyClosed": false,
    "temporarilyClosed": false,
    "placeId": "ChIJJXyhpf7WzFIRClV36CuGkR4",
    "categories": [
      "Pharmacy",
      "Herbal medicine store",
      "Medical supply store",
      "Parapharmacy",
      "Vitamin & supplements store"
    ],
    "fid": "0x52ccd6fea5a17c25:0x1e91862be877550a",
    "cid": "2202689215902733578",
    "reviewsCount": 12,
    "imagesCount": 5,
    "imageCategories": [],
    "scrapedAt": "2025-06-22T09:51:46.508Z",
    "googleFoodUrl": null,
    "hotelAds": [],
    "openingHours": [
      {
        "day": "Monday",
        "hours": "9 AM to 7 PM"
      },
      {
        "day": "Tuesday",
        "hours": "9 AM to 7 PM"
      },
      {
        "day": "Wednesday",
        "hours": "9 AM to 7 PM"
      },
      {
        "day": "Thursday",
        "hours": "9 AM to 7 PM"
      },
      {
        "day": "Friday",
        "hours": "9 AM to 7 PM"
      },
      {
        "day": "Saturday",
        "hours": "9 AM to 6 PM"
      },
      {
        "day": "Sunday",
        "hours": "10 AM to 6 PM"
      }
    ],
    "peopleAlsoSearch": [],
    "placesTags": [],
    "reviewsTags": [],
    "additionalInfo": {
      "Service options": [
        {
          "Curbside pickup": true
        },
        {
          "Delivery": true
        },
        {
          "Drive-through": true
        },
        {
          "In-store pickup": true
        },
        {
          "In-store shopping": true
        }
      ],
      "Accessibility": [
        {
          "Wheelchair accessible entrance": true
        },
        {
          "Wheelchair accessible parking lot": true
        },
        {
          "Wheelchair accessible restroom": true
        }
      ],
      "Offerings": [
        {
          "Passport photos": true
        }
      ],
      "Amenities": [
        {
          "Wi-Fi": true
        },
        {
          "Free Wi-Fi": true
        }
      ],
      "Planning": [
        {
          "Quick visit": true
        }
      ],
      "Payments": [
        {
          "Credit cards": true
        },
        {
          "Debit cards": true
        },
        {
          "Credit cards": true
        }
      ]
    },
    "gasPrices": [],
    "url": "https://www.google.com/maps/search/?api=1&query=Walmart%20Pharmacy&query_place_id=ChIJJXyhpf7WzFIRClV36CuGkR4",
    "searchPageUrl": "https://www.google.com/maps/search/independent%20pharmacy%20Watertown%20SD/@53.926924098432366,-166.92009879946335,9z?hl=en",
    "searchString": "independent pharmacy Watertown SD",
    "language": "en",
    "rank": 8,
    "isAdvertisement": false,
    "imageUrl": "https://lh3.googleusercontent.com/p/AF1QipMVZmh7fasl1QnUi4dOwWpf40-1uRtSFSFfvPR4=w408-h306-k-no",
    "kgmid": "/g/1hf4r81bf"
  },
  {
    "title": "County Drug",
    "price": null,
    "categoryName": "Pharmacy",
    "address": "1111 Lazelle St # 1/2, Sturgis, SD 57785, United States",
    "neighborhood": null,
    "street": "1111 Lazelle St # 1/2",
    "city": "Sturgis",
    "postalCode": "57785",
    "state": "South Dakota",
    "countryCode": "US",
    "website": "http://countydrugrx.com/",
    "phone": "+1 605-347-2466",
    "phoneUnformatted": "+16053472466",
    "claimThisBusiness": false,
    "location": {
      "lat": 44.4163941,
      "lng": -103.5123508
    },
    "totalScore": 4.4,
    "permanentlyClosed": false,
    "temporarilyClosed": false,
    "placeId": "ChIJA4OvH4RbLVMRSZM1a7Qke1U",
    "categories": [
      "Pharmacy"
    ],
    "fid": "0x532d5b841faf8303:0x557b24b46b359349",
    "cid": "6159557272670671689",
    "reviewsCount": 39,
    "imagesCount": 4,
    "imageCategories": [],
    "scrapedAt": "2025-06-22T09:52:41.702Z",
    "googleFoodUrl": null,
    "hotelAds": [],
    "openingHours": [
      {
        "day": "Monday",
        "hours": "8 AM to 6:30 PM"
      },
      {
        "day": "Tuesday",
        "hours": "8 AM to 6:30 PM"
      },
      {
        "day": "Wednesday",
        "hours": "8 AM to 6:30 PM"
      },
      {
        "day": "Thursday",
        "hours": "8 AM to 6:30 PM"
      },
      {
        "day": "Friday",
        "hours": "8 AM to 6:30 PM"
      },
      {
        "day": "Saturday",
        "hours": "9 AM to 2 PM"
      },
      {
        "day": "Sunday",
        "hours": "Closed"
      }
    ],
    "peopleAlsoSearch": [],
    "placesTags": [],
    "reviewsTags": [],
    "additionalInfo": {
      "From the business": [
        {
          "Small Business": true
        }
      ],
      "Service options": [
        {
          "Delivery": true
        }
      ],
      "Accessibility": [
        {
          "Wheelchair-accessible car park": true
        },
        {
          "Wheelchair-accessible entrance": true
        }
      ],
      "Planning": [
        {
          "Quick visit": true
        }
      ],
      "Payments": [
        {
          "Credit cards": true
        },
        {
          "Debit cards": true
        },
        {
          "NFC mobile payments": true
        },
        {
          "Credit cards": true
        }
      ]
    },
    "gasPrices": [],
    "url": "https://www.google.com/maps/search/?api=1&query=County%20Drug&query_place_id=ChIJA4OvH4RbLVMRSZM1a7Qke1U",
    "searchPageUrl": "https://www.google.com/maps/search/independent%20pharmacy%20Watertown%20SD/@45.410355141996405,-105.48342742835163,8z?hl=en",
    "searchString": "independent pharmacy Watertown SD",
    "language": "en",
    "rank": 1,
    "isAdvertisement": false,
    "imageUrl": "https://lh3.googleusercontent.com/p/AF1QipNcHGrCotzx_mGoiYu7FJXuxkA6-5-yTvoWslix=w408-h306-k-no",
    "kgmid": "/g/1thhk50d"
  },
  {
    "title": "Lynn's Dakotamart",
    "price": null,
    "categoryName": "Pharmacy",
    "address": "1111 Lazelle St, Sturgis, SD 57785, United States",
    "neighborhood": null,
    "street": "1111 Lazelle St",
    "city": "Sturgis",
    "postalCode": "57785",
    "state": "South Dakota",
    "countryCode": "US",
    "website": "https://www.lynnsdakotamart.com/Sturgis",
    "phone": "+1 605-347-4483",
    "phoneUnformatted": "+16053474483",
    "claimThisBusiness": false,
    "location": {
      "lat": 44.4163975,
      "lng": -103.5121325
    },
    "totalScore": 4.2,
    "permanentlyClosed": false,
    "temporarilyClosed": false,
    "placeId": "ChIJA4OvH4RbLVMRoFltpENZZhY",
    "categories": [
      "Pharmacy",
      "ATM",
      "Grocery store",
      "Supermarket"
    ],
    "fid": "0x532d5b841faf8303:0x16665943a46d59a0",
    "cid": "1614075663515212192",
    "reviewsCount": 436,
    "imagesCount": 223,
    "imageCategories": [],
    "scrapedAt": "2025-06-22T09:52:41.702Z",
    "googleFoodUrl": null,
    "hotelAds": [],
    "openingHours": [
      {
        "day": "Monday",
        "hours": "6 AM to 10 PM"
      },
      {
        "day": "Tuesday",
        "hours": "6 AM to 10 PM"
      },
      {
        "day": "Wednesday",
        "hours": "6 AM to 10 PM"
      },
      {
        "day": "Thursday",
        "hours": "6 AM to 10 PM"
      },
      {
        "day": "Friday",
        "hours": "6 AM to 10 PM"
      },
      {
        "day": "Saturday",
        "hours": "6 AM to 10 PM"
      },
      {
        "day": "Sunday",
        "hours": "6 AM to 10 PM"
      }
    ],
    "additionalOpeningHours": {
      "Pickup": [
        {
          "day": "Monday",
          "hours": "9 am–4 pm"
        },
        {
          "day": "Tuesday",
          "hours": "9 am–4 pm"
        },
        {
          "day": "Wednesday",
          "hours": "9 am–4 pm"
        },
        {
          "day": "Thursday",
          "hours": "9 am–4 pm"
        },
        {
          "day": "Friday",
          "hours": "9 am–4 pm"
        },
        {
          "day": "Saturday",
          "hours": "9 am–4 pm"
        },
        {
          "day": "Sunday",
          "hours": "Closed"
        }
      ]
    },
    "peopleAlsoSearch": [],
    "placesTags": [],
    "reviewsTags": [],
    "additionalInfo": {
      "Service options": [
        {
          "In-store pick-up": true
        },
        {
          "In-store shopping": true
        },
        {
          "On-site services": true
        },
        {
          "Same-day delivery": false
        }
      ],
      "Highlights": [
        {
          "Great produce": true
        }
      ],
      "Accessibility": [
        {
          "Wheelchair-accessible car park": true
        },
        {
          "Wheelchair-accessible entrance": true
        }
      ],
      "Offerings": [
        {
          "Food": true
        },
        {
          "Pharmacy": true
        }
      ],
      "Planning": [
        {
          "Quick visit": true
        }
      ],
      "Payments": [
        {
          "Credit cards": true
        },
        {
          "Debit cards": true
        },
        {
          "NFC mobile payments": true
        },
        {
          "SNAP/EBT": true
        }
      ],
      "Parking": [
        {
          "On-site parking": true
        }
      ]
    },
    "gasPrices": [],
    "url": "https://www.google.com/maps/search/?api=1&query=Lynn's%20Dakotamart&query_place_id=ChIJA4OvH4RbLVMRoFltpENZZhY",
    "searchPageUrl": "https://www.google.com/maps/search/independent%20pharmacy%20Watertown%20SD/@45.410355141996405,-105.48342742835163,8z?hl=en",
    "searchString": "independent pharmacy Watertown SD",
    "language": "en",
    "rank": 4,
    "isAdvertisement": false,
    "imageUrl": "https://lh3.googleusercontent.com/gps-cs-s/AC9h4nr_VaNgD-fFT9a5vT4QPVbkYuPjOH4qY-TGQklwLk_GbS56dpHinb_bUkcbTy4cxctq9y-VZG1mOu-Jb4fWSX3q3MJ1OknEEfpDXHrbrZDUrqomYy07QzS6b7olX5zmXYr_HQ6M=w408-h544-k-no",
    "kgmid": "/g/1td2533h"
  },
  {
    "title": "Lynn's Dakotamart Pharmacy - Belle Fourche",
    "price": null,
    "categoryName": "Pharmacy",
    "address": "600 National St, Belle Fourche, SD 57717, United States",
    "neighborhood": null,
    "street": "600 National St",
    "city": "Belle Fourche",
    "postalCode": "57717",
    "state": "South Dakota",
    "countryCode": "US",
    "website": "https://www.mygnp.com/pharmacies/lynns-dakotamart-pharmacy-belle-fourche-belle-fourche-sd-57717/?utm_source=google&utm_medium=local&utm_campaign=localmaps&utm_content=4353835",
    "phone": "+1 605-892-2666",
    "phoneUnformatted": "+16058922666",
    "claimThisBusiness": false,
    "location": {
      "lat": 44.6621375,
      "lng": -103.8513957
    },
    "totalScore": 4.5,
    "permanentlyClosed": false,
    "temporarilyClosed": false,
    "placeId": "ChIJlXJjbeuDMlMRDO3WF4K8vVk",
    "categories": [
      "Pharmacy",
      "Drug store"
    ],
    "fid": "0x533283eb6d637295:0x59bdbc8217d6ed0c",
    "cid": "6466531906905632012",
    "reviewsCount": 8,
    "imagesCount": 6,
    "imageCategories": [],
    "scrapedAt": "2025-06-22T09:52:41.702Z",
    "googleFoodUrl": null,
    "hotelAds": [],
    "openingHours": [
      {
        "day": "Monday",
        "hours": "8:30 AM to 6 PM"
      },
      {
        "day": "Tuesday",
        "hours": "8:30 AM to 6 PM"
      },
      {
        "day": "Wednesday",
        "hours": "8:30 AM to 6 PM"
      },
      {
        "day": "Thursday",
        "hours": "8:30 AM to 6 PM"
      },
      {
        "day": "Friday",
        "hours": "8:30 AM to 6 PM"
      },
      {
        "day": "Saturday",
        "hours": "8 AM to 1 PM"
      },
      {
        "day": "Sunday",
        "hours": "Closed"
      }
    ],
    "peopleAlsoSearch": [],
    "placesTags": [],
    "reviewsTags": [],
    "additionalInfo": {
      "Service options": [
        {
          "Delivery": true
        },
        {
          "In-store pick-up": true
        },
        {
          "In-store shopping": true
        },
        {
          "On-site services": true
        }
      ],
      "Accessibility": [
        {
          "Wheelchair-accessible car park": true
        },
        {
          "Wheelchair-accessible entrance": true
        }
      ],
      "Planning": [
        {
          "Quick visit": true
        }
      ],
      "Payments": [
        {
          "Cheques": true
        },
        {
          "Credit cards": true
        },
        {
          "Debit cards": true
        },
        {
          "NFC mobile payments": true
        },
        {
          "Credit cards": true
        }
      ]
    },
    "gasPrices": [],
    "url": "https://www.google.com/maps/search/?api=1&query=Lynn's%20Dakotamart%20Pharmacy%20-%20Belle%20Fourche&query_place_id=ChIJlXJjbeuDMlMRDO3WF4K8vVk",
    "searchPageUrl": "https://www.google.com/maps/search/independent%20pharmacy%20Watertown%20SD/@45.410355141996405,-105.48342742835163,8z?hl=en",
    "searchString": "independent pharmacy Watertown SD",
    "language": "en",
    "rank": 6,
    "isAdvertisement": false,
    "imageUrl": "https://lh3.googleusercontent.com/p/AF1QipNGQBTwcvbEXy2L-_ISsk07iW2FKGCpBwkFDI24=w408-h306-k-no",
    "kgmid": "/g/1tfby3gf"
  },
  {
    "title": "Neuhauser Pharmacy",
    "price": null,
    "categoryName": "Pharmacy",
    "address": "1875 Monroe St, Madison, WI 53711",
    "neighborhood": "Vilas",
    "street": "1875 Monroe St",
    "city": "Madison",
    "postalCode": "53711",
    "state": "Wisconsin",
    "countryCode": "US",
    "website": "http://www.neuhauserpharmacy.com/",
    "phone": "(608) 256-8712",
    "phoneUnformatted": "+16082568712",
    "claimThisBusiness": false,
    "location": {
      "lat": 43.0645903,
      "lng": -89.4172241
    },
    "totalScore": 4.9,
    "permanentlyClosed": false,
    "temporarilyClosed": false,
    "placeId": "ChIJz4vefN2sB4gRx_UdzXqDfyg",
    "categories": [
      "Pharmacy",
      "Fax service",
      "Greeting card shop",
      "School supply store"
    ],
    "fid": "0x8807acdd7cde8bcf:0x287f837acd1df5c7",
    "cid": "2918195647009912263",
    "reviewsCount": 27,
    "imagesCount": 16,
    "imageCategories": [],
    "scrapedAt": "2025-06-22T09:53:04.239Z",
    "googleFoodUrl": null,
    "hotelAds": [],
    "openingHours": [
      {
        "day": "Monday",
        "hours": "9 AM to 6 PM"
      },
      {
        "day": "Tuesday",
        "hours": "9 AM to 6 PM"
      },
      {
        "day": "Wednesday",
        "hours": "9 AM to 6 PM"
      },
      {
        "day": "Thursday",
        "hours": "9 AM to 6 PM"
      },
      {
        "day": "Friday",
        "hours": "9 AM to 6 PM"
      },
      {
        "day": "Saturday",
        "hours": "9 AM to 3 PM"
      },
      {
        "day": "Sunday",
        "hours": "Closed"
      }
    ],
    "peopleAlsoSearch": [],
    "placesTags": [],
    "reviewsTags": [],
    "additionalInfo": {
      "From the business": [
        {
          "Small business": true
        }
      ],
      "Service options": [
        {
          "Curbside pickup": true
        },
        {
          "Delivery": true
        },
        {
          "In-store pickup": true
        }
      ],
      "Accessibility": [
        {
          "Wheelchair accessible entrance": true
        },
        {
          "Wheelchair accessible parking lot": true
        }
      ],
      "Planning": [
        {
          "Quick visit": true
        }
      ],
      "Payments": [
        {
          "Checks": true
        },
        {
          "Credit cards": true
        },
        {
          "Debit cards": true
        },
        {
          "NFC mobile payments": true
        },
        {
          "Credit cards": true
        }
      ],
      "Parking": [
        {
          "Free parking lot": true
        },
        {
          "Paid street parking": true
        }
      ]
    },
    "gasPrices": [],
    "url": "https://www.google.com/maps/search/?api=1&query=Neuhauser%20Pharmacy&query_place_id=ChIJz4vefN2sB4gRx_UdzXqDfyg",
    "searchPageUrl": "https://www.google.com/maps/search/independent%20pharmacy%20Watertown%20SD/@42.54640259466427,-89.6522977144323,8z?hl=en",
    "searchString": "independent pharmacy Watertown SD",
    "language": "en",
    "rank": 1,
    "isAdvertisement": false,
    "imageUrl": "https://lh3.googleusercontent.com/gps-cs-s/AC9h4nodVMexFGUB8xwTlBKJl6LcFOVa9_uEXwkjD58hs_60GOudKbpR_rIQek4BVOP_Z2uSnWsxMeAgS4RH5SGKGE4wKubt9UviXA6R3phUnghGnJ4RFGstDIl8GjVuEjg850CUPWIx=w408-h582-k-no",
    "kgmid": "/g/1w112ry3"
  },
  {
    "title": "Hoey Apothecary",
    "price": null,
    "categoryName": "Pharmacy",
    "address": "4002 Monona Dr, Madison, WI 53716",
    "neighborhood": null,
    "street": "4002 Monona Dr",
    "city": "Madison",
    "postalCode": "53716",
    "state": "Wisconsin",
    "countryCode": "US",
    "website": "http://www.hoeyrx.com/",
    "phone": "(608) 221-4639",
    "phoneUnformatted": "+16082214639",
    "claimThisBusiness": false,
    "location": {
      "lat": 43.0825409,
      "lng": -89.3242523
    },
    "totalScore": 4.5,
    "permanentlyClosed": false,
    "temporarilyClosed": false,
    "placeId": "ChIJ8_1jIi1aBogR5JHVPrOhqIQ",
    "categories": [
      "Pharmacy",
      "Vitamin & supplements store"
    ],
    "fid": "0x88065a2d2263fdf3:0x84a8a1b33ed591e4",
    "cid": "9559068000319279588",
    "reviewsCount": 122,
    "imagesCount": 35,
    "imageCategories": [],
    "scrapedAt": "2025-06-22T09:53:04.240Z",
    "googleFoodUrl": null,
    "hotelAds": [],
    "openingHours": [
      {
        "day": "Monday",
        "hours": "10 AM to 6 PM"
      },
      {
        "day": "Tuesday",
        "hours": "10 AM to 6 PM"
      },
      {
        "day": "Wednesday",
        "hours": "10 AM to 6 PM"
      },
      {
        "day": "Thursday",
        "hours": "10 AM to 6 PM"
      },
      {
        "day": "Friday",
        "hours": "10 AM to 6 PM"
      },
      {
        "day": "Saturday",
        "hours": "9 AM to 1 PM"
      },
      {
        "day": "Sunday",
        "hours": "Closed"
      }
    ],
    "peopleAlsoSearch": [],
    "placesTags": [],
    "reviewsTags": [],
    "additionalInfo": {
      "From the business": [
        {
          "Small business": true
        }
      ],
      "Service options": [
        {
          "Curbside pickup": true
        },
        {
          "In-store pickup": true
        },
        {
          "In-store shopping": true
        },
        {
          "Onsite services": true
        }
      ],
      "Accessibility": [
        {
          "Wheelchair accessible entrance": true
        },
        {
          "Wheelchair accessible parking lot": true
        },
        {
          "Wheelchair accessible restroom": true
        }
      ],
      "Amenities": [
        {
          "Gender-neutral restroom": true
        },
        {
          "Wi-Fi": true
        },
        {
          "Free Wi-Fi": true
        }
      ],
      "Planning": [
        {
          "Quick visit": true
        }
      ],
      "Payments": [
        {
          "Credit cards": true
        },
        {
          "Debit cards": true
        },
        {
          "NFC mobile payments": true
        },
        {
          "Credit cards": true
        }
      ]
    },
    "gasPrices": [],
    "url": "https://www.google.com/maps/search/?api=1&query=Hoey%20Apothecary&query_place_id=ChIJ8_1jIi1aBogR5JHVPrOhqIQ",
    "searchPageUrl": "https://www.google.com/maps/search/independent%20pharmacy%20Watertown%20SD/@42.54640259466427,-89.6522977144323,8z?hl=en",
    "searchString": "independent pharmacy Watertown SD",
    "language": "en",
    "rank": 2,
    "isAdvertisement": false,
    "imageUrl": "https://lh3.googleusercontent.com/gps-cs-s/AC9h4nr6ObmeEUDUq9maHQpktcxkmWRVkmK_nbLT5vQEgkSxG0psKggi42GpuW7hPaz8P_3Ke-2fU5rmeyOQaDYgbsXDa3kVLDDFhNOgmUOsWWxEzaoOgw_lfKVf-S8wbFXPdUEyGYE=w408-h272-k-no",
    "kgmid": "/g/113hp8qhv"
  },
  {
    "title": "Forward Pharmacy",
    "price": null,
    "categoryName": "Pharmacy",
    "address": "4205 Monona Dr, Monona, WI 53716",
    "neighborhood": null,
    "street": "4205 Monona Dr",
    "city": "Monona",
    "postalCode": "53716",
    "state": "Wisconsin",
    "countryCode": "US",
    "website": "https://monona.forwardpharmacywi.com/",
    "phone": "(608) 221-8151",
    "phoneUnformatted": "+16082218151",
    "claimThisBusiness": false,
    "location": {
      "lat": 43.0755972,
      "lng": -89.3264806
    },
    "totalScore": 4.9,
    "permanentlyClosed": false,
    "temporarilyClosed": false,
    "placeId": "ChIJlfhBId5TBogRNo5HOHFz1bE",
    "categories": [
      "Pharmacy"
    ],
    "fid": "0x880653de2141f895:0xb1d5737138478e36",
    "cid": "12814275244865326646",
    "reviewsCount": 28,
    "imagesCount": 20,
    "imageCategories": [],
    "scrapedAt": "2025-06-22T09:53:04.240Z",
    "googleFoodUrl": null,
    "hotelAds": [],
    "openingHours": [
      {
        "day": "Monday",
        "hours": "9 AM to 6 PM"
      },
      {
        "day": "Tuesday",
        "hours": "9 AM to 6 PM"
      },
      {
        "day": "Wednesday",
        "hours": "9 AM to 6 PM"
      },
      {
        "day": "Thursday",
        "hours": "9 AM to 6 PM"
      },
      {
        "day": "Friday",
        "hours": "9 AM to 6 PM"
      },
      {
        "day": "Saturday",
        "hours": "9 AM to 1 PM"
      },
      {
        "day": "Sunday",
        "hours": "Closed"
      }
    ],
    "peopleAlsoSearch": [],
    "placesTags": [],
    "reviewsTags": [],
    "additionalInfo": {
      "Service options": [
        {
          "Delivery": true
        },
        {
          "Drive-through": true
        },
        {
          "In-store pickup": true
        }
      ],
      "Accessibility": [
        {
          "Wheelchair accessible entrance": true
        },
        {
          "Wheelchair accessible parking lot": true
        }
      ],
      "Planning": [
        {
          "Quick visit": true
        }
      ],
      "Payments": [
        {
          "Credit cards": true
        }
      ]
    },
    "gasPrices": [],
    "url": "https://www.google.com/maps/search/?api=1&query=Forward%20Pharmacy&query_place_id=ChIJlfhBId5TBogRNo5HOHFz1bE",
    "searchPageUrl": "https://www.google.com/maps/search/independent%20pharmacy%20Watertown%20SD/@42.54640259466427,-89.6522977144323,8z?hl=en",
    "searchString": "independent pharmacy Watertown SD",
    "language": "en",
    "rank": 3,
    "isAdvertisement": false,
    "imageUrl": "https://lh3.googleusercontent.com/gps-cs-s/AC9h4noLdfZGVIvZ06ZET-GMl21I_pGvENIewELwbqOoH0d1-IAoPI7jb3Hk1kpljVgu4va3Oc_JgCWjxHjdRg4Rax4kz6h29ozLBoEiwGGC4NFK1vC4-ENfnRDLEtn2eSxADpsf41hM=w408-h272-k-no",
    "kgmid": "/g/1td431n7"
  },
  {
    "title": "Cross Plains Pharmacy",
    "price": null,
    "categoryName": "Pharmacy",
    "address": "1840 Main St, Cross Plains, WI 53528",
    "neighborhood": null,
    "street": "1840 Main St",
    "city": "Cross Plains",
    "postalCode": "53528",
    "state": "Wisconsin",
    "countryCode": "US",
    "website": "http://www.crossplainspharmacy.com/",
    "phone": "(608) 798-3031",
    "phoneUnformatted": "+16087983031",
    "claimThisBusiness": false,
    "location": {
      "lat": 43.1137184,
      "lng": -89.6510506
    },
    "totalScore": 4.9,
    "permanentlyClosed": false,
    "temporarilyClosed": false,
    "placeId": "ChIJoWYoXmyhB4gR3vE3ZcK58cY",
    "categories": [
      "Pharmacy"
    ],
    "fid": "0x8807a16c5e2866a1:0xc6f1b9c26537f1de",
    "cid": "14335443333469958622",
    "reviewsCount": 10,
    "imagesCount": 4,
    "imageCategories": [],
    "scrapedAt": "2025-06-22T09:53:04.240Z",
    "googleFoodUrl": null,
    "hotelAds": [],
    "openingHours": [
      {
        "day": "Monday",
        "hours": "9 AM to 6 PM"
      },
      {
        "day": "Tuesday",
        "hours": "9 AM to 6 PM"
      },
      {
        "day": "Wednesday",
        "hours": "9 AM to 6 PM"
      },
      {
        "day": "Thursday",
        "hours": "9 AM to 6 PM"
      },
      {
        "day": "Friday",
        "hours": "9 AM to 6 PM"
      },
      {
        "day": "Saturday",
        "hours": "9 AM to 1 PM"
      },
      {
        "day": "Sunday",
        "hours": "Closed"
      }
    ],
    "peopleAlsoSearch": [],
    "placesTags": [],
    "reviewsTags": [],
    "additionalInfo": {
      "From the business": [
        {
          "Identifies as women-owned": true
        },
        {
          "Small business": true
        }
      ],
      "Service options": [
        {
          "Curbside pickup": true
        },
        {
          "In-store pickup": true
        },
        {
          "In-store shopping": true
        },
        {
          "Onsite services": true
        },
        {
          "Same-day delivery": false
        }
      ],
      "Accessibility": [
        {
          "Wheelchair accessible entrance": true
        },
        {
          "Wheelchair accessible parking lot": true
        }
      ],
      "Planning": [
        {
          "Quick visit": true
        }
      ],
      "Payments": [
        {
          "Credit cards": true
        },
        {
          "Debit cards": true
        },
        {
          "NFC mobile payments": true
        },
        {
          "Credit cards": true
        }
      ]
    },
    "gasPrices": [],
    "url": "https://www.google.com/maps/search/?api=1&query=Cross%20Plains%20Pharmacy&query_place_id=ChIJoWYoXmyhB4gR3vE3ZcK58cY",
    "searchPageUrl": "https://www.google.com/maps/search/independent%20pharmacy%20Watertown%20SD/@42.54640259466427,-89.6522977144323,8z?hl=en",
    "searchString": "independent pharmacy Watertown SD",
    "language": "en",
    "rank": 5,
    "isAdvertisement": false,
    "imageUrl": "https://lh3.googleusercontent.com/gps-cs-s/AC9h4nrNAV0jiHI4WKbLaq-NoOahHtgLlliNzRipF4JPGOq8KaY3jWnFbk9-ARiXXCwERCkEVo-0hjp_mJY993YIJymxnbpOkEPmDtnsQjJRABBVw2ALZUwPcaT4r-UYzvcHYnwOjQM=w408-h306-k-no",
    "kgmid": "/g/1vsps1yz"
  },
  {
    "title": "Forward Pharmacy Cottage Grove",
    "price": null,
    "categoryName": "Pharmacy",
    "address": "429 W Cottage Grove Rd, Cottage Grove, WI 53527",
    "neighborhood": null,
    "street": "429 W Cottage Grove Rd",
    "city": "Cottage Grove",
    "postalCode": "53527",
    "state": "Wisconsin",
    "countryCode": "US",
    "website": "https://cottagegrove.forwardpharmacywi.com/",
    "phone": "(608) 839-3335",
    "phoneUnformatted": "+16088393335",
    "claimThisBusiness": false,
    "location": {
      "lat": 43.088064,
      "lng": -89.2120145
    },
    "totalScore": 4.9,
    "permanentlyClosed": false,
    "temporarilyClosed": false,
    "placeId": "ChIJm6doKy1aBogRhFwPErLFvGU",
    "categories": [
      "Pharmacy"
    ],
    "fid": "0x88065a2d2b68a79b:0x65bcc5b2120f5c84",
    "cid": "7330951662050172036",
    "reviewsCount": 125,
    "imagesCount": 10,
    "imageCategories": [],
    "scrapedAt": "2025-06-22T09:53:04.240Z",
    "googleFoodUrl": null,
    "hotelAds": [],
    "openingHours": [
      {
        "day": "Monday",
        "hours": "9 AM to 6:30 PM"
      },
      {
        "day": "Tuesday",
        "hours": "9 AM to 6:30 PM"
      },
      {
        "day": "Wednesday",
        "hours": "9 AM to 6:30 PM"
      },
      {
        "day": "Thursday",
        "hours": "9 AM to 6:30 PM"
      },
      {
        "day": "Friday",
        "hours": "9 AM to 6:30 PM"
      },
      {
        "day": "Saturday",
        "hours": "9 AM to 1 PM"
      },
      {
        "day": "Sunday",
        "hours": "Closed"
      }
    ],
    "peopleAlsoSearch": [],
    "placesTags": [],
    "reviewsTags": [],
    "additionalInfo": {
      "From the business": [
        {
          "Small business": true
        }
      ],
      "Service options": [
        {
          "Curbside pickup": true
        },
        {
          "Delivery": true
        },
        {
          "In-store pickup": true
        },
        {
          "In-store shopping": true
        },
        {
          "Onsite services": true
        },
        {
          "Same-day delivery": true
        }
      ],
      "Accessibility": [
        {
          "Wheelchair accessible entrance": true
        },
        {
          "Wheelchair accessible parking lot": true
        }
      ],
      "Planning": [
        {
          "Quick visit": true
        }
      ],
      "Payments": [
        {
          "Checks": true
        },
        {
          "Credit cards": true
        },
        {
          "Debit cards": true
        },
        {
          "NFC mobile payments": true
        },
        {
          "Credit cards": true
        }
      ]
    },
    "gasPrices": [],
    "url": "https://www.google.com/maps/search/?api=1&query=Forward%20Pharmacy%20Cottage%20Grove&query_place_id=ChIJm6doKy1aBogRhFwPErLFvGU",
    "searchPageUrl": "https://www.google.com/maps/search/independent%20pharmacy%20Watertown%20SD/@42.54640259466427,-89.6522977144323,8z?hl=en",
    "searchString": "independent pharmacy Watertown SD",
    "language": "en",
    "rank": 8,
    "isAdvertisement": false,
    "imageUrl": "https://lh3.googleusercontent.com/p/AF1QipPFqn893ZZ4ZoD4CWs3qt34SnqqVneX71KktYsZ=w408-h284-k-no",
    "kgmid": "/g/11f3w9h47w"
  },
  {
    "title": "Lynns Dakotamart Pharmacy - Hot Springs",
    "price": null,
    "categoryName": "Pharmacy",
    "address": "501 S 6th St, Hot Springs, SD 57747",
    "neighborhood": null,
    "street": "501 S 6th St",
    "city": "Hot Springs",
    "postalCode": "57747",
    "state": "South Dakota",
    "countryCode": "US",
    "website": "https://www.mygnp.com/pharmacies/lynns-dakotamart-pharmacy-hot-springs-hot-springs-sd-57747/?utm_source=google&utm_medium=local&utm_campaign=localmaps&utm_content=4353847",
    "phone": "(605) 745-3110",
    "phoneUnformatted": "+16057453110",
    "claimThisBusiness": false,
    "location": {
      "lat": 43.4275665,
      "lng": -103.4699205
    },
    "totalScore": 3.9,
    "permanentlyClosed": false,
    "temporarilyClosed": false,
    "placeId": "ChIJLXYUG8HNfIcR7z9QyzEK1Tc",
    "categories": [
      "Pharmacy",
      "Drug store"
    ],
    "fid": "0x877ccdc11b14762d:0x37d50a31cb503fef",
    "cid": "4023133051106115567",
    "reviewsCount": 17,
    "imagesCount": 1,
    "imageCategories": [],
    "scrapedAt": "2025-06-22T09:53:25.105Z",
    "googleFoodUrl": null,
    "hotelAds": [],
    "openingHours": [
      {
        "day": "Monday",
        "hours": "8 AM to 6 PM"
      },
      {
        "day": "Tuesday",
        "hours": "8 AM to 6 PM"
      },
      {
        "day": "Wednesday",
        "hours": "8 AM to 6 PM"
      },
      {
        "day": "Thursday",
        "hours": "8 AM to 6 PM"
      },
      {
        "day": "Friday",
        "hours": "8 AM to 6 PM"
      },
      {
        "day": "Saturday",
        "hours": "8 AM to 1 PM"
      },
      {
        "day": "Sunday",
        "hours": "Closed"
      }
    ],
    "peopleAlsoSearch": [],
    "placesTags": [],
    "reviewsTags": [],
    "additionalInfo": {
      "Service options": [
        {
          "In-store shopping": true
        },
        {
          "Onsite services": true
        }
      ],
      "Accessibility": [
        {
          "Wheelchair accessible entrance": true
        },
        {
          "Wheelchair accessible parking lot": true
        }
      ],
      "Planning": [
        {
          "Quick visit": true
        }
      ],
      "Payments": [
        {
          "Checks": true
        },
        {
          "Credit cards": true
        },
        {
          "Debit cards": true
        }
      ]
    },
    "gasPrices": [],
    "url": "https://www.google.com/maps/search/?api=1&query=Lynns%20Dakotamart%20Pharmacy%20-%20Hot%20Springs&query_place_id=ChIJLXYUG8HNfIcR7z9QyzEK1Tc",
    "searchPageUrl": "https://www.google.com/maps/search/independent%20pharmacy%20Watertown%20SD/@42.54640259466427,-105.48342742835163,8z?hl=en",
    "searchString": "independent pharmacy Watertown SD",
    "language": "en",
    "rank": 1,
    "isAdvertisement": false,
    "imageUrl": "https://streetviewpixels-pa.googleapis.com/v1/thumbnail?panoid=BHWRBc9C6fM5RIgPcvzkAA&cb_client=search.gws-prod.gps&w=408&h=240&yaw=135.47658&pitch=0&thumbfov=100",
    "kgmid": "/g/1v5k3hxl"
  }
]