[
  {
    "title": "Central Pharmacy Boston",
    "price": null,
    "categoryName": "Pharmacy",
    "address": "1349 Commonwealth Ave, Boston, MA 02134",
    "neighborhood": "Allston",
    "street": "1349 Commonwealth Ave",
    "city": "Boston",
    "postalCode": "02134",
    "state": "Massachusetts",
    "countryCode": "US",
    "website": "http://centralpharmacyboston.com/",
    "phone": "(617) 254-5900",
    "phoneUnformatted": "+16172545900",
    "claimThisBusiness": false,
    "location": {
      "lat": 42.3484795,
      "lng": -71.13578
    },
    "totalScore": 4.1,
    "permanentlyClosed": false,
    "temporarilyClosed": false,
    "placeId": "ChIJhQAmkVx444kR_8r78zv_EHw",
    "categories": [
      "Pharmacy"
    ],
    "fid": "0x89e3785c91260085:0x7c10ff3bf3fbcaff",
    "cid": "8939925893291952895",
    "reviewsCount": 20,
    "imagesCount": 2,
    "imageCategories": [],
    "scrapedAt": "2025-06-22T05:38:56.783Z",
    "googleFoodUrl": null,
    "hotelAds": [],
    "openingHours": [
      {
        "day": "Monday",
        "hours": "9 AM to 7 PM"
      },
      {
        "day": "Tuesday",
        "hours": "9 AM to 7 PM"
      },
      {
        "day": "Wednesday",
        "hours": "9 AM to 7 PM"
      },
      {
        "day": "Thursday",
        "hours": "9 AM to 7 PM"
      },
      {
        "day": "Friday",
        "hours": "9 AM to 7 PM"
      },
      {
        "day": "Saturday",
        "hours": "11 AM to 5 PM"
      },
      {
        "day": "Sunday",
        "hours": "Closed"
      }
    ],
    "peopleAlsoSearch": [],
    "placesTags": [],
    "reviewsTags": [],
    "additionalInfo": {
      "From the business": [
        {
          "Small business": true
        }
      ],
      "Service options": [
        {
          "Delivery": true
        },
        {
          "Same-day delivery": true
        }
      ],
      "Accessibility": [
        {
          "Wheelchair accessible entrance": true
        }
      ],
      "Payments": [
        {
          "Credit cards": true
        },
        {
          "Debit cards": true
        },
        {
          "NFC mobile payments": true
        },
        {
          "Credit cards": true
        }
      ]
    },
    "gasPrices": [],
    "url": "https://www.google.com/maps/search/?api=1&query=Central%20Pharmacy%20Boston&query_place_id=ChIJhQAmkVx444kR_8r78zv_EHw",
    "searchPageUrl": "https://www.google.com/maps/search/independent%20pharmacy%20Boston%20MA/@67.82214549246302,-157.71370691405576,9z?hl=en",
    "searchString": "independent pharmacy Boston MA",
    "language": "en",
    "rank": 1,
    "isAdvertisement": false,
    "imageUrl": "https://lh3.googleusercontent.com/gps-cs-s/AC9h4npx8oDrWMs6l6TSAMiT0zizeod1SYGNc09-6X_DedBHTcVlUBD_HJbP9dWuRp2E3b-lcWiUxVKCWbxuEkH9VW_X4ld4f2Z-YSfmwAGfYEgE7nmY7bCXausjYXEumkIPD0tspZ-W=w408-h306-k-no",
    "kgmid": "/g/11c1ws5wh5"
  },
  {
    "title": "Gary Drug Co.",
    "description": "Enduring, family-run pharmacy offering medical & beauty supplies, plus wheelchair sales & rentals.",
    "price": null,
    "categoryName": "Pharmacy",
    "address": "59 Charles St, Boston, MA 02114",
    "neighborhood": "Beacon Hill",
    "street": "59 Charles St",
    "city": "Boston",
    "postalCode": "02114",
    "state": "Massachusetts",
    "countryCode": "US",
    "website": "http://www.garydrug.com/",
    "phone": "(617) 227-0023",
    "phoneUnformatted": "+16172270023",
    "claimThisBusiness": false,
    "location": {
      "lat": 42.3577638,
      "lng": -71.0701236
    },
    "totalScore": 4.6,
    "permanentlyClosed": false,
    "temporarilyClosed": false,
    "placeId": "ChIJhZbg5p5w44kR7fhcf-EOwtE",
    "categories": [
      "Pharmacy",
      "Drug store",
      "Medical supply store",
      "Wheelchair rental service",
      "Wheelchair store"
    ],
    "fid": "0x89e3709ee6e09685:0xd1c20ee17f5cf8ed",
    "cid": "15114659661076035821",
    "reviewsCount": 54,
    "imagesCount": 9,
    "imageCategories": [],
    "scrapedAt": "2025-06-22T05:38:56.785Z",
    "googleFoodUrl": null,
    "hotelAds": [],
    "openingHours": [
      {
        "day": "Monday",
        "hours": "8:30 AM to 6:30 PM"
      },
      {
        "day": "Tuesday",
        "hours": "8:30 AM to 6:30 PM"
      },
      {
        "day": "Wednesday",
        "hours": "8:30 AM to 6:30 PM"
      },
      {
        "day": "Thursday",
        "hours": "8:30 AM to 6:30 PM"
      },
      {
        "day": "Friday",
        "hours": "8:30 AM to 6:30 PM"
      },
      {
        "day": "Saturday",
        "hours": "9 AM to 5 PM"
      },
      {
        "day": "Sunday",
        "hours": "9 AM to 3 PM"
      }
    ],
    "peopleAlsoSearch": [],
    "placesTags": [],
    "reviewsTags": [],
    "additionalInfo": {
      "From the business": [
        {
          "Small business": true
        }
      ],
      "Service options": [
        {
          "Delivery": true
        },
        {
          "In-store pickup": true
        }
      ],
      "Accessibility": [
        {
          "Wheelchair accessible entrance": true
        }
      ],
      "Planning": [
        {
          "Quick visit": true
        }
      ],
      "Payments": [
        {
          "Credit cards": true
        },
        {
          "Debit cards": true
        },
        {
          "NFC mobile payments": true
        },
        {
          "Credit cards": true
        }
      ]
    },
    "gasPrices": [],
    "url": "https://www.google.com/maps/search/?api=1&query=Gary%20Drug%20Co.&query_place_id=ChIJhZbg5p5w44kR7fhcf-EOwtE",
    "searchPageUrl": "https://www.google.com/maps/search/independent%20pharmacy%20Boston%20MA/@67.82214549246302,-157.71370691405576,9z?hl=en",
    "searchString": "independent pharmacy Boston MA",
    "language": "en",
    "rank": 2,
    "isAdvertisement": false,
    "imageUrl": "https://lh3.googleusercontent.com/gps-cs-s/AC9h4nqH-Fzzsb24vCQ1tqxYwCjAUnKdmRf4bKAlwCsh62foDPRJ-Bu_oczuiuuzgN8Ys2NtH_FXX1E4q-SPr4xi5FyGyyAIuBJ9xE4E9F1gyJ4vLxhx4GFEXN8sJvfJ-uwaMMEMF2bO=w408-h306-k-no",
    "kgmid": "/g/1tfrnbrp"
  },
  {
    "title": "Galaxy Pharmacy",
    "price": null,
    "categoryName": "Pharmacy",
    "address": "534 Dorchester Ave, Boston, MA 02127",
    "neighborhood": "South Boston",
    "street": "534 Dorchester Ave",
    "city": "Boston",
    "postalCode": "02127",
    "state": "Massachusetts",
    "countryCode": "US",
    "website": "http://www.galaxyapothecary.com/",
    "phone": "(617) 268-0800",
    "phoneUnformatted": "+16172680800",
    "claimThisBusiness": false,
    "location": {
      "lat": 42.3310546,
      "lng": -71.0568483
    },
    "totalScore": 4.9,
    "permanentlyClosed": false,
    "temporarilyClosed": false,
    "placeId": "ChIJZ5c-y11644kRj3MexsTWy9k",
    "categories": [
      "Pharmacy"
    ],
    "fid": "0x89e37a5dcb3e9767:0xd9cbd6c4c61e738f",
    "cid": "15693873467128443791",
    "reviewsCount": 44,
    "imagesCount": 1,
    "imageCategories": [],
    "scrapedAt": "2025-06-22T05:38:56.786Z",
    "googleFoodUrl": null,
    "hotelAds": [],
    "openingHours": [
      {
        "day": "Monday",
        "hours": "9 AM to 6 PM"
      },
      {
        "day": "Tuesday",
        "hours": "9 AM to 6 PM"
      },
      {
        "day": "Wednesday",
        "hours": "9 AM to 6 PM"
      },
      {
        "day": "Thursday",
        "hours": "9 AM to 6 PM"
      },
      {
        "day": "Friday",
        "hours": "9 AM to 6 PM"
      },
      {
        "day": "Saturday",
        "hours": "10 AM to 2 PM"
      },
      {
        "day": "Sunday",
        "hours": "10 AM to 2 PM"
      }
    ],
    "peopleAlsoSearch": [],
    "placesTags": [],
    "reviewsTags": [],
    "additionalInfo": {
      "Service options": [
        {
          "In-store pickup": true
        }
      ],
      "Accessibility": [
        {
          "Wheelchair accessible entrance": true
        }
      ],
      "Planning": [
        {
          "Quick visit": true
        }
      ],
      "Payments": [
        {
          "Credit cards": true
        },
        {
          "Debit cards": true
        },
        {
          "NFC mobile payments": true
        },
        {
          "Credit cards": true
        }
      ],
      "Parking": [
        {
          "Free street parking": true
        }
      ]
    },
    "gasPrices": [],
    "url": "https://www.google.com/maps/search/?api=1&query=Galaxy%20Pharmacy&query_place_id=ChIJZ5c-y11644kRj3MexsTWy9k",
    "searchPageUrl": "https://www.google.com/maps/search/independent%20pharmacy%20Boston%20MA/@67.82214549246302,-157.71370691405576,9z?hl=en",
    "searchString": "independent pharmacy Boston MA",
    "language": "en",
    "rank": 3,
    "isAdvertisement": false,
    "imageUrl": "https://streetviewpixels-pa.googleapis.com/v1/thumbnail?panoid=1FVWgHTY75ryzXBSfjbgNQ&cb_client=search.gws-prod.gps&w=408&h=240&yaw=112.21554&pitch=0&thumbfov=100",
    "kgmid": "/g/1pzpm79lk"
  },
  {
    "title": "CVS Pharmacy",
    "price": null,
    "categoryName": "Pharmacy",
    "address": "218 Hanover St, Boston, MA 02113",
    "neighborhood": "North End",
    "street": "218 Hanover St",
    "city": "Boston",
    "postalCode": "02113",
    "state": "Massachusetts",
    "countryCode": "US",
    "website": "https://www.cvs.com/store-locator/boston-ma-pharmacies/218-hanover-street-boston-ma-02113/storeid=1900?WT.mc_id=LS_GOOGLE_RX_1900",
    "phone": "(617) 720-4935",
    "phoneUnformatted": "+16177204935",
    "claimThisBusiness": false,
    "location": {
      "lat": 42.3630915,
      "lng": -71.0555571
    },
    "totalScore": 3.2,
    "permanentlyClosed": false,
    "temporarilyClosed": false,
    "placeId": "ChIJ-fBwzYhw44kRejiewsNr3n8",
    "categories": [
      "Pharmacy"
    ],
    "fid": "0x89e37088cd70f0f9:0x7fde6bc3c29e387a",
    "cid": "9213920376174557306",
    "reviewsCount": 11,
    "imagesCount": 6,
    "imageCategories": [],
    "scrapedAt": "2025-06-22T05:38:56.786Z",
    "googleFoodUrl": null,
    "hotelAds": [],
    "openingHours": [
      {
        "day": "Monday",
        "hours": "9 AM to 1:30 PM, 2 to 7 PM"
      },
      {
        "day": "Tuesday",
        "hours": "9 AM to 1:30 PM, 2 to 7 PM"
      },
      {
        "day": "Wednesday",
        "hours": "9 AM to 1:30 PM, 2 to 7 PM"
      },
      {
        "day": "Thursday",
        "hours": "9 AM to 1:30 PM, 2 to 7 PM"
      },
      {
        "day": "Friday",
        "hours": "9 AM to 1:30 PM, 2 to 7 PM"
      },
      {
        "day": "Saturday",
        "hours": "9 AM to 1:30 PM, 2 to 6 PM"
      },
      {
        "day": "Sunday",
        "hours": "11 AM to 1:30 PM, 2 to 6 PM"
      }
    ],
    "peopleAlsoSearch": [],
    "placesTags": [],
    "reviewsTags": [],
    "additionalInfo": {
      "Service options": [
        {
          "Delivery": true
        },
        {
          "In-store pickup": true
        },
        {
          "In-store shopping": true
        }
      ],
      "Accessibility": [
        {
          "Wheelchair accessible entrance": true
        }
      ],
      "Offerings": [
        {
          "Naloxone": true
        },
        {
          "Passport photos": true
        }
      ],
      "Crowd": [
        {
          "LGBTQ+ friendly": true
        },
        {
          "Transgender safespace": true
        }
      ],
      "Planning": [
        {
          "Quick visit": true
        }
      ],
      "Payments": [
        {
          "Credit cards": true
        },
        {
          "Debit cards": true
        },
        {
          "NFC mobile payments": true
        },
        {
          "SNAP/EBT": true
        },
        {
          "Credit cards": true
        }
      ]
    },
    "gasPrices": [],
    "url": "https://www.google.com/maps/search/?api=1&query=CVS%20Pharmacy&query_place_id=ChIJ-fBwzYhw44kRejiewsNr3n8",
    "searchPageUrl": "https://www.google.com/maps/search/independent%20pharmacy%20Boston%20MA/@67.82214549246302,-157.71370691405576,9z?hl=en",
    "searchString": "independent pharmacy Boston MA",
    "language": "en",
    "rank": 4,
    "isAdvertisement": false,
    "imageUrl": "https://lh3.googleusercontent.com/p/AF1QipNf8TGdvJRH7BT6RF_eGqdWVIMH66gpU4T7a1cT=w408-h272-k-no",
    "kgmid": "/g/11c4690hs3"
  },
  {
    "title": "Bravo Pharmacy",
    "price": null,
    "categoryName": "Pharmacy",
    "address": "309 Main St, Watertown, MA 02472",
    "neighborhood": null,
    "street": "309 Main St",
    "city": "Watertown",
    "postalCode": "02472",
    "state": "Massachusetts",
    "countryCode": "US",
    "website": "http://www.mybravorx.com/",
    "phone": "(617) 553-2501",
    "phoneUnformatted": "+16175532501",
    "claimThisBusiness": false,
    "location": {
      "lat": 42.3701411,
      "lng": -71.1904338
    },
    "totalScore": 5,
    "permanentlyClosed": false,
    "temporarilyClosed": false,
    "placeId": "ChIJL4Lx4nx544kR4HHyJKnNAl4",
    "categories": [
      "Pharmacy",
      "Diabetes equipment supplier",
      "Medical equipment supplier",
      "Vitamin & supplements store"
    ],
    "fid": "0x89e3797ce2f1822f:0x5e02cda924f271e0",
    "cid": "6774202915871683040",
    "reviewsCount": 33,
    "imagesCount": 14,
    "imageCategories": [],
    "scrapedAt": "2025-06-22T05:38:56.786Z",
    "googleFoodUrl": null,
    "hotelAds": [],
    "openingHours": [
      {
        "day": "Monday",
        "hours": "9 AM to 6 PM"
      },
      {
        "day": "Tuesday",
        "hours": "9 AM to 6 PM"
      },
      {
        "day": "Wednesday",
        "hours": "9 AM to 6 PM"
      },
      {
        "day": "Thursday",
        "hours": "9 AM to 6 PM"
      },
      {
        "day": "Friday",
        "hours": "9 AM to 6 PM"
      },
      {
        "day": "Saturday",
        "hours": "Closed"
      },
      {
        "day": "Sunday",
        "hours": "Closed"
      }
    ],
    "peopleAlsoSearch": [],
    "placesTags": [],
    "reviewsTags": [],
    "additionalInfo": {
      "From the business": [
        {
          "Small business": true
        }
      ],
      "Service options": [
        {
          "Delivery": true
        },
        {
          "In-store pickup": true
        },
        {
          "In-store shopping": true
        },
        {
          "Same-day delivery": true
        }
      ],
      "Accessibility": [
        {
          "Wheelchair accessible entrance": true
        },
        {
          "Wheelchair accessible parking lot": true
        }
      ],
      "Payments": [
        {
          "Credit cards": true
        },
        {
          "Debit cards": true
        },
        {
          "NFC mobile payments": true
        },
        {
          "Credit cards": true
        }
      ]
    },
    "gasPrices": [],
    "url": "https://www.google.com/maps/search/?api=1&query=Bravo%20Pharmacy&query_place_id=ChIJL4Lx4nx544kR4HHyJKnNAl4",
    "searchPageUrl": "https://www.google.com/maps/search/independent%20pharmacy%20Boston%20MA/@67.82214549246302,-157.71370691405576,9z?hl=en",
    "searchString": "independent pharmacy Boston MA",
    "language": "en",
    "rank": 5,
    "isAdvertisement": false,
    "imageUrl": "https://lh3.googleusercontent.com/gps-cs-s/AC9h4npauShT_HnQIrgOf4kTNlyt1wq2wmAi-YQRGTVHfEeUwG3z-C98xho75CG3S2ZONCTl0pC46x1vpkcXQN0AW91kqDxPEppS4Olr2UlRlACvubwwkCIqMRRojghYwf4d2VXQFq0gdQ=w408-h725-k-no",
    "kgmid": "/g/11clszh0cx"
  },
  {
    "title": "BRIGHTON PHARMACY",
    "price": null,
    "categoryName": "Pharmacy",
    "address": "1690 Commonwealth Ave, Brighton, MA 02135",
    "neighborhood": "Brighton",
    "street": "1690 Commonwealth Ave",
    "city": "Brighton",
    "postalCode": "02135",
    "state": "Massachusetts",
    "countryCode": "US",
    "phone": "(617) 322-0077",
    "phoneUnformatted": "+16173220077",
    "claimThisBusiness": false,
    "location": {
      "lat": 42.3412646,
      "lng": -71.1463986
    },
    "totalScore": 4.9,
    "permanentlyClosed": false,
    "temporarilyClosed": false,
    "placeId": "ChIJ1Z9sOkh444kRaKnEa8_KDts",
    "categories": [
      "Pharmacy"
    ],
    "fid": "0x89e378483a6c9fd5:0xdb0ecacf6bc4a968",
    "cid": "15784776736195258728",
    "reviewsCount": 9,
    "imagesCount": 6,
    "imageCategories": [],
    "scrapedAt": "2025-06-22T05:38:56.786Z",
    "googleFoodUrl": null,
    "hotelAds": [],
    "openingHours": [
      {
        "day": "Monday",
        "hours": "9 AM to 6 PM"
      },
      {
        "day": "Tuesday",
        "hours": "9 AM to 6 PM"
      },
      {
        "day": "Wednesday",
        "hours": "9 AM to 6 PM"
      },
      {
        "day": "Thursday",
        "hours": "9 AM to 6 PM"
      },
      {
        "day": "Friday",
        "hours": "9 AM to 5 PM"
      },
      {
        "day": "Saturday",
        "hours": "Closed"
      },
      {
        "day": "Sunday",
        "hours": "10 AM to 4 PM"
      }
    ],
    "peopleAlsoSearch": [],
    "placesTags": [],
    "reviewsTags": [],
    "additionalInfo": {
      "From the business": [
        {
          "Small business": true
        }
      ],
      "Service options": [
        {
          "Delivery": true
        },
        {
          "In-store pickup": true
        },
        {
          "Same-day delivery": true
        }
      ],
      "Accessibility": [
        {
          "Wheelchair accessible entrance": true
        }
      ],
      "Planning": [
        {
          "Quick visit": true
        }
      ],
      "Payments": [
        {
          "Credit cards": true
        }
      ]
    },
    "gasPrices": [],
    "url": "https://www.google.com/maps/search/?api=1&query=BRIGHTON%20PHARMACY&query_place_id=ChIJ1Z9sOkh444kRaKnEa8_KDts",
    "searchPageUrl": "https://www.google.com/maps/search/independent%20pharmacy%20Boston%20MA/@67.82214549246302,-157.71370691405576,9z?hl=en",
    "searchString": "independent pharmacy Boston MA",
    "language": "en",
    "rank": 6,
    "isAdvertisement": false,
    "imageUrl": "https://lh3.googleusercontent.com/p/AF1QipP16SjQ5kf_XlmmvxSe-ubnHTQUjk2yVCFAg72u=w426-h240-k-no",
    "kgmid": "/g/11b6sc_yb0"
  },
  {
    "title": "Tai Tung Pharmacy Inc, now known as SCCHC Pharmacy",
    "price": null,
    "categoryName": "Pharmacy",
    "address": "256 Harrison Ave, Boston, MA 02111",
    "neighborhood": "Chinatown",
    "street": "256 Harrison Ave",
    "city": "Boston",
    "postalCode": "02111",
    "state": "Massachusetts",
    "countryCode": "US",
    "phone": "(617) 482-7419",
    "phoneUnformatted": "+16174827419",
    "claimThisBusiness": true,
    "location": {
      "lat": 42.347695,
      "lng": -71.0625293
    },
    "totalScore": 3.6,
    "permanentlyClosed": false,
    "temporarilyClosed": false,
    "placeId": "ChIJW0eMlXB644kRViulAnSLtVM",
    "categories": [
      "Pharmacy"
    ],
    "fid": "0x89e37a70958c475b:0x53b58b7402a52b56",
    "cid": "6031880606309493590",
    "reviewsCount": 18,
    "imagesCount": 1,
    "imageCategories": [],
    "scrapedAt": "2025-06-22T05:38:56.787Z",
    "googleFoodUrl": null,
    "hotelAds": [],
    "openingHours": [
      {
        "day": "Monday",
        "hours": "9 AM to 7 PM"
      },
      {
        "day": "Tuesday",
        "hours": "9 AM to 7 PM"
      },
      {
        "day": "Wednesday",
        "hours": "9 AM to 7 PM"
      },
      {
        "day": "Thursday",
        "hours": "9 AM to 7 PM"
      },
      {
        "day": "Friday",
        "hours": "9 AM to 7 PM"
      },
      {
        "day": "Saturday",
        "hours": "9 AM to 6 PM"
      },
      {
        "day": "Sunday",
        "hours": "Closed"
      }
    ],
    "peopleAlsoSearch": [],
    "placesTags": [],
    "reviewsTags": [],
    "additionalInfo": {
      "Service options": [
        {
          "Delivery": true
        },
        {
          "Same-day delivery": true
        }
      ],
      "Accessibility": [
        {
          "Wheelchair accessible entrance": true
        }
      ],
      "Planning": [
        {
          "Quick visit": true
        }
      ],
      "Payments": [
        {
          "Credit cards": true
        },
        {
          "Debit cards": true
        },
        {
          "NFC mobile payments": true
        },
        {
          "SNAP/EBT": true
        },
        {
          "Credit cards": true
        }
      ]
    },
    "gasPrices": [],
    "url": "https://www.google.com/maps/search/?api=1&query=Tai%20Tung%20Pharmacy%20Inc%2C%20now%20known%20as%20SCCHC%20Pharmacy&query_place_id=ChIJW0eMlXB644kRViulAnSLtVM",
    "searchPageUrl": "https://www.google.com/maps/search/independent%20pharmacy%20Boston%20MA/@67.82214549246302,-157.71370691405576,9z?hl=en",
    "searchString": "independent pharmacy Boston MA",
    "language": "en",
    "rank": 7,
    "isAdvertisement": false,
    "imageUrl": "https://streetviewpixels-pa.googleapis.com/v1/thumbnail?panoid=F3wwgSQUzpvqtPvWQA5MAw&cb_client=search.gws-prod.gps&w=408&h=240&yaw=87.63824&pitch=0&thumbfov=100",
    "kgmid": "/g/1tjjqct7"
  },
  {
    "title": "Capsule",
    "price": null,
    "categoryName": "Pharmacy",
    "address": "414 Boylston St, Boston, MA 02116",
    "neighborhood": "Back Bay",
    "street": "414 Boylston St",
    "city": "Boston",
    "postalCode": "02116",
    "state": "Massachusetts",
    "countryCode": "US",
    "website": "https://www.capsule.com/?utm_source=GMBlisting&utm_medium=organic&utm_campaign=Boston-MA",
    "phone": "(617) 544-2898",
    "phoneUnformatted": "+16175442898",
    "claimThisBusiness": false,
    "location": {
      "lat": 42.3511928,
      "lng": -71.0724247
    },
    "totalScore": 4.1,
    "permanentlyClosed": false,
    "temporarilyClosed": false,
    "placeId": "ChIJFb4Ae7N744kRU0a-wPQ0Pr8",
    "categories": [
      "Pharmacy",
      "Delivery service",
      "Drug store",
      "Pharmaceutical company",
      "Vitamin & supplements store"
    ],
    "fid": "0x89e37bb37b00be15:0xbf3e34f4c0be4653",
    "cid": "13780510135610656339",
    "reviewsCount": 75,
    "imagesCount": 6,
    "imageCategories": [],
    "scrapedAt": "2025-06-22T05:38:56.787Z",
    "googleFoodUrl": null,
    "hotelAds": [],
    "openingHours": [
      {
        "day": "Monday",
        "hours": "9 AM to 6 PM"
      },
      {
        "day": "Tuesday",
        "hours": "9 AM to 6 PM"
      },
      {
        "day": "Wednesday",
        "hours": "9 AM to 6 PM"
      },
      {
        "day": "Thursday",
        "hours": "9 AM to 6 PM"
      },
      {
        "day": "Friday",
        "hours": "9 AM to 6 PM"
      },
      {
        "day": "Saturday",
        "hours": "11 AM to 3 PM"
      },
      {
        "day": "Sunday",
        "hours": "Closed"
      }
    ],
    "additionalOpeningHours": {
      "Delivery": [
        {
          "day": "Monday",
          "hours": "11 AM–7 PM"
        },
        {
          "day": "Tuesday",
          "hours": "11 AM–7 PM"
        },
        {
          "day": "Wednesday",
          "hours": "11 AM–7 PM"
        },
        {
          "day": "Thursday",
          "hours": "11 AM–7 PM"
        },
        {
          "day": "Friday",
          "hours": "11 AM–7 PM"
        },
        {
          "day": "Saturday",
          "hours": "12–3 PM"
        },
        {
          "day": "Sunday",
          "hours": "Closed"
        }
      ]
    },
    "peopleAlsoSearch": [],
    "placesTags": [],
    "reviewsTags": [],
    "additionalInfo": {
      "Service options": [
        {
          "Delivery": true
        },
        {
          "In-store pickup": true
        },
        {
          "In-store shopping": true
        },
        {
          "Onsite services": true
        }
      ],
      "Accessibility": [
        {
          "Wheelchair accessible entrance": true
        }
      ],
      "Planning": [
        {
          "Quick visit": true
        }
      ],
      "Payments": [
        {
          "Credit cards": true
        }
      ]
    },
    "gasPrices": [],
    "url": "https://www.google.com/maps/search/?api=1&query=Capsule&query_place_id=ChIJFb4Ae7N744kRU0a-wPQ0Pr8",
    "searchPageUrl": "https://www.google.com/maps/search/independent%20pharmacy%20Boston%20MA/@67.82214549246302,-157.71370691405576,9z?hl=en",
    "searchString": "independent pharmacy Boston MA",
    "language": "en",
    "rank": 8,
    "isAdvertisement": false,
    "imageUrl": "https://lh3.googleusercontent.com/gps-cs-s/AC9h4nrkyX5goo_fa0FoducLMcCMc-Cw5iz5RAq4xUIsWeKqoZWDLocjoX4wKyffb7ogcBg30oDTI4qGdyJfSgrfsaV16V65SJ0-aO0Puyoi_ZQN53rM6PJh6FcgxvkBJpYjM_56HH-d=w408-h306-k-no",
    "kgmid": "/g/11hfht4c8k"
  },
  {
    "title": "Union pharmacy",
    "price": null,
    "categoryName": "Pharmacy",
    "address": "103 Union St, Newton Centre, MA 02459",
    "neighborhood": "Newton Centre",
    "street": "103 Union St",
    "city": "Newton Centre",
    "postalCode": "02459",
    "state": "Massachusetts",
    "countryCode": "US",
    "website": "http://www.unionrxs.com/",
    "phone": "(617) 928-8455",
    "phoneUnformatted": "+16179288455",
    "claimThisBusiness": false,
    "location": {
      "lat": 42.3297467,
      "lng": -71.1935606
    },
    "totalScore": 4.9,
    "permanentlyClosed": false,
    "temporarilyClosed": false,
    "placeId": "ChIJuzPvYW6D44kRl8yoBzPlKc0",
    "categories": [
      "Pharmacy"
    ],
    "fid": "0x89e3836e61ef33bb:0xcd29e53307a8cc97",
    "cid": "14783599259154959511",
    "reviewsCount": 107,
    "imagesCount": 21,
    "imageCategories": [],
    "scrapedAt": "2025-06-22T05:38:56.787Z",
    "googleFoodUrl": null,
    "hotelAds": [],
    "openingHours": [
      {
        "day": "Monday",
        "hours": "8 AM to 8 PM"
      },
      {
        "day": "Tuesday",
        "hours": "8 AM to 8 PM"
      },
      {
        "day": "Wednesday",
        "hours": "8 AM to 8 PM"
      },
      {
        "day": "Thursday",
        "hours": "8 AM to 8 PM"
      },
      {
        "day": "Friday",
        "hours": "8 AM to 8 PM"
      },
      {
        "day": "Saturday",
        "hours": "9 AM to 6 PM"
      },
      {
        "day": "Sunday",
        "hours": "9 AM to 12 PM"
      }
    ],
    "peopleAlsoSearch": [],
    "placesTags": [],
    "reviewsTags": [],
    "additionalInfo": {
      "From the business": [
        {
          "Small business": true
        }
      ],
      "Service options": [
        {
          "Delivery": true
        }
      ],
      "Accessibility": [
        {
          "Wheelchair accessible entrance": true
        },
        {
          "Wheelchair accessible parking lot": true
        }
      ],
      "Planning": [
        {
          "Quick visit": true
        }
      ],
      "Payments": [
        {
          "Credit cards": true
        },
        {
          "Debit cards": true
        },
        {
          "NFC mobile payments": true
        },
        {
          "Credit cards": true
        }
      ]
    },
    "gasPrices": [],
    "url": "https://www.google.com/maps/search/?api=1&query=Union%20pharmacy&query_place_id=ChIJuzPvYW6D44kRl8yoBzPlKc0",
    "searchPageUrl": "https://www.google.com/maps/search/independent%20pharmacy%20Boston%20MA/@67.82214549246302,-157.71370691405576,9z?hl=en",
    "searchString": "independent pharmacy Boston MA",
    "language": "en",
    "rank": 9,
    "isAdvertisement": false,
    "imageUrl": "https://lh3.googleusercontent.com/p/AF1QipNdrVrVJ60NNMFAUD_-UdK1ZMECh99gnqcpY3Pc=w408-h306-k-no",
    "kgmid": "/g/11fmqblgv2"
  },
  {
    "title": "Melvin Pharmacy",
    "price": null,
    "categoryName": "Pharmacy",
    "address": "1558 Commonwealth Ave, Boston, MA 02135",
    "neighborhood": "Brighton",
    "street": "1558 Commonwealth Ave",
    "city": "Boston",
    "postalCode": "02135",
    "state": "Massachusetts",
    "countryCode": "US",
    "website": "http://www.melvinrx.com/",
    "phone": "(617) 566-2281",
    "phoneUnformatted": "+16175662281",
    "claimThisBusiness": false,
    "location": {
      "lat": 42.3442884,
      "lng": -71.1420244
    },
    "totalScore": 4.4,
    "permanentlyClosed": false,
    "temporarilyClosed": false,
    "placeId": "ChIJ23sp9LR544kR-e731B37D-U",
    "categories": [
      "Pharmacy",
      "Post office"
    ],
    "fid": "0x89e379b4f4297bdb:0xe50ffb1dd4f7eef9",
    "cid": "16505687264881798905",
    "reviewsCount": 21,
    "imagesCount": 7,
    "imageCategories": [],
    "scrapedAt": "2025-06-22T05:38:56.787Z",
    "googleFoodUrl": null,
    "hotelAds": [],
    "openingHours": [
      {
        "day": "Monday",
        "hours": "7 AM to 5 PM"
      },
      {
        "day": "Tuesday",
        "hours": "7 AM to 5 PM"
      },
      {
        "day": "Wednesday",
        "hours": "7 AM to 5 PM"
      },
      {
        "day": "Thursday",
        "hours": "7 AM to 5 PM"
      },
      {
        "day": "Friday",
        "hours": "7 AM to 5 PM"
      },
      {
        "day": "Saturday",
        "hours": "9 AM to 3 PM"
      },
      {
        "day": "Sunday",
        "hours": "Closed"
      }
    ],
    "peopleAlsoSearch": [],
    "placesTags": [],
    "reviewsTags": [],
    "additionalInfo": {
      "From the business": [
        {
          "Small business": true
        }
      ],
      "Service options": [
        {
          "Delivery": true
        },
        {
          "In-store pickup": true
        },
        {
          "In-store shopping": true
        },
        {
          "Same-day delivery": true
        }
      ],
      "Accessibility": [
        {
          "Wheelchair accessible entrance": true
        },
        {
          "Wheelchair accessible parking lot": true
        }
      ],
      "Planning": [
        {
          "Quick visit": true
        }
      ],
      "Payments": [
        {
          "Credit cards": true
        },
        {
          "Debit cards": true
        },
        {
          "NFC mobile payments": true
        },
        {
          "Credit cards": true
        }
      ]
    },
    "gasPrices": [],
    "url": "https://www.google.com/maps/search/?api=1&query=Melvin%20Pharmacy&query_place_id=ChIJ23sp9LR544kR-e731B37D-U",
    "searchPageUrl": "https://www.google.com/maps/search/independent%20pharmacy%20Boston%20MA/@67.82214549246302,-157.71370691405576,9z?hl=en",
    "searchString": "independent pharmacy Boston MA",
    "language": "en",
    "rank": 10,
    "isAdvertisement": false,
    "imageUrl": "https://lh3.googleusercontent.com/gps-cs-s/AC9h4nrNo4Pk3K6mAg8FWjVoz-4kt-JKeMvhc2akHQfg8z-S5zvFz291qiG1_0svnr-nDTU-_B_F-gBPMyYlh87qBxippjkkUs8oP5LLQqt2T9EJSq0YARtVrBn7CKmyO7xJIFskslwgkQ=w408-h725-k-no",
    "kgmid": "/g/1tvm3sc9"
  },
  {
    "title": "Skenderian Apothecary",
    "price": null,
    "categoryName": "Pharmacy",
    "address": "1613 Cambridge St, Cambridge, MA 02138",
    "neighborhood": "Mid-Cambridge",
    "street": "1613 Cambridge St",
    "city": "Cambridge",
    "postalCode": "02138",
    "state": "Massachusetts",
    "countryCode": "US",
    "website": "http://www.skenderianapothecary.com/",
    "phone": "(617) 354-5600",
    "phoneUnformatted": "+16173545600",
    "claimThisBusiness": true,
    "location": {
      "lat": 42.3748898,
      "lng": -71.108973
    },
    "totalScore": 4.4,
    "permanentlyClosed": false,
    "temporarilyClosed": false,
    "placeId": "ChIJaVbn-EV344kR3FD6DLGH7VI",
    "categories": [
      "Pharmacy"
    ],
    "fid": "0x89e37745f8e75669:0x52ed87b10cfa50dc",
    "cid": "5975581475087208668",
    "reviewsCount": 70,
    "imagesCount": 7,
    "imageCategories": [],
    "scrapedAt": "2025-06-22T05:38:56.788Z",
    "googleFoodUrl": null,
    "hotelAds": [],
    "openingHours": [
      {
        "day": "Monday",
        "hours": "8 AM to 6 PM"
      },
      {
        "day": "Tuesday",
        "hours": "8 AM to 6 PM"
      },
      {
        "day": "Wednesday",
        "hours": "8 AM to 6 PM"
      },
      {
        "day": "Thursday",
        "hours": "8 AM to 6 PM"
      },
      {
        "day": "Friday",
        "hours": "8 AM to 6 PM"
      },
      {
        "day": "Saturday",
        "hours": "9 AM to 2 PM"
      },
      {
        "day": "Sunday",
        "hours": "9 AM to 1 PM"
      }
    ],
    "peopleAlsoSearch": [],
    "placesTags": [],
    "reviewsTags": [],
    "additionalInfo": {
      "Service options": [
        {
          "Delivery": true
        },
        {
          "In-store pickup": true
        },
        {
          "Same-day delivery": true
        }
      ],
      "Accessibility": [
        {
          "Wheelchair accessible entrance": true
        }
      ],
      "Crowd": [
        {
          "LGBTQ+ friendly": true
        },
        {
          "Transgender safespace": true
        }
      ],
      "Planning": [
        {
          "Quick visit": true
        }
      ],
      "Payments": [
        {
          "Credit cards": true
        },
        {
          "Debit cards": true
        },
        {
          "NFC mobile payments": true
        },
        {
          "Credit cards": true
        }
      ]
    },
    "gasPrices": [],
    "url": "https://www.google.com/maps/search/?api=1&query=Skenderian%20Apothecary&query_place_id=ChIJaVbn-EV344kR3FD6DLGH7VI",
    "searchPageUrl": "https://www.google.com/maps/search/independent%20pharmacy%20Boston%20MA/@67.82214549246302,-157.71370691405576,9z?hl=en",
    "searchString": "independent pharmacy Boston MA",
    "language": "en",
    "rank": 11,
    "isAdvertisement": false,
    "imageUrl": "https://lh3.googleusercontent.com/gps-cs-s/AC9h4nqUyQ4fIdVEkz8jZ12uKNNq-UIwoDW0iSwHOHXGZiauTJ-m3-Qm_htccr1E8TEiLrHhSIdUAdOAxQ3dc0mWqz7-g-6FeNk7DdUbEVDP1YN3WQRzEjYvqP9jhXrvJWwBehM0hYPT=w408-h305-k-no",
    "kgmid": "/g/1tj9c_vt"
  },
  {
    "title": "Pharmacy Services at Boston Medical Center – Brighton",
    "price": null,
    "categoryName": "Pharmacy",
    "address": "736 Cambridge St, Brighton, MA 02135",
    "neighborhood": "Brighton",
    "street": "736 Cambridge St",
    "city": "Brighton",
    "postalCode": "02135",
    "state": "Massachusetts",
    "countryCode": "US",
    "website": "https://www.bmchealthsystem.org/bmc-brighton",
    "phone": "(617) 789-3000",
    "phoneUnformatted": "+16177893000",
    "claimThisBusiness": false,
    "location": {
      "lat": 42.3489271,
      "lng": -71.1476565
    },
    "totalScore": 2.5,
    "permanentlyClosed": false,
    "temporarilyClosed": false,
    "placeId": "ChIJrWXleDV444kRgUlk3WEgNek",
    "categories": [
      "Pharmacy"
    ],
    "fid": "0x89e3783578e565ad:0xe9352061dd644981",
    "cid": "16804373189301127553",
    "reviewsCount": 2,
    "imagesCount": 4,
    "imageCategories": [],
    "scrapedAt": "2025-06-22T05:38:56.788Z",
    "googleFoodUrl": null,
    "hotelAds": [],
    "openingHours": [
      {
        "day": "Monday",
        "hours": "Open 24 hours"
      },
      {
        "day": "Tuesday",
        "hours": "Open 24 hours"
      },
      {
        "day": "Wednesday",
        "hours": "Open 24 hours"
      },
      {
        "day": "Thursday",
        "hours": "Open 24 hours"
      },
      {
        "day": "Friday",
        "hours": "Open 24 hours"
      },
      {
        "day": "Saturday",
        "hours": "Open 24 hours"
      },
      {
        "day": "Sunday",
        "hours": "Open 24 hours"
      }
    ],
    "peopleAlsoSearch": [],
    "placesTags": [],
    "reviewsTags": [],
    "additionalInfo": {
      "Service options": [
        {
          "In-store pickup": true
        },
        {
          "Onsite services": true
        }
      ],
      "Accessibility": [
        {
          "Wheelchair accessible entrance": true
        },
        {
          "Wheelchair accessible parking lot": true
        },
        {
          "Wheelchair accessible restroom": true
        },
        {
          "Wheelchair accessible seating": true
        }
      ],
      "Amenities": [
        {
          "Gender-neutral restroom": true
        },
        {
          "Wi-Fi": true
        },
        {
          "Free Wi-Fi": true
        }
      ],
      "Crowd": [
        {
          "LGBTQ+ friendly": true
        },
        {
          "Transgender safespace": true
        }
      ],
      "Payments": [
        {
          "Credit cards": true
        },
        {
          "Debit cards": true
        }
      ],
      "Parking": [
        {
          "On-site parking": true
        }
      ]
    },
    "gasPrices": [],
    "url": "https://www.google.com/maps/search/?api=1&query=Pharmacy%20Services%20at%20Boston%20Medical%20Center%20%E2%80%93%20Brighton&query_place_id=ChIJrWXleDV444kRgUlk3WEgNek",
    "searchPageUrl": "https://www.google.com/maps/search/independent%20pharmacy%20Boston%20MA/@67.82214549246302,-157.71370691405576,9z?hl=en",
    "searchString": "independent pharmacy Boston MA",
    "language": "en",
    "rank": 12,
    "isAdvertisement": false,
    "imageUrl": "https://lh3.googleusercontent.com/p/AF1QipOsXPzg1WFEyrwg1YFNM4frp_ClmBciSXN8oDCW=w408-h285-k-no",
    "kgmid": "/g/1tj6vv6g"
  },
  {
    "title": "Shapiro Pharmacy at Boston Medical Center",
    "price": null,
    "categoryName": "Pharmacy",
    "address": "725 Albany St 1st Floor, Boston, MA 02118",
    "neighborhood": "South End",
    "street": "725 Albany St 1st Floor",
    "city": "Boston",
    "postalCode": "02118",
    "state": "Massachusetts",
    "countryCode": "US",
    "website": "https://www.bmc.org/pharmacy?utm_campaign=yextserviceline&utm_source=serviceline_listing&utm_medium=yext",
    "phone": "(617) 414-4880",
    "phoneUnformatted": "+16174144880",
    "claimThisBusiness": false,
    "location": {
      "lat": 42.3349648,
      "lng": -71.071717
    },
    "totalScore": 3.8,
    "permanentlyClosed": false,
    "temporarilyClosed": false,
    "placeId": "ChIJWaewF0B644kR7Ml1DOJJF6Q",
    "categories": [
      "Pharmacy"
    ],
    "fid": "0x89e37a4017b0a759:0xa41749e20c75c9ec",
    "cid": "11824000581905009132",
    "reviewsCount": 76,
    "imagesCount": 5,
    "imageCategories": [],
    "scrapedAt": "2025-06-22T05:38:56.788Z",
    "googleFoodUrl": null,
    "hotelAds": [],
    "openingHours": [
      {
        "day": "Monday",
        "hours": "9 AM to 7 PM"
      },
      {
        "day": "Tuesday",
        "hours": "9 AM to 7 PM"
      },
      {
        "day": "Wednesday",
        "hours": "9 AM to 7 PM"
      },
      {
        "day": "Thursday",
        "hours": "9 AM to 7 PM"
      },
      {
        "day": "Friday",
        "hours": "9 AM to 7 PM"
      },
      {
        "day": "Saturday",
        "hours": "10 AM to 2 PM"
      },
      {
        "day": "Sunday",
        "hours": "Closed"
      }
    ],
    "peopleAlsoSearch": [],
    "placesTags": [],
    "reviewsTags": [],
    "additionalInfo": {
      "Service options": [
        {
          "Delivery": true
        }
      ],
      "Accessibility": [
        {
          "Wheelchair accessible entrance": true
        },
        {
          "Wheelchair accessible parking lot": true
        }
      ],
      "Crowd": [
        {
          "LGBTQ+ friendly": true
        },
        {
          "Transgender safespace": true
        }
      ],
      "Payments": [
        {
          "Credit cards": true
        },
        {
          "Debit cards": true
        }
      ]
    },
    "gasPrices": [],
    "url": "https://www.google.com/maps/search/?api=1&query=Shapiro%20Pharmacy%20at%20Boston%20Medical%20Center&query_place_id=ChIJWaewF0B644kR7Ml1DOJJF6Q",
    "searchPageUrl": "https://www.google.com/maps/search/independent%20pharmacy%20Boston%20MA/@67.82214549246302,-157.71370691405576,9z?hl=en",
    "searchString": "independent pharmacy Boston MA",
    "language": "en",
    "rank": 13,
    "isAdvertisement": false,
    "imageUrl": "https://lh3.googleusercontent.com/p/AF1QipMSaNQ0SfnYLAcAGqtQwaoXCB6RMPesXcdgK9g=w426-h240-k-no",
    "kgmid": "/g/11ckbzfy_y"
  },
  {
    "title": "Genoa Healthcare",
    "price": null,
    "categoryName": "Pharmacy",
    "address": "66 Canal St Room P, Boston, MA 02114",
    "neighborhood": "Bulfinch Triangle Historic District",
    "street": "66 Canal St Room P",
    "city": "Boston",
    "postalCode": "02114",
    "state": "Massachusetts",
    "countryCode": "US",
    "website": "https://www.genoahealthcare.com/",
    "phone": "(857) 263-2201",
    "phoneUnformatted": "+18572632201",
    "claimThisBusiness": false,
    "location": {
      "lat": 42.3636637,
      "lng": -71.059666
    },
    "totalScore": 5,
    "permanentlyClosed": false,
    "temporarilyClosed": false,
    "placeId": "ChIJH6CpIQZx44kRFwlKSh1562E",
    "categories": [
      "Pharmacy"
    ],
    "fid": "0x89e3710621a9a01f:0x61eb791d4a4a0917",
    "cid": "7055866407913392407",
    "reviewsCount": 2,
    "imagesCount": 1,
    "imageCategories": [],
    "scrapedAt": "2025-06-22T05:38:56.788Z",
    "googleFoodUrl": null,
    "hotelAds": [],
    "openingHours": [
      {
        "day": "Monday",
        "hours": "8 AM to 4 PM"
      },
      {
        "day": "Tuesday",
        "hours": "8 AM to 4 PM"
      },
      {
        "day": "Wednesday",
        "hours": "8 AM to 4 PM"
      },
      {
        "day": "Thursday",
        "hours": "8 AM to 4 PM"
      },
      {
        "day": "Friday",
        "hours": "8 AM to 4 PM"
      },
      {
        "day": "Saturday",
        "hours": "Closed"
      },
      {
        "day": "Sunday",
        "hours": "Closed"
      }
    ],
    "peopleAlsoSearch": [],
    "placesTags": [],
    "reviewsTags": [],
    "gasPrices": [],
    "url": "https://www.google.com/maps/search/?api=1&query=Genoa%20Healthcare&query_place_id=ChIJH6CpIQZx44kRFwlKSh1562E",
    "searchPageUrl": "https://www.google.com/maps/search/independent%20pharmacy%20Boston%20MA/@67.82214549246302,-157.71370691405576,9z?hl=en",
    "searchString": "independent pharmacy Boston MA",
    "language": "en",
    "rank": 14,
    "isAdvertisement": false,
    "imageUrl": "https://streetviewpixels-pa.googleapis.com/v1/thumbnail?panoid=ZKdf077ZXr4NRVhWi03Mtw&cb_client=search.gws-prod.gps&w=408&h=240&yaw=235.59915&pitch=0&thumbfov=100",
    "kgmid": "/g/11vqhqgm5n"
  },
  {
    "title": "CVS Pharmacy",
    "price": null,
    "categoryName": "Pharmacy",
    "address": "285 Columbus Ave, Boston, MA 02116",
    "neighborhood": "Back Bay East",
    "street": "285 Columbus Ave",
    "city": "Boston",
    "postalCode": "02116",
    "state": "Massachusetts",
    "countryCode": "US",
    "website": "https://www.cvs.com/store-locator/boston-ma-pharmacies/285-columbus-ave-boston-ma-02116/storeid=8972?WT.mc_id=LS_GOOGLE_RX_8972",
    "phone": "(617) 236-8538",
    "phoneUnformatted": "+16172368538",
    "claimThisBusiness": false,
    "location": {
      "lat": 42.3472199,
      "lng": -71.0740118
    },
    "totalScore": 4.2,
    "permanentlyClosed": false,
    "temporarilyClosed": false,
    "placeId": "ChIJvQ6aMQ1644kRW5Ez-4l3GyI",
    "categories": [
      "Pharmacy"
    ],
    "fid": "0x89e37a0d319a0ebd:0x221b7789fb33915b",
    "cid": "2457689456169423195",
    "reviewsCount": 9,
    "imagesCount": 8,
    "imageCategories": [],
    "scrapedAt": "2025-06-22T05:38:56.788Z",
    "googleFoodUrl": null,
    "hotelAds": [],
    "openingHours": [
      {
        "day": "Monday",
        "hours": "9 AM to 1:30 PM, 2 to 7 PM"
      },
      {
        "day": "Tuesday",
        "hours": "9 AM to 1:30 PM, 2 to 7 PM"
      },
      {
        "day": "Wednesday",
        "hours": "9 AM to 1:30 PM, 2 to 7 PM"
      },
      {
        "day": "Thursday",
        "hours": "9 AM to 1:30 PM, 2 to 7 PM"
      },
      {
        "day": "Friday",
        "hours": "9 AM to 1:30 PM, 2 to 7 PM"
      },
      {
        "day": "Saturday",
        "hours": "10 AM to 1:30 PM, 2 to 6 PM"
      },
      {
        "day": "Sunday",
        "hours": "11 AM to 1:30 PM, 2 to 5 PM"
      }
    ],
    "peopleAlsoSearch": [],
    "placesTags": [],
    "reviewsTags": [],
    "additionalInfo": {
      "Service options": [
        {
          "Delivery": true
        },
        {
          "In-store shopping": true
        },
        {
          "Onsite services": true
        }
      ],
      "Accessibility": [
        {
          "Wheelchair accessible entrance": true
        }
      ],
      "Offerings": [
        {
          "Naloxone": true
        },
        {
          "Passport photos": true
        }
      ],
      "Crowd": [
        {
          "LGBTQ+ friendly": true
        },
        {
          "Transgender safespace": true
        }
      ],
      "Planning": [
        {
          "Quick visit": true
        }
      ],
      "Payments": [
        {
          "Credit cards": true
        },
        {
          "Debit cards": true
        },
        {
          "NFC mobile payments": true
        },
        {
          "SNAP/EBT": true
        },
        {
          "Credit cards": true
        }
      ]
    },
    "gasPrices": [],
    "url": "https://www.google.com/maps/search/?api=1&query=CVS%20Pharmacy&query_place_id=ChIJvQ6aMQ1644kRW5Ez-4l3GyI",
    "searchPageUrl": "https://www.google.com/maps/search/independent%20pharmacy%20Boston%20MA/@67.82214549246302,-157.71370691405576,9z?hl=en",
    "searchString": "independent pharmacy Boston MA",
    "language": "en",
    "rank": 15,
    "isAdvertisement": false,
    "imageUrl": "https://lh3.googleusercontent.com/p/AF1QipPSgCbQFnBMCMeadu_9xWG2Ti7hBqc7fZFjr3Db=w408-h272-k-no",
    "kgmid": "/g/11c461w05h"
  },
  {
    "title": "Yawkey Pharmacy at Boston Medical Center",
    "price": null,
    "categoryName": "Pharmacy",
    "address": "850 Harrison Ave 1st Floor, Boston, MA 02118",
    "neighborhood": "South End",
    "street": "850 Harrison Ave 1st Floor",
    "city": "Boston",
    "postalCode": "02118",
    "state": "Massachusetts",
    "countryCode": "US",
    "website": "https://www.bmc.org/services/pharmacy?utm_campaign=yextserviceline&utm_source=serviceline_listing&utm_medium=yext",
    "phone": "(617) 414-4883",
    "phoneUnformatted": "+16174144883",
    "claimThisBusiness": false,
    "location": {
      "lat": 42.3344641,
      "lng": -71.0739179
    },
    "totalScore": 3.1,
    "permanentlyClosed": false,
    "temporarilyClosed": false,
    "placeId": "ChIJielsjj9644kR3Bxio0m4Itw",
    "categories": [
      "Pharmacy"
    ],
    "fid": "0x89e37a3f8e6ce989:0xdc22b849a3621cdc",
    "cid": "15862443463965547740",
    "reviewsCount": 43,
    "imagesCount": 6,
    "imageCategories": [],
    "scrapedAt": "2025-06-22T05:38:56.789Z",
    "googleFoodUrl": null,
    "hotelAds": [],
    "openingHours": [
      {
        "day": "Monday",
        "hours": "9 AM to 7 PM"
      },
      {
        "day": "Tuesday",
        "hours": "9 AM to 7 PM"
      },
      {
        "day": "Wednesday",
        "hours": "9 AM to 7 PM"
      },
      {
        "day": "Thursday",
        "hours": "9 AM to 7 PM"
      },
      {
        "day": "Friday",
        "hours": "9 AM to 7 PM"
      },
      {
        "day": "Saturday",
        "hours": "10 AM to 2 PM"
      },
      {
        "day": "Sunday",
        "hours": "Closed"
      }
    ],
    "peopleAlsoSearch": [],
    "placesTags": [],
    "reviewsTags": [],
    "additionalInfo": {
      "Service options": [
        {
          "Delivery": true
        }
      ],
      "Accessibility": [
        {
          "Wheelchair accessible entrance": true
        },
        {
          "Wheelchair accessible parking lot": true
        }
      ],
      "Crowd": [
        {
          "LGBTQ+ friendly": true
        },
        {
          "Transgender safespace": true
        }
      ],
      "Payments": [
        {
          "Credit cards": true
        },
        {
          "Debit cards": true
        }
      ]
    },
    "gasPrices": [],
    "url": "https://www.google.com/maps/search/?api=1&query=Yawkey%20Pharmacy%20at%20Boston%20Medical%20Center&query_place_id=ChIJielsjj9644kR3Bxio0m4Itw",
    "searchPageUrl": "https://www.google.com/maps/search/independent%20pharmacy%20Boston%20MA/@67.82214549246302,-157.71370691405576,9z?hl=en",
    "searchString": "independent pharmacy Boston MA",
    "language": "en",
    "rank": 16,
    "isAdvertisement": false,
    "imageUrl": "https://lh3.googleusercontent.com/p/AF1QipMljewkh3hiKe5vvmXlfBq9XUl3P4dsqhdvHkjv=w408-h272-k-no",
    "kgmid": "/g/11c5r4r460"
  },
  {
    "title": "CVS Pharmacy",
    "price": null,
    "categoryName": "Pharmacy",
    "address": "1921-1943 Centre St, West Roxbury, MA 02132",
    "neighborhood": "West Roxbury",
    "street": "1921-1943 Centre St",
    "city": "West Roxbury",
    "postalCode": "02132",
    "state": "Massachusetts",
    "countryCode": "US",
    "website": "https://www.cvs.com/store-locator/west-roxbury-ma-pharmacies/1921-1943-centre-street-west-roxbury-ma-02132/storeid=117?WT.mc_id=LS_GOOGLE_RX_117",
    "phone": "(617) 469-2222",
    "phoneUnformatted": "+16174692222",
    "claimThisBusiness": false,
    "location": {
      "lat": 42.284016,
      "lng": -71.1572972
    },
    "totalScore": 3.6,
    "permanentlyClosed": false,
    "temporarilyClosed": false,
    "placeId": "ChIJ_Sc6DzB_44kRGzqfmBI3EE8",
    "categories": [
      "Pharmacy"
    ],
    "fid": "0x89e37f300f3a27fd:0x4f103712989f3a1b",
    "cid": "5697114081633188379",
    "reviewsCount": 21,
    "imagesCount": 12,
    "imageCategories": [],
    "scrapedAt": "2025-06-22T05:38:56.789Z",
    "googleFoodUrl": null,
    "hotelAds": [],
    "openingHours": [
      {
        "day": "Monday",
        "hours": "7 AM to 1:30 PM, 2 to 10 PM"
      },
      {
        "day": "Tuesday",
        "hours": "7 AM to 1:30 PM, 2 to 10 PM"
      },
      {
        "day": "Wednesday",
        "hours": "7 AM to 1:30 PM, 2 to 10 PM"
      },
      {
        "day": "Thursday",
        "hours": "7 AM to 1:30 PM, 2 to 10 PM"
      },
      {
        "day": "Friday",
        "hours": "7 AM to 1:30 PM, 2 to 10 PM"
      },
      {
        "day": "Saturday",
        "hours": "9 AM to 1:30 PM, 2 to 8 PM"
      },
      {
        "day": "Sunday",
        "hours": "10 AM to 1:30 PM, 2 to 8 PM"
      }
    ],
    "peopleAlsoSearch": [],
    "placesTags": [],
    "reviewsTags": [],
    "additionalInfo": {
      "Service options": [
        {
          "Delivery": true
        },
        {
          "Drive-through": true
        },
        {
          "In-store shopping": true
        }
      ],
      "Accessibility": [
        {
          "Wheelchair accessible entrance": true
        },
        {
          "Wheelchair accessible parking lot": true
        }
      ],
      "Offerings": [
        {
          "Medication disposal": true
        },
        {
          "Naloxone": true
        },
        {
          "Passport photos": true
        }
      ],
      "Crowd": [
        {
          "LGBTQ+ friendly": true
        },
        {
          "Transgender safespace": true
        }
      ],
      "Planning": [
        {
          "Quick visit": true
        }
      ],
      "Payments": [
        {
          "Credit cards": true
        },
        {
          "Debit cards": true
        },
        {
          "NFC mobile payments": true
        },
        {
          "SNAP/EBT": true
        },
        {
          "Credit cards": true
        }
      ]
    },
    "gasPrices": [],
    "url": "https://www.google.com/maps/search/?api=1&query=CVS%20Pharmacy&query_place_id=ChIJ_Sc6DzB_44kRGzqfmBI3EE8",
    "searchPageUrl": "https://www.google.com/maps/search/independent%20pharmacy%20Boston%20MA/@67.82214549246302,-157.71370691405576,9z?hl=en",
    "searchString": "independent pharmacy Boston MA",
    "language": "en",
    "rank": 17,
    "isAdvertisement": false,
    "imageUrl": "https://lh3.googleusercontent.com/p/AF1QipMtl08glhoUOZMluaujeIkR4C7_Z5510a6xAFAz=w408-h272-k-no",
    "kgmid": "/g/11c466ym3l"
  },
  {
    "title": "Star Market Pharmacy",
    "price": null,
    "categoryName": "Pharmacy",
    "address": "90 Causeway St, Boston, MA 02114",
    "neighborhood": "West End",
    "street": "90 Causeway St",
    "city": "Boston",
    "postalCode": "02114",
    "state": "Massachusetts",
    "countryCode": "US",
    "website": "https://local.pharmacy.starmarket.com/ma/boston/90-causeway-st.html",
    "phone": "(857) 409-3410",
    "phoneUnformatted": "+18574093410",
    "claimThisBusiness": false,
    "location": {
      "lat": 42.3649898,
      "lng": -71.0622667
    },
    "totalScore": 4.6,
    "permanentlyClosed": false,
    "temporarilyClosed": false,
    "placeId": "ChIJI2B5hb9x44kR-owywV9uX0I",
    "categories": [
      "Pharmacy",
      "Drug store",
      "Vitamin & supplements store"
    ],
    "fid": "0x89e371bf85796023:0x425f6e5fc1328cfa",
    "cid": "4782662686833020154",
    "reviewsCount": 16,
    "imagesCount": 6,
    "imageCategories": [],
    "scrapedAt": "2025-06-22T05:38:56.789Z",
    "googleFoodUrl": null,
    "hotelAds": [],
    "openingHours": [
      {
        "day": "Monday",
        "hours": "9 AM to 2 PM, 2:30 to 8 PM"
      },
      {
        "day": "Tuesday",
        "hours": "9 AM to 2 PM, 2:30 to 8 PM"
      },
      {
        "day": "Wednesday",
        "hours": "9 AM to 2 PM, 2:30 to 8 PM"
      },
      {
        "day": "Thursday",
        "hours": "9 AM to 2 PM, 2:30 to 8 PM"
      },
      {
        "day": "Friday",
        "hours": "9 AM to 2 PM, 2:30 to 8 PM"
      },
      {
        "day": "Saturday",
        "hours": "9 AM to 2 PM, 2:30 to 5 PM"
      },
      {
        "day": "Sunday",
        "hours": "10 AM to 2 PM, 2:30 to 5 PM"
      }
    ],
    "peopleAlsoSearch": [],
    "placesTags": [],
    "reviewsTags": [],
    "additionalInfo": {
      "Service options": [
        {
          "Curbside pickup": true
        },
        {
          "In-store pickup": true
        },
        {
          "In-store shopping": true
        },
        {
          "Onsite services": true
        },
        {
          "Delivery": false
        },
        {
          "Same-day delivery": false
        }
      ],
      "Accessibility": [
        {
          "Wheelchair accessible entrance": true
        },
        {
          "Wheelchair accessible parking lot": true
        }
      ],
      "Amenities": [
        {
          "Wi-Fi": true
        },
        {
          "Free Wi-Fi": true
        }
      ],
      "Crowd": [
        {
          "LGBTQ+ friendly": true
        }
      ],
      "Planning": [
        {
          "Appointment required": true
        },
        {
          "Quick visit": true
        }
      ],
      "Payments": [
        {
          "Checks": true
        },
        {
          "Credit cards": true
        },
        {
          "Debit cards": true
        },
        {
          "NFC mobile payments": true
        },
        {
          "Credit cards": true
        }
      ]
    },
    "gasPrices": [],
    "url": "https://www.google.com/maps/search/?api=1&query=Star%20Market%20Pharmacy&query_place_id=ChIJI2B5hb9x44kR-owywV9uX0I",
    "searchPageUrl": "https://www.google.com/maps/search/independent%20pharmacy%20Boston%20MA/@67.82214549246302,-157.71370691405576,9z?hl=en",
    "searchString": "independent pharmacy Boston MA",
    "language": "en",
    "rank": 18,
    "isAdvertisement": false,
    "imageUrl": "https://lh3.googleusercontent.com/gps-cs-s/AC9h4nrwxNv7FouFWquSWD0gcBcRLyJeZH_w8DynxnzBI0sGT7mPhyV8Q2f9pHeo5xyYSlCbENDJdZzZ3sVaCAB6_Phl7N6aYcXNp-QiHYmcw9DgyYfc5rB75rmub-xNl7GNJJ2RwMXwkQ=w408-h306-k-no",
    "kgmid": "/g/11fn4ycb6h"
  },
  {
    "title": "CVS Pharmacy",
    "price": null,
    "categoryName": "Pharmacy",
    "address": "191 Stuart St, Boston, MA 02116",
    "neighborhood": "Downtown",
    "street": "191 Stuart St",
    "city": "Boston",
    "postalCode": "02116",
    "state": "Massachusetts",
    "countryCode": "US",
    "website": "https://www.cvs.com/store-locator/boston-ma-pharmacies/191-stuart-street-boston-ma-02116/storeid=11201?WT.mc_id=LS_GOOGLE_RX_11201",
    "phone": "(617) 406-2991",
    "phoneUnformatted": "+16174062991",
    "claimThisBusiness": false,
    "location": {
      "lat": 42.3512445,
      "lng": -71.0667026
    },
    "totalScore": 4.7,
    "permanentlyClosed": false,
    "temporarilyClosed": false,
    "placeId": "ChIJG9prG81744kRj7YR2GS_Rtc",
    "categories": [
      "Pharmacy"
    ],
    "fid": "0x89e37bcd1b6bda1b:0xd746bf64d811b68f",
    "cid": "15512296406366926479",
    "reviewsCount": 9,
    "imagesCount": 6,
    "imageCategories": [],
    "scrapedAt": "2025-06-22T05:38:56.789Z",
    "googleFoodUrl": null,
    "hotelAds": [],
    "openingHours": [
      {
        "day": "Monday",
        "hours": "9 AM to 1:30 PM, 2 to 7 PM"
      },
      {
        "day": "Tuesday",
        "hours": "9 AM to 1:30 PM, 2 to 7 PM"
      },
      {
        "day": "Wednesday",
        "hours": "9 AM to 1:30 PM, 2 to 7 PM"
      },
      {
        "day": "Thursday",
        "hours": "9 AM to 1:30 PM, 2 to 7 PM"
      },
      {
        "day": "Friday",
        "hours": "9 AM to 1:30 PM, 2 to 7 PM"
      },
      {
        "day": "Saturday",
        "hours": "10 AM to 1:30 PM, 2 to 6 PM"
      },
      {
        "day": "Sunday",
        "hours": "11 AM to 1:30 PM, 2 to 5 PM"
      }
    ],
    "peopleAlsoSearch": [],
    "placesTags": [],
    "reviewsTags": [],
    "additionalInfo": {
      "Service options": [
        {
          "Delivery": true
        },
        {
          "In-store shopping": true
        },
        {
          "Onsite services": true
        }
      ],
      "Accessibility": [
        {
          "Wheelchair accessible entrance": true
        }
      ],
      "Crowd": [
        {
          "LGBTQ+ friendly": true
        },
        {
          "Transgender safespace": true
        }
      ],
      "Planning": [
        {
          "Quick visit": true
        }
      ],
      "Payments": [
        {
          "Credit cards": true
        },
        {
          "Debit cards": true
        },
        {
          "NFC mobile payments": true
        },
        {
          "SNAP/EBT": true
        },
        {
          "Credit cards": true
        }
      ]
    },
    "gasPrices": [],
    "url": "https://www.google.com/maps/search/?api=1&query=CVS%20Pharmacy&query_place_id=ChIJG9prG81744kRj7YR2GS_Rtc",
    "searchPageUrl": "https://www.google.com/maps/search/independent%20pharmacy%20Boston%20MA/@67.82214549246302,-157.71370691405576,9z?hl=en",
    "searchString": "independent pharmacy Boston MA",
    "language": "en",
    "rank": 19,
    "isAdvertisement": false,
    "imageUrl": "https://lh3.googleusercontent.com/p/AF1QipNAXIphFsilXdl0m9lET4GmwkIgtRdWj3V9jDxK=w408-h272-k-no",
    "kgmid": "/g/11p73rdw9f"
  },
  {
    "title": "Kornfield Drug",
    "price": null,
    "categoryName": "Pharmacy",
    "address": "2121 Washington St, Roxbury, MA 02119",
    "neighborhood": "Roxbury",
    "street": "2121 Washington St",
    "city": "Roxbury",
    "postalCode": "02119",
    "state": "Massachusetts",
    "countryCode": "US",
    "website": "http://kornfieldpharmacy.com/",
    "phone": "(617) 427-8950",
    "phoneUnformatted": "+16174278950",
    "claimThisBusiness": true,
    "location": {
      "lat": 42.3319476,
      "lng": -71.0818919
    },
    "totalScore": 2.5,
    "permanentlyClosed": false,
    "temporarilyClosed": false,
    "placeId": "ChIJTQcFkDt644kRF6CQvBi_D3Y",
    "categories": [
      "Pharmacy"
    ],
    "fid": "0x89e37a3b9005074d:0x760fbf18bc90a017",
    "cid": "8507228334089871383",
    "reviewsCount": 30,
    "imagesCount": 5,
    "imageCategories": [],
    "scrapedAt": "2025-06-22T05:38:56.789Z",
    "googleFoodUrl": null,
    "hotelAds": [],
    "openingHours": [
      {
        "day": "Monday",
        "hours": "9 AM to 6 PM"
      },
      {
        "day": "Tuesday",
        "hours": "9 AM to 6 PM"
      },
      {
        "day": "Wednesday",
        "hours": "9 AM to 6 PM"
      },
      {
        "day": "Thursday",
        "hours": "9 AM to 6 PM"
      },
      {
        "day": "Friday",
        "hours": "9 AM to 6 PM"
      },
      {
        "day": "Saturday",
        "hours": "9 AM to 4 PM"
      },
      {
        "day": "Sunday",
        "hours": "Closed"
      }
    ],
    "peopleAlsoSearch": [],
    "placesTags": [],
    "reviewsTags": [],
    "additionalInfo": {
      "Service options": [
        {
          "Delivery": true
        }
      ],
      "Accessibility": [
        {
          "Wheelchair accessible parking lot": true
        }
      ],
      "Planning": [
        {
          "Quick visit": true
        }
      ],
      "Payments": [
        {
          "Credit cards": true
        },
        {
          "Debit cards": true
        },
        {
          "NFC mobile payments": true
        },
        {
          "Credit cards": true
        }
      ]
    },
    "gasPrices": [],
    "url": "https://www.google.com/maps/search/?api=1&query=Kornfield%20Drug&query_place_id=ChIJTQcFkDt644kRF6CQvBi_D3Y",
    "searchPageUrl": "https://www.google.com/maps/search/independent%20pharmacy%20Boston%20MA/@67.82214549246302,-157.71370691405576,9z?hl=en",
    "searchString": "independent pharmacy Boston MA",
    "language": "en",
    "rank": 20,
    "isAdvertisement": false,
    "imageUrl": "https://lh3.googleusercontent.com/gps-cs-s/AC9h4npP94oVtB_dbwIjo-F19F37X1_liNsTN10DgnzrV7xc7RzazBEpNEhJ-UFufNvmb9ODAjUi9SJnbXSi-1CbGiChV54aw7BKnVJYISWkrvcopIvaL-wrhFtMdBCTiDsIvua8LIOk=w408-h268-k-no",
    "kgmid": "/g/1tfv1knr"
  }
]