[
  {
    "title": "Longs Drugs",
    "price": null,
    "categoryName": "Drug store",
    "address": "850 Kamehameha Hwy STE 107, Pearl City, HI 96782",
    "neighborhood": null,
    "street": "850 Kamehameha Hwy STE 107",
    "city": "Pearl City",
    "postalCode": "96782",
    "state": "Hawaii",
    "countryCode": "US",
    "website": "https://www.cvs.com/store-locator/pearl-city-hi-pharmacies/850-kamehameha-hwy-ste-107-pearl-city-hi-96782/storeid=9275?WT.mc_id=LS_GOOGLE_FS_9275",
    "phone": "(808) 455-4555",
    "phoneUnformatted": "+18084554555",
    "claimThisBusiness": false,
    "location": {
      "lat": 21.3941308,
      "lng": -157.9683541
    },
    "locatedIn": "CVS Photo",
    "totalScore": 3.6,
    "permanentlyClosed": false,
    "temporarilyClosed": false,
    "placeId": "ChIJNda44_BnAHwRmLHcAOpa6HA",
    "categories": [
      "Drug store",
      "Beauty supply store",
      "Beer store",
      "Convenience store",
      "Cosmetics store",
      "Greeting card shop",
      "Liquor store",
      "Perfume store",
      "Stationery store",
      "Vitamin & supplements store"
    ],
    "fid": "0x7c0067f0e3b8d635:0x70e85aea00dcb198",
    "cid": "8135852687928111512",
    "reviewsCount": 59,
    "imagesCount": 38,
    "imageCategories": [],
    "scrapedAt": "2025-06-22T07:33:27.329Z",
    "googleFoodUrl": null,
    "hotelAds": [],
    "openingHours": [
      {
        "day": "Monday",
        "hours": "Open 24 hours"
      },
      {
        "day": "Tuesday",
        "hours": "Open 24 hours"
      },
      {
        "day": "Wednesday",
        "hours": "Open 24 hours"
      },
      {
        "day": "Thursday",
        "hours": "Open 24 hours"
      },
      {
        "day": "Friday",
        "hours": "Open 24 hours"
      },
      {
        "day": "Saturday",
        "hours": "Open 24 hours"
      },
      {
        "day": "Sunday",
        "hours": "Open 24 hours"
      }
    ],
    "additionalOpeningHours": {
      "CVS Photo": [
        {
          "day": "Monday",
          "hours": "Open 24 hours"
        },
        {
          "day": "Tuesday",
          "hours": "Open 24 hours"
        },
        {
          "day": "Wednesday",
          "hours": "Open 24 hours"
        },
        {
          "day": "Thursday",
          "hours": "Open 24 hours"
        },
        {
          "day": "Friday",
          "hours": "Open 24 hours"
        },
        {
          "day": "Saturday",
          "hours": "Open 24 hours"
        },
        {
          "day": "Sunday",
          "hours": "Open 24 hours"
        }
      ]
    },
    "peopleAlsoSearch": [],
    "placesTags": [],
    "reviewsTags": [],
    "additionalInfo": {
      "Service options": [
        {
          "Delivery": true
        },
        {
          "In-store shopping": true
        },
        {
          "Same-day delivery": false
        }
      ],
      "Accessibility": [
        {
          "Wheelchair accessible entrance": true
        },
        {
          "Wheelchair accessible parking lot": true
        }
      ],
      "Offerings": [
        {
          "Medication disposal": true
        },
        {
          "Passport photos": true
        }
      ],
      "Crowd": [
        {
          "LGBTQ+ friendly": true
        },
        {
          "Transgender safespace": true
        }
      ],
      "Planning": [
        {
          "Quick visit": true
        }
      ],
      "Payments": [
        {
          "Credit cards": true
        },
        {
          "Debit cards": true
        },
        {
          "Credit cards": true
        }
      ]
    },
    "gasPrices": [],
    "url": "https://www.google.com/maps/search/?api=1&query=Longs%20Drugs&query_place_id=ChIJNda44_BnAHwRmLHcAOpa6HA",
    "searchPageUrl": "https://www.google.com/maps/search/independent%20pharmacy%20Pearl%20City%20HI/@61.56929586514925,-150.80891300000008,9z?hl=en",
    "searchString": "independent pharmacy Pearl City HI",
    "language": "en",
    "rank": 1,
    "isAdvertisement": false,
    "imageUrl": "https://lh3.googleusercontent.com/gps-cs-s/AC9h4nplOHHW9F188-SLaxDubmLLeQBnHdIIR5Hm278HHn-lAoVE9PCD8plhUDIFYEs1qWKFUjXMlIRAENcTIfL4lx1_Syy99VIG5CBN4-BGG2gALlg8YpoQ7y9R0X2BYBwT-5oH328q=w408-h544-k-no",
    "kgmid": "/g/1tgfdl42"
  },
  {
    "title": "Longs Drugs Pharmacy",
    "price": null,
    "categoryName": "Pharmacy",
    "address": "850 Kamehameha Hwy STE 107, Pearl City, HI 96782",
    "neighborhood": null,
    "street": "850 Kamehameha Hwy STE 107",
    "city": "Pearl City",
    "postalCode": "96782",
    "state": "Hawaii",
    "countryCode": "US",
    "website": "https://www.cvs.com/store-locator/pearl-city-hi-pharmacies/850-kamehameha-hwy-ste-107-pearl-city-hi-96782/storeid=9275?WT.mc_id=LS_GOOGLE_RX_9275",
    "phone": "(808) 455-4555",
    "phoneUnformatted": "+18084554555",
    "claimThisBusiness": false,
    "location": {
      "lat": 21.3943116,
      "lng": -157.968582
    },
    "permanentlyClosed": false,
    "temporarilyClosed": false,
    "placeId": "ChIJPedIaglmAHwRsWiAlFE5gpQ",
    "categories": [
      "Pharmacy"
    ],
    "fid": "0x7c0066096a48e73d:0x94823951948068b1",
    "cid": "10701178687132297393",
    "reviewsCount": 0,
    "imagesCount": 4,
    "imageCategories": [],
    "scrapedAt": "2025-06-22T07:33:27.330Z",
    "googleFoodUrl": null,
    "hotelAds": [],
    "openingHours": [
      {
        "day": "Monday",
        "hours": "12 AM to 1:30 PM, 2 PM to 12 AM"
      },
      {
        "day": "Tuesday",
        "hours": "12 AM to 1:30 PM, 2 PM to 12 AM"
      },
      {
        "day": "Wednesday",
        "hours": "12 AM to 1:30 PM, 2 PM to 12 AM"
      },
      {
        "day": "Thursday",
        "hours": "12 AM to 1:30 PM, 2 PM to 12 AM"
      },
      {
        "day": "Friday",
        "hours": "12 AM to 1:30 PM, 2 PM to 12 AM"
      },
      {
        "day": "Saturday",
        "hours": "12 AM to 1:30 PM, 2 PM to 12 AM"
      },
      {
        "day": "Sunday",
        "hours": "12 AM to 1:30 PM, 2 PM to 12 AM"
      }
    ],
    "peopleAlsoSearch": [],
    "placesTags": [],
    "reviewsTags": [],
    "additionalInfo": {
      "Service options": [
        {
          "Delivery": true
        },
        {
          "In-store shopping": true
        }
      ],
      "Accessibility": [
        {
          "Wheelchair accessible entrance": true
        },
        {
          "Wheelchair accessible parking lot": true
        }
      ],
      "Crowd": [
        {
          "LGBTQ+ friendly": true
        },
        {
          "Transgender safespace": true
        }
      ],
      "Planning": [
        {
          "Quick visit": true
        }
      ],
      "Payments": [
        {
          "Credit cards": true
        },
        {
          "Debit cards": true
        },
        {
          "Credit cards": true
        }
      ]
    },
    "gasPrices": [],
    "url": "https://www.google.com/maps/search/?api=1&query=Longs%20Drugs%20Pharmacy&query_place_id=ChIJPedIaglmAHwRsWiAlFE5gpQ",
    "searchPageUrl": "https://www.google.com/maps/search/independent%20pharmacy%20Pearl%20City%20HI/@61.56929586514925,-150.80891300000008,9z?hl=en",
    "searchString": "independent pharmacy Pearl City HI",
    "language": "en",
    "rank": 2,
    "isAdvertisement": false,
    "imageUrl": "https://lh3.googleusercontent.com/p/AF1QipNYepvQu9LRWO8TW3rxlQRFZghSyUXhm2sWnQPH=w408-h272-k-no",
    "kgmid": "/g/11v6d84lt1"
  },
  {
    "title": "Longs Drugs",
    "price": null,
    "categoryName": "Drug store",
    "address": "1130 Kuala St, Pearl City, HI 96782",
    "neighborhood": null,
    "street": "1130 Kuala St",
    "city": "Pearl City",
    "postalCode": "96782",
    "state": "Hawaii",
    "countryCode": "US",
    "website": "https://www.cvs.com/store-locator/pearl-city-hi-pharmacies/1130-kuala-st-pearl-city-hi-96782/storeid=4728?WT.mc_id=LS_GOOGLE_FS_4728",
    "phone": "(808) 456-5302",
    "phoneUnformatted": "+18084565302",
    "claimThisBusiness": false,
    "location": {
      "lat": 21.3994916,
      "lng": -157.9760169
    },
    "locatedIn": "CVS Photo",
    "totalScore": 3.9,
    "permanentlyClosed": false,
    "temporarilyClosed": false,
    "placeId": "ChIJCw2rhA1mAHwRqQR2D2zTeCo",
    "categories": [
      "Drug store",
      "Beauty supply store",
      "Beer store",
      "Convenience store",
      "Cosmetics store",
      "Greeting card shop",
      "Liquor store",
      "Perfume store",
      "Stationery store",
      "Vitamin & supplements store"
    ],
    "fid": "0x7c00660d84ab0d0b:0x2a78d36c0f7604a9",
    "cid": "3060428407867573417",
    "reviewsCount": 47,
    "imagesCount": 37,
    "imageCategories": [],
    "scrapedAt": "2025-06-22T07:33:27.330Z",
    "googleFoodUrl": null,
    "hotelAds": [],
    "openingHours": [
      {
        "day": "Monday",
        "hours": "7 AM to 11 PM"
      },
      {
        "day": "Tuesday",
        "hours": "7 AM to 11 PM"
      },
      {
        "day": "Wednesday",
        "hours": "7 AM to 11 PM"
      },
      {
        "day": "Thursday",
        "hours": "7 AM to 11 PM"
      },
      {
        "day": "Friday",
        "hours": "7 AM to 11 PM"
      },
      {
        "day": "Saturday",
        "hours": "7 AM to 11 PM"
      },
      {
        "day": "Sunday",
        "hours": "7 AM to 11 PM"
      }
    ],
    "additionalOpeningHours": {
      "CVS Photo": [
        {
          "day": "Monday",
          "hours": "7 AM–11 PM"
        },
        {
          "day": "Tuesday",
          "hours": "7 AM–11 PM"
        },
        {
          "day": "Wednesday",
          "hours": "7 AM–11 PM"
        },
        {
          "day": "Thursday",
          "hours": "7 AM–11 PM"
        },
        {
          "day": "Friday",
          "hours": "7 AM–11 PM"
        },
        {
          "day": "Saturday",
          "hours": "7 AM–11 PM"
        },
        {
          "day": "Sunday",
          "hours": "7 AM–11 PM"
        }
      ]
    },
    "peopleAlsoSearch": [],
    "placesTags": [],
    "reviewsTags": [],
    "additionalInfo": {
      "Service options": [
        {
          "Delivery": true
        },
        {
          "Drive-through": true
        },
        {
          "In-store shopping": true
        },
        {
          "Onsite services": true
        },
        {
          "Same-day delivery": false
        }
      ],
      "Accessibility": [
        {
          "Wheelchair accessible entrance": true
        },
        {
          "Wheelchair accessible parking lot": true
        }
      ],
      "Offerings": [
        {
          "Passport photos": true
        }
      ],
      "Crowd": [
        {
          "LGBTQ+ friendly": true
        },
        {
          "Transgender safespace": true
        }
      ],
      "Planning": [
        {
          "Quick visit": true
        }
      ],
      "Payments": [
        {
          "Credit cards": true
        },
        {
          "Debit cards": true
        },
        {
          "Credit cards": true
        }
      ]
    },
    "gasPrices": [],
    "url": "https://www.google.com/maps/search/?api=1&query=Longs%20Drugs&query_place_id=ChIJCw2rhA1mAHwRqQR2D2zTeCo",
    "searchPageUrl": "https://www.google.com/maps/search/independent%20pharmacy%20Pearl%20City%20HI/@61.56929586514925,-150.80891300000008,9z?hl=en",
    "searchString": "independent pharmacy Pearl City HI",
    "language": "en",
    "rank": 3,
    "isAdvertisement": false,
    "imageUrl": "https://lh3.googleusercontent.com/gps-cs-s/AC9h4nqX3a2xYiBWgas65bJBlkfAXqHO0JPnka9kUnezOqUezGkuj97mv8IhYPw3sGSvBIj0qBvAnepc_whKHu85L-HlCkSLaFUS6FAWVZEqdwnKL3BmvjsIJ8KpDTsrKfD0XkuAPRw=w408-h544-k-no",
    "kgmid": "/g/1tjmdwch"
  },
  {
    "title": "Sam's Club Pharmacy",
    "price": "$",
    "categoryName": "Pharmacy",
    "address": "1000 Kamehameha Hwy, Pearl City, HI 96782",
    "neighborhood": null,
    "street": "1000 Kamehameha Hwy",
    "city": "Pearl City",
    "postalCode": "96782",
    "state": "Hawaii",
    "countryCode": "US",
    "website": "https://www.samsclub.com/local/pharmacy/pearl-city-hi-sams-club/6410",
    "phone": "(808) 454-0182",
    "phoneUnformatted": "+18084540182",
    "claimThisBusiness": false,
    "location": {
      "lat": 21.3965541,
      "lng": -157.9776452
    },
    "totalScore": 5,
    "permanentlyClosed": false,
    "temporarilyClosed": false,
    "placeId": "ChIJQ8P0T3NmAHwRvm7sCtJ0hkM",
    "categories": [
      "Pharmacy"
    ],
    "fid": "0x7c0066734ff4c343:0x438674d20aec6ebe",
    "cid": "4865704892895620798",
    "reviewsCount": 4,
    "imagesCount": 10,
    "imageCategories": [],
    "scrapedAt": "2025-06-22T07:33:27.330Z",
    "googleFoodUrl": null,
    "hotelAds": [],
    "openingHours": [
      {
        "day": "Monday",
        "hours": "9 AM to 7 PM"
      },
      {
        "day": "Tuesday",
        "hours": "9 AM to 7 PM"
      },
      {
        "day": "Wednesday",
        "hours": "9 AM to 7 PM"
      },
      {
        "day": "Thursday",
        "hours": "9 AM to 7 PM"
      },
      {
        "day": "Friday",
        "hours": "9 AM to 7 PM"
      },
      {
        "day": "Saturday",
        "hours": "9 AM to 6 PM"
      },
      {
        "day": "Sunday",
        "hours": "11 AM to 4 PM"
      }
    ],
    "peopleAlsoSearch": [],
    "placesTags": [],
    "reviewsTags": [],
    "additionalInfo": {
      "Service options": [
        {
          "Curbside pickup": true
        },
        {
          "Delivery": true
        },
        {
          "In-store pickup": true
        },
        {
          "In-store shopping": true
        },
        {
          "Onsite services": true
        },
        {
          "Same-day delivery": true
        }
      ],
      "Accessibility": [
        {
          "Wheelchair accessible entrance": true
        },
        {
          "Wheelchair accessible parking lot": true
        }
      ],
      "Planning": [
        {
          "Quick visit": true
        }
      ],
      "Payments": [
        {
          "Credit cards": true
        },
        {
          "Debit cards": true
        },
        {
          "Credit cards": true
        }
      ]
    },
    "gasPrices": [],
    "url": "https://www.google.com/maps/search/?api=1&query=Sam's%20Club%20Pharmacy&query_place_id=ChIJQ8P0T3NmAHwRvm7sCtJ0hkM",
    "searchPageUrl": "https://www.google.com/maps/search/independent%20pharmacy%20Pearl%20City%20HI/@61.56929586514925,-150.80891300000008,9z?hl=en",
    "searchString": "independent pharmacy Pearl City HI",
    "language": "en",
    "rank": 4,
    "isAdvertisement": false,
    "imageUrl": "https://lh3.googleusercontent.com/p/AF1QipPw39-eUFu_ZDlqd73jWBjOOY2mRw-jT72T_FIv=w408-h272-k-no",
    "kgmid": "/g/1tgfqb8p"
  },
  {
    "title": "Longs Drugs Pharmacy",
    "price": null,
    "categoryName": "Pharmacy",
    "address": "1130 Kuala St, Pearl City, HI 96782",
    "neighborhood": null,
    "street": "1130 Kuala St",
    "city": "Pearl City",
    "postalCode": "96782",
    "state": "Hawaii",
    "countryCode": "US",
    "website": "https://www.cvs.com/store-locator/pearl-city-hi-pharmacies/1130-kuala-st-pearl-city-hi-96782/storeid=4728?WT.mc_id=LS_GOOGLE_RX_4728",
    "phone": "(808) 456-5302",
    "phoneUnformatted": "+18084565302",
    "claimThisBusiness": false,
    "location": {
      "lat": 21.399504,
      "lng": -157.9760698
    },
    "totalScore": 3,
    "permanentlyClosed": false,
    "temporarilyClosed": false,
    "placeId": "ChIJyVQFLQ1mAHwRnOB-L7pMhqI",
    "categories": [
      "Pharmacy"
    ],
    "fid": "0x7c00660d2d0554c9:0xa2864cba2f7ee09c",
    "cid": "11711132243568025756",
    "reviewsCount": 4,
    "imagesCount": 9,
    "imageCategories": [],
    "scrapedAt": "2025-06-22T07:33:27.330Z",
    "googleFoodUrl": null,
    "hotelAds": [],
    "openingHours": [
      {
        "day": "Monday",
        "hours": "9 AM to 1:30 PM, 2 to 8 PM"
      },
      {
        "day": "Tuesday",
        "hours": "9 AM to 1:30 PM, 2 to 8 PM"
      },
      {
        "day": "Wednesday",
        "hours": "9 AM to 1:30 PM, 2 to 8 PM"
      },
      {
        "day": "Thursday",
        "hours": "9 AM to 1:30 PM, 2 to 8 PM"
      },
      {
        "day": "Friday",
        "hours": "9 AM to 1:30 PM, 2 to 8 PM"
      },
      {
        "day": "Saturday",
        "hours": "8 AM to 1:30 PM, 2 to 7 PM"
      },
      {
        "day": "Sunday",
        "hours": "9 AM to 1:30 PM, 2 to 6 PM"
      }
    ],
    "peopleAlsoSearch": [],
    "placesTags": [],
    "reviewsTags": [],
    "additionalInfo": {
      "Service options": [
        {
          "Delivery": true
        },
        {
          "Drive-through": true
        },
        {
          "In-store shopping": true
        }
      ],
      "Accessibility": [
        {
          "Wheelchair accessible entrance": true
        },
        {
          "Wheelchair accessible parking lot": true
        }
      ],
      "Amenities": [
        {
          "Wi-Fi": true
        },
        {
          "Free Wi-Fi": true
        }
      ],
      "Crowd": [
        {
          "LGBTQ+ friendly": true
        },
        {
          "Transgender safespace": true
        }
      ],
      "Planning": [
        {
          "Quick visit": true
        }
      ],
      "Payments": [
        {
          "Credit cards": true
        },
        {
          "Debit cards": true
        },
        {
          "SNAP/EBT": true
        },
        {
          "Credit cards": true
        }
      ]
    },
    "gasPrices": [],
    "url": "https://www.google.com/maps/search/?api=1&query=Longs%20Drugs%20Pharmacy&query_place_id=ChIJyVQFLQ1mAHwRnOB-L7pMhqI",
    "searchPageUrl": "https://www.google.com/maps/search/independent%20pharmacy%20Pearl%20City%20HI/@61.56929586514925,-150.80891300000008,9z?hl=en",
    "searchString": "independent pharmacy Pearl City HI",
    "language": "en",
    "rank": 5,
    "isAdvertisement": false,
    "imageUrl": "https://lh3.googleusercontent.com/p/AF1QipP8VW360ccpLmkf3sphg8x4Ecl_UGA84Sl9Ih4m=w408-h272-k-no",
    "kgmid": "/g/11mx0k13_w"
  },
  {
    "title": "Walmart Pharmacy",
    "price": "$",
    "categoryName": "Pharmacy",
    "address": "1131 Kuala St, Pearl City, HI 96782",
    "neighborhood": null,
    "street": "1131 Kuala St",
    "city": "Pearl City",
    "postalCode": "96782",
    "state": "Hawaii",
    "countryCode": "US",
    "website": "https://www.walmart.com/store/5274-pearl-city-hi/pharmacy/?veh=seo_loc",
    "phone": "(808) 454-8792",
    "phoneUnformatted": "+18084548792",
    "claimThisBusiness": false,
    "location": {
      "lat": 21.3971335,
      "lng": -157.9745329
    },
    "totalScore": 4.7,
    "permanentlyClosed": false,
    "temporarilyClosed": false,
    "placeId": "ChIJCw2rhA1mAHwRP6uZ6aAewx4",
    "categories": [
      "Pharmacy",
      "Herbal medicine store",
      "Medical supply store",
      "Parapharmacy",
      "Vitamin & supplements store"
    ],
    "fid": "0x7c00660d84ab0d0b:0x1ec31ea0e999ab3f",
    "cid": "2216649118059178815",
    "reviewsCount": 7,
    "imagesCount": 5,
    "imageCategories": [],
    "scrapedAt": "2025-06-22T07:33:27.330Z",
    "googleFoodUrl": null,
    "hotelAds": [],
    "openingHours": [
      {
        "day": "Monday",
        "hours": "9 AM to 7 PM"
      },
      {
        "day": "Tuesday",
        "hours": "9 AM to 7 PM"
      },
      {
        "day": "Wednesday",
        "hours": "9 AM to 7 PM"
      },
      {
        "day": "Thursday",
        "hours": "9 AM to 7 PM"
      },
      {
        "day": "Friday",
        "hours": "9 AM to 7 PM"
      },
      {
        "day": "Saturday",
        "hours": "9 AM to 7 PM"
      },
      {
        "day": "Sunday",
        "hours": "10 AM to 6 PM"
      }
    ],
    "peopleAlsoSearch": [],
    "placesTags": [],
    "reviewsTags": [],
    "additionalInfo": {
      "Service options": [
        {
          "Curbside pickup": true
        },
        {
          "Delivery": true
        },
        {
          "In-store pickup": true
        },
        {
          "In-store shopping": true
        }
      ],
      "Accessibility": [
        {
          "Wheelchair accessible entrance": true
        },
        {
          "Wheelchair accessible parking lot": true
        },
        {
          "Wheelchair accessible restroom": true
        }
      ],
      "Offerings": [
        {
          "Passport photos": true
        }
      ],
      "Amenities": [
        {
          "Wi-Fi": true
        },
        {
          "Free Wi-Fi": true
        }
      ],
      "Planning": [
        {
          "Quick visit": true
        }
      ],
      "Payments": [
        {
          "Credit cards": true
        },
        {
          "Debit cards": true
        },
        {
          "Credit cards": true
        }
      ]
    },
    "gasPrices": [],
    "url": "https://www.google.com/maps/search/?api=1&query=Walmart%20Pharmacy&query_place_id=ChIJCw2rhA1mAHwRP6uZ6aAewx4",
    "searchPageUrl": "https://www.google.com/maps/search/independent%20pharmacy%20Pearl%20City%20HI/@61.56929586514925,-150.80891300000008,9z?hl=en",
    "searchString": "independent pharmacy Pearl City HI",
    "language": "en",
    "rank": 6,
    "isAdvertisement": false,
    "imageUrl": "https://lh3.googleusercontent.com/p/AF1QipOXJZA2eGQ4m9SeSz-YpXcMvEkN8L8osy_A-JHP=w408-h306-k-no",
    "kgmid": "/g/1wbrx_cy"
  },
  {
    "title": "Times Pharmacy Waimalu",
    "price": null,
    "categoryName": "Pharmacy",
    "address": "98 1264 Kaʻahumanu St, Pearl City, HI 96782",
    "neighborhood": null,
    "street": "98 1264 Kaʻahumanu St",
    "city": "Pearl City",
    "postalCode": "96782",
    "state": "Hawaii",
    "countryCode": "US",
    "website": "https://www.mygnp.com/pharmacies/times-pharmacy-12-pearl-city-hi-96782/",
    "phone": "(808) 483-3078",
    "phoneUnformatted": "+18084833078",
    "claimThisBusiness": false,
    "location": {
      "lat": 21.3900344,
      "lng": -157.9543191
    },
    "totalScore": 4.3,
    "permanentlyClosed": false,
    "temporarilyClosed": false,
    "placeId": "ChIJxfgXAd5nAHwR01x9sY_xA0w",
    "categories": [
      "Pharmacy",
      "Drug store"
    ],
    "fid": "0x7c0067de0117f8c5:0x4c03f18fb17d5cd3",
    "cid": "5477487171273055443",
    "reviewsCount": 7,
    "imagesCount": 11,
    "imageCategories": [],
    "scrapedAt": "2025-06-22T07:33:27.678Z",
    "googleFoodUrl": null,
    "hotelAds": [],
    "openingHours": [
      {
        "day": "Monday",
        "hours": "9 AM to 1:30 PM, 2 to 6 PM"
      },
      {
        "day": "Tuesday",
        "hours": "9 AM to 1:30 PM, 2 to 6 PM"
      },
      {
        "day": "Wednesday",
        "hours": "9 AM to 1:30 PM, 2 to 6 PM"
      },
      {
        "day": "Thursday",
        "hours": "9 AM to 1:30 PM, 2 to 6 PM"
      },
      {
        "day": "Friday",
        "hours": "9 AM to 1:30 PM, 2 to 6 PM"
      },
      {
        "day": "Saturday",
        "hours": "9 AM to 1:30 PM, 2 to 5 PM"
      },
      {
        "day": "Sunday",
        "hours": "9 AM to 5 PM"
      }
    ],
    "peopleAlsoSearch": [],
    "placesTags": [],
    "reviewsTags": [],
    "additionalInfo": {
      "Service options": [
        {
          "Delivery": true
        },
        {
          "In-store pickup": true
        },
        {
          "In-store shopping": true
        },
        {
          "Onsite services": true
        }
      ],
      "Accessibility": [
        {
          "Wheelchair accessible entrance": true
        },
        {
          "Wheelchair accessible parking lot": true
        }
      ],
      "Planning": [
        {
          "Quick visit": true
        }
      ],
      "Payments": [
        {
          "Credit cards": true
        }
      ]
    },
    "gasPrices": [],
    "url": "https://www.google.com/maps/search/?api=1&query=Times%20Pharmacy%20Waimalu&query_place_id=ChIJxfgXAd5nAHwR01x9sY_xA0w",
    "searchPageUrl": "https://www.google.com/maps/search/independent%20pharmacy%20Pearl%20City%20HI/@63.653579074253855,-162.31690285675955,9z?hl=en",
    "searchString": "independent pharmacy Pearl City HI",
    "language": "en",
    "rank": 6,
    "isAdvertisement": false,
    "imageUrl": "https://lh3.googleusercontent.com/p/AF1QipMmWV08aPtMYj0V9zdbqghw3F5R5p8vC4x66ysd=w408-h272-k-no",
    "kgmid": "/g/11f6lqwj4l"
  },
  {
    "title": "Longs Drugs",
    "price": null,
    "categoryName": "Drug store",
    "address": "98-1005 Moanalua Rd Suite 400, Aiea, HI 96701",
    "neighborhood": null,
    "street": "98-1005 Moanalua Rd Suite 400",
    "city": "Aiea",
    "postalCode": "96701",
    "state": "Hawaii",
    "countryCode": "US",
    "website": "https://www.cvs.com/store-locator/aiea-hi-pharmacies/98-1005-moanalua-rd-400-aiea-hi-96701/storeid=9813?WT.mc_id=LS_GOOGLE_FS_9813",
    "phone": "(808) 488-0958",
    "phoneUnformatted": "+18084880958",
    "claimThisBusiness": false,
    "location": {
      "lat": 21.3826391,
      "lng": -157.9396469
    },
    "locatedIn": "CVS Photo",
    "totalScore": 3.7,
    "permanentlyClosed": false,
    "temporarilyClosed": false,
    "placeId": "ChIJiaPpiBppAHwRYiGrm0akdgc",
    "categories": [
      "Drug store",
      "Beauty supply store",
      "Beer store",
      "Convenience store",
      "Cosmetics store",
      "Greeting card shop",
      "Liquor store",
      "Perfume store",
      "Stationery store",
      "Vitamin & supplements store"
    ],
    "fid": "0x7c00691a88e9a389:0x776a4469bab2162",
    "cid": "537797828683702626",
    "reviewsCount": 79,
    "imagesCount": 89,
    "imageCategories": [],
    "scrapedAt": "2025-06-22T07:33:40.951Z",
    "googleFoodUrl": null,
    "hotelAds": [],
    "openingHours": [
      {
        "day": "Monday",
        "hours": "7 AM to 11 PM"
      },
      {
        "day": "Tuesday",
        "hours": "7 AM to 11 PM"
      },
      {
        "day": "Wednesday",
        "hours": "7 AM to 11 PM"
      },
      {
        "day": "Thursday",
        "hours": "7 AM to 11 PM"
      },
      {
        "day": "Friday",
        "hours": "7 AM to 11 PM"
      },
      {
        "day": "Saturday",
        "hours": "7 AM to 11 PM"
      },
      {
        "day": "Sunday",
        "hours": "7 AM to 11 PM"
      }
    ],
    "additionalOpeningHours": {
      "CVS Photo": [
        {
          "day": "Monday",
          "hours": "7 AM–11 PM"
        },
        {
          "day": "Tuesday",
          "hours": "7 AM–11 PM"
        },
        {
          "day": "Wednesday",
          "hours": "7 AM–11 PM"
        },
        {
          "day": "Thursday",
          "hours": "7 AM–11 PM"
        },
        {
          "day": "Friday",
          "hours": "7 AM–11 PM"
        },
        {
          "day": "Saturday",
          "hours": "7 AM–11 PM"
        },
        {
          "day": "Sunday",
          "hours": "7 AM–11 PM"
        }
      ],
      "MinuteClinic at CVS": [
        {
          "day": "Monday",
          "hours": "8 AM–7 PM"
        },
        {
          "day": "Tuesday",
          "hours": "8 AM–7 PM"
        },
        {
          "day": "Wednesday",
          "hours": "8 AM–7 PM"
        },
        {
          "day": "Thursday",
          "hours": "8 AM–7 PM"
        },
        {
          "day": "Friday",
          "hours": "8 AM–7 PM"
        },
        {
          "day": "Saturday",
          "hours": "9 AM–5:30 PM"
        },
        {
          "day": "Sunday",
          "hours": "9 AM–4:30 PM"
        }
      ]
    },
    "peopleAlsoSearch": [],
    "placesTags": [],
    "reviewsTags": [],
    "additionalInfo": {
      "Service options": [
        {
          "Delivery": true
        },
        {
          "In-store shopping": true
        },
        {
          "Onsite services": true
        },
        {
          "Same-day delivery": false
        }
      ],
      "Accessibility": [
        {
          "Wheelchair accessible entrance": true
        },
        {
          "Wheelchair accessible parking lot": true
        }
      ],
      "Offerings": [
        {
          "Passport photos": true
        }
      ],
      "Crowd": [
        {
          "LGBTQ+ friendly": true
        },
        {
          "Transgender safespace": true
        }
      ],
      "Planning": [
        {
          "Quick visit": true
        }
      ],
      "Payments": [
        {
          "Credit cards": true
        },
        {
          "Debit cards": true
        },
        {
          "NFC mobile payments": true
        },
        {
          "Credit cards": true
        }
      ]
    },
    "gasPrices": [],
    "url": "https://www.google.com/maps/search/?api=1&query=Longs%20Drugs&query_place_id=ChIJiaPpiBppAHwRYiGrm0akdgc",
    "searchPageUrl": "https://www.google.com/maps/search/independent%20pharmacy%20Pearl%20City%20HI/@-14.080964346836003,-169.55302799999998,12z?hl=en",
    "searchString": "independent pharmacy Pearl City HI",
    "language": "en",
    "rank": 4,
    "isAdvertisement": false,
    "imageUrl": "https://lh3.googleusercontent.com/gps-cs-s/AC9h4np4joyqiFE3u69Ecy0BaZx_QR5I2PnfbdQNT_OywuVfbq6vvSOx6ew_L2KwWbKf-SaQBVDgpwmr9G9e72IDTsuPrZC3maBsE9qO2Ox9bwl2X1W5vuN1VFxnJERHiIWAFgEVU3cY=w408-h306-k-no",
    "kgmid": "/g/11fk1scptx"
  }
]