[
  {
    "title": "Farmers Uptown Pharmacy",
    "price": null,
    "categoryName": "Pharmacy",
    "address": "2800 N Main St, Roswell, NM 88201",
    "neighborhood": null,
    "street": "2800 N Main St",
    "city": "Roswell",
    "postalCode": "88201",
    "state": "New Mexico",
    "countryCode": "US",
    "website": "https://www.mygnp.com/pharmacies/farmers-uptown-pharmacy-roswell-nm-88201/?utm_source=google&utm_medium=local&utm_campaign=localmaps&utm_content=3212608",
    "phone": "(575) 623-0830",
    "phoneUnformatted": "+15756230830",
    "claimThisBusiness": false,
    "location": {
      "lat": 33.4280278,
      "lng": -104.5235218
    },
    "totalScore": 4.7,
    "permanentlyClosed": false,
    "temporarilyClosed": false,
    "placeId": "ChIJhdsayVVu4oYRYDaeZcXXmls",
    "categories": [
      "Pharmacy",
      "Drug store"
    ],
    "fid": "0x86e26e55c91adb85:0x5b9ad7c5659e3660",
    "cid": "6600825446678279776",
    "reviewsCount": 43,
    "imagesCount": 11,
    "imageCategories": [],
    "scrapedAt": "2025-06-22T09:05:55.441Z",
    "googleFoodUrl": null,
    "hotelAds": [],
    "openingHours": [
      {
        "day": "Monday",
        "hours": "9 AM to 6 PM"
      },
      {
        "day": "Tuesday",
        "hours": "9 AM to 6 PM"
      },
      {
        "day": "Wednesday",
        "hours": "9 AM to 6 PM"
      },
      {
        "day": "Thursday",
        "hours": "9 AM to 6 PM"
      },
      {
        "day": "Friday",
        "hours": "9 AM to 6 PM"
      },
      {
        "day": "Saturday",
        "hours": "9 AM to 1 PM"
      },
      {
        "day": "Sunday",
        "hours": "Closed"
      }
    ],
    "peopleAlsoSearch": [],
    "placesTags": [],
    "reviewsTags": [],
    "additionalInfo": {
      "Service options": [
        {
          "Curbside pickup": true
        },
        {
          "In-store pickup": true
        },
        {
          "In-store shopping": true
        }
      ],
      "Accessibility": [
        {
          "Wheelchair accessible entrance": true
        },
        {
          "Wheelchair accessible parking lot": true
        }
      ],
      "Planning": [
        {
          "Quick visit": true
        }
      ],
      "Payments": [
        {
          "Credit cards": true
        },
        {
          "Debit cards": true
        },
        {
          "NFC mobile payments": true
        },
        {
          "Credit cards": true
        }
      ]
    },
    "gasPrices": [],
    "url": "https://www.google.com/maps/search/?api=1&query=Farmers%20Uptown%20Pharmacy&query_place_id=ChIJhdsayVVu4oYRYDaeZcXXmls",
    "searchPageUrl": "https://www.google.com/maps/search/independent%20pharmacy%20Roswell%20NM/@67.82214549246302,-146.20571705729628,9z?hl=en",
    "searchString": "independent pharmacy Roswell NM",
    "language": "en",
    "rank": 1,
    "isAdvertisement": false,
    "imageUrl": "https://lh3.googleusercontent.com/gps-cs-s/AC9h4np-OyO7OscA9LRHra75nuomSkM1GA9NKzw0AC4CJNujkWLZ2ygsOHIB4_wV2bN-2AIeNEKCoxooyOEOFafiOMUYnRn2IQCGO740f1AP2MyYVV6W3KLndNYDeu8VGwyD3JPfcR1GzQ=w408-h306-k-no",
    "kgmid": "/g/11cjkpcv6r"
  },
  {
    "title": "Albertsons Market Pharmacy",
    "price": null,
    "categoryName": "Pharmacy",
    "address": "1110 S Main St, Roswell, NM 88203",
    "neighborhood": null,
    "street": "1110 S Main St",
    "city": "Roswell",
    "postalCode": "88203",
    "state": "New Mexico",
    "countryCode": "US",
    "website": "https://local.pharmacy.albertsonsmarket.com/nm/roswell/1110-s-main-st.html",
    "phone": "(575) 622-7039",
    "phoneUnformatted": "+15756227039",
    "claimThisBusiness": false,
    "location": {
      "lat": 33.3809914,
      "lng": -104.5242628
    },
    "totalScore": 3.4,
    "permanentlyClosed": false,
    "temporarilyClosed": false,
    "placeId": "ChIJpzsUWitp4oYRD9LPZRSxzoQ",
    "categories": [
      "Pharmacy"
    ],
    "fid": "0x86e2692b5a143ba7:0x84ceb11465cfd20f",
    "cid": "9569780959374463503",
    "reviewsCount": 27,
    "imagesCount": 4,
    "imageCategories": [],
    "scrapedAt": "2025-06-22T09:05:55.442Z",
    "googleFoodUrl": null,
    "hotelAds": [],
    "openingHours": [
      {
        "day": "Monday",
        "hours": "9 AM to 7 PM"
      },
      {
        "day": "Tuesday",
        "hours": "9 AM to 7 PM"
      },
      {
        "day": "Wednesday",
        "hours": "9 AM to 7 PM"
      },
      {
        "day": "Thursday",
        "hours": "9 AM to 7 PM"
      },
      {
        "day": "Friday",
        "hours": "9 AM to 7 PM"
      },
      {
        "day": "Saturday",
        "hours": "9 AM to 1 PM"
      },
      {
        "day": "Sunday",
        "hours": "10 AM to 2 PM"
      }
    ],
    "peopleAlsoSearch": [],
    "placesTags": [],
    "reviewsTags": [],
    "additionalInfo": {
      "Service options": [
        {
          "In-store pickup": true
        }
      ],
      "Accessibility": [
        {
          "Wheelchair accessible entrance": true
        },
        {
          "Wheelchair accessible parking lot": true
        }
      ],
      "Planning": [
        {
          "Quick visit": true
        }
      ],
      "Payments": [
        {
          "Credit cards": true
        },
        {
          "Credit cards": true
        }
      ]
    },
    "gasPrices": [],
    "url": "https://www.google.com/maps/search/?api=1&query=Albertsons%20Market%20Pharmacy&query_place_id=ChIJpzsUWitp4oYRD9LPZRSxzoQ",
    "searchPageUrl": "https://www.google.com/maps/search/independent%20pharmacy%20Roswell%20NM/@67.82214549246302,-146.20571705729628,9z?hl=en",
    "searchString": "independent pharmacy Roswell NM",
    "language": "en",
    "rank": 2,
    "isAdvertisement": false,
    "imageUrl": "https://lh3.googleusercontent.com/p/AF1QipNaRA0JgRhEAsw-xYkrpPRFm_gXUM8JDua58HfR=w426-h240-k-no",
    "kgmid": "/g/1tghq0l7"
  },
  {
    "title": "CVS",
    "description": "Drugstore chain selling a variety of beauty & health products, plus some grocery & household items.",
    "price": null,
    "categoryName": "Drug store",
    "address": "700 N Union Ave, Roswell, NM 88201",
    "neighborhood": null,
    "street": "700 N Union Ave",
    "city": "Roswell",
    "postalCode": "88201",
    "state": "New Mexico",
    "countryCode": "US",
    "website": "https://www.cvs.com/store-locator/roswell-nm-pharmacies/700-n-union-ave-roswell-nm-88201/storeid=11332?WT.mc_id=LS_GOOGLE_FS_11332",
    "phone": "(575) 622-6571",
    "phoneUnformatted": "+15756226571",
    "claimThisBusiness": false,
    "location": {
      "lat": 33.4002502,
      "lng": -104.5365334
    },
    "locatedIn": "CVS Pharmacy",
    "totalScore": 4,
    "permanentlyClosed": false,
    "temporarilyClosed": false,
    "placeId": "ChIJ0Y5NRrdv4oYRlv_GiIvkLBY",
    "categories": [
      "Drug store",
      "Beauty supply store",
      "Convenience store",
      "Cosmetics store",
      "Greeting card shop",
      "Perfume store",
      "Stationery store",
      "Vitamin & supplements store"
    ],
    "fid": "0x86e26fb7464d8ed1:0x162ce48b88c6ff96",
    "cid": "1597903255756013462",
    "reviewsCount": 27,
    "imagesCount": 34,
    "imageCategories": [],
    "scrapedAt": "2025-06-22T09:05:55.442Z",
    "googleFoodUrl": null,
    "hotelAds": [],
    "openingHours": [
      {
        "day": "Monday",
        "hours": "9 AM to 7 PM"
      },
      {
        "day": "Tuesday",
        "hours": "9 AM to 7 PM"
      },
      {
        "day": "Wednesday",
        "hours": "9 AM to 7 PM"
      },
      {
        "day": "Thursday",
        "hours": "9 AM to 7 PM"
      },
      {
        "day": "Friday",
        "hours": "9 AM to 7 PM"
      },
      {
        "day": "Saturday",
        "hours": "10 AM to 12 AM"
      },
      {
        "day": "Sunday",
        "hours": "12 to 8 AM, 10 AM to 5 PM"
      }
    ],
    "additionalOpeningHours": {
      "CVS Pharmacy": [
        {
          "day": "Monday",
          "hours": "9 AM–1:30 PM"
        },
        {
          "day": "Tuesday",
          "hours": "9 AM–1:30 PM"
        },
        {
          "day": "Wednesday",
          "hours": "9 AM–1:30 PM"
        },
        {
          "day": "Thursday",
          "hours": "9 AM–1:30 PM"
        },
        {
          "day": "Friday",
          "hours": "9 AM–1:30 PM"
        },
        {
          "day": "Saturday",
          "hours": "10 AM–1:30 PM"
        },
        {
          "day": "Sunday",
          "hours": "11 AM–1:30 PM"
        }
      ],
      "CVS Photo": [
        {
          "day": "Monday",
          "hours": "9 AM–7 PM"
        },
        {
          "day": "Tuesday",
          "hours": "9 AM–7 PM"
        },
        {
          "day": "Wednesday",
          "hours": "9 AM–7 PM"
        },
        {
          "day": "Thursday",
          "hours": "9 AM–7 PM"
        },
        {
          "day": "Friday",
          "hours": "9 AM–7 PM"
        },
        {
          "day": "Saturday",
          "hours": "9 AM–6 PM"
        },
        {
          "day": "Sunday",
          "hours": "10 AM–4 PM"
        }
      ],
      "LibertyX Bitcoin ATM": [
        {
          "day": "Monday",
          "hours": "8 AM–10 PM"
        },
        {
          "day": "Tuesday",
          "hours": "8 AM–10 PM"
        },
        {
          "day": "Wednesday",
          "hours": "8 AM–10 PM"
        },
        {
          "day": "Thursday",
          "hours": "8 AM–10 PM"
        },
        {
          "day": "Friday",
          "hours": "8 AM–10 PM"
        },
        {
          "day": "Saturday",
          "hours": "8 AM–10 PM"
        },
        {
          "day": "Sunday",
          "hours": "8 AM–10 PM"
        }
      ]
    },
    "peopleAlsoSearch": [],
    "placesTags": [],
    "reviewsTags": [],
    "additionalInfo": {
      "Service options": [
        {
          "Delivery": true
        },
        {
          "Drive-through": true
        },
        {
          "In-store shopping": true
        },
        {
          "Onsite services": true
        },
        {
          "Same-day delivery": false
        }
      ],
      "Accessibility": [
        {
          "Wheelchair accessible entrance": true
        },
        {
          "Wheelchair accessible parking lot": true
        }
      ],
      "Offerings": [
        {
          "Passport photos": true
        }
      ],
      "Crowd": [
        {
          "LGBTQ+ friendly": true
        },
        {
          "Transgender safespace": true
        }
      ],
      "Planning": [
        {
          "Quick visit": true
        }
      ],
      "Payments": [
        {
          "Credit cards": true
        },
        {
          "Debit cards": true
        },
        {
          "Credit cards": true
        }
      ]
    },
    "gasPrices": [],
    "url": "https://www.google.com/maps/search/?api=1&query=CVS&query_place_id=ChIJ0Y5NRrdv4oYRlv_GiIvkLBY",
    "searchPageUrl": "https://www.google.com/maps/search/independent%20pharmacy%20Roswell%20NM/@67.82214549246302,-146.20571705729628,9z?hl=en",
    "searchString": "independent pharmacy Roswell NM",
    "language": "en",
    "rank": 3,
    "isAdvertisement": false,
    "imageUrl": "https://lh3.googleusercontent.com/gps-cs-s/AC9h4noMPziAgR59pouGogSZ6tw_q1Ep_I_bENLUJiGDSehpWxgmUk6HvRgBOUfaewnLC79UAh_TMCYcxxR_el44nn8p_uTkpvtruQJhRFmKyiJ51kikmcrCartA1Upck6XH4VlOZZ0Rtw=w408-h306-k-no",
    "kgmid": "/g/11gnnx80kx"
  },
  {
    "title": "Albertsons Market Pharmacy",
    "price": null,
    "categoryName": "Pharmacy",
    "address": "900 W 2nd St, Roswell, NM 88201",
    "neighborhood": null,
    "street": "900 W 2nd St",
    "city": "Roswell",
    "postalCode": "88201",
    "state": "New Mexico",
    "countryCode": "US",
    "website": "https://local.pharmacy.albertsonsmarket.com/nm/roswell/900-w-2nd-st.html",
    "phone": "(575) 622-1984",
    "phoneUnformatted": "+15756221984",
    "claimThisBusiness": false,
    "location": {
      "lat": 33.3933969,
      "lng": -104.5353956
    },
    "totalScore": 3.6,
    "permanentlyClosed": false,
    "temporarilyClosed": false,
    "placeId": "ChIJO6z2xcVu4oYRIqp-qu2nbVg",
    "categories": [
      "Pharmacy"
    ],
    "fid": "0x86e26ec5c5f6ac3b:0x586da7edaa7eaa22",
    "cid": "6371933687008635426",
    "reviewsCount": 20,
    "imagesCount": 3,
    "imageCategories": [],
    "scrapedAt": "2025-06-22T09:05:55.443Z",
    "googleFoodUrl": null,
    "hotelAds": [],
    "openingHours": [
      {
        "day": "Monday",
        "hours": "9 AM to 6 PM"
      },
      {
        "day": "Tuesday",
        "hours": "9 AM to 6 PM"
      },
      {
        "day": "Wednesday",
        "hours": "9 AM to 6 PM"
      },
      {
        "day": "Thursday",
        "hours": "9 AM to 6 PM"
      },
      {
        "day": "Friday",
        "hours": "9 AM to 6 PM"
      },
      {
        "day": "Saturday",
        "hours": "9 AM to 1 PM"
      },
      {
        "day": "Sunday",
        "hours": "Closed"
      }
    ],
    "peopleAlsoSearch": [],
    "placesTags": [],
    "reviewsTags": [],
    "additionalInfo": {
      "Service options": [
        {
          "Drive-through": true
        },
        {
          "In-store pickup": true
        }
      ],
      "Accessibility": [
        {
          "Wheelchair accessible entrance": true
        },
        {
          "Wheelchair accessible parking lot": true
        }
      ],
      "Planning": [
        {
          "Quick visit": true
        }
      ],
      "Payments": [
        {
          "Credit cards": true
        },
        {
          "Credit cards": true
        }
      ]
    },
    "gasPrices": [],
    "url": "https://www.google.com/maps/search/?api=1&query=Albertsons%20Market%20Pharmacy&query_place_id=ChIJO6z2xcVu4oYRIqp-qu2nbVg",
    "searchPageUrl": "https://www.google.com/maps/search/independent%20pharmacy%20Roswell%20NM/@67.82214549246302,-146.20571705729628,9z?hl=en",
    "searchString": "independent pharmacy Roswell NM",
    "language": "en",
    "rank": 4,
    "isAdvertisement": false,
    "imageUrl": "https://lh3.googleusercontent.com/p/AF1QipPr60QL0MkmV4JQXQUCSD9DdayVh-ecch8vSEIb=w426-h240-k-no",
    "kgmid": "/g/11cs3khv6n"
  },
  {
    "title": "Walgreens",
    "description": "Drugstore chain with health & beauty aids, prescriptions & photo services, plus mini-mart basics.",
    "price": null,
    "categoryName": "Drug store",
    "address": "1835 N Main St, Roswell, NM 88201",
    "neighborhood": null,
    "street": "1835 N Main St",
    "city": "Roswell",
    "postalCode": "88201",
    "state": "New Mexico",
    "countryCode": "US",
    "website": "https://www.walgreens.com/locator/walgreens-1835+n+main+st-roswell-nm-88201/id=5350",
    "phone": "(575) 624-0423",
    "phoneUnformatted": "+15756240423",
    "claimThisBusiness": false,
    "location": {
      "lat": 33.4155515,
      "lng": -104.5221233
    },
    "locatedIn": "Walgreens Pharmacy",
    "totalScore": 2.9,
    "permanentlyClosed": false,
    "temporarilyClosed": false,
    "placeId": "ChIJj0M3hqZv4oYRi3K9mT6IQbk",
    "categories": [
      "Drug store",
      "Beauty supply store",
      "Convenience store",
      "Cosmetics store",
      "Greeting card shop",
      "Perfume store",
      "Stationery store"
    ],
    "fid": "0x86e26fa68637438f:0xb941883e99bd728b",
    "cid": "13349100572951540363",
    "reviewsCount": 122,
    "imagesCount": 9,
    "imageCategories": [],
    "scrapedAt": "2025-06-22T09:05:55.443Z",
    "googleFoodUrl": null,
    "hotelAds": [],
    "openingHours": [
      {
        "day": "Monday",
        "hours": "Open 24 hours"
      },
      {
        "day": "Tuesday",
        "hours": "Open 24 hours"
      },
      {
        "day": "Wednesday",
        "hours": "Open 24 hours"
      },
      {
        "day": "Thursday",
        "hours": "Open 24 hours"
      },
      {
        "day": "Friday",
        "hours": "Open 24 hours"
      },
      {
        "day": "Saturday",
        "hours": "Open 24 hours"
      },
      {
        "day": "Sunday",
        "hours": "Open 24 hours"
      }
    ],
    "additionalOpeningHours": {
      "Walgreens Pharmacy": [
        {
          "day": "Monday",
          "hours": "9 AM–1:30 PM"
        },
        {
          "day": "Tuesday",
          "hours": "9 AM–1:30 PM"
        },
        {
          "day": "Wednesday",
          "hours": "9 AM–1:30 PM"
        },
        {
          "day": "Thursday",
          "hours": "9 AM–1:30 PM"
        },
        {
          "day": "Friday",
          "hours": "9 AM–1:30 PM"
        },
        {
          "day": "Saturday",
          "hours": "Closed"
        },
        {
          "day": "Sunday",
          "hours": "Closed"
        }
      ],
      "Walgreens Photo": [
        {
          "day": "Monday",
          "hours": "Open 24 hours"
        },
        {
          "day": "Tuesday",
          "hours": "Open 24 hours"
        },
        {
          "day": "Wednesday",
          "hours": "Open 24 hours"
        },
        {
          "day": "Thursday",
          "hours": "Open 24 hours"
        },
        {
          "day": "Friday",
          "hours": "Open 24 hours"
        },
        {
          "day": "Saturday",
          "hours": "Open 24 hours"
        },
        {
          "day": "Sunday",
          "hours": "Open 24 hours"
        }
      ],
      "Pickup": [
        {
          "day": "Monday",
          "hours": "Open 24 hours"
        },
        {
          "day": "Tuesday",
          "hours": "Open 24 hours"
        },
        {
          "day": "Wednesday",
          "hours": "Open 24 hours"
        },
        {
          "day": "Thursday",
          "hours": "Open 24 hours"
        },
        {
          "day": "Friday",
          "hours": "Open 24 hours"
        },
        {
          "day": "Saturday",
          "hours": "Open 24 hours"
        },
        {
          "day": "Sunday",
          "hours": "Open 24 hours"
        }
      ]
    },
    "peopleAlsoSearch": [],
    "placesTags": [],
    "reviewsTags": [],
    "additionalInfo": {
      "Service options": [
        {
          "Curbside pickup": true
        },
        {
          "Delivery": true
        },
        {
          "Drive-through": true
        },
        {
          "In-store pickup": true
        },
        {
          "Onsite services": true
        }
      ],
      "Accessibility": [
        {
          "Wheelchair accessible entrance": true
        },
        {
          "Wheelchair accessible parking lot": true
        }
      ],
      "Offerings": [
        {
          "Passport photos": true
        }
      ],
      "Planning": [
        {
          "Quick visit": true
        }
      ],
      "Payments": [
        {
          "Checks": true
        },
        {
          "Credit cards": true
        },
        {
          "Debit cards": true
        },
        {
          "NFC mobile payments": true
        },
        {
          "SNAP/EBT": true
        },
        {
          "Credit cards": true
        }
      ]
    },
    "gasPrices": [],
    "url": "https://www.google.com/maps/search/?api=1&query=Walgreens&query_place_id=ChIJj0M3hqZv4oYRi3K9mT6IQbk",
    "searchPageUrl": "https://www.google.com/maps/search/independent%20pharmacy%20Roswell%20NM/@67.82214549246302,-146.20571705729628,9z?hl=en",
    "searchString": "independent pharmacy Roswell NM",
    "language": "en",
    "rank": 5,
    "isAdvertisement": false,
    "imageUrl": "https://lh3.googleusercontent.com/gps-cs-s/AC9h4npFVL7AR56Rc_UbbMyaqEjlbW5bA4qg1KSmsZopylvUgm47uya6SF0ckHmPJjUd8E1rlS1rAaYKrlebv7O2M3LXFo3x4GtcQcDo8TZdaBqgXik2M3TorO6IE1RJ_SlHeHkp49kY=w408-h544-k-no",
    "kgmid": "/g/1tq6dygn"
  },
  {
    "title": "CVS Pharmacy",
    "price": null,
    "categoryName": "Pharmacy",
    "address": "700 N Union Ave, Roswell, NM 88201",
    "neighborhood": null,
    "street": "700 N Union Ave",
    "city": "Roswell",
    "postalCode": "88201",
    "state": "New Mexico",
    "countryCode": "US",
    "website": "https://www.cvs.com/store-locator/roswell-nm-pharmacies/700-n-union-ave-roswell-nm-88201/storeid=11332?WT.mc_id=LS_GOOGLE_RX_11332",
    "phone": "(575) 622-6571",
    "phoneUnformatted": "+15756226571",
    "claimThisBusiness": false,
    "location": {
      "lat": 33.400207,
      "lng": -104.5365396
    },
    "totalScore": 4.9,
    "permanentlyClosed": false,
    "temporarilyClosed": false,
    "placeId": "ChIJi87qvgxv4oYROKO542yZH4Q",
    "categories": [
      "Pharmacy"
    ],
    "fid": "0x86e26f0cbeeace8b:0x841f996ce3b9a338",
    "cid": "9520496830240629560",
    "reviewsCount": 20,
    "imagesCount": 7,
    "imageCategories": [],
    "scrapedAt": "2025-06-22T09:05:55.443Z",
    "googleFoodUrl": null,
    "hotelAds": [],
    "openingHours": [
      {
        "day": "Monday",
        "hours": "9 AM to 1:30 PM, 2 to 7 PM"
      },
      {
        "day": "Tuesday",
        "hours": "9 AM to 1:30 PM, 2 to 7 PM"
      },
      {
        "day": "Wednesday",
        "hours": "9 AM to 1:30 PM, 2 to 7 PM"
      },
      {
        "day": "Thursday",
        "hours": "9 AM to 1:30 PM, 2 to 7 PM"
      },
      {
        "day": "Friday",
        "hours": "9 AM to 1:30 PM, 2 to 7 PM"
      },
      {
        "day": "Saturday",
        "hours": "10 AM to 1:30 PM, 2 to 6 PM"
      },
      {
        "day": "Sunday",
        "hours": "11 AM to 1:30 PM, 2 to 5 PM"
      }
    ],
    "peopleAlsoSearch": [],
    "placesTags": [],
    "reviewsTags": [],
    "additionalInfo": {
      "Service options": [
        {
          "Delivery": true
        },
        {
          "Drive-through": true
        },
        {
          "In-store shopping": true
        }
      ],
      "Accessibility": [
        {
          "Wheelchair accessible entrance": true
        },
        {
          "Wheelchair accessible parking lot": true
        }
      ],
      "Offerings": [
        {
          "Naloxone": true
        }
      ],
      "Crowd": [
        {
          "LGBTQ+ friendly": true
        },
        {
          "Transgender safespace": true
        }
      ],
      "Planning": [
        {
          "Quick visit": true
        }
      ],
      "Payments": [
        {
          "Credit cards": true
        },
        {
          "Debit cards": true
        },
        {
          "NFC mobile payments": true
        },
        {
          "SNAP/EBT": true
        },
        {
          "Credit cards": true
        }
      ]
    },
    "gasPrices": [],
    "url": "https://www.google.com/maps/search/?api=1&query=CVS%20Pharmacy&query_place_id=ChIJi87qvgxv4oYROKO542yZH4Q",
    "searchPageUrl": "https://www.google.com/maps/search/independent%20pharmacy%20Roswell%20NM/@67.82214549246302,-146.20571705729628,9z?hl=en",
    "searchString": "independent pharmacy Roswell NM",
    "language": "en",
    "rank": 6,
    "isAdvertisement": false,
    "imageUrl": "https://lh3.googleusercontent.com/p/AF1QipOQCuQFjl0fCCPXSyMKhHRTfQSwWXyR76CEZw2F=w408-h272-k-no",
    "kgmid": "/g/11fj852k12"
  },
  {
    "title": "Walgreens Pharmacy",
    "description": "Department of the Walgreens chain providing prescription medications & other health-related items.",
    "price": "$$",
    "categoryName": "Pharmacy",
    "address": "1200 S Main St, Roswell, NM 88203",
    "neighborhood": null,
    "street": "1200 S Main St",
    "city": "Roswell",
    "postalCode": "88203",
    "state": "New Mexico",
    "countryCode": "US",
    "website": "https://www.walgreens.com/locator/walgreens-1200+s+main+st-roswell-nm-88203/id=1941",
    "phone": "(575) 624-1439",
    "phoneUnformatted": "+15756241439",
    "claimThisBusiness": false,
    "location": {
      "lat": 33.37937,
      "lng": -104.5233605
    },
    "totalScore": 3.2,
    "permanentlyClosed": false,
    "temporarilyClosed": false,
    "placeId": "ChIJJb3GdCtp4oYRaM1iy0dAaDw",
    "categories": [
      "Pharmacy"
    ],
    "fid": "0x86e2692b74c6bd25:0x3c684047cb62cd68",
    "cid": "4352799716952690024",
    "reviewsCount": 24,
    "imagesCount": 3,
    "imageCategories": [],
    "scrapedAt": "2025-06-22T09:05:55.444Z",
    "googleFoodUrl": null,
    "hotelAds": [],
    "openingHours": [
      {
        "day": "Monday",
        "hours": "9 AM to 1:30 PM, 2 to 9 PM"
      },
      {
        "day": "Tuesday",
        "hours": "9 AM to 1:30 PM, 2 to 9 PM"
      },
      {
        "day": "Wednesday",
        "hours": "9 AM to 1:30 PM, 2 to 9 PM"
      },
      {
        "day": "Thursday",
        "hours": "9 AM to 1:30 PM, 2 to 9 PM"
      },
      {
        "day": "Friday",
        "hours": "9 AM to 1:30 PM, 2 to 9 PM"
      },
      {
        "day": "Saturday",
        "hours": "10 AM to 1:30 PM, 2 to 6 PM"
      },
      {
        "day": "Sunday",
        "hours": "10 AM to 1:30 PM, 2 to 6 PM"
      }
    ],
    "additionalOpeningHours": {
      "Drive through": [
        {
          "day": "Monday",
          "hours": "9 AM–1:30 PM"
        },
        {
          "day": "Tuesday",
          "hours": "9 AM–1:30 PM"
        },
        {
          "day": "Wednesday",
          "hours": "9 AM–1:30 PM"
        },
        {
          "day": "Thursday",
          "hours": "9 AM–1:30 PM"
        },
        {
          "day": "Friday",
          "hours": "9 AM–1:30 PM"
        },
        {
          "day": "Saturday",
          "hours": "10 AM–1:30 PM"
        },
        {
          "day": "Sunday",
          "hours": "10 AM–1:30 PM"
        }
      ]
    },
    "peopleAlsoSearch": [],
    "placesTags": [],
    "reviewsTags": [],
    "additionalInfo": {
      "Service options": [
        {
          "Drive-through": true
        },
        {
          "In-store pickup": true
        },
        {
          "Onsite services": true
        }
      ],
      "Accessibility": [
        {
          "Wheelchair accessible entrance": true
        },
        {
          "Wheelchair accessible parking lot": true
        }
      ],
      "Offerings": [
        {
          "Naloxone": true
        }
      ],
      "Planning": [
        {
          "Quick visit": true
        }
      ],
      "Payments": [
        {
          "Checks": true
        },
        {
          "Credit cards": true
        },
        {
          "Debit cards": true
        }
      ]
    },
    "gasPrices": [],
    "url": "https://www.google.com/maps/search/?api=1&query=Walgreens%20Pharmacy&query_place_id=ChIJJb3GdCtp4oYRaM1iy0dAaDw",
    "searchPageUrl": "https://www.google.com/maps/search/independent%20pharmacy%20Roswell%20NM/@67.82214549246302,-146.20571705729628,9z?hl=en",
    "searchString": "independent pharmacy Roswell NM",
    "language": "en",
    "rank": 7,
    "isAdvertisement": false,
    "imageUrl": "https://lh3.googleusercontent.com/p/AF1QipOhQzGBD1HVDiAEGQflNKfcA-729peJbfOtKHtN=w525-h240-k-no",
    "kgmid": "/g/11cn94mbbd"
  },
  {
    "title": "Walgreens Pharmacy",
    "description": "Department of the Walgreens chain providing prescription medications & other health-related items.",
    "price": "$$",
    "categoryName": "Pharmacy",
    "address": "1835 N Main St, Roswell, NM 88201",
    "neighborhood": null,
    "street": "1835 N Main St",
    "city": "Roswell",
    "postalCode": "88201",
    "state": "New Mexico",
    "countryCode": "US",
    "website": "https://www.walgreens.com/locator/walgreens-1835+n+main+st-roswell-nm-88201/id=5350",
    "phone": "(575) 624-0423",
    "phoneUnformatted": "+15756240423",
    "claimThisBusiness": false,
    "location": {
      "lat": 33.4155672,
      "lng": -104.5221019
    },
    "totalScore": 3.4,
    "permanentlyClosed": false,
    "temporarilyClosed": false,
    "placeId": "ChIJR8pA1_xu4oYRROGbZXodaeg",
    "categories": [
      "Pharmacy"
    ],
    "fid": "0x86e26efcd740ca47:0xe8691d7a659be144",
    "cid": "16746949100881830212",
    "reviewsCount": 34,
    "imagesCount": 3,
    "imageCategories": [],
    "scrapedAt": "2025-06-22T09:05:55.444Z",
    "googleFoodUrl": null,
    "hotelAds": [],
    "openingHours": [
      {
        "day": "Monday",
        "hours": "9 AM to 1:30 PM, 2 to 6 PM"
      },
      {
        "day": "Tuesday",
        "hours": "9 AM to 1:30 PM, 2 to 6 PM"
      },
      {
        "day": "Wednesday",
        "hours": "9 AM to 1:30 PM, 2 to 6 PM"
      },
      {
        "day": "Thursday",
        "hours": "9 AM to 1:30 PM, 2 to 6 PM"
      },
      {
        "day": "Friday",
        "hours": "9 AM to 1:30 PM, 2 to 6 PM"
      },
      {
        "day": "Saturday",
        "hours": "Closed"
      },
      {
        "day": "Sunday",
        "hours": "Closed"
      }
    ],
    "additionalOpeningHours": {
      "Drive through": [
        {
          "day": "Monday",
          "hours": "9 AM–1:30 PM"
        },
        {
          "day": "Tuesday",
          "hours": "9 AM–1:30 PM"
        },
        {
          "day": "Wednesday",
          "hours": "9 AM–1:30 PM"
        },
        {
          "day": "Thursday",
          "hours": "9 AM–1:30 PM"
        },
        {
          "day": "Friday",
          "hours": "9 AM–1:30 PM"
        },
        {
          "day": "Saturday",
          "hours": "Closed"
        },
        {
          "day": "Sunday",
          "hours": "Closed"
        }
      ]
    },
    "peopleAlsoSearch": [],
    "placesTags": [],
    "reviewsTags": [],
    "additionalInfo": {
      "Service options": [
        {
          "Drive-through": true
        },
        {
          "In-store pickup": true
        }
      ],
      "Accessibility": [
        {
          "Wheelchair accessible entrance": true
        },
        {
          "Wheelchair accessible parking lot": true
        }
      ],
      "Offerings": [
        {
          "Medication disposal": true
        },
        {
          "Naloxone": true
        }
      ],
      "Planning": [
        {
          "Quick visit": true
        }
      ],
      "Payments": [
        {
          "Checks": true
        },
        {
          "Credit cards": true
        },
        {
          "Debit cards": true
        }
      ]
    },
    "gasPrices": [],
    "url": "https://www.google.com/maps/search/?api=1&query=Walgreens%20Pharmacy&query_place_id=ChIJR8pA1_xu4oYRROGbZXodaeg",
    "searchPageUrl": "https://www.google.com/maps/search/independent%20pharmacy%20Roswell%20NM/@67.82214549246302,-146.20571705729628,9z?hl=en",
    "searchString": "independent pharmacy Roswell NM",
    "language": "en",
    "rank": 8,
    "isAdvertisement": false,
    "imageUrl": "https://lh3.googleusercontent.com/p/AF1QipOYQdzqkmrmBuImRzbmB-aB60xbkjWRpIOgw0En=w525-h240-k-no",
    "kgmid": "/g/11cn976nfk"
  },
  {
    "title": "Walmart Pharmacy",
    "price": "$",
    "categoryName": "Pharmacy",
    "address": "4500 N Main St A, Roswell, NM 88201",
    "neighborhood": null,
    "street": "4500 N Main St A",
    "city": "Roswell",
    "postalCode": "88201",
    "state": "New Mexico",
    "countryCode": "US",
    "website": "https://www.walmart.com/store/611-roswell-nm/pharmacy/?veh=seo_loc",
    "phone": "(575) 622-3812",
    "phoneUnformatted": "+15756223812",
    "claimThisBusiness": false,
    "location": {
      "lat": 33.4495339,
      "lng": -104.5254745
    },
    "totalScore": 3.4,
    "permanentlyClosed": false,
    "temporarilyClosed": false,
    "placeId": "ChIJJ2eQKQ524oYRS1cRxt-vSGk",
    "categories": [
      "Pharmacy",
      "Herbal medicine store",
      "Medical supply store",
      "Parapharmacy",
      "Vitamin & supplements store"
    ],
    "fid": "0x86e2760e29906727:0x6948afdfc611574b",
    "cid": "7586506947941193547",
    "reviewsCount": 28,
    "imagesCount": 5,
    "imageCategories": [],
    "scrapedAt": "2025-06-22T09:05:55.444Z",
    "googleFoodUrl": null,
    "hotelAds": [],
    "openingHours": [
      {
        "day": "Monday",
        "hours": "9 AM to 7 PM"
      },
      {
        "day": "Tuesday",
        "hours": "9 AM to 7 PM"
      },
      {
        "day": "Wednesday",
        "hours": "9 AM to 7 PM"
      },
      {
        "day": "Thursday",
        "hours": "9 AM to 7 PM"
      },
      {
        "day": "Friday",
        "hours": "9 AM to 7 PM"
      },
      {
        "day": "Saturday",
        "hours": "9 AM to 7 PM"
      },
      {
        "day": "Sunday",
        "hours": "10 AM to 6 PM"
      }
    ],
    "peopleAlsoSearch": [],
    "placesTags": [],
    "reviewsTags": [],
    "additionalInfo": {
      "Service options": [
        {
          "In-store pickup": true
        },
        {
          "In-store shopping": true
        },
        {
          "Onsite services": true
        }
      ],
      "Accessibility": [
        {
          "Wheelchair accessible entrance": true
        },
        {
          "Wheelchair accessible parking lot": true
        },
        {
          "Wheelchair accessible restroom": true
        }
      ],
      "Offerings": [
        {
          "Passport photos": true
        }
      ],
      "Amenities": [
        {
          "Wi-Fi": true
        },
        {
          "Free Wi-Fi": true
        }
      ],
      "Planning": [
        {
          "Quick visit": true
        }
      ],
      "Payments": [
        {
          "Credit cards": true
        },
        {
          "Debit cards": true
        },
        {
          "Credit cards": true
        }
      ]
    },
    "gasPrices": [],
    "url": "https://www.google.com/maps/search/?api=1&query=Walmart%20Pharmacy&query_place_id=ChIJJ2eQKQ524oYRS1cRxt-vSGk",
    "searchPageUrl": "https://www.google.com/maps/search/independent%20pharmacy%20Roswell%20NM/@67.82214549246302,-146.20571705729628,9z?hl=en",
    "searchString": "independent pharmacy Roswell NM",
    "language": "en",
    "rank": 9,
    "isAdvertisement": false,
    "imageUrl": "https://lh3.googleusercontent.com/p/AF1QipNSN72zvtrC6wyqH076WSw5k6EjwnEwhh9iKDd5=w408-h306-k-no",
    "kgmid": "/g/11r8_w505"
  },
  {
    "title": "Sam's Club Pharmacy",
    "price": "$",
    "categoryName": "Pharmacy",
    "address": "4400 N Main St, Roswell, NM 88201",
    "neighborhood": null,
    "street": "4400 N Main St",
    "city": "Roswell",
    "postalCode": "88201",
    "state": "New Mexico",
    "countryCode": "US",
    "website": "https://www.samsclub.com/local/pharmacy/roswell-nm-sams-club/4961",
    "phone": "(575) 627-9866",
    "phoneUnformatted": "+15756279866",
    "claimThisBusiness": false,
    "location": {
      "lat": 33.4476895,
      "lng": -104.5265667
    },
    "totalScore": 4.8,
    "permanentlyClosed": false,
    "temporarilyClosed": false,
    "placeId": "ChIJQ9EMNjRu4oYR24rNhYf45SI",
    "categories": [
      "Pharmacy"
    ],
    "fid": "0x86e26e34360cd143:0x22e5f88785cd8adb",
    "cid": "2514689227905403611",
    "reviewsCount": 12,
    "imagesCount": 8,
    "imageCategories": [],
    "scrapedAt": "2025-06-22T09:05:55.444Z",
    "googleFoodUrl": null,
    "hotelAds": [],
    "openingHours": [
      {
        "day": "Monday",
        "hours": "9 AM to 7 PM"
      },
      {
        "day": "Tuesday",
        "hours": "9 AM to 7 PM"
      },
      {
        "day": "Wednesday",
        "hours": "9 AM to 7 PM"
      },
      {
        "day": "Thursday",
        "hours": "9 AM to 7 PM"
      },
      {
        "day": "Friday",
        "hours": "9 AM to 7 PM"
      },
      {
        "day": "Saturday",
        "hours": "9 AM to 6 PM"
      },
      {
        "day": "Sunday",
        "hours": "Closed"
      }
    ],
    "peopleAlsoSearch": [],
    "placesTags": [],
    "reviewsTags": [],
    "additionalInfo": {
      "Service options": [
        {
          "Curbside pickup": true
        },
        {
          "Delivery": true
        },
        {
          "In-store pickup": true
        },
        {
          "In-store shopping": true
        },
        {
          "Onsite services": true
        },
        {
          "Same-day delivery": true
        }
      ],
      "Accessibility": [
        {
          "Wheelchair accessible entrance": true
        },
        {
          "Wheelchair accessible parking lot": true
        }
      ],
      "Planning": [
        {
          "Quick visit": true
        }
      ],
      "Payments": [
        {
          "Credit cards": true
        },
        {
          "Debit cards": true
        },
        {
          "Credit cards": true
        }
      ]
    },
    "gasPrices": [],
    "url": "https://www.google.com/maps/search/?api=1&query=Sam's%20Club%20Pharmacy&query_place_id=ChIJQ9EMNjRu4oYR24rNhYf45SI",
    "searchPageUrl": "https://www.google.com/maps/search/independent%20pharmacy%20Roswell%20NM/@67.82214549246302,-146.20571705729628,9z?hl=en",
    "searchString": "independent pharmacy Roswell NM",
    "language": "en",
    "rank": 10,
    "isAdvertisement": false,
    "imageUrl": "https://lh3.googleusercontent.com/p/AF1QipPzDO6gPFAvWlk0wdDWJpkeWwfVFlbTfK5ws6Q=w408-h272-k-no",
    "kgmid": "/g/1hc72m_tb"
  },
  {
    "title": "Walgreens",
    "description": "Drugstore chain with health & beauty aids, prescriptions & photo services, plus mini-mart basics.",
    "price": "$$",
    "categoryName": "Drug store",
    "address": "1200 S Main St, Roswell, NM 88203",
    "neighborhood": null,
    "street": "1200 S Main St",
    "city": "Roswell",
    "postalCode": "88203",
    "state": "New Mexico",
    "countryCode": "US",
    "website": "https://www.walgreens.com/locator/walgreens-1200+s+main+st-roswell-nm-88203/id=1941",
    "phone": "(575) 624-1439",
    "phoneUnformatted": "+15756241439",
    "claimThisBusiness": false,
    "location": {
      "lat": 33.3793644,
      "lng": -104.5233732
    },
    "locatedIn": "Walgreens Pharmacy",
    "totalScore": 3.4,
    "permanentlyClosed": false,
    "temporarilyClosed": false,
    "placeId": "ChIJJcUHCStp4oYR2WZYh1098Ec",
    "categories": [
      "Drug store",
      "Beauty supply store",
      "Convenience store",
      "Cosmetics store",
      "Greeting card shop",
      "Perfume store",
      "Stationery store"
    ],
    "fid": "0x86e2692b0907c525:0x47f03d5d875866d9",
    "cid": "5183710643015411417",
    "reviewsCount": 56,
    "imagesCount": 13,
    "imageCategories": [],
    "scrapedAt": "2025-06-22T09:05:55.444Z",
    "googleFoodUrl": null,
    "hotelAds": [],
    "openingHours": [
      {
        "day": "Monday",
        "hours": "7 AM to 11 PM"
      },
      {
        "day": "Tuesday",
        "hours": "7 AM to 11 PM"
      },
      {
        "day": "Wednesday",
        "hours": "7 AM to 11 PM"
      },
      {
        "day": "Thursday",
        "hours": "7 AM to 11 PM"
      },
      {
        "day": "Friday",
        "hours": "7 AM to 11 PM"
      },
      {
        "day": "Saturday",
        "hours": "7 AM to 11 PM"
      },
      {
        "day": "Sunday",
        "hours": "8 AM to 10 PM"
      }
    ],
    "additionalOpeningHours": {
      "Walgreens Pharmacy": [
        {
          "day": "Monday",
          "hours": "9 AM–1:30 PM"
        },
        {
          "day": "Tuesday",
          "hours": "9 AM–1:30 PM"
        },
        {
          "day": "Wednesday",
          "hours": "9 AM–1:30 PM"
        },
        {
          "day": "Thursday",
          "hours": "9 AM–1:30 PM"
        },
        {
          "day": "Friday",
          "hours": "9 AM–1:30 PM"
        },
        {
          "day": "Saturday",
          "hours": "10 AM–1:30 PM"
        },
        {
          "day": "Sunday",
          "hours": "10 AM–1:30 PM"
        }
      ],
      "Walgreens Photo": [
        {
          "day": "Monday",
          "hours": "7 AM–11 PM"
        },
        {
          "day": "Tuesday",
          "hours": "7 AM–11 PM"
        },
        {
          "day": "Wednesday",
          "hours": "7 AM–11 PM"
        },
        {
          "day": "Thursday",
          "hours": "7 AM–11 PM"
        },
        {
          "day": "Friday",
          "hours": "7 AM–11 PM"
        },
        {
          "day": "Saturday",
          "hours": "7 AM–11 PM"
        },
        {
          "day": "Sunday",
          "hours": "8 AM–10 PM"
        }
      ],
      "Pickup": [
        {
          "day": "Monday",
          "hours": "7 AM–11 PM"
        },
        {
          "day": "Tuesday",
          "hours": "7 AM–11 PM"
        },
        {
          "day": "Wednesday",
          "hours": "7 AM–11 PM"
        },
        {
          "day": "Thursday",
          "hours": "7 AM–11 PM"
        },
        {
          "day": "Friday",
          "hours": "7 AM–11 PM"
        },
        {
          "day": "Saturday",
          "hours": "7 AM–11 PM"
        },
        {
          "day": "Sunday",
          "hours": "8 AM–10 PM"
        }
      ]
    },
    "peopleAlsoSearch": [],
    "placesTags": [],
    "reviewsTags": [],
    "additionalInfo": {
      "Service options": [
        {
          "Curbside pickup": true
        },
        {
          "Delivery": true
        },
        {
          "Drive-through": true
        },
        {
          "In-store pickup": true
        },
        {
          "Onsite services": true
        }
      ],
      "Accessibility": [
        {
          "Wheelchair accessible entrance": true
        },
        {
          "Wheelchair accessible parking lot": true
        }
      ],
      "Offerings": [
        {
          "Passport photos": true
        }
      ],
      "Planning": [
        {
          "Quick visit": true
        }
      ],
      "Payments": [
        {
          "Checks": true
        },
        {
          "Credit cards": true
        },
        {
          "Debit cards": true
        },
        {
          "NFC mobile payments": true
        },
        {
          "SNAP/EBT": true
        },
        {
          "Credit cards": true
        }
      ]
    },
    "gasPrices": [],
    "url": "https://www.google.com/maps/search/?api=1&query=Walgreens&query_place_id=ChIJJcUHCStp4oYR2WZYh1098Ec",
    "searchPageUrl": "https://www.google.com/maps/search/independent%20pharmacy%20Roswell%20NM/@67.82214549246302,-146.20571705729628,9z?hl=en",
    "searchString": "independent pharmacy Roswell NM",
    "language": "en",
    "rank": 11,
    "isAdvertisement": false,
    "imageUrl": "https://lh3.googleusercontent.com/gps-cs-s/AC9h4nr0eDO7PQBCjZfwyvjFz86CtvogsWOTbh03tBjXGHE1XVpWMScruUtHLm1R5c4wWzvITNoQU8HWpD4zfu_3-kaVxUYve4jo125yMyR4BaKw1dPgeC_46YOhOkbQ9x9HS-SEzdA4NQ=w426-h240-k-no",
    "kgmid": "/g/1tj1sjqj"
  },
  {
    "title": "Red Apple Pharmacy",
    "price": null,
    "categoryName": "Pharmacy",
    "address": "1580 Holcomb Bridge Rd #17A, Roswell, GA 30076",
    "neighborhood": null,
    "street": "1580 Holcomb Bridge Rd #17A",
    "city": "Roswell",
    "postalCode": "30076",
    "state": "Georgia",
    "countryCode": "US",
    "website": "http://www.redapplepharmacy.com/",
    "phone": "(770) 518-8870",
    "phoneUnformatted": "+17705188870",
    "claimThisBusiness": false,
    "location": {
      "lat": 34.0168135,
      "lng": -84.3098351
    },
    "totalScore": 4.9,
    "permanentlyClosed": false,
    "temporarilyClosed": false,
    "placeId": "ChIJwXkk7ioL9YgROoOFULhiojo",
    "categories": [
      "Pharmacy"
    ],
    "fid": "0x88f50b2aee2479c1:0x3aa262b85085833a",
    "cid": "4225047944191378234",
    "reviewsCount": 49,
    "imagesCount": 28,
    "imageCategories": [],
    "scrapedAt": "2025-06-22T09:05:55.445Z",
    "googleFoodUrl": null,
    "hotelAds": [],
    "openingHours": [
      {
        "day": "Monday",
        "hours": "9 AM to 6 PM"
      },
      {
        "day": "Tuesday",
        "hours": "9 AM to 6 PM"
      },
      {
        "day": "Wednesday",
        "hours": "9 AM to 6 PM"
      },
      {
        "day": "Thursday",
        "hours": "9 AM to 6 PM"
      },
      {
        "day": "Friday",
        "hours": "9 AM to 6 PM"
      },
      {
        "day": "Saturday",
        "hours": "10 AM to 3 PM"
      },
      {
        "day": "Sunday",
        "hours": "Closed"
      }
    ],
    "peopleAlsoSearch": [],
    "placesTags": [],
    "reviewsTags": [],
    "additionalInfo": {
      "From the business": [
        {
          "Identifies as Black-owned": true
        },
        {
          "Small business": true
        }
      ],
      "Service options": [
        {
          "Curbside pickup": true
        },
        {
          "In-store pickup": true
        },
        {
          "In-store shopping": true
        }
      ],
      "Accessibility": [
        {
          "Wheelchair accessible entrance": true
        },
        {
          "Wheelchair accessible parking lot": true
        }
      ],
      "Amenities": [
        {
          "Wi-Fi": true
        },
        {
          "Free Wi-Fi": true
        }
      ],
      "Planning": [
        {
          "Quick visit": true
        }
      ],
      "Payments": [
        {
          "Checks": true
        },
        {
          "Credit cards": true
        },
        {
          "Debit cards": true
        },
        {
          "NFC mobile payments": true
        },
        {
          "Credit cards": true
        }
      ]
    },
    "gasPrices": [],
    "url": "https://www.google.com/maps/search/?api=1&query=Red%20Apple%20Pharmacy&query_place_id=ChIJwXkk7ioL9YgROoOFULhiojo",
    "searchPageUrl": "https://www.google.com/maps/search/independent%20pharmacy%20Roswell%20NM/@67.82214549246302,-146.20571705729628,9z?hl=en",
    "searchString": "independent pharmacy Roswell NM",
    "language": "en",
    "rank": 12,
    "isAdvertisement": false,
    "imageUrl": "https://lh3.googleusercontent.com/p/AF1QipOooJuyZKIORbvRETN6jaJPFJZN7pQupaRSBFe4=w408-h306-k-no",
    "kgmid": "/g/11c72k72b7"
  },
  {
    "title": "The Medicine Shop",
    "price": null,
    "categoryName": "Pharmacy",
    "address": "1010 S Main St, Roswell, NM 88203",
    "neighborhood": null,
    "street": "1010 S Main St",
    "city": "Roswell",
    "postalCode": "88203",
    "state": "New Mexico",
    "countryCode": "US",
    "website": "https://stores.healthmart.com/Default.aspx?alias=stores.healthmart.com/TheMedicineShopPharmacy",
    "phone": "(575) 623-3900",
    "phoneUnformatted": "+15756233900",
    "claimThisBusiness": true,
    "location": {
      "lat": 33.3833461,
      "lng": -104.5228071
    },
    "totalScore": 5,
    "permanentlyClosed": true,
    "temporarilyClosed": false,
    "placeId": "ChIJ_Ufa6dRu4oYRbGQ_QPmDDAo",
    "categories": [
      "Pharmacy"
    ],
    "fid": "0x86e26ed4e9da47fd:0xa0c83f9403f646c",
    "cid": "724098746647798892",
    "reviewsCount": 1,
    "imagesCount": 1,
    "imageCategories": [],
    "scrapedAt": "2025-06-22T09:05:55.445Z",
    "googleFoodUrl": null,
    "hotelAds": [],
    "openingHours": [],
    "peopleAlsoSearch": [],
    "placesTags": [],
    "reviewsTags": [],
    "additionalInfo": {
      "Accessibility": [
        {
          "Wheelchair accessible entrance": true
        },
        {
          "Wheelchair accessible parking lot": true
        }
      ],
      "Planning": [
        {
          "Quick visit": true
        }
      ]
    },
    "gasPrices": [],
    "url": "https://www.google.com/maps/search/?api=1&query=The%20Medicine%20Shop&query_place_id=ChIJ_Ufa6dRu4oYRbGQ_QPmDDAo",
    "searchPageUrl": "https://www.google.com/maps/search/independent%20pharmacy%20Roswell%20NM/@67.82214549246302,-146.20571705729628,9z?hl=en",
    "searchString": "independent pharmacy Roswell NM",
    "language": "en",
    "rank": 13,
    "isAdvertisement": false,
    "imageUrl": "https://streetviewpixels-pa.googleapis.com/v1/thumbnail?panoid=VWc6jrUSrdklQaDs1qDpNA&cb_client=search.gws-prod.gps&w=408&h=240&yaw=355.7193&pitch=0&thumbfov=100",
    "kgmid": "/g/1tcvjjxf"
  },
  {
    "title": "Kelley Nutrition",
    "price": null,
    "categoryName": "Pharmacy",
    "address": "111 W Hobbs St, Roswell, NM 88203",
    "neighborhood": null,
    "street": "111 W Hobbs St",
    "city": "Roswell",
    "postalCode": "88203",
    "state": "New Mexico",
    "countryCode": "US",
    "website": "http://roswellmedical.com/",
    "phone": "(575) 201-4596",
    "phoneUnformatted": "+15752014596",
    "claimThisBusiness": false,
    "location": {
      "lat": 33.3728127,
      "lng": -104.5238361
    },
    "totalScore": 4.7,
    "permanentlyClosed": false,
    "temporarilyClosed": false,
    "placeId": "ChIJqaH46Shp4oYRYUzEJ8y2KWs",
    "categories": [
      "Pharmacy",
      "Nutritionist",
      "Sports nutrition store",
      "Vitamin & supplements store"
    ],
    "fid": "0x86e26928e9f8a1a9:0x6b29b6cc27c44c61",
    "cid": "7721904024060185697",
    "reviewsCount": 15,
    "imagesCount": 1,
    "imageCategories": [],
    "scrapedAt": "2025-06-22T09:05:56.055Z",
    "googleFoodUrl": null,
    "hotelAds": [],
    "openingHours": [
      {
        "day": "Monday",
        "hours": "8 AM to 5:30 PM"
      },
      {
        "day": "Tuesday",
        "hours": "8 AM to 5:30 PM"
      },
      {
        "day": "Wednesday",
        "hours": "8 AM to 5:30 PM"
      },
      {
        "day": "Thursday",
        "hours": "8 AM to 5:30 PM"
      },
      {
        "day": "Friday",
        "hours": "8 AM to 5:30 PM"
      },
      {
        "day": "Saturday",
        "hours": "Closed"
      },
      {
        "day": "Sunday",
        "hours": "Closed"
      }
    ],
    "peopleAlsoSearch": [],
    "placesTags": [],
    "reviewsTags": [],
    "additionalInfo": {
      "Accessibility": [
        {
          "Wheelchair accessible entrance": true
        },
        {
          "Wheelchair accessible parking lot": true
        },
        {
          "Wheelchair accessible restroom": true
        }
      ],
      "Amenities": [
        {
          "Restroom": true
        }
      ],
      "Payments": [
        {
          "Credit cards": true
        }
      ]
    },
    "gasPrices": [],
    "url": "https://www.google.com/maps/search/?api=1&query=Kelley%20Nutrition&query_place_id=ChIJqaH46Shp4oYRYUzEJ8y2KWs",
    "searchPageUrl": "https://www.google.com/maps/search/independent%20pharmacy%20Roswell%20NM/@56.705968377238506,-158.8645058997317,9z?hl=en",
    "searchString": "independent pharmacy Roswell NM",
    "language": "en",
    "rank": 10,
    "isAdvertisement": false,
    "imageUrl": "https://streetviewpixels-pa.googleapis.com/v1/thumbnail?panoid=-zrHxBO-o1ZsHj7peRoAFA&cb_client=search.gws-prod.gps&w=408&h=240&yaw=34.352264&pitch=0&thumbfov=100",
    "kgmid": "/g/1tmxrghd"
  },
  {
    "title": "ApothiCare 360 Compounding Pharmacy",
    "price": null,
    "categoryName": "Pharmacy",
    "address": "6631 Orion Dr #112, Fort Myers, FL 33912",
    "neighborhood": null,
    "street": "6631 Orion Dr #112",
    "city": "Fort Myers",
    "postalCode": "33912",
    "state": "Florida",
    "countryCode": "US",
    "website": "http://www.apothicare360.com/",
    "phone": "(239) 690-7700",
    "phoneUnformatted": "+12396907700",
    "claimThisBusiness": false,
    "location": {
      "lat": 26.5457221,
      "lng": -81.8480882
    },
    "totalScore": 4.9,
    "permanentlyClosed": false,
    "temporarilyClosed": false,
    "placeId": "ChIJ5eu3L0EV24gRsdDeEPoBcIk",
    "categories": [
      "Pharmacy",
      "Vitamin & supplements store"
    ],
    "fid": "0x88db15412fb7ebe5:0x897001fa10ded0b1",
    "cid": "9903417754124210353",
    "reviewsCount": 38,
    "imagesCount": 24,
    "imageCategories": [],
    "scrapedAt": "2025-06-22T09:07:01.981Z",
    "googleFoodUrl": null,
    "hotelAds": [],
    "openingHours": [
      {
        "day": "Monday",
        "hours": "8:30 AM to 5:30 PM"
      },
      {
        "day": "Tuesday",
        "hours": "8:30 AM to 5:30 PM"
      },
      {
        "day": "Wednesday",
        "hours": "8:30 AM to 5:30 PM"
      },
      {
        "day": "Thursday",
        "hours": "8:30 AM to 5:30 PM"
      },
      {
        "day": "Friday",
        "hours": "8:30 AM to 5:30 PM"
      },
      {
        "day": "Saturday",
        "hours": "Closed"
      },
      {
        "day": "Sunday",
        "hours": "Closed"
      }
    ],
    "peopleAlsoSearch": [],
    "placesTags": [],
    "reviewsTags": [],
    "additionalInfo": {
      "From the business": [
        {
          "Small business": true
        }
      ],
      "Service options": [
        {
          "Delivery": true
        },
        {
          "In-store pickup": true
        },
        {
          "In-store shopping": true
        },
        {
          "Same-day delivery": true
        }
      ],
      "Accessibility": [
        {
          "Wheelchair accessible entrance": true
        },
        {
          "Wheelchair accessible parking lot": true
        }
      ],
      "Amenities": [
        {
          "Gender-neutral restroom": true
        }
      ],
      "Crowd": [
        {
          "LGBTQ+ friendly": true
        }
      ],
      "Payments": [
        {
          "Credit cards": true
        },
        {
          "Debit cards": true
        },
        {
          "NFC mobile payments": true
        },
        {
          "Credit cards": true
        }
      ]
    },
    "gasPrices": [],
    "url": "https://www.google.com/maps/search/?api=1&query=ApothiCare%20360%20Compounding%20Pharmacy&query_place_id=ChIJ5eu3L0EV24gRsdDeEPoBcIk",
    "searchPageUrl": "https://www.google.com/maps/search/independent%20pharmacy%20Roswell%20NM/@25.362687310671483,-83.31984582886456,8z?hl=en",
    "searchString": "independent pharmacy Roswell NM",
    "language": "en",
    "rank": 1,
    "isAdvertisement": false,
    "imageUrl": "https://lh3.googleusercontent.com/p/AF1QipNjNQMCarN64QYTIBQbjGQai6z9FVGlxk2pKfPy=w408-h306-k-no",
    "kgmid": "/g/1pyqjs0t6"
  },
  {
    "title": "Roden-Smith Pharmacy",
    "price": null,
    "categoryName": "Pharmacy",
    "address": "305 East Llano Estacado Blvd suite a suite a, Clovis, NM 88101",
    "neighborhood": null,
    "street": "305 East Llano Estacado Blvd suite a suite a",
    "city": "Clovis",
    "postalCode": "88101",
    "state": "New Mexico",
    "countryCode": "US",
    "website": "https://www.rodensmithpharmacy.com/",
    "phone": "(575) 762-3848",
    "phoneUnformatted": "+15757623848",
    "claimThisBusiness": false,
    "location": {
      "lat": 34.4334272,
      "lng": -103.204941
    },
    "totalScore": 4.6,
    "permanentlyClosed": false,
    "temporarilyClosed": false,
    "placeId": "ChIJsWY7ZT_eAocRV7aw6viWYaM",
    "categories": [
      "Pharmacy",
      "Drug store"
    ],
    "fid": "0x8702de3f653b66b1:0xa36196f8eab0b657",
    "cid": "11772856896756692567",
    "reviewsCount": 94,
    "imagesCount": 39,
    "imageCategories": [],
    "scrapedAt": "2025-06-22T09:07:21.726Z",
    "googleFoodUrl": null,
    "hotelAds": [],
    "openingHours": [
      {
        "day": "Monday",
        "hours": "9 AM to 6 PM"
      },
      {
        "day": "Tuesday",
        "hours": "9 AM to 6 PM"
      },
      {
        "day": "Wednesday",
        "hours": "9 AM to 6 PM"
      },
      {
        "day": "Thursday",
        "hours": "9 AM to 6 PM"
      },
      {
        "day": "Friday",
        "hours": "9 AM to 6 PM"
      },
      {
        "day": "Saturday",
        "hours": "9 AM to 1 PM"
      },
      {
        "day": "Sunday",
        "hours": "Closed"
      }
    ],
    "peopleAlsoSearch": [],
    "placesTags": [],
    "reviewsTags": [],
    "additionalInfo": {
      "From the business": [
        {
          "Small business": true
        }
      ],
      "Service options": [
        {
          "Curbside pickup": true
        },
        {
          "Delivery": true
        },
        {
          "Drive-through": true
        },
        {
          "In-store pickup": true
        },
        {
          "In-store shopping": true
        },
        {
          "Onsite services": true
        },
        {
          "Same-day delivery": true
        }
      ],
      "Accessibility": [
        {
          "Wheelchair accessible entrance": true
        },
        {
          "Wheelchair accessible parking lot": true
        }
      ],
      "Amenities": [
        {
          "Wi-Fi": true
        },
        {
          "Free Wi-Fi": true
        }
      ],
      "Planning": [
        {
          "Quick visit": true
        }
      ],
      "Payments": [
        {
          "Checks": true
        },
        {
          "Credit cards": true
        },
        {
          "Debit cards": true
        },
        {
          "NFC mobile payments": true
        },
        {
          "Credit cards": true
        }
      ]
    },
    "gasPrices": [],
    "url": "https://www.google.com/maps/search/?api=1&query=Roden-Smith%20Pharmacy&query_place_id=ChIJsWY7ZT_eAocRV7aw6viWYaM",
    "searchPageUrl": "https://www.google.com/maps/search/independent%20pharmacy%20Roswell%20NM/@33.954544952667874,-102.31720148556776,8z?hl=en",
    "searchString": "independent pharmacy Roswell NM",
    "language": "en",
    "rank": 14,
    "isAdvertisement": false,
    "imageUrl": "https://lh3.googleusercontent.com/gps-cs-s/AC9h4nph_2ysIvLGSlQu9VVh748tkkttUhsN448gnNIWNhk2gDxQxcPRF_7MrCcBrZHHXVoPXhL0Yqc6Kw4sGZu78nwQfxlHW1JNpfcNPbZLwyuKzx-a1rJ7l0TB4IxbOjc0LULCEi8=w408-h272-k-no",
    "kgmid": "/g/1tdvkms6"
  },
  {
    "title": "CVS Pharmacy",
    "price": null,
    "categoryName": "Pharmacy",
    "address": "700 North Union Avenue, Roswell, NM 88201",
    "phone": "(575) 622-6571",
    "phoneUnformatted": "+1 575-622-6571",
    "claimThisBusiness": false,
    "location": {
      "lat": 33.400207,
      "lng": -104.53654
    },
    "totalScore": 4.9,
    "permanentlyClosed": false,
    "temporarilyClosed": false,
    "placeId": null,
    "categories": [
      "Pharmacy"
    ],
    "fid": "0x86e26f0cbeeace8b:0x841f996ce3b9a338",
    "cid": "9520496830240629560",
    "reviewsCount": 20,
    "imagesCount": null,
    "imageCategories": [],
    "scrapedAt": "2025-06-22T09:07:22.964Z",
    "googleFoodUrl": null,
    "hotelAds": [],
    "openingHours": [
      {
        "day": "Monday",
        "hours": "9 AM to 1:30 PM, 2 to 7 PM"
      },
      {
        "day": "Tuesday",
        "hours": "9 AM to 1:30 PM, 2 to 7 PM"
      },
      {
        "day": "Wednesday",
        "hours": "9 AM to 1:30 PM, 2 to 7 PM"
      },
      {
        "day": "Thursday",
        "hours": "9 AM to 1:30 PM, 2 to 7 PM"
      },
      {
        "day": "Friday",
        "hours": "9 AM to 1:30 PM, 2 to 7 PM"
      },
      {
        "day": "Saturday",
        "hours": "10 AM to 1:30 PM, 2 to 6 PM"
      },
      {
        "day": "Sunday",
        "hours": "11 AM to 1:30 PM, 2 to 5 PM"
      }
    ],
    "peopleAlsoSearch": [],
    "placesTags": [],
    "reviewsTags": [],
    "gasPrices": [],
    "url": "https://www.google.com/maps/place/CVS Pharmacy/@33.400207,-104.53654,14z/data=!3m1!4b1!4m9!3m8!5m2!4m1!1i2!8m2!3d33.400207!4d-104.53654!16snull!17Bnull",
    "searchPageUrl": "https://www.google.com/maps/search/independent%20pharmacy%20Roswell%20NM/@33.954544952667874,-102.31720148556776,8z?hl=en",
    "searchString": "independent pharmacy Roswell NM",
    "language": "en",
    "rank": 21,
    "isAdvertisement": true,
    "imageUrl": "https://lh3.googleusercontent.com/p/AF1QipOQCuQFjl0fCCPXSyMKhHRTfQSwWXyR76CEZw2F=k-no-",
    "kgmid": null,
    "isExternalServicePlace": true,
    "externalId": null
  }
]