[
  {
    "title": "Davis Pharmacy",
    "price": null,
    "categoryName": "Pharmacy",
    "address": "4523 Baltimore Ave #25, Philadelphia, PA 19143",
    "neighborhood": "West Philadelphia",
    "street": "4523 Baltimore Ave #25",
    "city": "Philadelphia",
    "postalCode": "19143",
    "state": "Pennsylvania",
    "countryCode": "US",
    "website": "https://www.mygnp.com/pharmacies/davis-pharmacy-philadelphia-pa-19143/?utm_source=google&utm_medium=local&utm_campaign=localmaps&utm_content=3954799",
    "phone": "(215) 222-3349",
    "phoneUnformatted": "+12152223349",
    "claimThisBusiness": false,
    "location": {
      "lat": 39.9491354,
      "lng": -75.2140961
    },
    "totalScore": 4.3,
    "permanentlyClosed": false,
    "temporarilyClosed": false,
    "placeId": "ChIJ8Y1blu3GxokRUFw1k4ZLb3U",
    "categories": [
      "Pharmacy",
      "Drug store"
    ],
    "fid": "0x89c6c6ed965b8df1:0x756f4b8693355c50",
    "cid": "8462065266219899984",
    "reviewsCount": 52,
    "imagesCount": 10,
    "imageCategories": [],
    "scrapedAt": "2025-06-22T06:32:35.320Z",
    "googleFoodUrl": null,
    "hotelAds": [],
    "openingHours": [
      {
        "day": "Monday",
        "hours": "8 AM to 8 PM"
      },
      {
        "day": "Tuesday",
        "hours": "9 AM to 6 PM"
      },
      {
        "day": "Wednesday",
        "hours": "8 AM to 8 PM"
      },
      {
        "day": "Thursday",
        "hours": "9 AM to 6 PM"
      },
      {
        "day": "Friday",
        "hours": "8 AM to 8 PM"
      },
      {
        "day": "Saturday",
        "hours": "9 AM to 6 PM"
      },
      {
        "day": "Sunday",
        "hours": "Closed"
      }
    ],
    "peopleAlsoSearch": [],
    "placesTags": [],
    "reviewsTags": [],
    "additionalInfo": {
      "Service options": [
        {
          "Delivery": true
        },
        {
          "In-store pickup": true
        },
        {
          "In-store shopping": true
        },
        {
          "Onsite services": true
        }
      ],
      "Planning": [
        {
          "Quick visit": true
        }
      ],
      "Payments": [
        {
          "Credit cards": true
        },
        {
          "Debit cards": true
        },
        {
          "NFC mobile payments": true
        },
        {
          "Credit cards": true
        }
      ]
    },
    "gasPrices": [],
    "url": "https://www.google.com/maps/search/?api=1&query=Davis%20Pharmacy&query_place_id=ChIJ8Y1blu3GxokRUFw1k4ZLb3U",
    "searchPageUrl": "https://www.google.com/maps/search/independent%20pharmacy%20Philadelphia%20PA/@70.60118977126913,-153.11051097135197,9z?hl=en",
    "searchString": "independent pharmacy Philadelphia PA",
    "language": "en",
    "rank": 1,
    "isAdvertisement": false,
    "imageUrl": "https://lh3.googleusercontent.com/gps-cs-s/AC9h4nqw-OC-X3XUVUB8J7weDuFqSVSy7VOl72l0Dv_sUiqw5Gt7X9tdyw5jPY07uPhla9aP-Z3LqXSEtaz9RUJqMrnWHtSiEPqi0u7hrwtACyZQHlaR4AN_i2MzqIfvzWMZX-AT8wgE=w408-h306-k-no",
    "kgmid": "/g/1td_cn57"
  },
  {
    "title": "Sōlace Pharmacy and Wellness Shop",
    "price": null,
    "categoryName": "Pharmacy",
    "address": "1526 Ridge Ave 1st floor, Philadelphia, PA 19130",
    "neighborhood": "Fairmount",
    "street": "1526 Ridge Ave 1st floor",
    "city": "Philadelphia",
    "postalCode": "19130",
    "state": "Pennsylvania",
    "countryCode": "US",
    "website": "https://solacepharmacyphilly.com/",
    "phone": "(267) 764-1328",
    "phoneUnformatted": "+12677641328",
    "claimThisBusiness": false,
    "location": {
      "lat": 39.9686232,
      "lng": -75.1629175
    },
    "totalScore": 5,
    "permanentlyClosed": false,
    "temporarilyClosed": false,
    "placeId": "ChIJAb3wJlvHxokR_bwAMy2OfGw",
    "categories": [
      "Pharmacy",
      "Convenience store",
      "Lottery retailer",
      "Vitamin & supplements store"
    ],
    "fid": "0x89c6c75b26f0bd01:0x6c7c8e2d3300bcfd",
    "cid": "7817279377988697341",
    "reviewsCount": 103,
    "imagesCount": 28,
    "imageCategories": [],
    "scrapedAt": "2025-06-22T06:32:35.321Z",
    "googleFoodUrl": null,
    "hotelAds": [],
    "openingHours": [
      {
        "day": "Monday",
        "hours": "10 AM to 6:30 PM"
      },
      {
        "day": "Tuesday",
        "hours": "9:30 AM to 6:30 PM"
      },
      {
        "day": "Wednesday",
        "hours": "9:30 AM to 6:30 PM"
      },
      {
        "day": "Thursday",
        "hours": "9:30 AM to 6:30 PM"
      },
      {
        "day": "Friday",
        "hours": "9:30 AM to 5 PM"
      },
      {
        "day": "Saturday",
        "hours": "Closed"
      },
      {
        "day": "Sunday",
        "hours": "Closed"
      }
    ],
    "peopleAlsoSearch": [],
    "placesTags": [],
    "reviewsTags": [],
    "additionalInfo": {
      "From the business": [
        {
          "Identifies as Black-owned": true
        },
        {
          "Identifies as LGBTQ+ owned": true
        },
        {
          "Small business": true
        }
      ],
      "Service options": [
        {
          "Curbside pickup": true
        },
        {
          "Delivery": true
        },
        {
          "In-store pickup": true
        },
        {
          "In-store shopping": true
        },
        {
          "Onsite services": true
        },
        {
          "Same-day delivery": true
        }
      ],
      "Accessibility": [
        {
          "Wheelchair accessible entrance": true
        },
        {
          "Wheelchair accessible seating": true
        }
      ],
      "Crowd": [
        {
          "LGBTQ+ friendly": true
        },
        {
          "Transgender safespace": true
        }
      ],
      "Planning": [
        {
          "Quick visit": true
        }
      ],
      "Payments": [
        {
          "Credit cards": true
        },
        {
          "Debit cards": true
        },
        {
          "NFC mobile payments": true
        },
        {
          "Credit cards": true
        }
      ]
    },
    "gasPrices": [],
    "url": "https://www.google.com/maps/search/?api=1&query=S%C5%8Dlace%20Pharmacy%20and%20Wellness%20Shop&query_place_id=ChIJAb3wJlvHxokR_bwAMy2OfGw",
    "searchPageUrl": "https://www.google.com/maps/search/independent%20pharmacy%20Philadelphia%20PA/@70.60118977126913,-153.11051097135197,9z?hl=en",
    "searchString": "independent pharmacy Philadelphia PA",
    "language": "en",
    "rank": 2,
    "isAdvertisement": false,
    "imageUrl": "https://lh3.googleusercontent.com/p/AF1QipNMlcqLG7zamxaCFKvTkehi_ydEnj0nYg5Un1wb=w420-h240-k-no",
    "kgmid": "/g/11j0_9k_kd"
  },
  {
    "title": "Parkway Pharmacy",
    "price": null,
    "categoryName": "Pharmacy",
    "address": "2401 Pennsylvania Ave, Philadelphia, PA 19130",
    "neighborhood": "Fairmount",
    "street": "2401 Pennsylvania Ave",
    "city": "Philadelphia",
    "postalCode": "19130",
    "state": "Pennsylvania",
    "countryCode": "US",
    "website": "http://www.rxparkway.com/",
    "phone": "(215) 642-2422",
    "phoneUnformatted": "+12156422422",
    "claimThisBusiness": false,
    "location": {
      "lat": 39.9667171,
      "lng": -75.1776818
    },
    "totalScore": 4.9,
    "permanentlyClosed": false,
    "temporarilyClosed": false,
    "placeId": "ChIJq6ra48nHxokRmw6PkXGu6A0",
    "categories": [
      "Pharmacy"
    ],
    "fid": "0x89c6c7c9e3daaaab:0xde8ae71918f0e9b",
    "cid": "1002242719886544539",
    "reviewsCount": 339,
    "imagesCount": 15,
    "imageCategories": [],
    "scrapedAt": "2025-06-22T06:32:35.321Z",
    "googleFoodUrl": null,
    "hotelAds": [],
    "openingHours": [
      {
        "day": "Monday",
        "hours": "9:30 AM to 6 PM"
      },
      {
        "day": "Tuesday",
        "hours": "9:30 AM to 6 PM"
      },
      {
        "day": "Wednesday",
        "hours": "9:30 AM to 6 PM"
      },
      {
        "day": "Thursday",
        "hours": "9:30 AM to 6 PM"
      },
      {
        "day": "Friday",
        "hours": "9:30 AM to 6 PM"
      },
      {
        "day": "Saturday",
        "hours": "10 AM to 2 PM"
      },
      {
        "day": "Sunday",
        "hours": "Closed"
      }
    ],
    "additionalOpeningHours": {
      "Delivery": [
        {
          "day": "Monday",
          "hours": "9:30 AM–6 PM"
        },
        {
          "day": "Tuesday",
          "hours": "9:30 AM–6 PM"
        },
        {
          "day": "Wednesday",
          "hours": "9:30 AM–6 PM"
        },
        {
          "day": "Thursday",
          "hours": "9:30 AM–6 PM"
        },
        {
          "day": "Friday",
          "hours": "9:30 AM–6 PM"
        },
        {
          "day": "Saturday",
          "hours": "10 AM–2 PM"
        },
        {
          "day": "Sunday",
          "hours": "Closed"
        }
      ]
    },
    "peopleAlsoSearch": [],
    "placesTags": [],
    "reviewsTags": [],
    "additionalInfo": {
      "From the business": [
        {
          "Small business": true
        }
      ],
      "Service options": [
        {
          "Delivery": true
        },
        {
          "In-store pickup": true
        },
        {
          "Onsite services": true
        },
        {
          "Same-day delivery": true
        }
      ],
      "Accessibility": [
        {
          "Wheelchair accessible entrance": true
        },
        {
          "Wheelchair accessible parking lot": true
        }
      ],
      "Planning": [
        {
          "Quick visit": true
        }
      ],
      "Payments": [
        {
          "Credit cards": true
        },
        {
          "Debit cards": true
        },
        {
          "NFC mobile payments": true
        },
        {
          "Credit cards": true
        }
      ]
    },
    "gasPrices": [],
    "url": "https://www.google.com/maps/search/?api=1&query=Parkway%20Pharmacy&query_place_id=ChIJq6ra48nHxokRmw6PkXGu6A0",
    "searchPageUrl": "https://www.google.com/maps/search/independent%20pharmacy%20Philadelphia%20PA/@70.60118977126913,-153.11051097135197,9z?hl=en",
    "searchString": "independent pharmacy Philadelphia PA",
    "language": "en",
    "rank": 3,
    "isAdvertisement": false,
    "imageUrl": "https://lh3.googleusercontent.com/p/AF1QipN9mcrj_o0vBUCtdQI61q0pTJs5KKttlBkCfJWg=w532-h240-k-no",
    "kgmid": "/g/11qp7ql7fl"
  },
  {
    "title": "Neighborhood Pharmacy - Compounding Pharmacy",
    "price": null,
    "categoryName": "Pharmacy",
    "address": "5701 Chestnut St, Philadelphia, PA 19139",
    "neighborhood": "West Philadelphia",
    "street": "5701 Chestnut St",
    "city": "Philadelphia",
    "postalCode": "19139",
    "state": "Pennsylvania",
    "countryCode": "US",
    "website": "https://www.neighborhoodpharmacyrx.com/",
    "phone": "(215) 307-3609",
    "phoneUnformatted": "+12153073609",
    "claimThisBusiness": false,
    "location": {
      "lat": 39.9599458,
      "lng": -75.2353342
    },
    "totalScore": 4.9,
    "permanentlyClosed": false,
    "temporarilyClosed": false,
    "placeId": "ChIJ3YJJXNrGxokRORCgD8hnSPE",
    "categories": [
      "Pharmacy"
    ],
    "fid": "0x89c6c6da5c4982dd:0xf14867c80fa01039",
    "cid": "17386260470417068089",
    "reviewsCount": 181,
    "imagesCount": 9,
    "imageCategories": [],
    "scrapedAt": "2025-06-22T06:32:35.321Z",
    "googleFoodUrl": null,
    "hotelAds": [],
    "openingHours": [
      {
        "day": "Monday",
        "hours": "9 AM to 6 PM"
      },
      {
        "day": "Tuesday",
        "hours": "9 AM to 6 PM"
      },
      {
        "day": "Wednesday",
        "hours": "9 AM to 6 PM"
      },
      {
        "day": "Thursday",
        "hours": "9 AM to 6 PM"
      },
      {
        "day": "Friday",
        "hours": "9 AM to 6 PM"
      },
      {
        "day": "Saturday",
        "hours": "10 AM to 2 PM"
      },
      {
        "day": "Sunday",
        "hours": "Closed"
      }
    ],
    "additionalOpeningHours": {
      "Delivery": [
        {
          "day": "Monday",
          "hours": "9 AM–6 PM"
        },
        {
          "day": "Tuesday",
          "hours": "9 AM–6 PM"
        },
        {
          "day": "Wednesday",
          "hours": "9 AM–6 PM"
        },
        {
          "day": "Thursday",
          "hours": "9 AM–6 PM"
        },
        {
          "day": "Friday",
          "hours": "9 AM–6 PM"
        },
        {
          "day": "Saturday",
          "hours": "10 AM–2 PM"
        },
        {
          "day": "Sunday",
          "hours": "Closed"
        }
      ],
      "Pickup": [
        {
          "day": "Monday",
          "hours": "9 AM–6 PM"
        },
        {
          "day": "Tuesday",
          "hours": "9 AM–6 PM"
        },
        {
          "day": "Wednesday",
          "hours": "9 AM–6 PM"
        },
        {
          "day": "Thursday",
          "hours": "9 AM–6 PM"
        },
        {
          "day": "Friday",
          "hours": "9 AM–6 PM"
        },
        {
          "day": "Saturday",
          "hours": "10 AM–2 PM"
        },
        {
          "day": "Sunday",
          "hours": "Closed"
        }
      ]
    },
    "peopleAlsoSearch": [],
    "placesTags": [],
    "reviewsTags": [],
    "additionalInfo": {
      "From the business": [
        {
          "Small business": true
        }
      ],
      "Service options": [
        {
          "Delivery": true
        },
        {
          "In-store pickup": true
        },
        {
          "In-store shopping": true
        },
        {
          "Onsite services": true
        }
      ],
      "Accessibility": [
        {
          "Wheelchair accessible entrance": true
        },
        {
          "Wheelchair accessible parking lot": true
        }
      ],
      "Crowd": [
        {
          "LGBTQ+ friendly": true
        },
        {
          "Transgender safespace": true
        }
      ],
      "Payments": [
        {
          "Credit cards": true
        },
        {
          "Debit cards": true
        },
        {
          "NFC mobile payments": true
        },
        {
          "Credit cards": true
        }
      ]
    },
    "gasPrices": [],
    "url": "https://www.google.com/maps/search/?api=1&query=Neighborhood%20Pharmacy%20-%20Compounding%20Pharmacy&query_place_id=ChIJ3YJJXNrGxokRORCgD8hnSPE",
    "searchPageUrl": "https://www.google.com/maps/search/independent%20pharmacy%20Philadelphia%20PA/@70.60118977126913,-153.11051097135197,9z?hl=en",
    "searchString": "independent pharmacy Philadelphia PA",
    "language": "en",
    "rank": 4,
    "isAdvertisement": false,
    "imageUrl": "https://lh3.googleusercontent.com/p/AF1QipMthjI-ktZAi74FTp-koh5ovI1ooXfPAOOlizs=w408-h408-k-no",
    "kgmid": "/g/1tf_jcd4"
  },
  {
    "title": "Fishtown Pharmacy - Compounding Pharmacy",
    "price": null,
    "categoryName": "Pharmacy",
    "address": "1802 Frankford Ave, Philadelphia, PA 19125",
    "neighborhood": "Fishtown",
    "street": "1802 Frankford Ave",
    "city": "Philadelphia",
    "postalCode": "19125",
    "state": "Pennsylvania",
    "countryCode": "US",
    "website": "https://fishtownpharmacy.com/",
    "phone": "(267) 687-7562",
    "phoneUnformatted": "+12676877562",
    "claimThisBusiness": false,
    "location": {
      "lat": 39.9770007,
      "lng": -75.1319246
    },
    "totalScore": 4.9,
    "permanentlyClosed": false,
    "temporarilyClosed": false,
    "placeId": "ChIJVzPBbxXIxokRh9xwXFG8Qi8",
    "categories": [
      "Pharmacy"
    ],
    "fid": "0x89c6c8156fc13357:0x2f42bc515c70dc87",
    "cid": "3405491325874789511",
    "reviewsCount": 105,
    "imagesCount": 3,
    "imageCategories": [],
    "scrapedAt": "2025-06-22T06:32:35.321Z",
    "googleFoodUrl": null,
    "hotelAds": [],
    "openingHours": [
      {
        "day": "Monday",
        "hours": "9 AM to 6 PM"
      },
      {
        "day": "Tuesday",
        "hours": "9 AM to 6 PM"
      },
      {
        "day": "Wednesday",
        "hours": "9 AM to 6 PM"
      },
      {
        "day": "Thursday",
        "hours": "9 AM to 6 PM"
      },
      {
        "day": "Friday",
        "hours": "9 AM to 6 PM"
      },
      {
        "day": "Saturday",
        "hours": "10 AM to 2 PM"
      },
      {
        "day": "Sunday",
        "hours": "Closed"
      }
    ],
    "peopleAlsoSearch": [],
    "placesTags": [],
    "reviewsTags": [],
    "additionalInfo": {
      "From the business": [
        {
          "Small business": true
        }
      ],
      "Service options": [
        {
          "Delivery": true
        },
        {
          "In-store pickup": true
        },
        {
          "In-store shopping": true
        }
      ],
      "Accessibility": [
        {
          "Wheelchair accessible entrance": true
        }
      ],
      "Planning": [
        {
          "Quick visit": true
        }
      ],
      "Payments": [
        {
          "Credit cards": true
        },
        {
          "Debit cards": true
        },
        {
          "NFC mobile payments": true
        },
        {
          "Credit cards": true
        }
      ]
    },
    "gasPrices": [],
    "url": "https://www.google.com/maps/search/?api=1&query=Fishtown%20Pharmacy%20-%20Compounding%20Pharmacy&query_place_id=ChIJVzPBbxXIxokRh9xwXFG8Qi8",
    "searchPageUrl": "https://www.google.com/maps/search/independent%20pharmacy%20Philadelphia%20PA/@70.60118977126913,-153.11051097135197,9z?hl=en",
    "searchString": "independent pharmacy Philadelphia PA",
    "language": "en",
    "rank": 5,
    "isAdvertisement": false,
    "imageUrl": "https://lh3.googleusercontent.com/gps-cs-s/AC9h4nqSoK5ppd0QajWcgkgwX3q0XfJueiY5nnsRUOEFGEs-_jb8k64CELDT94bN4N5TDJ49nei2U5FpSVISyQAUL-RSF8NCobxBqS0hOOjLQcxUfKRvvb7JzuDWXa-xKsUXViH4GLFN=w408-h306-k-no",
    "kgmid": "/g/1260tpdfp"
  },
  {
    "title": "North Philly Pharmacy",
    "price": null,
    "categoryName": "Pharmacy",
    "address": "118 Diamond St, Philadelphia, PA 19122",
    "neighborhood": "North Philadelphia East",
    "street": "118 Diamond St",
    "city": "Philadelphia",
    "postalCode": "19122",
    "state": "Pennsylvania",
    "countryCode": "US",
    "phone": "(215) 763-7080",
    "phoneUnformatted": "+12157637080",
    "claimThisBusiness": true,
    "location": {
      "lat": 39.9816208,
      "lng": -75.1337749
    },
    "totalScore": 4.7,
    "permanentlyClosed": false,
    "temporarilyClosed": false,
    "placeId": "ChIJDQl6NA7IxokRh0nppGiL64k",
    "categories": [
      "Pharmacy"
    ],
    "fid": "0x89c6c80e347a090d:0x89eb8b68a4e94987",
    "cid": "9938190284282743175",
    "reviewsCount": 15,
    "imagesCount": 1,
    "imageCategories": [],
    "scrapedAt": "2025-06-22T06:32:35.321Z",
    "googleFoodUrl": null,
    "hotelAds": [],
    "openingHours": [
      {
        "day": "Monday",
        "hours": "9 AM to 4:30 PM"
      },
      {
        "day": "Tuesday",
        "hours": "9 AM to 4:30 PM"
      },
      {
        "day": "Wednesday",
        "hours": "9 AM to 4:30 PM"
      },
      {
        "day": "Thursday",
        "hours": "9 AM to 4:30 PM"
      },
      {
        "day": "Friday",
        "hours": "9 AM to 4:30 PM"
      },
      {
        "day": "Saturday",
        "hours": "9 AM to 1 PM"
      },
      {
        "day": "Sunday",
        "hours": "Closed"
      }
    ],
    "peopleAlsoSearch": [],
    "placesTags": [],
    "reviewsTags": [],
    "additionalInfo": {
      "Service options": [
        {
          "Delivery": true
        }
      ],
      "Accessibility": [
        {
          "Wheelchair accessible entrance": true
        },
        {
          "Wheelchair accessible parking lot": true
        }
      ],
      "Payments": [
        {
          "Credit cards": true
        }
      ]
    },
    "gasPrices": [],
    "url": "https://www.google.com/maps/search/?api=1&query=North%20Philly%20Pharmacy&query_place_id=ChIJDQl6NA7IxokRh0nppGiL64k",
    "searchPageUrl": "https://www.google.com/maps/search/independent%20pharmacy%20Philadelphia%20PA/@70.60118977126913,-153.11051097135197,9z?hl=en",
    "searchString": "independent pharmacy Philadelphia PA",
    "language": "en",
    "rank": 6,
    "isAdvertisement": false,
    "imageUrl": "https://streetviewpixels-pa.googleapis.com/v1/thumbnail?panoid=a8rYZK7xLDwp7s8w_2KEqQ&cb_client=search.gws-prod.gps&w=408&h=240&yaw=178.08885&pitch=0&thumbfov=100",
    "kgmid": "/g/12llvd40n"
  },
  {
    "title": "Olde Philly Pharmacy - South Philly",
    "price": null,
    "categoryName": "Pharmacy",
    "address": "2600 S 16th St, Philadelphia, PA 19145",
    "neighborhood": "South Philadelphia",
    "street": "2600 S 16th St",
    "city": "Philadelphia",
    "postalCode": "19145",
    "state": "Pennsylvania",
    "countryCode": "US",
    "website": "https://www.oldephillyrx.com/",
    "phone": "(267) 773-7825",
    "phoneUnformatted": "+12677737825",
    "claimThisBusiness": true,
    "location": {
      "lat": 39.9185131,
      "lng": -75.1745182
    },
    "totalScore": 4.8,
    "permanentlyClosed": false,
    "temporarilyClosed": false,
    "placeId": "ChIJ_1c_ruHFxokRF9OT67KGf9g",
    "categories": [
      "Pharmacy"
    ],
    "fid": "0x89c6c5e1ae3f57ff:0xd87f86b2eb93d317",
    "cid": "15600335737249321751",
    "reviewsCount": 42,
    "imagesCount": 2,
    "imageCategories": [],
    "scrapedAt": "2025-06-22T06:32:35.321Z",
    "googleFoodUrl": null,
    "hotelAds": [],
    "openingHours": [
      {
        "day": "Monday",
        "hours": "9:30 AM to 7:30 PM"
      },
      {
        "day": "Tuesday",
        "hours": "9:30 AM to 7:30 PM"
      },
      {
        "day": "Wednesday",
        "hours": "9:30 AM to 7:30 PM"
      },
      {
        "day": "Thursday",
        "hours": "9:30 AM to 7:30 PM"
      },
      {
        "day": "Friday",
        "hours": "9:30 AM to 7 PM"
      },
      {
        "day": "Saturday",
        "hours": "10 AM to 2 PM"
      },
      {
        "day": "Sunday",
        "hours": "Closed"
      }
    ],
    "peopleAlsoSearch": [],
    "placesTags": [],
    "reviewsTags": [],
    "additionalInfo": {
      "Service options": [
        {
          "Delivery": true
        },
        {
          "In-store pickup": true
        },
        {
          "Onsite services": true
        }
      ],
      "Payments": [
        {
          "Credit cards": true
        },
        {
          "Debit cards": true
        },
        {
          "NFC mobile payments": true
        },
        {
          "Credit cards": true
        }
      ]
    },
    "gasPrices": [],
    "url": "https://www.google.com/maps/search/?api=1&query=Olde%20Philly%20Pharmacy%20-%20South%20Philly&query_place_id=ChIJ_1c_ruHFxokRF9OT67KGf9g",
    "searchPageUrl": "https://www.google.com/maps/search/independent%20pharmacy%20Philadelphia%20PA/@70.60118977126913,-153.11051097135197,9z?hl=en",
    "searchString": "independent pharmacy Philadelphia PA",
    "language": "en",
    "rank": 7,
    "isAdvertisement": false,
    "imageUrl": "https://lh3.googleusercontent.com/gps-cs-s/AC9h4nqPEXLAIjvWBCegjWyb7aeEZUnqAJfhiytkSRIhfQ-LuSCbHTd9BMmgfnWOjXu3aEjm-PBbXW8xcPM2OKMipu0PkM2cwiqKP85WcyKqx9oRFx9qHnJNrTpZunuGLGPFAuEZxzM0=w408-h544-k-no",
    "kgmid": "/g/11fxvymv7z"
  },
  {
    "title": "Nova Star Pharmacy",
    "price": null,
    "categoryName": "Pharmacy",
    "address": "301 E Girard Ave, Philadelphia, PA 19125",
    "neighborhood": "Fishtown",
    "street": "301 E Girard Ave",
    "city": "Philadelphia",
    "postalCode": "19125",
    "state": "Pennsylvania",
    "countryCode": "US",
    "website": "http://novastarpharmacy.com/",
    "phone": "(215) 739-3900",
    "phoneUnformatted": "+12157393900",
    "claimThisBusiness": false,
    "location": {
      "lat": 39.969974,
      "lng": -75.131784
    },
    "totalScore": 4.8,
    "permanentlyClosed": false,
    "temporarilyClosed": false,
    "placeId": "ChIJazKw-WnIxokRH0GvJS_rYQw",
    "categories": [
      "Pharmacy"
    ],
    "fid": "0x89c6c869f9b0326b:0xc61eb2f25af411f",
    "cid": "892252788924301599",
    "reviewsCount": 118,
    "imagesCount": 4,
    "imageCategories": [],
    "scrapedAt": "2025-06-22T06:32:35.322Z",
    "googleFoodUrl": null,
    "hotelAds": [],
    "openingHours": [
      {
        "day": "Monday",
        "hours": "8 AM to 8 PM"
      },
      {
        "day": "Tuesday",
        "hours": "8 AM to 8 PM"
      },
      {
        "day": "Wednesday",
        "hours": "8 AM to 8 PM"
      },
      {
        "day": "Thursday",
        "hours": "8 AM to 8 PM"
      },
      {
        "day": "Friday",
        "hours": "8 AM to 8 PM"
      },
      {
        "day": "Saturday",
        "hours": "8 AM to 6 PM"
      },
      {
        "day": "Sunday",
        "hours": "9 AM to 3 PM"
      }
    ],
    "peopleAlsoSearch": [],
    "placesTags": [],
    "reviewsTags": [],
    "additionalInfo": {
      "From the business": [
        {
          "Small business": true
        }
      ],
      "Service options": [
        {
          "Delivery": true
        },
        {
          "In-store pickup": true
        },
        {
          "Same-day delivery": true
        }
      ],
      "Accessibility": [
        {
          "Wheelchair accessible entrance": true
        }
      ],
      "Planning": [
        {
          "Quick visit": true
        }
      ],
      "Payments": [
        {
          "Credit cards": true
        },
        {
          "Debit cards": true
        },
        {
          "NFC mobile payments": true
        },
        {
          "Credit cards": true
        }
      ]
    },
    "gasPrices": [],
    "url": "https://www.google.com/maps/search/?api=1&query=Nova%20Star%20Pharmacy&query_place_id=ChIJazKw-WnIxokRH0GvJS_rYQw",
    "searchPageUrl": "https://www.google.com/maps/search/independent%20pharmacy%20Philadelphia%20PA/@70.60118977126913,-153.11051097135197,9z?hl=en",
    "searchString": "independent pharmacy Philadelphia PA",
    "language": "en",
    "rank": 8,
    "isAdvertisement": false,
    "imageUrl": "https://lh3.googleusercontent.com/gps-cs-s/AC9h4nrhEj4TolrpcTgRcybJudufbqRp-5bUtpQ8K7_kLx3XmHqSyjAAzNRffUNpKPtWYDScg49OCPBgShCu3W5ASz-ZojbgYGzAg9ZN1GECBaP2vNUpilnqJFz572PEW488J45t7iBuHqCiiYE=w408-h625-k-no",
    "kgmid": "/g/11ckxx0vbg"
  },
  {
    "title": "NuCare Pharmacy",
    "price": null,
    "categoryName": "Pharmacy",
    "address": "7960 Verree Rd, Philadelphia, PA 19111",
    "neighborhood": "Fox Chase",
    "street": "7960 Verree Rd",
    "city": "Philadelphia",
    "postalCode": "19111",
    "state": "Pennsylvania",
    "countryCode": "US",
    "website": "https://www.nucarepharmacypa.com/",
    "phone": "(215) 342-0100",
    "phoneUnformatted": "+12153420100",
    "claimThisBusiness": false,
    "location": {
      "lat": 40.0723432,
      "lng": -75.0766658
    },
    "totalScore": 4.8,
    "permanentlyClosed": false,
    "temporarilyClosed": false,
    "placeId": "ChIJgy2TO0yxxokRuw0siuFl2G0",
    "categories": [
      "Pharmacy"
    ],
    "fid": "0x89c6b14c3b932d83:0x6dd865e18a2c0dbb",
    "cid": "7915188364463836603",
    "reviewsCount": 46,
    "imagesCount": 4,
    "imageCategories": [],
    "scrapedAt": "2025-06-22T06:32:35.322Z",
    "googleFoodUrl": null,
    "hotelAds": [],
    "openingHours": [
      {
        "day": "Monday",
        "hours": "9 AM to 6 PM"
      },
      {
        "day": "Tuesday",
        "hours": "9 AM to 6 PM"
      },
      {
        "day": "Wednesday",
        "hours": "9 AM to 6 PM"
      },
      {
        "day": "Thursday",
        "hours": "9 AM to 6 PM"
      },
      {
        "day": "Friday",
        "hours": "9 AM to 6 PM"
      },
      {
        "day": "Saturday",
        "hours": "9 AM to 2 PM"
      },
      {
        "day": "Sunday",
        "hours": "Closed"
      }
    ],
    "peopleAlsoSearch": [],
    "placesTags": [],
    "reviewsTags": [],
    "additionalInfo": {
      "From the business": [
        {
          "Small business": true
        }
      ],
      "Service options": [
        {
          "Curbside pickup": true
        },
        {
          "Delivery": true
        },
        {
          "In-store pickup": true
        },
        {
          "In-store shopping": true
        },
        {
          "Same-day delivery": true
        }
      ],
      "Accessibility": [
        {
          "Wheelchair accessible entrance": true
        }
      ],
      "Planning": [
        {
          "Quick visit": true
        }
      ],
      "Payments": [
        {
          "Checks": true
        },
        {
          "Credit cards": true
        },
        {
          "Debit cards": true
        },
        {
          "NFC mobile payments": true
        },
        {
          "Credit cards": true
        }
      ]
    },
    "gasPrices": [],
    "url": "https://www.google.com/maps/search/?api=1&query=NuCare%20Pharmacy&query_place_id=ChIJgy2TO0yxxokRuw0siuFl2G0",
    "searchPageUrl": "https://www.google.com/maps/search/independent%20pharmacy%20Philadelphia%20PA/@70.60118977126913,-153.11051097135197,9z?hl=en",
    "searchString": "independent pharmacy Philadelphia PA",
    "language": "en",
    "rank": 9,
    "isAdvertisement": false,
    "imageUrl": "https://lh3.googleusercontent.com/gps-cs-s/AC9h4nohXOcKYGc8H2yjchVM7zy0a6x1W4khkrUNrZ6luQ2vOFWnclsjUJaU3Ik6wbTOQs4BJ3lsCe5hJwKaekXhkY8WPD7hlRyVl3Tdt6I4aj6vaGyY4mwczS0Jvm4mTQ0V6YrNPIIZ=w408-h544-k-no",
    "kgmid": "/g/1tz76yb2"
  },
  {
    "title": "Morrison Pharmacy",
    "price": null,
    "categoryName": "Pharmacy",
    "address": "6113 Ridge Ave, Philadelphia, PA 19128",
    "neighborhood": "Roxborough-Manayunk",
    "street": "6113 Ridge Ave",
    "city": "Philadelphia",
    "postalCode": "19128",
    "state": "Pennsylvania",
    "countryCode": "US",
    "website": "http://www.morrisonrx.com/",
    "phone": "(215) 482-2697",
    "phoneUnformatted": "+12154822697",
    "claimThisBusiness": false,
    "location": {
      "lat": 40.0339999,
      "lng": -75.2156554
    },
    "totalScore": 5,
    "permanentlyClosed": false,
    "temporarilyClosed": false,
    "placeId": "ChIJ-wVVqu-4xokRakaX-k_UNi4",
    "categories": [
      "Pharmacy",
      "Diabetes equipment supplier",
      "Drug store",
      "Medical supply store",
      "Vitamin & supplements store"
    ],
    "fid": "0x89c6b8efaa5505fb:0x2e36d44ffa97466a",
    "cid": "3330082414458783338",
    "reviewsCount": 37,
    "imagesCount": 1,
    "imageCategories": [],
    "scrapedAt": "2025-06-22T06:32:35.322Z",
    "googleFoodUrl": null,
    "hotelAds": [],
    "openingHours": [
      {
        "day": "Monday",
        "hours": "8 AM to 6 PM"
      },
      {
        "day": "Tuesday",
        "hours": "8 AM to 6 PM"
      },
      {
        "day": "Wednesday",
        "hours": "8 AM to 6 PM"
      },
      {
        "day": "Thursday",
        "hours": "8 AM to 6 PM"
      },
      {
        "day": "Friday",
        "hours": "8 AM to 6 PM"
      },
      {
        "day": "Saturday",
        "hours": "8 AM to 3 PM"
      },
      {
        "day": "Sunday",
        "hours": "Closed"
      }
    ],
    "peopleAlsoSearch": [],
    "placesTags": [],
    "reviewsTags": [],
    "additionalInfo": {
      "Service options": [
        {
          "Delivery": true
        },
        {
          "In-store pickup": true
        },
        {
          "In-store shopping": true
        },
        {
          "Same-day delivery": true
        }
      ],
      "Accessibility": [
        {
          "Wheelchair accessible entrance": true
        }
      ],
      "Planning": [
        {
          "Quick visit": true
        }
      ],
      "Payments": [
        {
          "Credit cards": true
        },
        {
          "Debit cards": true
        },
        {
          "NFC mobile payments": true
        },
        {
          "Credit cards": true
        }
      ]
    },
    "gasPrices": [],
    "url": "https://www.google.com/maps/search/?api=1&query=Morrison%20Pharmacy&query_place_id=ChIJ-wVVqu-4xokRakaX-k_UNi4",
    "searchPageUrl": "https://www.google.com/maps/search/independent%20pharmacy%20Philadelphia%20PA/@70.60118977126913,-153.11051097135197,9z?hl=en",
    "searchString": "independent pharmacy Philadelphia PA",
    "language": "en",
    "rank": 10,
    "isAdvertisement": false,
    "imageUrl": "https://streetviewpixels-pa.googleapis.com/v1/thumbnail?panoid=1hZKohNBtsLS7T9La15eTA&cb_client=search.gws-prod.gps&w=408&h=240&yaw=25.007702&pitch=0&thumbfov=100",
    "kgmid": "/g/1tdjxzm1"
  },
  {
    "title": "PICKWICK PHARMACY INC",
    "price": null,
    "categoryName": "Pharmacy",
    "address": "1700 Market St, Philadelphia, PA 19103",
    "neighborhood": "Center City",
    "street": "1700 Market St",
    "city": "Philadelphia",
    "postalCode": "19103",
    "state": "Pennsylvania",
    "countryCode": "US",
    "website": "https://www.facebook.com/pages/Pickwick-Pharmacy/496019280436967?fref=ts",
    "phone": "(215) 563-4860",
    "phoneUnformatted": "+12155634860",
    "claimThisBusiness": false,
    "location": {
      "lat": 39.9527921,
      "lng": -75.1692269
    },
    "totalScore": 4.8,
    "permanentlyClosed": false,
    "temporarilyClosed": false,
    "placeId": "ChIJV7-4ADHGxokRHCA--msCjqM",
    "categories": [
      "Pharmacy"
    ],
    "fid": "0x89c6c63100b8bf57:0xa38e026bfa3e201c",
    "cid": "11785359937658298396",
    "reviewsCount": 38,
    "imagesCount": 8,
    "imageCategories": [],
    "scrapedAt": "2025-06-22T06:32:35.322Z",
    "googleFoodUrl": null,
    "hotelAds": [],
    "openingHours": [
      {
        "day": "Monday",
        "hours": "9 AM to 5 PM"
      },
      {
        "day": "Tuesday",
        "hours": "9 AM to 5 PM"
      },
      {
        "day": "Wednesday",
        "hours": "9 AM to 5 PM"
      },
      {
        "day": "Thursday",
        "hours": "9 AM to 5 PM"
      },
      {
        "day": "Friday",
        "hours": "9 AM to 5 PM"
      },
      {
        "day": "Saturday",
        "hours": "10 AM to 2 PM"
      },
      {
        "day": "Sunday",
        "hours": "Closed"
      }
    ],
    "peopleAlsoSearch": [],
    "placesTags": [],
    "reviewsTags": [],
    "additionalInfo": {
      "From the business": [
        {
          "Small business": true
        }
      ],
      "Service options": [
        {
          "Delivery": true
        },
        {
          "In-store pickup": true
        }
      ],
      "Accessibility": [
        {
          "Wheelchair accessible entrance": true
        }
      ],
      "Planning": [
        {
          "Quick visit": true
        }
      ],
      "Payments": [
        {
          "Credit cards": true
        },
        {
          "Debit cards": true
        },
        {
          "NFC mobile payments": true
        },
        {
          "Credit cards": true
        }
      ]
    },
    "gasPrices": [],
    "url": "https://www.google.com/maps/search/?api=1&query=PICKWICK%20PHARMACY%20INC&query_place_id=ChIJV7-4ADHGxokRHCA--msCjqM",
    "searchPageUrl": "https://www.google.com/maps/search/independent%20pharmacy%20Philadelphia%20PA/@70.60118977126913,-153.11051097135197,9z?hl=en",
    "searchString": "independent pharmacy Philadelphia PA",
    "language": "en",
    "rank": 11,
    "isAdvertisement": false,
    "imageUrl": "https://lh3.googleusercontent.com/gps-cs-s/AC9h4nr0eDe0qeJoe3EdWg-5FiX_iml-5UW_9p10Dib3FaVJYqQsDcTHLd9AdejmGIwdYQXbi96IWciXyBHeeTrBRbft0IoxBhhDKWf3S7sGCb5TZgHqNWC1dU5ixhpjG4BNjllCdGj6=w408-h725-k-no",
    "kgmid": "/g/1q5bsy1r9"
  },
  {
    "title": "Ellis Pharmacy",
    "price": null,
    "categoryName": "Pharmacy",
    "address": "2441 W Brown St, Philadelphia, PA 19130",
    "neighborhood": "Fairmount",
    "street": "2441 W Brown St",
    "city": "Philadelphia",
    "postalCode": "19130",
    "state": "Pennsylvania",
    "countryCode": "US",
    "phone": "(215) 765-1903",
    "phoneUnformatted": "+12157651903",
    "claimThisBusiness": false,
    "location": {
      "lat": 39.9701845,
      "lng": -75.1779542
    },
    "totalScore": 4.8,
    "permanentlyClosed": false,
    "temporarilyClosed": false,
    "placeId": "ChIJQ8_z4bfHxokR4PKY7si2bug",
    "categories": [
      "Pharmacy",
      "Drug store"
    ],
    "fid": "0x89c6c7b7e1f3cf43:0xe86eb6c8ee98f2e0",
    "cid": "16748525038350168800",
    "reviewsCount": 44,
    "imagesCount": 9,
    "imageCategories": [],
    "scrapedAt": "2025-06-22T06:32:35.322Z",
    "googleFoodUrl": null,
    "hotelAds": [],
    "openingHours": [
      {
        "day": "Monday",
        "hours": "10 AM to 6 PM"
      },
      {
        "day": "Tuesday",
        "hours": "10 AM to 6 PM"
      },
      {
        "day": "Wednesday",
        "hours": "10 AM to 6 PM"
      },
      {
        "day": "Thursday",
        "hours": "10 AM to 6 PM"
      },
      {
        "day": "Friday",
        "hours": "10 AM to 6 PM"
      },
      {
        "day": "Saturday",
        "hours": "10 AM to 2 PM"
      },
      {
        "day": "Sunday",
        "hours": "Closed"
      }
    ],
    "peopleAlsoSearch": [],
    "placesTags": [],
    "reviewsTags": [],
    "additionalInfo": {
      "From the business": [
        {
          "Small business": true
        }
      ],
      "Service options": [
        {
          "Delivery": true
        },
        {
          "In-store pickup": true
        },
        {
          "In-store shopping": true
        },
        {
          "Onsite services": true
        }
      ],
      "Accessibility": [
        {
          "Wheelchair accessible entrance": true
        }
      ],
      "Planning": [
        {
          "Quick visit": true
        }
      ],
      "Payments": [
        {
          "Credit cards": true
        },
        {
          "Debit cards": true
        },
        {
          "NFC mobile payments": true
        },
        {
          "Credit cards": true
        }
      ]
    },
    "gasPrices": [],
    "url": "https://www.google.com/maps/search/?api=1&query=Ellis%20Pharmacy&query_place_id=ChIJQ8_z4bfHxokR4PKY7si2bug",
    "searchPageUrl": "https://www.google.com/maps/search/independent%20pharmacy%20Philadelphia%20PA/@70.60118977126913,-153.11051097135197,9z?hl=en",
    "searchString": "independent pharmacy Philadelphia PA",
    "language": "en",
    "rank": 12,
    "isAdvertisement": false,
    "imageUrl": "https://lh3.googleusercontent.com/p/AF1QipOuFZxzaL0vDShbLRTSG4jN_zXiyzGO3gNETLgz=w408-h306-k-no",
    "kgmid": "/g/1tdym4yb"
  },
  {
    "title": "Fairmount Pharmacy",
    "price": null,
    "categoryName": "Pharmacy",
    "address": "1900 Green St, Philadelphia, PA 19130",
    "neighborhood": "Fairmount",
    "street": "1900 Green St",
    "city": "Philadelphia",
    "postalCode": "19130",
    "state": "Pennsylvania",
    "countryCode": "US",
    "website": "https://www.fairmountpharmacy.com/",
    "phone": "(215) 567-0364",
    "phoneUnformatted": "+12155670364",
    "claimThisBusiness": true,
    "location": {
      "lat": 39.964715,
      "lng": -75.1692384
    },
    "totalScore": 4.6,
    "permanentlyClosed": false,
    "temporarilyClosed": false,
    "placeId": "ChIJDTabK8zHxokRNjaEU0zLQjQ",
    "categories": [
      "Pharmacy"
    ],
    "fid": "0x89c6c7cc2b9b360d:0x3442cb4c53843636",
    "cid": "3765795767114282550",
    "reviewsCount": 52,
    "imagesCount": 5,
    "imageCategories": [],
    "scrapedAt": "2025-06-22T06:32:35.322Z",
    "googleFoodUrl": null,
    "hotelAds": [],
    "openingHours": [
      {
        "day": "Monday",
        "hours": "9:30 AM to 5:30 PM"
      },
      {
        "day": "Tuesday",
        "hours": "9:30 AM to 5:30 PM"
      },
      {
        "day": "Wednesday",
        "hours": "9:30 AM to 5:30 PM"
      },
      {
        "day": "Thursday",
        "hours": "9:30 AM to 5:30 PM"
      },
      {
        "day": "Friday",
        "hours": "9:30 AM to 5:30 PM"
      },
      {
        "day": "Saturday",
        "hours": "9:30 AM to 12 PM"
      },
      {
        "day": "Sunday",
        "hours": "Closed"
      }
    ],
    "peopleAlsoSearch": [],
    "placesTags": [],
    "reviewsTags": [],
    "additionalInfo": {
      "Service options": [
        {
          "Delivery": true
        },
        {
          "In-store pickup": true
        },
        {
          "Same-day delivery": true
        }
      ],
      "Accessibility": [
        {
          "Wheelchair accessible entrance": true
        }
      ],
      "Planning": [
        {
          "Quick visit": true
        }
      ],
      "Payments": [
        {
          "Credit cards": true
        },
        {
          "Debit cards": true
        },
        {
          "NFC mobile payments": true
        },
        {
          "Credit cards": true
        }
      ]
    },
    "gasPrices": [],
    "url": "https://www.google.com/maps/search/?api=1&query=Fairmount%20Pharmacy&query_place_id=ChIJDTabK8zHxokRNjaEU0zLQjQ",
    "searchPageUrl": "https://www.google.com/maps/search/independent%20pharmacy%20Philadelphia%20PA/@70.60118977126913,-153.11051097135197,9z?hl=en",
    "searchString": "independent pharmacy Philadelphia PA",
    "language": "en",
    "rank": 13,
    "isAdvertisement": false,
    "imageUrl": "https://lh3.googleusercontent.com/gps-cs-s/AC9h4nqXOaYBJJIkS0wLwF9mQkITONZ1WPlKvZyAnkC2zQOo6moLt9OFTtCFp6kSslCKz5OgsqnLBaaP6N_jgHCXPjrv6IaufgHmEtptBO0n3TJdgGcoD3jGU9SRK0p_-sNShZ2UQsuxPw=w408-h544-k-no",
    "kgmid": "/g/1tffkr3x"
  },
  {
    "title": "Liberty Pharmacy",
    "price": null,
    "categoryName": "Pharmacy",
    "address": "1926 E Washington Ln, Philadelphia, PA 19138",
    "neighborhood": "Stenton",
    "street": "1926 E Washington Ln",
    "city": "Philadelphia",
    "postalCode": "19138",
    "state": "Pennsylvania",
    "countryCode": "US",
    "phone": "(215) 927-4467",
    "phoneUnformatted": "+12159274467",
    "claimThisBusiness": true,
    "location": {
      "lat": 40.0663407,
      "lng": -75.1585781
    },
    "totalScore": 4,
    "permanentlyClosed": false,
    "temporarilyClosed": false,
    "placeId": "ChIJ__8soeO5xokRXOxWNFy1Kac",
    "categories": [
      "Pharmacy"
    ],
    "fid": "0x89c6b9e3a12cffff:0xa729b55c3456ec5c",
    "cid": "12045358085998832732",
    "reviewsCount": 4,
    "imagesCount": 1,
    "imageCategories": [],
    "scrapedAt": "2025-06-22T06:32:35.322Z",
    "googleFoodUrl": null,
    "hotelAds": [],
    "openingHours": [],
    "peopleAlsoSearch": [],
    "placesTags": [],
    "reviewsTags": [],
    "additionalInfo": {
      "Service options": [
        {
          "Delivery": true
        }
      ],
      "Accessibility": [
        {
          "Wheelchair accessible entrance": true
        },
        {
          "Wheelchair accessible parking lot": true
        }
      ],
      "Planning": [
        {
          "Quick visit": true
        }
      ],
      "Payments": [
        {
          "Credit cards": true
        },
        {
          "Debit cards": true
        },
        {
          "Credit cards": true
        }
      ]
    },
    "gasPrices": [],
    "url": "https://www.google.com/maps/search/?api=1&query=Liberty%20Pharmacy&query_place_id=ChIJ__8soeO5xokRXOxWNFy1Kac",
    "searchPageUrl": "https://www.google.com/maps/search/independent%20pharmacy%20Philadelphia%20PA/@70.60118977126913,-153.11051097135197,9z?hl=en",
    "searchString": "independent pharmacy Philadelphia PA",
    "language": "en",
    "rank": 14,
    "isAdvertisement": false,
    "imageUrl": "https://streetviewpixels-pa.googleapis.com/v1/thumbnail?panoid=asQQ7a75Q0T8Lm1y757MLQ&cb_client=search.gws-prod.gps&w=408&h=240&yaw=159.4628&pitch=0&thumbfov=100",
    "kgmid": "/g/11h3vbsvvd"
  },
  {
    "title": "The Art of Medicine Compounding Pharmacy",
    "price": null,
    "categoryName": "Pharmacy",
    "address": "1335 Mt Vernon St, Philadelphia, PA 19123",
    "neighborhood": "North Philadelphia East",
    "street": "1335 Mt Vernon St",
    "city": "Philadelphia",
    "postalCode": "19123",
    "state": "Pennsylvania",
    "countryCode": "US",
    "website": "http://www.theartofmed.com/",
    "phone": "(215) 238-9055",
    "phoneUnformatted": "+12152389055",
    "claimThisBusiness": false,
    "location": {
      "lat": 39.9641449,
      "lng": -75.1598874
    },
    "totalScore": 4.7,
    "permanentlyClosed": false,
    "temporarilyClosed": false,
    "placeId": "ChIJm16EKZrIxokRZ6_KwMYj_B8",
    "categories": [
      "Pharmacy"
    ],
    "fid": "0x89c6c89a29845e9b:0x1ffc23c6c0caaf67",
    "cid": "2304756445851856743",
    "reviewsCount": 173,
    "imagesCount": 26,
    "imageCategories": [],
    "scrapedAt": "2025-06-22T06:32:35.322Z",
    "googleFoodUrl": null,
    "hotelAds": [],
    "openingHours": [
      {
        "day": "Monday",
        "hours": "9 AM to 5 PM"
      },
      {
        "day": "Tuesday",
        "hours": "9 AM to 5 PM"
      },
      {
        "day": "Wednesday",
        "hours": "9 AM to 5 PM"
      },
      {
        "day": "Thursday",
        "hours": "9 AM to 5 PM"
      },
      {
        "day": "Friday",
        "hours": "9 AM to 5 PM"
      },
      {
        "day": "Saturday",
        "hours": "10 AM to 2 PM"
      },
      {
        "day": "Sunday",
        "hours": "Closed"
      }
    ],
    "peopleAlsoSearch": [],
    "placesTags": [],
    "reviewsTags": [],
    "additionalInfo": {
      "From the business": [
        {
          "Small business": true
        }
      ],
      "Service options": [
        {
          "Delivery": true
        },
        {
          "In-store pickup": true
        },
        {
          "In-store shopping": true
        }
      ],
      "Accessibility": [
        {
          "Wheelchair accessible entrance": true
        },
        {
          "Wheelchair accessible restroom": true
        }
      ],
      "Amenities": [
        {
          "Wi-Fi": true
        },
        {
          "Free Wi-Fi": true
        }
      ],
      "Crowd": [
        {
          "LGBTQ+ friendly": true
        }
      ],
      "Payments": [
        {
          "Credit cards": true
        }
      ]
    },
    "gasPrices": [],
    "url": "https://www.google.com/maps/search/?api=1&query=The%20Art%20of%20Medicine%20Compounding%20Pharmacy&query_place_id=ChIJm16EKZrIxokRZ6_KwMYj_B8",
    "searchPageUrl": "https://www.google.com/maps/search/independent%20pharmacy%20Philadelphia%20PA/@70.60118977126913,-153.11051097135197,9z?hl=en",
    "searchString": "independent pharmacy Philadelphia PA",
    "language": "en",
    "rank": 15,
    "isAdvertisement": false,
    "imageUrl": "https://lh3.googleusercontent.com/p/AF1QipPjg30XjwdYOz4cJ9G1e0-HHsEJ_Ew59SFU-w50=w408-h269-k-no",
    "kgmid": "/g/11r8fvrj4"
  },
  {
    "title": "CVS Pharmacy",
    "price": null,
    "categoryName": "Pharmacy",
    "address": "1901 Oregon Ave, Philadelphia, PA 19145",
    "neighborhood": "South Philadelphia",
    "street": "1901 Oregon Ave",
    "city": "Philadelphia",
    "postalCode": "19145",
    "state": "Pennsylvania",
    "countryCode": "US",
    "website": "https://www.cvs.com/store-locator/philadelphia-pa-pharmacies/1901-west-oregon-avenue-philadelphia-pa-19145/storeid=2077?WT.mc_id=LS_GOOGLE_RX_2077",
    "phone": "(215) 551-8265",
    "phoneUnformatted": "+12155518265",
    "claimThisBusiness": false,
    "location": {
      "lat": 39.9182863,
      "lng": -75.1803607
    },
    "totalScore": 3.4,
    "permanentlyClosed": false,
    "temporarilyClosed": false,
    "placeId": "ChIJtVBQUd7FxokRiMfK3Mvnc9Q",
    "categories": [
      "Pharmacy"
    ],
    "fid": "0x89c6c5de515050b5:0xd473e7cbdccac788",
    "cid": "15308834421131102088",
    "reviewsCount": 68,
    "imagesCount": 13,
    "imageCategories": [],
    "scrapedAt": "2025-06-22T06:32:35.322Z",
    "googleFoodUrl": null,
    "hotelAds": [],
    "openingHours": [
      {
        "day": "Monday",
        "hours": "12 AM to 1:30 PM, 2 PM to 12 AM"
      },
      {
        "day": "Tuesday",
        "hours": "12 AM to 1:30 PM, 2 PM to 12 AM"
      },
      {
        "day": "Wednesday",
        "hours": "12 AM to 1:30 PM, 2 PM to 12 AM"
      },
      {
        "day": "Thursday",
        "hours": "12 AM to 1:30 PM, 2 PM to 12 AM"
      },
      {
        "day": "Friday",
        "hours": "12 AM to 1:30 PM, 2 PM to 12 AM"
      },
      {
        "day": "Saturday",
        "hours": "12 AM to 1:30 PM, 2 PM to 12 AM"
      },
      {
        "day": "Sunday",
        "hours": "12 AM to 1:30 PM, 2 PM to 12 AM"
      }
    ],
    "peopleAlsoSearch": [],
    "placesTags": [],
    "reviewsTags": [],
    "additionalInfo": {
      "Service options": [
        {
          "Delivery": true
        },
        {
          "Drive-through": true
        },
        {
          "In-store pickup": true
        },
        {
          "In-store shopping": true
        },
        {
          "Onsite services": true
        }
      ],
      "Accessibility": [
        {
          "Wheelchair accessible entrance": true
        },
        {
          "Wheelchair accessible parking lot": true
        }
      ],
      "Offerings": [
        {
          "Medication disposal": true
        },
        {
          "Naloxone": true
        },
        {
          "Passport photos": true
        }
      ],
      "Crowd": [
        {
          "LGBTQ+ friendly": true
        },
        {
          "Transgender safespace": true
        }
      ],
      "Planning": [
        {
          "Quick visit": true
        }
      ],
      "Payments": [
        {
          "Credit cards": true
        },
        {
          "Debit cards": true
        },
        {
          "NFC mobile payments": true
        },
        {
          "SNAP/EBT": true
        },
        {
          "Credit cards": true
        }
      ]
    },
    "gasPrices": [],
    "url": "https://www.google.com/maps/search/?api=1&query=CVS%20Pharmacy&query_place_id=ChIJtVBQUd7FxokRiMfK3Mvnc9Q",
    "searchPageUrl": "https://www.google.com/maps/search/independent%20pharmacy%20Philadelphia%20PA/@70.60118977126913,-153.11051097135197,9z?hl=en",
    "searchString": "independent pharmacy Philadelphia PA",
    "language": "en",
    "rank": 16,
    "isAdvertisement": false,
    "imageUrl": "https://lh3.googleusercontent.com/p/AF1QipPs5GW4Slf_UIdGU-pdfF-vLw5_N_hXcL7P7gvF=w408-h272-k-no",
    "kgmid": "/g/11c467fldr"
  },
  {
    "title": "Nice Pharmacy Inc",
    "price": null,
    "categoryName": "Pharmacy",
    "address": "110 E Allegheny Ave, Philadelphia, PA 19134",
    "neighborhood": "Fairhill",
    "street": "110 E Allegheny Ave",
    "city": "Philadelphia",
    "postalCode": "19134",
    "state": "Pennsylvania",
    "countryCode": "US",
    "website": "http://www.neffpharmacy.com/",
    "phone": "(215) 425-0100",
    "phoneUnformatted": "+12154250100",
    "claimThisBusiness": true,
    "location": {
      "lat": 39.9983424,
      "lng": -75.1288438
    },
    "totalScore": 4.7,
    "permanentlyClosed": false,
    "temporarilyClosed": false,
    "placeId": "ChIJzwQFQ963xokRlshH_DQ0_3w",
    "categories": [
      "Pharmacy"
    ],
    "fid": "0x89c6b7de430504cf:0x7cff3434fc47c896",
    "cid": "9006975181939787926",
    "reviewsCount": 15,
    "imagesCount": 1,
    "imageCategories": [],
    "scrapedAt": "2025-06-22T06:32:35.322Z",
    "googleFoodUrl": null,
    "hotelAds": [],
    "openingHours": [
      {
        "day": "Monday",
        "hours": "9 AM to 5 PM"
      },
      {
        "day": "Tuesday",
        "hours": "9 AM to 5 PM"
      },
      {
        "day": "Wednesday",
        "hours": "9 AM to 5 PM"
      },
      {
        "day": "Thursday",
        "hours": "9 AM to 5 PM"
      },
      {
        "day": "Friday",
        "hours": "9 AM to 5 PM"
      },
      {
        "day": "Saturday",
        "hours": "9 AM to 1 PM"
      },
      {
        "day": "Sunday",
        "hours": "Closed"
      }
    ],
    "peopleAlsoSearch": [],
    "placesTags": [],
    "reviewsTags": [],
    "additionalInfo": {
      "Service options": [
        {
          "Delivery": true
        },
        {
          "Same-day delivery": true
        }
      ],
      "Accessibility": [
        {
          "Wheelchair accessible entrance": true
        }
      ],
      "Planning": [
        {
          "Quick visit": true
        }
      ],
      "Payments": [
        {
          "Credit cards": true
        },
        {
          "Debit cards": true
        },
        {
          "NFC mobile payments": true
        },
        {
          "Credit cards": true
        }
      ]
    },
    "gasPrices": [],
    "url": "https://www.google.com/maps/search/?api=1&query=Nice%20Pharmacy%20Inc&query_place_id=ChIJzwQFQ963xokRlshH_DQ0_3w",
    "searchPageUrl": "https://www.google.com/maps/search/independent%20pharmacy%20Philadelphia%20PA/@70.60118977126913,-153.11051097135197,9z?hl=en",
    "searchString": "independent pharmacy Philadelphia PA",
    "language": "en",
    "rank": 17,
    "isAdvertisement": false,
    "imageUrl": "https://streetviewpixels-pa.googleapis.com/v1/thumbnail?panoid=AzKy_afVKLsU8nAmByQsTg&cb_client=search.gws-prod.gps&w=408&h=240&yaw=197.263&pitch=0&thumbfov=100",
    "kgmid": "/g/1td6z1tl"
  },
  {
    "title": "Broad and Snyder Pharmacy",
    "price": null,
    "categoryName": "Pharmacy",
    "address": "2108 S Broad St, Philadelphia, PA 19145",
    "neighborhood": "South Philadelphia",
    "street": "2108 S Broad St",
    "city": "Philadelphia",
    "postalCode": "19145",
    "state": "Pennsylvania",
    "countryCode": "US",
    "website": "http://broadandsnyderpharmacy.com/",
    "phone": "(267) 324-3039",
    "phoneUnformatted": "+12673243039",
    "claimThisBusiness": false,
    "location": {
      "lat": 39.9241045,
      "lng": -75.1700545
    },
    "totalScore": 4.7,
    "permanentlyClosed": false,
    "temporarilyClosed": false,
    "placeId": "ChIJn4T_5B7HxokRyq8F3myvEao",
    "categories": [
      "Pharmacy"
    ],
    "fid": "0x89c6c71ee4ff849f:0xaa11af6cde05afca",
    "cid": "12254768943168073674",
    "reviewsCount": 35,
    "imagesCount": 6,
    "imageCategories": [],
    "scrapedAt": "2025-06-22T06:32:35.323Z",
    "googleFoodUrl": null,
    "hotelAds": [],
    "openingHours": [
      {
        "day": "Monday",
        "hours": "9 AM to 6 PM"
      },
      {
        "day": "Tuesday",
        "hours": "9 AM to 6 PM"
      },
      {
        "day": "Wednesday",
        "hours": "9 AM to 6 PM"
      },
      {
        "day": "Thursday",
        "hours": "9 AM to 6 PM"
      },
      {
        "day": "Friday",
        "hours": "9 AM to 6 PM"
      },
      {
        "day": "Saturday",
        "hours": "9 AM to 3 PM"
      },
      {
        "day": "Sunday",
        "hours": "Closed"
      }
    ],
    "peopleAlsoSearch": [],
    "placesTags": [],
    "reviewsTags": [],
    "additionalInfo": {
      "From the business": [
        {
          "Small business": true
        }
      ],
      "Service options": [
        {
          "Delivery": true
        },
        {
          "In-store pickup": true
        },
        {
          "In-store shopping": true
        },
        {
          "Same-day delivery": true
        }
      ],
      "Accessibility": [
        {
          "Wheelchair accessible entrance": true
        }
      ],
      "Planning": [
        {
          "Quick visit": true
        }
      ],
      "Payments": [
        {
          "Credit cards": true
        },
        {
          "Debit cards": true
        },
        {
          "NFC mobile payments": true
        },
        {
          "Credit cards": true
        }
      ]
    },
    "gasPrices": [],
    "url": "https://www.google.com/maps/search/?api=1&query=Broad%20and%20Snyder%20Pharmacy&query_place_id=ChIJn4T_5B7HxokRyq8F3myvEao",
    "searchPageUrl": "https://www.google.com/maps/search/independent%20pharmacy%20Philadelphia%20PA/@70.60118977126913,-153.11051097135197,9z?hl=en",
    "searchString": "independent pharmacy Philadelphia PA",
    "language": "en",
    "rank": 18,
    "isAdvertisement": false,
    "imageUrl": "https://lh3.googleusercontent.com/gps-cs-s/AC9h4no52zTNCybGIM4tQN6x_sk8Zo_b25Und6AX9B7FS4GIdIWoDlZZKiZFKKaKP6ldtXa2MNnhFVh7iKrSF7lnf77v2D99mPb8_8ZrEfoRdVK3HdOhra5CflXcBb98YinrVT75o56vLQ=w408-h305-k-no",
    "kgmid": "/g/11qpjltds8"
  },
  {
    "title": "Christian Street Pharmacy",
    "price": null,
    "categoryName": "Pharmacy",
    "address": "1947 Christian St, Philadelphia, PA 19146",
    "neighborhood": "Southwest Center City",
    "street": "1947 Christian St",
    "city": "Philadelphia",
    "postalCode": "19146",
    "state": "Pennsylvania",
    "countryCode": "US",
    "phone": "(215) 545-3582",
    "phoneUnformatted": "+12155453582",
    "claimThisBusiness": true,
    "location": {
      "lat": 39.9412924,
      "lng": -75.1757449
    },
    "totalScore": 4,
    "permanentlyClosed": false,
    "temporarilyClosed": false,
    "placeId": "ChIJoR-Z2j_GxokRTeEBOSaVmS4",
    "categories": [
      "Pharmacy"
    ],
    "fid": "0x89c6c63fda991fa1:0x2e9995263901e14d",
    "cid": "3357878988579135821",
    "reviewsCount": 5,
    "imagesCount": 1,
    "imageCategories": [],
    "scrapedAt": "2025-06-22T06:32:35.323Z",
    "googleFoodUrl": null,
    "hotelAds": [],
    "openingHours": [
      {
        "day": "Monday",
        "hours": "9 AM to 6 PM"
      },
      {
        "day": "Tuesday",
        "hours": "9 AM to 6 PM"
      },
      {
        "day": "Wednesday",
        "hours": "9 AM to 6 PM"
      },
      {
        "day": "Thursday",
        "hours": "9 AM to 6 PM"
      },
      {
        "day": "Friday",
        "hours": "9 AM to 6 PM"
      },
      {
        "day": "Saturday",
        "hours": "Closed"
      },
      {
        "day": "Sunday",
        "hours": "Closed"
      }
    ],
    "peopleAlsoSearch": [],
    "placesTags": [],
    "reviewsTags": [],
    "additionalInfo": {
      "Service options": [
        {
          "In-store pickup": true
        }
      ],
      "Planning": [
        {
          "Quick visit": true
        }
      ],
      "Payments": [
        {
          "Credit cards": true
        },
        {
          "Debit cards": true
        },
        {
          "Credit cards": true
        }
      ]
    },
    "gasPrices": [],
    "url": "https://www.google.com/maps/search/?api=1&query=Christian%20Street%20Pharmacy&query_place_id=ChIJoR-Z2j_GxokRTeEBOSaVmS4",
    "searchPageUrl": "https://www.google.com/maps/search/independent%20pharmacy%20Philadelphia%20PA/@70.60118977126913,-153.11051097135197,9z?hl=en",
    "searchString": "independent pharmacy Philadelphia PA",
    "language": "en",
    "rank": 19,
    "isAdvertisement": false,
    "imageUrl": "https://streetviewpixels-pa.googleapis.com/v1/thumbnail?panoid=pIq4nkrLBHBxICOos6T99w&cb_client=search.gws-prod.gps&w=408&h=240&yaw=62.427284&pitch=0&thumbfov=100",
    "kgmid": "/g/1tdng6hr"
  },
  {
    "title": "Pelham Pharmacy",
    "price": null,
    "categoryName": "Pharmacy",
    "address": "6555 Greene St #3, Philadelphia, PA 19119",
    "neighborhood": "Mount Airy",
    "street": "6555 Greene St #3",
    "city": "Philadelphia",
    "postalCode": "19119",
    "state": "Pennsylvania",
    "countryCode": "US",
    "website": "https://pelhamrx.com/",
    "phone": "(215) 848-0500",
    "phoneUnformatted": "+12158480500",
    "claimThisBusiness": true,
    "location": {
      "lat": 40.0437394,
      "lng": -75.190765
    },
    "totalScore": 4.6,
    "permanentlyClosed": false,
    "temporarilyClosed": false,
    "placeId": "ChIJX8QBs1K4xokRx7jbJA9Vmdo",
    "categories": [
      "Pharmacy"
    ],
    "fid": "0x89c6b852b301c45f:0xda99550f24dbb8c7",
    "cid": "15751714695236270279",
    "reviewsCount": 51,
    "imagesCount": 1,
    "imageCategories": [],
    "scrapedAt": "2025-06-22T06:32:35.323Z",
    "googleFoodUrl": null,
    "hotelAds": [],
    "openingHours": [
      {
        "day": "Monday",
        "hours": "9 AM to 7 PM"
      },
      {
        "day": "Tuesday",
        "hours": "9 AM to 5 PM"
      },
      {
        "day": "Wednesday",
        "hours": "9 AM to 7 PM"
      },
      {
        "day": "Thursday",
        "hours": "9 AM to 7 PM"
      },
      {
        "day": "Friday",
        "hours": "9 AM to 7 PM"
      },
      {
        "day": "Saturday",
        "hours": "9 AM to 2 PM"
      },
      {
        "day": "Sunday",
        "hours": "Closed"
      }
    ],
    "peopleAlsoSearch": [],
    "placesTags": [],
    "reviewsTags": [],
    "additionalInfo": {
      "Service options": [
        {
          "Delivery": true
        },
        {
          "Same-day delivery": true
        }
      ],
      "Accessibility": [
        {
          "Wheelchair accessible entrance": true
        },
        {
          "Wheelchair accessible parking lot": true
        }
      ],
      "Planning": [
        {
          "Quick visit": true
        }
      ],
      "Payments": [
        {
          "Credit cards": true
        },
        {
          "Debit cards": true
        },
        {
          "NFC mobile payments": true
        },
        {
          "Credit cards": true
        }
      ]
    },
    "gasPrices": [],
    "url": "https://www.google.com/maps/search/?api=1&query=Pelham%20Pharmacy&query_place_id=ChIJX8QBs1K4xokRx7jbJA9Vmdo",
    "searchPageUrl": "https://www.google.com/maps/search/independent%20pharmacy%20Philadelphia%20PA/@70.60118977126913,-153.11051097135197,9z?hl=en",
    "searchString": "independent pharmacy Philadelphia PA",
    "language": "en",
    "rank": 20,
    "isAdvertisement": false,
    "imageUrl": "https://streetviewpixels-pa.googleapis.com/v1/thumbnail?panoid=yf8j_hXs2vX7yXM6cS9Guw&cb_client=search.gws-prod.gps&w=408&h=240&yaw=103.80325&pitch=0&thumbfov=100",
    "kgmid": "/g/126037mry"
  }
]