[
  {
    "title": "Good Value Pharmacy Racine",
    "price": null,
    "categoryName": "Pharmacy",
    "address": "5220 Washington Ave #101, Racine, WI 53406",
    "neighborhood": null,
    "street": "5220 Washington Ave #101",
    "city": "Racine",
    "postalCode": "53406",
    "state": "Wisconsin",
    "countryCode": "US",
    "website": "http://www.goodvaluerx.com/",
    "phone": "(262) 632-6561",
    "phoneUnformatted": "+12626326561",
    "claimThisBusiness": false,
    "location": {
      "lat": 42.7191615,
      "lng": -87.8427551
    },
    "totalScore": 4.8,
    "permanentlyClosed": false,
    "temporarilyClosed": false,
    "placeId": "ChIJswC4qo9CBYgRyzkTYd6Nu_4",
    "categories": [
      "Pharmacy",
      "Medical equipment supplier"
    ],
    "fid": "0x8805428faab800b3:0xfebb8dde611339cb",
    "cid": "18355420692529494475",
    "reviewsCount": 50,
    "imagesCount": 5,
    "imageCategories": [],
    "scrapedAt": "2025-06-23T05:38:21.660Z",
    "googleFoodUrl": null,
    "hotelAds": [],
    "openingHours": [
      {
        "day": "Monday",
        "hours": "9 AM to 6 PM"
      },
      {
        "day": "Tuesday",
        "hours": "9 AM to 6 PM"
      },
      {
        "day": "Wednesday",
        "hours": "9 AM to 6 PM"
      },
      {
        "day": "Thursday",
        "hours": "9 AM to 6 PM"
      },
      {
        "day": "Friday",
        "hours": "9 AM to 6 PM"
      },
      {
        "day": "Saturday",
        "hours": "9 AM to 3 PM"
      },
      {
        "day": "Sunday",
        "hours": "Closed"
      }
    ],
    "peopleAlsoSearch": [],
    "placesTags": [],
    "reviewsTags": [],
    "additionalInfo": {
      "From the business": [
        {
          "Small business": true
        }
      ],
      "Service options": [
        {
          "Delivery": true
        },
        {
          "Drive-through": true
        },
        {
          "In-store pickup": true
        },
        {
          "Same-day delivery": true
        }
      ],
      "Accessibility": [
        {
          "Wheelchair accessible entrance": true
        },
        {
          "Wheelchair accessible parking lot": true
        }
      ],
      "Planning": [
        {
          "Quick visit": true
        }
      ],
      "Payments": [
        {
          "Credit cards": true
        },
        {
          "Debit cards": true
        },
        {
          "NFC mobile payments": true
        },
        {
          "Credit cards": true
        }
      ]
    },
    "gasPrices": [],
    "url": "https://www.google.com/maps/search/?api=1&query=Good%20Value%20Pharmacy%20Racine&query_place_id=ChIJswC4qo9CBYgRyzkTYd6Nu_4",
    "searchPageUrl": "https://www.google.com/maps/search/independent%20pharmacy%20in%20Racine,%20WI/@59.485012656044645,-164.61850082811145,9z?hl=en",
    "searchString": "independent pharmacy in Racine, WI",
    "language": "en",
    "rank": 1,
    "isAdvertisement": false,
    "imageUrl": "https://lh3.googleusercontent.com/p/AF1QipPqnHcPHmA9xp0TtmDoQ89wEW8EIsUM2voGmCC-=w408-h306-k-no",
    "kgmid": "/g/11gfj_3sqc"
  },
  {
    "title": "Lakeview Pharmacy",
    "price": null,
    "categoryName": "Pharmacy",
    "address": "516 Monument Square, Racine, WI 53403",
    "neighborhood": null,
    "street": "516 Monument Square",
    "city": "Racine",
    "postalCode": "53403",
    "state": "Wisconsin",
    "countryCode": "US",
    "website": "http://lakeviewpharmacy.com/",
    "phone": "(262) 632-0520",
    "phoneUnformatted": "+12626320520",
    "claimThisBusiness": false,
    "location": {
      "lat": 42.727379,
      "lng": -87.783653
    },
    "totalScore": 4.4,
    "permanentlyClosed": false,
    "temporarilyClosed": false,
    "placeId": "ChIJ3cBVq4NDBYgRcHpE6VgiRAA",
    "categories": [
      "Pharmacy"
    ],
    "fid": "0x88054383ab55c0dd:0x442258e9447a70",
    "cid": "19178063682370160",
    "reviewsCount": 70,
    "imagesCount": 38,
    "imageCategories": [],
    "scrapedAt": "2025-06-23T05:38:21.662Z",
    "googleFoodUrl": null,
    "hotelAds": [],
    "openingHours": [
      {
        "day": "Monday",
        "hours": "9 AM to 6 PM"
      },
      {
        "day": "Tuesday",
        "hours": "9 AM to 6 PM"
      },
      {
        "day": "Wednesday",
        "hours": "9 AM to 6 PM"
      },
      {
        "day": "Thursday",
        "hours": "9 AM to 6 PM"
      },
      {
        "day": "Friday",
        "hours": "9 AM to 6 PM"
      },
      {
        "day": "Saturday",
        "hours": "9 AM to 3 PM"
      },
      {
        "day": "Sunday",
        "hours": "Closed"
      }
    ],
    "peopleAlsoSearch": [],
    "placesTags": [],
    "reviewsTags": [],
    "additionalInfo": {
      "From the business": [
        {
          "Small business": true
        }
      ],
      "Service options": [
        {
          "Delivery": true
        },
        {
          "In-store pickup": true
        },
        {
          "Same-day delivery": true
        }
      ],
      "Accessibility": [
        {
          "Wheelchair accessible entrance": true
        },
        {
          "Wheelchair accessible parking lot": true
        }
      ],
      "Planning": [
        {
          "Quick visit": true
        }
      ],
      "Payments": [
        {
          "Credit cards": true
        },
        {
          "Debit cards": true
        }
      ],
      "Parking": [
        {
          "Free street parking": true
        }
      ]
    },
    "gasPrices": [],
    "url": "https://www.google.com/maps/search/?api=1&query=Lakeview%20Pharmacy&query_place_id=ChIJ3cBVq4NDBYgRcHpE6VgiRAA",
    "searchPageUrl": "https://www.google.com/maps/search/independent%20pharmacy%20in%20Racine,%20WI/@59.485012656044645,-164.61850082811145,9z?hl=en",
    "searchString": "independent pharmacy in Racine, WI",
    "language": "en",
    "rank": 2,
    "isAdvertisement": false,
    "imageUrl": "https://lh3.googleusercontent.com/gps-cs-s/AC9h4nqxxTi0ahHrfO85chyrzMrIX-GsUxHtUGjsCwc1eFt-RSfGojfrx-Rj0Y-i-jStjWDiLaD0KsvTszH--EIGwhbJeTBr3EA6DSxTIn99N0SO7JJ4TYKMVJZJ15Nq1KFSo0L3GYSc=w408-h270-k-no",
    "kgmid": "/g/1thxlmwh"
  },
  {
    "title": "Ascension Rx - Racine Pharmacy",
    "price": null,
    "categoryName": "Pharmacy",
    "address": "3811 Spring St, Racine, WI 53405",
    "neighborhood": null,
    "street": "3811 Spring St",
    "city": "Racine",
    "postalCode": "53405",
    "state": "Wisconsin",
    "countryCode": "US",
    "website": "https://healthcare.ascension.org/locations/wisconsin/wimil/racine-ascension-all-saints-hospital/departments/specialty-care-center/pharmacy?utm_campaign=gmb&utm_medium=organic&utm_source=local",
    "phone": "(262) 687-1600",
    "phoneUnformatted": "+12626871600",
    "claimThisBusiness": false,
    "location": {
      "lat": 42.7311783,
      "lng": -87.8255696
    },
    "totalScore": 4.3,
    "permanentlyClosed": false,
    "temporarilyClosed": false,
    "placeId": "ChIJe4uV4VpCBYgRm8K19l_XmKU",
    "categories": [
      "Pharmacy"
    ],
    "fid": "0x8805425ae1958b7b:0xa598d75ff6b5c29b",
    "cid": "11932524019879101083",
    "reviewsCount": 9,
    "imagesCount": 7,
    "imageCategories": [],
    "scrapedAt": "2025-06-23T05:38:46.729Z",
    "googleFoodUrl": null,
    "hotelAds": [],
    "openingHours": [
      {
        "day": "Monday",
        "hours": "8:30 AM to 5:30 PM"
      },
      {
        "day": "Tuesday",
        "hours": "8:30 AM to 5:30 PM"
      },
      {
        "day": "Wednesday",
        "hours": "8:30 AM to 5:30 PM"
      },
      {
        "day": "Thursday",
        "hours": "8:30 AM to 5:30 PM"
      },
      {
        "day": "Friday",
        "hours": "8:30 AM to 5:30 PM"
      },
      {
        "day": "Saturday",
        "hours": "9 AM to 12:30 PM"
      },
      {
        "day": "Sunday",
        "hours": "Closed"
      }
    ],
    "peopleAlsoSearch": [],
    "placesTags": [],
    "reviewsTags": [],
    "additionalInfo": {
      "Service options": [
        {
          "In-store pickup": true
        }
      ],
      "Accessibility": [
        {
          "Wheelchair accessible entrance": true
        },
        {
          "Wheelchair accessible parking lot": true
        }
      ],
      "Payments": [
        {
          "Credit cards": true
        }
      ]
    },
    "gasPrices": [],
    "url": "https://www.google.com/maps/search/?api=1&query=Ascension%20Rx%20-%20Racine%20Pharmacy&query_place_id=ChIJe4uV4VpCBYgRm8K19l_XmKU",
    "searchPageUrl": "https://www.google.com/maps/search/independent%20pharmacy%20in%20Racine,%20WI/@69.21166763186608,-156.56290792837981,9z?hl=en",
    "searchString": "independent pharmacy in Racine, WI",
    "language": "en",
    "rank": 2,
    "isAdvertisement": false,
    "imageUrl": "https://lh3.googleusercontent.com/p/AF1QipPprZ61yoQEQM8M7ZdJaXcRIGk_g_yreqZDfgJB=w408-h408-k-no",
    "kgmid": "/g/1tnl1zpl"
  },
  {
    "title": "Careyou Pharmacy",
    "price": null,
    "categoryName": "Pharmacy",
    "address": "3818 Durand Ave, Racine, WI 53405",
    "neighborhood": null,
    "street": "3818 Durand Ave",
    "city": "Racine",
    "postalCode": "53405",
    "state": "Wisconsin",
    "countryCode": "US",
    "website": "http://www.careyoupharmacy.com/",
    "phone": "(262) 770-5617",
    "phoneUnformatted": "+12627705617",
    "claimThisBusiness": false,
    "location": {
      "lat": 42.6971788,
      "lng": -87.8254255
    },
    "totalScore": 4.9,
    "permanentlyClosed": false,
    "temporarilyClosed": false,
    "placeId": "ChIJtSynJitDBYgRUYdSKxv7Izw",
    "categories": [
      "Pharmacy"
    ],
    "fid": "0x8805432b26a72cb5:0x3c23fb1b2b528751",
    "cid": "4333583360570066769",
    "reviewsCount": 57,
    "imagesCount": 3,
    "imageCategories": [],
    "scrapedAt": "2025-06-23T05:38:58.198Z",
    "googleFoodUrl": null,
    "hotelAds": [],
    "openingHours": [
      {
        "day": "Monday",
        "hours": "9 AM to 6 PM"
      },
      {
        "day": "Tuesday",
        "hours": "9 AM to 6 PM"
      },
      {
        "day": "Wednesday",
        "hours": "9 AM to 6 PM"
      },
      {
        "day": "Thursday",
        "hours": "9 AM to 6 PM"
      },
      {
        "day": "Friday",
        "hours": "9 AM to 6 PM"
      },
      {
        "day": "Saturday",
        "hours": "9 AM to 2 PM"
      },
      {
        "day": "Sunday",
        "hours": "Closed"
      }
    ],
    "peopleAlsoSearch": [],
    "placesTags": [],
    "reviewsTags": [],
    "additionalInfo": {
      "From the business": [
        {
          "Small business": true
        }
      ],
      "Service options": [
        {
          "Curbside pickup": true
        },
        {
          "Delivery": true
        },
        {
          "In-store pickup": true
        },
        {
          "In-store shopping": true
        },
        {
          "Same-day delivery": true
        },
        {
          "English": true
        }
      ],
      "Accessibility": [
        {
          "Wheelchair accessible entrance": true
        },
        {
          "Wheelchair accessible parking lot": true
        },
        {
          "Wheelchair accessible restroom": true
        }
      ],
      "Payments": [
        {
          "Checks": true
        },
        {
          "Credit cards": true
        },
        {
          "Debit cards": true
        },
        {
          "NFC mobile payments": true
        },
        {
          "Credit cards": true
        }
      ]
    },
    "gasPrices": [],
    "url": "https://www.google.com/maps/search/?api=1&query=Careyou%20Pharmacy&query_place_id=ChIJtSynJitDBYgRUYdSKxv7Izw",
    "searchPageUrl": "https://www.google.com/maps/search/independent%20pharmacy%20in%20Racine,%20WI/@39.68245004733214,-102.31720148556776,8z?hl=en",
    "searchString": "independent pharmacy in Racine, WI",
    "language": "en",
    "rank": 3,
    "isAdvertisement": false,
    "imageUrl": "https://lh3.googleusercontent.com/p/AF1QipNe314LvtDFMQqeYkIKZwExBgnZdfRkYBfars8f=w408-h544-k-no",
    "kgmid": "/g/11sc__lqqx"
  },
  {
    "title": "Walgreens Pharmacy",
    "description": "Department of the Walgreens chain providing prescription medications & other health-related items.",
    "price": "$$",
    "categoryName": "Pharmacy",
    "address": "5005 Douglas Ave, Racine, WI 53402",
    "neighborhood": null,
    "street": "5005 Douglas Ave",
    "city": "Racine",
    "postalCode": "53402",
    "state": "Wisconsin",
    "countryCode": "US",
    "website": "https://www.walgreens.com/locator/walgreens-5005+douglas+ave-racine-wi-53402/id=6243",
    "phone": "(262) 639-9241",
    "phoneUnformatted": "+12626399241",
    "claimThisBusiness": false,
    "location": {
      "lat": 42.7852027,
      "lng": -87.8086047
    },
    "totalScore": 3.8,
    "permanentlyClosed": false,
    "temporarilyClosed": false,
    "placeId": "ChIJQetj2QxBBYgRhyAkyK1kRTM",
    "categories": [
      "Pharmacy"
    ],
    "fid": "0x8805410cd963eb41:0x334564adc8242087",
    "cid": "3694469766877290631",
    "reviewsCount": 31,
    "imagesCount": 3,
    "imageCategories": [],
    "scrapedAt": "2025-06-23T05:39:16.924Z",
    "googleFoodUrl": null,
    "hotelAds": [],
    "openingHours": [
      {
        "day": "Monday",
        "hours": "2 AM to 1:30 AM"
      },
      {
        "day": "Tuesday",
        "hours": "2 AM to 1:30 AM"
      },
      {
        "day": "Wednesday",
        "hours": "2 AM to 1:30 AM"
      },
      {
        "day": "Thursday",
        "hours": "2 AM to 1:30 AM"
      },
      {
        "day": "Friday",
        "hours": "2 AM to 1:30 AM"
      },
      {
        "day": "Saturday",
        "hours": "2 AM to 1:30 AM"
      },
      {
        "day": "Sunday",
        "hours": "2 AM to 1:30 AM"
      }
    ],
    "additionalOpeningHours": {
      "Drive through": [
        {
          "day": "Monday",
          "hours": "2 AM–1:30 AM"
        },
        {
          "day": "Tuesday",
          "hours": "2 AM–1:30 AM"
        },
        {
          "day": "Wednesday",
          "hours": "2 AM–1:30 AM"
        },
        {
          "day": "Thursday",
          "hours": "2 AM–1:30 AM"
        },
        {
          "day": "Friday",
          "hours": "2 AM–1:30 AM"
        },
        {
          "day": "Saturday",
          "hours": "2 AM–1:30 AM"
        },
        {
          "day": "Sunday",
          "hours": "2 AM–1:30 AM"
        }
      ]
    },
    "peopleAlsoSearch": [],
    "placesTags": [],
    "reviewsTags": [],
    "additionalInfo": {
      "Service options": [
        {
          "Delivery": true
        },
        {
          "Drive-through": true
        },
        {
          "In-store pickup": true
        }
      ],
      "Accessibility": [
        {
          "Wheelchair accessible entrance": true
        },
        {
          "Wheelchair accessible parking lot": true
        }
      ],
      "Offerings": [
        {
          "Medication disposal": true
        },
        {
          "Naloxone": true
        }
      ],
      "Planning": [
        {
          "Quick visit": true
        }
      ],
      "Payments": [
        {
          "Checks": true
        },
        {
          "Credit cards": true
        },
        {
          "Debit cards": true
        }
      ]
    },
    "gasPrices": [],
    "url": "https://www.google.com/maps/search/?api=1&query=Walgreens%20Pharmacy&query_place_id=ChIJQetj2QxBBYgRhyAkyK1kRTM",
    "searchPageUrl": "https://www.google.com/maps/search/independent%20pharmacy%20in%20Racine,%20WI/@33.954544952667874,-89.6522977144323,8z?hl=en",
    "searchString": "independent pharmacy in Racine, WI",
    "language": "en",
    "rank": 3,
    "isAdvertisement": false,
    "imageUrl": "https://lh3.googleusercontent.com/p/AF1QipPei5iHeCiBwQlaCu1bhseccrIrWY2swpdBnLn8=w525-h240-k-no",
    "kgmid": "/g/11cn94s4bq"
  },
  {
    "title": "Walgreens Pharmacy",
    "description": "Department of the Walgreens chain providing prescription medications & other health-related items.",
    "price": "$$",
    "categoryName": "Pharmacy",
    "address": "4810 Washington Ave, Racine, WI 53406",
    "neighborhood": null,
    "street": "4810 Washington Ave",
    "city": "Racine",
    "postalCode": "53406",
    "state": "Wisconsin",
    "countryCode": "US",
    "website": "https://www.walgreens.com/locator/walgreens-4810+washington+ave-racine-wi-53406/id=2927",
    "phone": "(262) 635-0181",
    "phoneUnformatted": "+12626350181",
    "claimThisBusiness": false,
    "location": {
      "lat": 42.719107,
      "lng": -87.8376567
    },
    "totalScore": 3.2,
    "permanentlyClosed": false,
    "temporarilyClosed": false,
    "placeId": "ChIJt_HH_4xCBYgRTkN7ILx094M",
    "categories": [
      "Pharmacy"
    ],
    "fid": "0x8805428cffc7f1b7:0x83f774bc207b434e",
    "cid": "9509197489563714382",
    "reviewsCount": 33,
    "imagesCount": 10,
    "imageCategories": [],
    "scrapedAt": "2025-06-23T05:39:16.925Z",
    "googleFoodUrl": null,
    "hotelAds": [],
    "openingHours": [
      {
        "day": "Monday",
        "hours": "2 AM to 1:30 AM"
      },
      {
        "day": "Tuesday",
        "hours": "2 AM to 1:30 AM"
      },
      {
        "day": "Wednesday",
        "hours": "2 AM to 1:30 AM"
      },
      {
        "day": "Thursday",
        "hours": "2 AM to 1:30 AM"
      },
      {
        "day": "Friday",
        "hours": "2 AM to 1:30 AM"
      },
      {
        "day": "Saturday",
        "hours": "2 AM to 1:30 AM"
      },
      {
        "day": "Sunday",
        "hours": "2 AM to 1:30 AM"
      }
    ],
    "additionalOpeningHours": {
      "Drive through": [
        {
          "day": "Monday",
          "hours": "2 AM–1:30 AM"
        },
        {
          "day": "Tuesday",
          "hours": "2 AM–1:30 AM"
        },
        {
          "day": "Wednesday",
          "hours": "2 AM–1:30 AM"
        },
        {
          "day": "Thursday",
          "hours": "2 AM–1:30 AM"
        },
        {
          "day": "Friday",
          "hours": "2 AM–1:30 AM"
        },
        {
          "day": "Saturday",
          "hours": "2 AM–1:30 AM"
        },
        {
          "day": "Sunday",
          "hours": "2 AM–1:30 AM"
        }
      ]
    },
    "peopleAlsoSearch": [],
    "placesTags": [],
    "reviewsTags": [],
    "additionalInfo": {
      "Service options": [
        {
          "Curbside pickup": true
        },
        {
          "Drive-through": true
        },
        {
          "In-store pickup": true
        }
      ],
      "Accessibility": [
        {
          "Wheelchair accessible entrance": true
        },
        {
          "Wheelchair accessible parking lot": true
        }
      ],
      "Planning": [
        {
          "Quick visit": true
        }
      ],
      "Payments": [
        {
          "Credit cards": true
        },
        {
          "Debit cards": true
        }
      ]
    },
    "gasPrices": [],
    "url": "https://www.google.com/maps/search/?api=1&query=Walgreens%20Pharmacy&query_place_id=ChIJt_HH_4xCBYgRTkN7ILx094M",
    "searchPageUrl": "https://www.google.com/maps/search/independent%20pharmacy%20in%20Racine,%20WI/@33.954544952667874,-89.6522977144323,8z?hl=en",
    "searchString": "independent pharmacy in Racine, WI",
    "language": "en",
    "rank": 4,
    "isAdvertisement": false,
    "imageUrl": "https://lh3.googleusercontent.com/p/AF1QipPL8orFRa5pd5fGchIekMHHqRBCWByUvYaVq2Np=w525-h240-k-no",
    "kgmid": "/g/11cn96myrb"
  },
  {
    "title": "Ascension Rx - Wisconsin Avenue Pharmacy",
    "price": null,
    "categoryName": "Pharmacy",
    "address": "1244 Wisconsin Ave, Racine, WI 53403",
    "neighborhood": null,
    "street": "1244 Wisconsin Ave",
    "city": "Racine",
    "postalCode": "53403",
    "state": "Wisconsin",
    "countryCode": "US",
    "website": "https://healthcare.ascension.org/locations/wisconsin/wimil/racine-ascension-all-saints-hospital-wisconsin-avenue/departments/pharmacy?utm_campaign=gmb&utm_medium=organic&utm_source=local",
    "phone": "(262) 687-2150",
    "phoneUnformatted": "+12626872150",
    "claimThisBusiness": false,
    "location": {
      "lat": 42.7176308,
      "lng": -87.7842498
    },
    "totalScore": 4.4,
    "permanentlyClosed": false,
    "temporarilyClosed": false,
    "placeId": "ChIJ05yj5XpDBYgRX3T-3s6VLUY",
    "categories": [
      "Pharmacy"
    ],
    "fid": "0x8805437ae5a39cd3:0x462d95cedefe745f",
    "cid": "5056862672343954527",
    "reviewsCount": 12,
    "imagesCount": 9,
    "imageCategories": [],
    "scrapedAt": "2025-06-23T05:39:25.942Z",
    "googleFoodUrl": null,
    "hotelAds": [],
    "openingHours": [
      {
        "day": "Monday",
        "hours": "8:30 AM to 5:30 PM"
      },
      {
        "day": "Tuesday",
        "hours": "8:30 AM to 5:30 PM"
      },
      {
        "day": "Wednesday",
        "hours": "8:30 AM to 5:30 PM"
      },
      {
        "day": "Thursday",
        "hours": "8:30 AM to 5:30 PM"
      },
      {
        "day": "Friday",
        "hours": "8:30 AM to 5:30 PM"
      },
      {
        "day": "Saturday",
        "hours": "9 AM to 1 PM"
      },
      {
        "day": "Sunday",
        "hours": "Closed"
      }
    ],
    "peopleAlsoSearch": [],
    "placesTags": [],
    "reviewsTags": [],
    "additionalInfo": {
      "Accessibility": [
        {
          "Wheelchair accessible entrance": true
        },
        {
          "Wheelchair accessible parking lot": true
        }
      ],
      "Payments": [
        {
          "Credit cards": true
        }
      ]
    },
    "gasPrices": [],
    "url": "https://www.google.com/maps/search/?api=1&query=Ascension%20Rx%20-%20Wisconsin%20Avenue%20Pharmacy&query_place_id=ChIJ05yj5XpDBYgRX3T-3s6VLUY",
    "searchPageUrl": "https://www.google.com/maps/search/independent%20pharmacy%20in%20Racine,%20WI/@39.68245004733214,-80.15361988608069,8z?hl=en",
    "searchString": "independent pharmacy in Racine, WI",
    "language": "en",
    "rank": 4,
    "isAdvertisement": false,
    "imageUrl": "https://lh3.googleusercontent.com/p/AF1QipNxT7K8N6LNgf8rYWrhUWvV3KmnatKGTlP7NCgE=w408-h408-k-no",
    "kgmid": "/g/113hpfks6"
  },
  {
    "title": "Ascension Rx - Spring Street Pharmacy",
    "price": null,
    "categoryName": "Pharmacy",
    "address": "3807 Spring St, Racine, WI 53405",
    "neighborhood": null,
    "street": "3807 Spring St",
    "city": "Racine",
    "postalCode": "53405",
    "state": "Wisconsin",
    "countryCode": "US",
    "website": "https://healthcare.ascension.org/locations/wisconsin/wimil/racine-ascension-all-saints-hospital/departments/medical-office-building-c/pharmacy?utm_campaign=gmb&utm_medium=organic&utm_source=local",
    "phone": "(262) 687-8430",
    "phoneUnformatted": "+12626878430",
    "claimThisBusiness": false,
    "location": {
      "lat": 42.73074,
      "lng": -87.828724
    },
    "totalScore": 4.6,
    "permanentlyClosed": false,
    "temporarilyClosed": false,
    "placeId": "ChIJe2C9eFlCBYgR3Nl9ebhkp3I",
    "categories": [
      "Pharmacy"
    ],
    "fid": "0x8805425978bd607b:0x72a764b8797dd9dc",
    "cid": "8261682784909515228",
    "reviewsCount": 5,
    "imagesCount": 7,
    "imageCategories": [],
    "scrapedAt": "2025-06-23T05:39:25.942Z",
    "googleFoodUrl": null,
    "hotelAds": [],
    "openingHours": [
      {
        "day": "Monday",
        "hours": "9 AM to 6 PM"
      },
      {
        "day": "Tuesday",
        "hours": "9 AM to 6 PM"
      },
      {
        "day": "Wednesday",
        "hours": "9 AM to 6 PM"
      },
      {
        "day": "Thursday",
        "hours": "9 AM to 6 PM"
      },
      {
        "day": "Friday",
        "hours": "9 AM to 6 PM"
      },
      {
        "day": "Saturday",
        "hours": "9 AM to 12:30 PM"
      },
      {
        "day": "Sunday",
        "hours": "Closed"
      }
    ],
    "peopleAlsoSearch": [],
    "placesTags": [],
    "reviewsTags": [],
    "additionalInfo": {
      "Service options": [
        {
          "In-store pickup": true
        }
      ],
      "Accessibility": [
        {
          "Wheelchair accessible entrance": true
        },
        {
          "Wheelchair accessible parking lot": true
        }
      ],
      "Payments": [
        {
          "Credit cards": true
        }
      ]
    },
    "gasPrices": [],
    "url": "https://www.google.com/maps/search/?api=1&query=Ascension%20Rx%20-%20Spring%20Street%20Pharmacy&query_place_id=ChIJe2C9eFlCBYgR3Nl9ebhkp3I",
    "searchPageUrl": "https://www.google.com/maps/search/independent%20pharmacy%20in%20Racine,%20WI/@39.68245004733214,-80.15361988608069,8z?hl=en",
    "searchString": "independent pharmacy in Racine, WI",
    "language": "en",
    "rank": 6,
    "isAdvertisement": false,
    "imageUrl": "https://lh3.googleusercontent.com/p/AF1QipMICv2NRsLJSY54G9l2VswvxlIDoXKormXDzhcJ=w408-h408-k-no",
    "kgmid": "/g/1tf7bnys"
  },
  {
    "title": "Aurora Pharmacy",
    "price": null,
    "categoryName": "Pharmacy",
    "address": "8400 Washington Ave, Racine, WI 53406",
    "neighborhood": null,
    "street": "8400 Washington Ave",
    "city": "Racine",
    "postalCode": "53406",
    "state": "Wisconsin",
    "countryCode": "US",
    "website": "https://care.aurorahealthcare.org/locations/aurora-pharmacy-racine",
    "phone": "(262) 884-4030",
    "phoneUnformatted": "+12628844030",
    "claimThisBusiness": false,
    "location": {
      "lat": 42.7202906,
      "lng": -87.8890316
    },
    "totalScore": 4.1,
    "permanentlyClosed": false,
    "temporarilyClosed": false,
    "placeId": "ChIJHRU4LFFoBYgROMyN5ByI7Cc",
    "categories": [
      "Pharmacy"
    ],
    "fid": "0x880568512c38151d:0x27ec881ce48dcc38",
    "cid": "2876823919657864248",
    "reviewsCount": 23,
    "imagesCount": null,
    "imageCategories": [],
    "scrapedAt": "2025-06-23T05:39:25.942Z",
    "googleFoodUrl": null,
    "hotelAds": [],
    "openingHours": [
      {
        "day": "Monday",
        "hours": "9 AM to 7 PM"
      },
      {
        "day": "Tuesday",
        "hours": "9 AM to 7 PM"
      },
      {
        "day": "Wednesday",
        "hours": "9 AM to 7 PM"
      },
      {
        "day": "Thursday",
        "hours": "9 AM to 7 PM"
      },
      {
        "day": "Friday",
        "hours": "9 AM to 7 PM"
      },
      {
        "day": "Saturday",
        "hours": "9 AM to 4 PM"
      },
      {
        "day": "Sunday",
        "hours": "9 AM to 4 PM"
      }
    ],
    "peopleAlsoSearch": [],
    "placesTags": [],
    "reviewsTags": [],
    "additionalInfo": {
      "Service options": [
        {
          "Delivery": true
        },
        {
          "In-store pickup": true
        },
        {
          "In-store shopping": true
        }
      ],
      "Accessibility": [
        {
          "Wheelchair accessible entrance": true
        },
        {
          "Wheelchair accessible parking lot": true
        }
      ],
      "Amenities": [
        {
          "Wi-Fi": true
        },
        {
          "Free Wi-Fi": true
        }
      ],
      "Payments": [
        {
          "Credit cards": true
        },
        {
          "Debit cards": true
        },
        {
          "NFC mobile payments": true
        },
        {
          "Credit cards": true
        }
      ]
    },
    "gasPrices": [],
    "url": "https://www.google.com/maps/search/?api=1&query=Aurora%20Pharmacy&query_place_id=ChIJHRU4LFFoBYgROMyN5ByI7Cc",
    "searchPageUrl": "https://www.google.com/maps/search/independent%20pharmacy%20in%20Racine,%20WI/@39.68245004733214,-80.15361988608069,8z?hl=en",
    "searchString": "independent pharmacy in Racine, WI",
    "language": "en",
    "rank": 7,
    "isAdvertisement": false,
    "kgmid": "/g/1tjz8jb0"
  },
  {
    "title": "CVS Pharmacy",
    "price": null,
    "categoryName": "Pharmacy",
    "address": "1122 West Blvd, Racine, WI 53405",
    "neighborhood": null,
    "street": "1122 West Blvd",
    "city": "Racine",
    "postalCode": "53405",
    "state": "Wisconsin",
    "countryCode": "US",
    "website": "https://www.cvs.com/store-locator/racine-wi-pharmacies/1122-west-blvd-racine-wi-53405/storeid=8776?WT.mc_id=LS_GOOGLE_RX_8776",
    "phone": "(262) 637-5603",
    "phoneUnformatted": "+12626375603",
    "claimThisBusiness": false,
    "location": {
      "lat": 42.719779,
      "lng": -87.816629
    },
    "totalScore": 3.9,
    "permanentlyClosed": false,
    "temporarilyClosed": false,
    "placeId": "ChIJQze7lP1CBYgRG_iEgyIyJ_w",
    "categories": [
      "Pharmacy"
    ],
    "fid": "0x880542fd94bb3743:0xfc2732228384f81b",
    "cid": "18169546345466361883",
    "reviewsCount": 27,
    "imagesCount": 5,
    "imageCategories": [],
    "scrapedAt": "2025-06-23T05:39:25.942Z",
    "googleFoodUrl": null,
    "hotelAds": [],
    "openingHours": [
      {
        "day": "Monday",
        "hours": "8 AM to 1:30 PM, 2 to 8 PM"
      },
      {
        "day": "Tuesday",
        "hours": "8 AM to 1:30 PM, 2 to 8 PM"
      },
      {
        "day": "Wednesday",
        "hours": "8 AM to 1:30 PM, 2 to 8 PM"
      },
      {
        "day": "Thursday",
        "hours": "8 AM to 1:30 PM, 2 to 8 PM"
      },
      {
        "day": "Friday",
        "hours": "8 AM to 1:30 PM, 2 to 8 PM"
      },
      {
        "day": "Saturday",
        "hours": "9 AM to 1:30 PM, 2 to 5 PM"
      },
      {
        "day": "Sunday",
        "hours": "9 AM to 1:30 PM, 2 to 5 PM"
      }
    ],
    "peopleAlsoSearch": [],
    "placesTags": [],
    "reviewsTags": [],
    "additionalInfo": {
      "Service options": [
        {
          "Delivery": true
        },
        {
          "In-store shopping": true
        },
        {
          "Onsite services": true
        }
      ],
      "Accessibility": [
        {
          "Wheelchair accessible entrance": true
        },
        {
          "Wheelchair accessible parking lot": true
        }
      ],
      "Offerings": [
        {
          "Naloxone": true
        }
      ],
      "Crowd": [
        {
          "LGBTQ+ friendly": true
        },
        {
          "Transgender safespace": true
        }
      ],
      "Planning": [
        {
          "Quick visit": true
        }
      ],
      "Payments": [
        {
          "Credit cards": true
        },
        {
          "Debit cards": true
        },
        {
          "NFC mobile payments": true
        },
        {
          "SNAP/EBT": true
        },
        {
          "Credit cards": true
        }
      ]
    },
    "gasPrices": [],
    "url": "https://www.google.com/maps/search/?api=1&query=CVS%20Pharmacy&query_place_id=ChIJQze7lP1CBYgRG_iEgyIyJ_w",
    "searchPageUrl": "https://www.google.com/maps/search/independent%20pharmacy%20in%20Racine,%20WI/@39.68245004733214,-80.15361988608069,8z?hl=en",
    "searchString": "independent pharmacy in Racine, WI",
    "language": "en",
    "rank": 8,
    "isAdvertisement": false,
    "imageUrl": "https://lh3.googleusercontent.com/p/AF1QipMZPpq5Qbj21PcXXEScegy5K6Pn8Pk-uhToZZGz=w408-h272-k-no",
    "kgmid": "/g/11c468st0b"
  }
]