[
  {
    "title": "Omdera Pharmacy",
    "price": null,
    "categoryName": "Pharmacy",
    "address": "1330 S Potomac St Suite 102, Aurora, CO 80012",
    "neighborhood": "Utah Park",
    "street": "1330 S Potomac St Suite 102",
    "city": "Aurora",
    "postalCode": "80012",
    "state": "Colorado",
    "countryCode": "US",
    "website": "http://omderapharmacy.com/?utm_source=google&utm_medium=wix_google_business_profile&utm_campaign=2089454336719151930",
    "phone": "(303) 953-1970",
    "phoneUnformatted": "+13039531970",
    "claimThisBusiness": false,
    "location": {
      "lat": 39.6930493,
      "lng": -104.8304135
    },
    "totalScore": 4.8,
    "permanentlyClosed": false,
    "temporarilyClosed": false,
    "placeId": "ChIJ2cmtDvVjbIcRQpYKKRVmy-8",
    "categories": [
      "Pharmacy"
    ],
    "fid": "0x876c63f50eadc9d9:0xefcb6615290a9642",
    "cid": "17279016636405945922",
    "reviewsCount": 19,
    "imagesCount": 17,
    "imageCategories": [],
    "scrapedAt": "2025-06-22T04:18:27.638Z",
    "googleFoodUrl": null,
    "hotelAds": [],
    "openingHours": [
      {
        "day": "Monday",
        "hours": "9 AM to 6 PM"
      },
      {
        "day": "Tuesday",
        "hours": "9 AM to 6 PM"
      },
      {
        "day": "Wednesday",
        "hours": "9 AM to 6 PM"
      },
      {
        "day": "Thursday",
        "hours": "9 AM to 6 PM"
      },
      {
        "day": "Friday",
        "hours": "9 AM to 6 PM"
      },
      {
        "day": "Saturday",
        "hours": "9 AM to 1 PM"
      },
      {
        "day": "Sunday",
        "hours": "Closed"
      }
    ],
    "peopleAlsoSearch": [],
    "placesTags": [],
    "reviewsTags": [],
    "additionalInfo": {
      "From the business": [
        {
          "Small business": true
        }
      ],
      "Service options": [
        {
          "Delivery": true
        },
        {
          "In-store pickup": true
        },
        {
          "In-store shopping": true
        },
        {
          "Same-day delivery": true
        }
      ],
      "Accessibility": [
        {
          "Wheelchair accessible entrance": true
        },
        {
          "Wheelchair accessible parking lot": true
        }
      ],
      "Planning": [
        {
          "Quick visit": true
        }
      ],
      "Payments": [
        {
          "Credit cards": true
        },
        {
          "Debit cards": true
        },
        {
          "NFC mobile payments": true
        },
        {
          "Credit cards": true
        }
      ]
    },
    "gasPrices": [],
    "url": "https://www.google.com/maps/search/?api=1&query=Omdera%20Pharmacy&query_place_id=ChIJ2cmtDvVjbIcRQpYKKRVmy-8",
    "searchPageUrl": "https://www.google.com/maps/search/independent%20pharmacy%20Aurora%20CO/@21.872389848651334,-157.94533183601516,11z?hl=en",
    "searchString": "independent pharmacy Aurora CO",
    "language": "en",
    "rank": 1,
    "isAdvertisement": false,
    "imageUrl": "https://lh3.googleusercontent.com/p/AF1QipMDUZJUuGuEMgvnHa8a1wQp1RTPmDZaSs4tuwkP=w408-h305-k-no",
    "kgmid": "/g/11s47ymmtj"
  },
  {
    "title": "APEX Pharmacy",
    "price": null,
    "categoryName": "Pharmacy",
    "address": "12597 E Mississippi Ave Unit 300, Aurora, CO 80012",
    "neighborhood": "Aurora Hills",
    "street": "12597 E Mississippi Ave Unit 300",
    "city": "Aurora",
    "postalCode": "80012",
    "state": "Colorado",
    "countryCode": "US",
    "website": "http://apexrxco.com/",
    "phone": "(303) 479-3864",
    "phoneUnformatted": "+13034793864",
    "claimThisBusiness": false,
    "location": {
      "lat": 39.6969775,
      "lng": -104.8433586
    },
    "totalScore": 4.9,
    "permanentlyClosed": false,
    "temporarilyClosed": false,
    "placeId": "ChIJG3sZd0tjbIcRrYf0V5IFJxQ",
    "categories": [
      "Pharmacy"
    ],
    "fid": "0x876c634b77197b1b:0x1427059257f487ad",
    "cid": "1452135530949281709",
    "reviewsCount": 84,
    "imagesCount": 8,
    "imageCategories": [],
    "scrapedAt": "2025-06-22T04:18:27.640Z",
    "googleFoodUrl": null,
    "hotelAds": [],
    "openingHours": [
      {
        "day": "Monday",
        "hours": "9 AM to 6:30 PM"
      },
      {
        "day": "Tuesday",
        "hours": "9 AM to 6:30 PM"
      },
      {
        "day": "Wednesday",
        "hours": "9 AM to 6:30 PM"
      },
      {
        "day": "Thursday",
        "hours": "9 AM to 6:30 PM"
      },
      {
        "day": "Friday",
        "hours": "9 AM to 6:30 PM"
      },
      {
        "day": "Saturday",
        "hours": "Closed"
      },
      {
        "day": "Sunday",
        "hours": "Closed"
      }
    ],
    "peopleAlsoSearch": [],
    "placesTags": [],
    "reviewsTags": [],
    "additionalInfo": {
      "From the business": [
        {
          "Identifies as Black-owned": true
        },
        {
          "Identifies as women-owned": true
        },
        {
          "Small business": true
        }
      ],
      "Service options": [
        {
          "Delivery": true
        },
        {
          "Drive-through": true
        },
        {
          "In-store pickup": true
        },
        {
          "Onsite services": true
        },
        {
          "Same-day delivery": true
        }
      ],
      "Accessibility": [
        {
          "Wheelchair accessible entrance": true
        },
        {
          "Wheelchair accessible parking lot": true
        }
      ],
      "Payments": [
        {
          "Credit cards": true
        },
        {
          "Debit cards": true
        },
        {
          "NFC mobile payments": true
        },
        {
          "Credit cards": true
        }
      ]
    },
    "gasPrices": [],
    "url": "https://www.google.com/maps/search/?api=1&query=APEX%20Pharmacy&query_place_id=ChIJG3sZd0tjbIcRrYf0V5IFJxQ",
    "searchPageUrl": "https://www.google.com/maps/search/independent%20pharmacy%20Aurora%20CO/@21.872389848651334,-157.94533183601516,11z?hl=en",
    "searchString": "independent pharmacy Aurora CO",
    "language": "en",
    "rank": 2,
    "isAdvertisement": false,
    "imageUrl": "https://lh3.googleusercontent.com/p/AF1QipO3swKJK_TonXOvSrQYLGJr1xlg5wmXRyuK9Kfc=w408-h271-k-no",
    "kgmid": "/g/11hnd9cvfs"
  },
  {
    "title": "ALTITUDERX PHARMACY",
    "price": null,
    "categoryName": "Pharmacy",
    "address": "2621 S Parker Rd, Aurora, CO 80014",
    "neighborhood": null,
    "street": "2621 S Parker Rd",
    "city": "Aurora",
    "postalCode": "80014",
    "state": "Colorado",
    "countryCode": "US",
    "website": "http://www.altituderxpharmacy.com/",
    "phone": "(720) 508-2031",
    "phoneUnformatted": "+17205082031",
    "claimThisBusiness": false,
    "location": {
      "lat": 39.6688841,
      "lng": -104.8644113
    },
    "totalScore": 4.7,
    "permanentlyClosed": false,
    "temporarilyClosed": false,
    "placeId": "ChIJwUO9hBmHbIcRZzyh5hb8_yE",
    "categories": [
      "Pharmacy"
    ],
    "fid": "0x876c871984bd43c1:0x21fffc16e6a13c67",
    "cid": "2449953897601645671",
    "reviewsCount": 14,
    "imagesCount": 6,
    "imageCategories": [],
    "scrapedAt": "2025-06-22T04:18:27.640Z",
    "googleFoodUrl": null,
    "hotelAds": [],
    "openingHours": [
      {
        "day": "Monday",
        "hours": "9 AM to 5 PM"
      },
      {
        "day": "Tuesday",
        "hours": "9 AM to 5 PM"
      },
      {
        "day": "Wednesday",
        "hours": "9 AM to 5 PM"
      },
      {
        "day": "Thursday",
        "hours": "9 AM to 5 PM"
      },
      {
        "day": "Friday",
        "hours": "9 AM to 5 PM"
      },
      {
        "day": "Saturday",
        "hours": "9 AM to 1 PM"
      },
      {
        "day": "Sunday",
        "hours": "Closed"
      }
    ],
    "peopleAlsoSearch": [],
    "placesTags": [],
    "reviewsTags": [],
    "additionalInfo": {
      "From the business": [
        {
          "Small business": true
        }
      ],
      "Service options": [
        {
          "Curbside pickup": true
        },
        {
          "Delivery": true
        },
        {
          "In-store pickup": true
        },
        {
          "Same-day delivery": true
        }
      ],
      "Accessibility": [
        {
          "Wheelchair accessible entrance": true
        },
        {
          "Wheelchair accessible parking lot": true
        }
      ],
      "Planning": [
        {
          "Quick visit": true
        }
      ],
      "Payments": [
        {
          "Credit cards": true
        },
        {
          "Debit cards": true
        },
        {
          "NFC mobile payments": true
        },
        {
          "Credit cards": true
        }
      ]
    },
    "gasPrices": [],
    "url": "https://www.google.com/maps/search/?api=1&query=ALTITUDERX%20PHARMACY&query_place_id=ChIJwUO9hBmHbIcRZzyh5hb8_yE",
    "searchPageUrl": "https://www.google.com/maps/search/independent%20pharmacy%20Aurora%20CO/@21.872389848651334,-157.94533183601516,11z?hl=en",
    "searchString": "independent pharmacy Aurora CO",
    "language": "en",
    "rank": 3,
    "isAdvertisement": false,
    "imageUrl": "https://lh3.googleusercontent.com/p/AF1QipO76EiHS8BzHoRjP5ETah89gS0U-UM_i1v9KCIK=w408-h544-k-no",
    "kgmid": "/g/11k5047k6l"
  },
  {
    "title": "Xenia Specialty Pharmacy",
    "price": null,
    "categoryName": "Pharmacy",
    "address": "14001 E Iliff Ave Ste 200, Aurora, CO 80014",
    "neighborhood": "Southeast Crossing",
    "street": "14001 E Iliff Ave Ste 200",
    "city": "Aurora",
    "postalCode": "80014",
    "state": "Colorado",
    "countryCode": "US",
    "website": "https://www.xeniaspecialtypharmacy.com/",
    "phone": "(720) 669-4567",
    "phoneUnformatted": "+17206694567",
    "claimThisBusiness": false,
    "location": {
      "lat": 39.676062,
      "lng": -104.826425
    },
    "totalScore": 5,
    "permanentlyClosed": false,
    "temporarilyClosed": false,
    "placeId": "ChIJI_D1Qx6IbIcRHIShHKbxVd4",
    "categories": [
      "Pharmacy"
    ],
    "fid": "0x876c881e43f5f023:0xde55f1a61ca1841c",
    "cid": "16020976945187619868",
    "reviewsCount": 1,
    "imagesCount": 1,
    "imageCategories": [],
    "scrapedAt": "2025-06-22T04:18:27.640Z",
    "googleFoodUrl": null,
    "hotelAds": [],
    "openingHours": [
      {
        "day": "Monday",
        "hours": "8 AM to 4:30 PM"
      },
      {
        "day": "Tuesday",
        "hours": "8 AM to 4:30 PM"
      },
      {
        "day": "Wednesday",
        "hours": "8 AM to 4:30 PM"
      },
      {
        "day": "Thursday",
        "hours": "8 AM to 4:30 PM"
      },
      {
        "day": "Friday",
        "hours": "8 AM to 4:30 PM"
      },
      {
        "day": "Saturday",
        "hours": "Closed"
      },
      {
        "day": "Sunday",
        "hours": "Closed"
      }
    ],
    "peopleAlsoSearch": [],
    "placesTags": [],
    "reviewsTags": [],
    "additionalInfo": {
      "From the business": [
        {
          "Small business": true
        }
      ],
      "Accessibility": [
        {
          "Wheelchair accessible parking lot": true
        }
      ],
      "Payments": [
        {
          "Debit cards": true
        },
        {
          "Credit cards": true
        }
      ]
    },
    "gasPrices": [],
    "url": "https://www.google.com/maps/search/?api=1&query=Xenia%20Specialty%20Pharmacy&query_place_id=ChIJI_D1Qx6IbIcRHIShHKbxVd4",
    "searchPageUrl": "https://www.google.com/maps/search/independent%20pharmacy%20Aurora%20CO/@21.872389848651334,-157.94533183601516,11z?hl=en",
    "searchString": "independent pharmacy Aurora CO",
    "language": "en",
    "rank": 4,
    "isAdvertisement": false,
    "imageUrl": "https://streetviewpixels-pa.googleapis.com/v1/thumbnail?panoid=o0VFcroInG8buCfsUH1IhA&cb_client=search.gws-prod.gps&w=408&h=240&yaw=72.16659&pitch=0&thumbfov=100",
    "kgmid": "/g/11bbrqvn0w"
  },
  {
    "title": "Central Admixture Pharmacy Services",
    "price": null,
    "categoryName": "Pharmacy",
    "address": "3251 N Revere St, Aurora, CO 80011",
    "neighborhood": "Morris Heights",
    "street": "3251 N Revere St",
    "city": "Aurora",
    "postalCode": "80011",
    "state": "Colorado",
    "countryCode": "US",
    "website": "http://www.capspharmacy.com/",
    "phone": "(303) 455-9490",
    "phoneUnformatted": "+13034559490",
    "claimThisBusiness": true,
    "location": {
      "lat": 39.7635943,
      "lng": -104.8430158
    },
    "totalScore": 5,
    "permanentlyClosed": false,
    "temporarilyClosed": false,
    "placeId": "ChIJAbetwch7bIcRWPcCEuax5Cs",
    "categories": [
      "Pharmacy"
    ],
    "fid": "0x876c7bc8c1adb701:0x2be4b1e61202f758",
    "cid": "3162848440023709528",
    "reviewsCount": 1,
    "imagesCount": 1,
    "imageCategories": [],
    "scrapedAt": "2025-06-22T04:18:27.640Z",
    "googleFoodUrl": null,
    "hotelAds": [],
    "openingHours": [
      {
        "day": "Monday",
        "hours": "8 AM to 5 PM"
      },
      {
        "day": "Tuesday",
        "hours": "8 AM to 5 PM"
      },
      {
        "day": "Wednesday",
        "hours": "8 AM to 5 PM"
      },
      {
        "day": "Thursday",
        "hours": "8 AM to 5 PM"
      },
      {
        "day": "Friday",
        "hours": "8 AM to 5 PM"
      },
      {
        "day": "Saturday",
        "hours": "8 AM to 5 PM"
      },
      {
        "day": "Sunday",
        "hours": "8 AM to 5 PM"
      }
    ],
    "peopleAlsoSearch": [],
    "placesTags": [],
    "reviewsTags": [],
    "additionalInfo": {
      "Accessibility": [
        {
          "Wheelchair accessible entrance": true
        },
        {
          "Wheelchair accessible parking lot": true
        }
      ]
    },
    "gasPrices": [],
    "url": "https://www.google.com/maps/search/?api=1&query=Central%20Admixture%20Pharmacy%20Services&query_place_id=ChIJAbetwch7bIcRWPcCEuax5Cs",
    "searchPageUrl": "https://www.google.com/maps/search/independent%20pharmacy%20Aurora%20CO/@21.872389848651334,-157.94533183601516,11z?hl=en",
    "searchString": "independent pharmacy Aurora CO",
    "language": "en",
    "rank": 5,
    "isAdvertisement": false,
    "imageUrl": "https://streetviewpixels-pa.googleapis.com/v1/thumbnail?panoid=oX9Px-Hoqz31cSwE0EM-Gw&cb_client=search.gws-prod.gps&w=408&h=240&yaw=265.40533&pitch=0&thumbfov=100",
    "kgmid": "/g/1w6r8s7k"
  },
  {
    "title": "Havana Pharmacy (HP Compounding Pharmacy and Medical Supply)",
    "price": null,
    "categoryName": "Pharmacy",
    "address": "1555 S Havana St HJ, Aurora, CO 80012",
    "neighborhood": "Dayton Triangle",
    "street": "1555 S Havana St HJ",
    "city": "Aurora",
    "postalCode": "80012",
    "state": "Colorado",
    "countryCode": "US",
    "phone": "(303) 750-3600",
    "phoneUnformatted": "+13037503600",
    "claimThisBusiness": false,
    "location": {
      "lat": 39.6882282,
      "lng": -104.867728
    },
    "totalScore": 4.1,
    "permanentlyClosed": true,
    "temporarilyClosed": false,
    "placeId": "ChIJ4QvcLEJ9bIcRGHzc0DtqVK8",
    "categories": [
      "Pharmacy"
    ],
    "fid": "0x876c7d422cdc0be1:0xaf546a3bd0dc7c18",
    "cid": "12633839659820809240",
    "reviewsCount": 21,
    "imagesCount": 2,
    "imageCategories": [],
    "scrapedAt": "2025-06-22T04:18:27.640Z",
    "googleFoodUrl": null,
    "hotelAds": [],
    "openingHours": [],
    "peopleAlsoSearch": [],
    "placesTags": [],
    "reviewsTags": [],
    "additionalInfo": {
      "From the business": [
        {
          "Identifies as women-owned": true
        }
      ],
      "Service options": [
        {
          "Delivery": true
        },
        {
          "In-store pickup": true
        },
        {
          "Same-day delivery": true
        }
      ],
      "Accessibility": [
        {
          "Wheelchair accessible entrance": true
        },
        {
          "Wheelchair accessible parking lot": true
        }
      ]
    },
    "gasPrices": [],
    "url": "https://www.google.com/maps/search/?api=1&query=Havana%20Pharmacy%20(HP%20Compounding%20Pharmacy%20and%20Medical%20Supply)&query_place_id=ChIJ4QvcLEJ9bIcRGHzc0DtqVK8",
    "searchPageUrl": "https://www.google.com/maps/search/independent%20pharmacy%20Aurora%20CO/@21.872389848651334,-157.94533183601516,11z?hl=en",
    "searchString": "independent pharmacy Aurora CO",
    "language": "en",
    "rank": 6,
    "isAdvertisement": false,
    "imageUrl": "https://lh3.googleusercontent.com/gps-cs-s/AC9h4no7VrkcxSgHw0HNcM5VJ2Uh8sZeapb5BSFep7zeLnpMU_EaGXvpi0-7kObT8Q14QmtqoVcrSEwChyUXO05hvr-6eCOOOewU0KKufj8fYhMEzf6waBuUj-noshLGuY30Mz0ktG-T=w408-h306-k-no",
    "kgmid": "/g/1hc2mpf2r"
  },
  {
    "title": "Genoa Healthcare",
    "price": null,
    "categoryName": "Pharmacy",
    "address": "791 Chambers Rd RM 152, Aurora, CO 80011",
    "neighborhood": "Chambers Heights",
    "street": "791 Chambers Rd RM 152",
    "city": "Aurora",
    "postalCode": "80011",
    "state": "Colorado",
    "countryCode": "US",
    "website": "http://www.genoahealthcare.com/",
    "phone": "(720) 388-1880",
    "phoneUnformatted": "+17203881880",
    "claimThisBusiness": false,
    "location": {
      "lat": 39.7275693,
      "lng": -104.8111073
    },
    "totalScore": 4.7,
    "permanentlyClosed": false,
    "temporarilyClosed": false,
    "placeId": "ChIJ8-PENxFjbIcR3Hoj70uxt4k",
    "categories": [
      "Pharmacy"
    ],
    "fid": "0x876c631137c4e3f3:0x89b7b14bef237adc",
    "cid": "9923595243626920668",
    "reviewsCount": 16,
    "imagesCount": 1,
    "imageCategories": [],
    "scrapedAt": "2025-06-22T04:18:28.483Z",
    "googleFoodUrl": null,
    "hotelAds": [],
    "openingHours": [
      {
        "day": "Monday",
        "hours": "8:30 AM to 5 PM"
      },
      {
        "day": "Tuesday",
        "hours": "8:30 AM to 5 PM"
      },
      {
        "day": "Wednesday",
        "hours": "8:30 AM to 5 PM"
      },
      {
        "day": "Thursday",
        "hours": "8:30 AM to 5 PM"
      },
      {
        "day": "Friday",
        "hours": "8:30 AM to 5 PM"
      },
      {
        "day": "Saturday",
        "hours": "Closed"
      },
      {
        "day": "Sunday",
        "hours": "Closed"
      }
    ],
    "peopleAlsoSearch": [],
    "placesTags": [],
    "reviewsTags": [],
    "additionalInfo": {
      "Accessibility": [
        {
          "Wheelchair accessible entrance": true
        },
        {
          "Wheelchair accessible parking lot": true
        }
      ]
    },
    "gasPrices": [],
    "url": "https://www.google.com/maps/search/?api=1&query=Genoa%20Healthcare&query_place_id=ChIJ8-PENxFjbIcR3Hoj70uxt4k",
    "searchPageUrl": "https://www.google.com/maps/search/independent%20pharmacy%20Aurora%20CO/@25.362687310671483,-80.15361988608069,8z?hl=en",
    "searchString": "independent pharmacy Aurora CO",
    "language": "en",
    "rank": 5,
    "isAdvertisement": false,
    "imageUrl": "https://streetviewpixels-pa.googleapis.com/v1/thumbnail?panoid=pQGXaAvwvJSaUyLBQSX8Bw&cb_client=search.gws-prod.gps&w=408&h=240&yaw=281.2016&pitch=0&thumbfov=100",
    "kgmid": "/g/11gnrfzq6k"
  },
  {
    "title": "Grace Health Pharmacy",
    "price": null,
    "categoryName": "Pharmacy",
    "address": "3191 S Vaughn Way #102, Aurora, CO 80014, United States",
    "neighborhood": "Heather Gardens",
    "street": "3191 S Vaughn Way #102",
    "city": "Aurora",
    "postalCode": "80014",
    "state": "Colorado",
    "countryCode": "US",
    "website": "http://www.gracehealthpharmacy.com/",
    "phone": "+1 720-748-2449",
    "phoneUnformatted": "+17207482449",
    "claimThisBusiness": true,
    "location": {
      "lat": 39.658117,
      "lng": -104.8384266
    },
    "totalScore": 4.1,
    "permanentlyClosed": false,
    "temporarilyClosed": false,
    "placeId": "ChIJRwO5lQyIbIcRZSb_HqZv_Ig",
    "categories": [
      "Pharmacy",
      "Medical supply store"
    ],
    "fid": "0x876c880c95b90347:0x88fc6fa61eff2665",
    "cid": "9870887242564576869",
    "reviewsCount": 14,
    "imagesCount": 1,
    "imageCategories": [],
    "scrapedAt": "2025-06-22T04:18:36.243Z",
    "googleFoodUrl": null,
    "hotelAds": [],
    "openingHours": [
      {
        "day": "Monday",
        "hours": "8:30 AM to 6 PM"
      },
      {
        "day": "Tuesday",
        "hours": "8:30 AM to 6 PM"
      },
      {
        "day": "Wednesday",
        "hours": "8:30 AM to 6 PM"
      },
      {
        "day": "Thursday",
        "hours": "9 AM to 5 PM"
      },
      {
        "day": "Friday",
        "hours": "8:30 AM to 6 PM"
      },
      {
        "day": "Saturday",
        "hours": "Closed"
      },
      {
        "day": "Sunday",
        "hours": "Closed"
      }
    ],
    "peopleAlsoSearch": [],
    "placesTags": [],
    "reviewsTags": [],
    "additionalInfo": {
      "Service options": [
        {
          "Delivery": true
        },
        {
          "Same-day delivery": true
        }
      ],
      "Accessibility": [
        {
          "Wheelchair-accessible car park": true
        },
        {
          "Wheelchair-accessible entrance": true
        }
      ],
      "Payments": [
        {
          "Credit cards": true
        }
      ]
    },
    "gasPrices": [],
    "url": "https://www.google.com/maps/search/?api=1&query=Grace%20Health%20Pharmacy&query_place_id=ChIJRwO5lQyIbIcRZSb_HqZv_Ig",
    "searchPageUrl": "https://www.google.com/maps/search/independent%20pharmacy%20Aurora%20CO/@67.82214549246302,-140.45172212891654,9z?hl=en",
    "searchString": "independent pharmacy Aurora CO",
    "language": "en",
    "rank": 6,
    "isAdvertisement": false,
    "imageUrl": "https://streetviewpixels-pa.googleapis.com/v1/thumbnail?panoid=peZBEyZ3RQ7mS84-dg7wtA&cb_client=search.gws-prod.gps&w=408&h=240&yaw=129.7057&pitch=0&thumbfov=100",
    "kgmid": "/g/11b6bvb77m"
  },
  {
    "title": "Quality Care Pharmacy",
    "price": null,
    "categoryName": "Pharmacy",
    "address": "2044 Clinton St suite b, Aurora, CO 80010, United States",
    "neighborhood": null,
    "street": "2044 Clinton St suite b",
    "city": "Aurora",
    "postalCode": "80010",
    "state": "Colorado",
    "countryCode": "US",
    "phone": "+1 303-923-5112",
    "phoneUnformatted": "+13039235112",
    "claimThisBusiness": false,
    "location": {
      "lat": 39.748242,
      "lng": -104.877255
    },
    "totalScore": 5,
    "permanentlyClosed": false,
    "temporarilyClosed": false,
    "placeId": "ChIJeSFyfdF9bIcRg8MYgnYNRz0",
    "categories": [
      "Pharmacy"
    ],
    "fid": "0x876c7dd17d722179:0x3d470d768218c383",
    "cid": "4415512762300023683",
    "reviewsCount": 8,
    "imagesCount": 21,
    "imageCategories": [],
    "scrapedAt": "2025-06-22T04:18:36.243Z",
    "googleFoodUrl": null,
    "hotelAds": [],
    "openingHours": [
      {
        "day": "Monday",
        "hours": "9 AM to 6 PM"
      },
      {
        "day": "Tuesday",
        "hours": "9 AM to 6 PM"
      },
      {
        "day": "Wednesday",
        "hours": "9 AM to 6 PM"
      },
      {
        "day": "Thursday",
        "hours": "9 AM to 6 PM"
      },
      {
        "day": "Friday",
        "hours": "9 AM to 6 PM"
      },
      {
        "day": "Saturday",
        "hours": "Closed"
      },
      {
        "day": "Sunday",
        "hours": "10 AM to 2 PM"
      }
    ],
    "peopleAlsoSearch": [],
    "placesTags": [],
    "reviewsTags": [],
    "additionalInfo": {
      "Accessibility": [
        {
          "Wheelchair-accessible car park": true
        },
        {
          "Wheelchair-accessible entrance": true
        }
      ],
      "Planning": [
        {
          "Quick visit": true
        }
      ],
      "Payments": [
        {
          "Credit cards": true
        }
      ]
    },
    "gasPrices": [],
    "url": "https://www.google.com/maps/search/?api=1&query=Quality%20Care%20Pharmacy&query_place_id=ChIJeSFyfdF9bIcRg8MYgnYNRz0",
    "searchPageUrl": "https://www.google.com/maps/search/independent%20pharmacy%20Aurora%20CO/@67.82214549246302,-140.45172212891654,9z?hl=en",
    "searchString": "independent pharmacy Aurora CO",
    "language": "en",
    "rank": 7,
    "isAdvertisement": false,
    "imageUrl": "https://lh3.googleusercontent.com/gps-cs-s/AC9h4nrFVAxyS5Z1GUcEWZszZ8L5E0thnH-aC0C_MrpwNMJsJDSZFFavayMfVAKWHtFNcNigACIMgCZ1Tr1rJ-yfQhGrp8GDWL-O4vuU4WaO59vDRy9hcHFqSqETiO4ptn0ZmdL9hqVYhg=w408-h544-k-no",
    "kgmid": "/g/11w9z31106"
  },
  {
    "title": "AuroraRx Pharmacy",
    "price": null,
    "categoryName": "Pharmacy",
    "address": "3108 S Parker Rd UNIT D-06, Aurora, CO 80014, United States",
    "neighborhood": "Dam East/West",
    "street": "3108 S Parker Rd UNIT D-06",
    "city": "Aurora",
    "postalCode": "80014",
    "state": "Colorado",
    "countryCode": "US",
    "phone": "+1 720-923-6093",
    "phoneUnformatted": "+17209236093",
    "claimThisBusiness": false,
    "location": {
      "lat": 39.6609371,
      "lng": -104.8524588
    },
    "totalScore": 5,
    "permanentlyClosed": false,
    "temporarilyClosed": false,
    "placeId": "ChIJt6kUMK6HbIcRjKahyzVWwiA",
    "categories": [
      "Pharmacy"
    ],
    "fid": "0x876c87ae3014a9b7:0x20c25635cba1a68c",
    "cid": "2360543943745185420",
    "reviewsCount": 16,
    "imagesCount": 6,
    "imageCategories": [],
    "scrapedAt": "2025-06-22T04:18:36.243Z",
    "googleFoodUrl": null,
    "hotelAds": [],
    "openingHours": [
      {
        "day": "Monday",
        "hours": "9 AM to 5:30 PM"
      },
      {
        "day": "Tuesday",
        "hours": "9 AM to 5:30 PM"
      },
      {
        "day": "Wednesday",
        "hours": "9 AM to 5:30 PM"
      },
      {
        "day": "Thursday",
        "hours": "9 AM to 5:30 PM"
      },
      {
        "day": "Friday",
        "hours": "9 AM to 5:30 PM"
      },
      {
        "day": "Saturday",
        "hours": "Closed"
      },
      {
        "day": "Sunday",
        "hours": "Closed"
      }
    ],
    "peopleAlsoSearch": [],
    "placesTags": [],
    "reviewsTags": [],
    "additionalInfo": {
      "Accessibility": [
        {
          "Wheelchair-accessible car park": true
        },
        {
          "Wheelchair-accessible entrance": true
        }
      ],
      "Payments": [
        {
          "Credit cards": true
        }
      ]
    },
    "gasPrices": [],
    "url": "https://www.google.com/maps/search/?api=1&query=AuroraRx%20Pharmacy&query_place_id=ChIJt6kUMK6HbIcRjKahyzVWwiA",
    "searchPageUrl": "https://www.google.com/maps/search/independent%20pharmacy%20Aurora%20CO/@67.82214549246302,-140.45172212891654,9z?hl=en",
    "searchString": "independent pharmacy Aurora CO",
    "language": "en",
    "rank": 8,
    "isAdvertisement": false,
    "imageUrl": "https://lh3.googleusercontent.com/gps-cs-s/AC9h4np1tCmZ1ZHxvABcIs5LnANEAVlJ1UkCYpqubyhBLR72cZwPgbKXwZ37GZTDxX5ZkG2PfNkwdnaTMaLWKV5PMwAkpM1m1fpr1QHTXxgwfRpJDtB0HchCIEew501V4m8WlgZHpNb9Zw=w408-h544-k-no",
    "kgmid": "/g/11y8wv_h4c"
  }
]