[
  {
    "title": "Synergis Compounding Pharmacy",
    "price": null,
    "categoryName": "Pharmacy",
    "address": "1017 S Gilbert Rd #206, Mesa, AZ 85204",
    "neighborhood": null,
    "street": "1017 S Gilbert Rd #206",
    "city": "Mesa",
    "postalCode": "85204",
    "state": "Arizona",
    "countryCode": "US",
    "website": "http://synergispharmacy.com/",
    "phone": "(480) 471-8405",
    "phoneUnformatted": "+14804718405",
    "claimThisBusiness": false,
    "location": {
      "lat": 33.3966967,
      "lng": -111.7867818
    },
    "totalScore": 4.5,
    "permanentlyClosed": false,
    "temporarilyClosed": false,
    "placeId": "ChIJyYsqq8WpK4cRFTKML-xT8Ko",
    "categories": [
      "Pharmacy"
    ],
    "fid": "0x872ba9c5ab2a8bc9:0xaaf053ec2f8c3215",
    "cid": "12317437254733410837",
    "reviewsCount": 39,
    "imagesCount": 15,
    "imageCategories": [],
    "scrapedAt": "2025-06-22T04:13:17.711Z",
    "googleFoodUrl": null,
    "hotelAds": [],
    "openingHours": [
      {
        "day": "Monday",
        "hours": "9 AM to 5 PM"
      },
      {
        "day": "Tuesday",
        "hours": "9 AM to 5 PM"
      },
      {
        "day": "Wednesday",
        "hours": "9 AM to 5 PM"
      },
      {
        "day": "Thursday",
        "hours": "9 AM to 5 PM"
      },
      {
        "day": "Friday",
        "hours": "9 AM to 5 PM"
      },
      {
        "day": "Saturday",
        "hours": "Closed"
      },
      {
        "day": "Sunday",
        "hours": "Closed"
      }
    ],
    "peopleAlsoSearch": [],
    "placesTags": [],
    "reviewsTags": [],
    "additionalInfo": {
      "From the business": [
        {
          "Small business": true
        }
      ],
      "Service options": [
        {
          "Delivery": true
        },
        {
          "In-store pickup": true
        },
        {
          "In-store shopping": true
        }
      ],
      "Accessibility": [
        {
          "Wheelchair accessible entrance": true
        },
        {
          "Wheelchair accessible parking lot": true
        }
      ],
      "Planning": [
        {
          "Quick visit": true
        }
      ],
      "Payments": [
        {
          "Credit cards": true
        },
        {
          "Debit cards": true
        },
        {
          "NFC mobile payments": true
        },
        {
          "Credit cards": true
        }
      ]
    },
    "gasPrices": [],
    "url": "https://www.google.com/maps/search/?api=1&query=Synergis%20Compounding%20Pharmacy&query_place_id=ChIJyYsqq8WpK4cRFTKML-xT8Ko",
    "searchPageUrl": "https://www.google.com/maps/search/independent%20pharmacy%20Mesa%20AZ/@62.264056934850785,-148.50731502864818,9z?hl=en",
    "searchString": "independent pharmacy Mesa AZ",
    "language": "en",
    "rank": 1,
    "isAdvertisement": false,
    "imageUrl": "https://lh3.googleusercontent.com/p/AF1QipMMRSsJnsGzw3XiKjoZd2cpnW3y6mT8bwIIcjxI=w408-h611-k-no",
    "kgmid": "/g/11gy67_q54"
  },
  {
    "title": "Elements Compounding Pharmacy",
    "price": null,
    "categoryName": "Pharmacy",
    "address": "2110 E Baseline Rd # 5, Mesa, AZ 85204",
    "neighborhood": null,
    "street": "2110 E Baseline Rd # 5",
    "city": "Mesa",
    "postalCode": "85204",
    "state": "Arizona",
    "countryCode": "US",
    "website": "http://www.elementspharmacy.com/",
    "phone": "(480) 625-4750",
    "phoneUnformatted": "+14806254750",
    "claimThisBusiness": false,
    "location": {
      "lat": 33.380484,
      "lng": -111.78652
    },
    "totalScore": 4.7,
    "permanentlyClosed": false,
    "temporarilyClosed": false,
    "placeId": "ChIJVTac3eeoK4cRKo-nBdKubQ4",
    "categories": [
      "Pharmacy"
    ],
    "fid": "0x872ba8e7dd9c3655:0xe6daed205a78f2a",
    "cid": "1039679306053685034",
    "reviewsCount": 106,
    "imagesCount": 7,
    "imageCategories": [],
    "scrapedAt": "2025-06-22T04:13:17.712Z",
    "googleFoodUrl": null,
    "hotelAds": [],
    "openingHours": [
      {
        "day": "Monday",
        "hours": "10 AM to 6 PM"
      },
      {
        "day": "Tuesday",
        "hours": "10 AM to 6 PM"
      },
      {
        "day": "Wednesday",
        "hours": "10 AM to 6 PM"
      },
      {
        "day": "Thursday",
        "hours": "10 AM to 6 PM"
      },
      {
        "day": "Friday",
        "hours": "10 AM to 6 PM"
      },
      {
        "day": "Saturday",
        "hours": "9 AM to 1 PM"
      },
      {
        "day": "Sunday",
        "hours": "Closed"
      }
    ],
    "peopleAlsoSearch": [],
    "placesTags": [],
    "reviewsTags": [],
    "additionalInfo": {
      "From the business": [
        {
          "Small business": true
        }
      ],
      "Service options": [
        {
          "Delivery": true
        },
        {
          "In-store pickup": true
        }
      ],
      "Accessibility": [
        {
          "Wheelchair accessible entrance": true
        },
        {
          "Wheelchair accessible parking lot": true
        }
      ],
      "Payments": [
        {
          "Credit cards": true
        },
        {
          "Debit cards": true
        },
        {
          "NFC mobile payments": true
        },
        {
          "Credit cards": true
        }
      ]
    },
    "gasPrices": [],
    "url": "https://www.google.com/maps/search/?api=1&query=Elements%20Compounding%20Pharmacy&query_place_id=ChIJVTac3eeoK4cRKo-nBdKubQ4",
    "searchPageUrl": "https://www.google.com/maps/search/independent%20pharmacy%20Mesa%20AZ/@62.264056934850785,-148.50731502864818,9z?hl=en",
    "searchString": "independent pharmacy Mesa AZ",
    "language": "en",
    "rank": 2,
    "isAdvertisement": false,
    "imageUrl": "https://lh3.googleusercontent.com/gps-cs-s/AC9h4nrcs_SD8ipbJuHDICrrsACeSeeVSP2IjxXHi5kwm2zryqr_Regk5xzv9XLf100w8BceHDHGp-6HSVYE3jx8drn_k8pkOb0vl_Phl7JUzRCR2vkFohmwurLO_QSD1lUhnD7iVrF2=w426-h240-k-no",
    "kgmid": "/g/11b5s2b67v"
  },
  {
    "title": "Best-Rx Pharmacy, Inc",
    "price": null,
    "categoryName": "Pharmacy",
    "address": "455 N Mesa Dr #15, Mesa, AZ 85201",
    "neighborhood": null,
    "street": "455 N Mesa Dr #15",
    "city": "Mesa",
    "postalCode": "85201",
    "state": "Arizona",
    "countryCode": "US",
    "website": "https://www.best-rxaz.com/",
    "phone": "(480) 834-0444",
    "phoneUnformatted": "+14808340444",
    "claimThisBusiness": false,
    "location": {
      "lat": 33.4237059,
      "lng": -111.8225811
    },
    "totalScore": 4.8,
    "permanentlyClosed": false,
    "temporarilyClosed": false,
    "placeId": "ChIJR-ROJC-nK4cRhLMZGb_w13o",
    "categories": [
      "Pharmacy",
      "Drug store"
    ],
    "fid": "0x872ba72f244ee447:0x7ad7f0bf1919b384",
    "cid": "8851808296170533764",
    "reviewsCount": 96,
    "imagesCount": 8,
    "imageCategories": [],
    "scrapedAt": "2025-06-22T04:13:17.712Z",
    "googleFoodUrl": null,
    "hotelAds": [],
    "openingHours": [
      {
        "day": "Monday",
        "hours": "9 AM to 6 PM"
      },
      {
        "day": "Tuesday",
        "hours": "9 AM to 6 PM"
      },
      {
        "day": "Wednesday",
        "hours": "9 AM to 6 PM"
      },
      {
        "day": "Thursday",
        "hours": "9 AM to 6 PM"
      },
      {
        "day": "Friday",
        "hours": "9 AM to 6 PM"
      },
      {
        "day": "Saturday",
        "hours": "10 AM to 2 PM"
      },
      {
        "day": "Sunday",
        "hours": "Closed"
      }
    ],
    "peopleAlsoSearch": [],
    "placesTags": [],
    "reviewsTags": [],
    "additionalInfo": {
      "From the business": [
        {
          "Small business": true
        }
      ],
      "Service options": [
        {
          "Delivery": true
        },
        {
          "In-store pickup": true
        },
        {
          "In-store shopping": true
        },
        {
          "Same-day delivery": true
        }
      ],
      "Accessibility": [
        {
          "Wheelchair accessible entrance": true
        },
        {
          "Wheelchair accessible parking lot": true
        }
      ],
      "Amenities": [
        {
          "Wi-Fi": true
        },
        {
          "Free Wi-Fi": true
        }
      ],
      "Planning": [
        {
          "Quick visit": true
        }
      ],
      "Payments": [
        {
          "Credit cards": true
        },
        {
          "Debit cards": true
        },
        {
          "NFC mobile payments": true
        },
        {
          "Credit cards": true
        }
      ]
    },
    "gasPrices": [],
    "url": "https://www.google.com/maps/search/?api=1&query=Best-Rx%20Pharmacy%2C%20Inc&query_place_id=ChIJR-ROJC-nK4cRhLMZGb_w13o",
    "searchPageUrl": "https://www.google.com/maps/search/independent%20pharmacy%20Mesa%20AZ/@62.264056934850785,-148.50731502864818,9z?hl=en",
    "searchString": "independent pharmacy Mesa AZ",
    "language": "en",
    "rank": 3,
    "isAdvertisement": false,
    "imageUrl": "https://lh3.googleusercontent.com/p/AF1QipNVMWV7Rf13-mtJ7y3Tr2ms8tMIXtzJxS-ohq9p=w408-h306-k-no",
    "kgmid": "/g/11j99bzpqr"
  },
  {
    "title": "Fatima Pharmacy",
    "price": null,
    "categoryName": "Pharmacy",
    "address": "66 S Dobson Rd, Mesa, AZ 85202",
    "neighborhood": "Mesa Asian District",
    "street": "66 S Dobson Rd",
    "city": "Mesa",
    "postalCode": "85202",
    "state": "Arizona",
    "countryCode": "US",
    "phone": "(480) 664-7101",
    "phoneUnformatted": "+14806647101",
    "claimThisBusiness": true,
    "location": {
      "lat": 33.4133505,
      "lng": -111.8759921
    },
    "totalScore": 3.7,
    "permanentlyClosed": false,
    "temporarilyClosed": false,
    "placeId": "ChIJC_oaNxQIK4cR2OPn7Rsa4IQ",
    "categories": [
      "Pharmacy"
    ],
    "fid": "0x872b0814371afa0b:0x84e01a1bede7e3d8",
    "cid": "9574681515047511000",
    "reviewsCount": 3,
    "imagesCount": 1,
    "imageCategories": [],
    "scrapedAt": "2025-06-22T04:13:17.712Z",
    "googleFoodUrl": null,
    "hotelAds": [],
    "openingHours": [],
    "peopleAlsoSearch": [],
    "placesTags": [],
    "reviewsTags": [],
    "additionalInfo": {
      "Accessibility": [
        {
          "Wheelchair accessible entrance": true
        },
        {
          "Wheelchair accessible parking lot": true
        }
      ],
      "Payments": [
        {
          "Credit cards": true
        }
      ]
    },
    "gasPrices": [],
    "url": "https://www.google.com/maps/search/?api=1&query=Fatima%20Pharmacy&query_place_id=ChIJC_oaNxQIK4cR2OPn7Rsa4IQ",
    "searchPageUrl": "https://www.google.com/maps/search/independent%20pharmacy%20Mesa%20AZ/@62.264056934850785,-148.50731502864818,9z?hl=en",
    "searchString": "independent pharmacy Mesa AZ",
    "language": "en",
    "rank": 4,
    "isAdvertisement": false,
    "imageUrl": "https://streetviewpixels-pa.googleapis.com/v1/thumbnail?panoid=JJZoY8jr2kbNlLVU4aAJ2w&cb_client=search.gws-prod.gps&w=408&h=240&yaw=263.86584&pitch=0&thumbfov=100",
    "kgmid": "/g/11bwbx2ffg"
  },
  {
    "title": "Community Clinical Pharmacy",
    "price": null,
    "categoryName": "Pharmacy",
    "address": "2045 S Vineyard Ste 133, Mesa, AZ 85210",
    "neighborhood": "Dobson Woods",
    "street": "2045 S Vineyard Ste 133",
    "city": "Mesa",
    "postalCode": "85210",
    "state": "Arizona",
    "countryCode": "US",
    "website": "http://www.communityclinicalrx.com/",
    "phone": "(480) 969-0600",
    "phoneUnformatted": "+14809690600",
    "claimThisBusiness": false,
    "location": {
      "lat": 33.3770943,
      "lng": -111.8428095
    },
    "totalScore": 4.5,
    "permanentlyClosed": false,
    "temporarilyClosed": false,
    "placeId": "ChIJyS7E6-YHK4cRMaWYpvKpR1E",
    "categories": [
      "Pharmacy",
      "Health consultant",
      "Veterinary pharmacy"
    ],
    "fid": "0x872b07e6ebc42ec9:0x5147a9f2a698a531",
    "cid": "5856836700060820785",
    "reviewsCount": 55,
    "imagesCount": 14,
    "imageCategories": [],
    "scrapedAt": "2025-06-22T04:13:17.712Z",
    "googleFoodUrl": null,
    "hotelAds": [],
    "openingHours": [
      {
        "day": "Monday",
        "hours": "8:30 AM to 5:30 PM"
      },
      {
        "day": "Tuesday",
        "hours": "8:30 AM to 5:30 PM"
      },
      {
        "day": "Wednesday",
        "hours": "8:30 AM to 5:30 PM"
      },
      {
        "day": "Thursday",
        "hours": "8:30 AM to 5:30 PM"
      },
      {
        "day": "Friday",
        "hours": "8:30 AM to 5:30 PM"
      },
      {
        "day": "Saturday",
        "hours": "Closed"
      },
      {
        "day": "Sunday",
        "hours": "Closed"
      }
    ],
    "peopleAlsoSearch": [],
    "placesTags": [],
    "reviewsTags": [],
    "additionalInfo": {
      "From the business": [
        {
          "Small business": true
        }
      ],
      "Service options": [
        {
          "Delivery": true
        },
        {
          "In-store pickup": true
        }
      ],
      "Accessibility": [
        {
          "Wheelchair accessible entrance": true
        },
        {
          "Wheelchair accessible parking lot": true
        }
      ],
      "Payments": [
        {
          "Credit cards": true
        },
        {
          "Debit cards": true
        },
        {
          "NFC mobile payments": true
        },
        {
          "Credit cards": true
        }
      ]
    },
    "gasPrices": [],
    "url": "https://www.google.com/maps/search/?api=1&query=Community%20Clinical%20Pharmacy&query_place_id=ChIJyS7E6-YHK4cRMaWYpvKpR1E",
    "searchPageUrl": "https://www.google.com/maps/search/independent%20pharmacy%20Mesa%20AZ/@62.264056934850785,-148.50731502864818,9z?hl=en",
    "searchString": "independent pharmacy Mesa AZ",
    "language": "en",
    "rank": 5,
    "isAdvertisement": false,
    "imageUrl": "https://lh3.googleusercontent.com/p/AF1QipMgrrMaa1sqvMbXIsgcpyUgN9HvAN9vtvTcitX2=w447-h240-k-no",
    "kgmid": "/g/1tql579b"
  },
  {
    "title": "Valley Discount Pharmacy",
    "price": null,
    "categoryName": "Pharmacy",
    "address": "1245 E Southern Ave #21, Mesa, AZ 85204",
    "neighborhood": null,
    "street": "1245 E Southern Ave #21",
    "city": "Mesa",
    "postalCode": "85204",
    "state": "Arizona",
    "countryCode": "US",
    "website": "https://www.azvalleyrx.com/?y_source=1_MTAwMjc4NjI4My03MTUtbG9jYXRpb24ud2Vic2l0ZQ%3D%3D",
    "phone": "(480) 404-9160",
    "phoneUnformatted": "+14804049160",
    "claimThisBusiness": false,
    "location": {
      "lat": 33.3918251,
      "lng": -111.8043416
    },
    "totalScore": 4.9,
    "permanentlyClosed": false,
    "temporarilyClosed": false,
    "placeId": "ChIJj8Tq54uoK4cRP6ioK9bJDNI",
    "categories": [
      "Pharmacy",
      "Diabetes equipment supplier",
      "Medical supply store"
    ],
    "fid": "0x872ba88be7eac48f:0xd20cc9d62ba8a83f",
    "cid": "15135694369378052159",
    "reviewsCount": 34,
    "imagesCount": 24,
    "imageCategories": [],
    "scrapedAt": "2025-06-22T04:13:17.712Z",
    "googleFoodUrl": null,
    "hotelAds": [],
    "openingHours": [
      {
        "day": "Monday",
        "hours": "9 AM to 5:30 PM"
      },
      {
        "day": "Tuesday",
        "hours": "9 AM to 5:30 PM"
      },
      {
        "day": "Wednesday",
        "hours": "9 AM to 5:30 PM"
      },
      {
        "day": "Thursday",
        "hours": "9 AM to 5:30 PM"
      },
      {
        "day": "Friday",
        "hours": "9 AM to 5:30 PM"
      },
      {
        "day": "Saturday",
        "hours": "9 AM to 12:30 PM"
      },
      {
        "day": "Sunday",
        "hours": "Closed"
      }
    ],
    "additionalOpeningHours": {
      "Delivery": [
        {
          "day": "Monday",
          "hours": "9 AM–5 PM"
        },
        {
          "day": "Tuesday",
          "hours": "9 AM–5 PM"
        },
        {
          "day": "Wednesday",
          "hours": "9 AM–5 PM"
        },
        {
          "day": "Thursday",
          "hours": "9 AM–5 PM"
        },
        {
          "day": "Friday",
          "hours": "9 AM–5 PM"
        },
        {
          "day": "Saturday",
          "hours": "Closed"
        },
        {
          "day": "Sunday",
          "hours": "Closed"
        }
      ]
    },
    "peopleAlsoSearch": [],
    "placesTags": [],
    "reviewsTags": [],
    "additionalInfo": {
      "From the business": [
        {
          "Small business": true
        }
      ],
      "Service options": [
        {
          "Curbside pickup": true
        },
        {
          "Delivery": true
        },
        {
          "In-store pickup": true
        },
        {
          "In-store shopping": true
        },
        {
          "Same-day delivery": true
        }
      ],
      "Accessibility": [
        {
          "Wheelchair accessible entrance": true
        },
        {
          "Wheelchair accessible parking lot": true
        },
        {
          "Wheelchair accessible restroom": false
        },
        {
          "Wheelchair accessible seating": false
        }
      ],
      "Planning": [
        {
          "Quick visit": true
        }
      ],
      "Payments": [
        {
          "Checks": true
        },
        {
          "Credit cards": true
        },
        {
          "Debit cards": true
        },
        {
          "Credit cards": true
        }
      ]
    },
    "gasPrices": [],
    "url": "https://www.google.com/maps/search/?api=1&query=Valley%20Discount%20Pharmacy&query_place_id=ChIJj8Tq54uoK4cRP6ioK9bJDNI",
    "searchPageUrl": "https://www.google.com/maps/search/independent%20pharmacy%20Mesa%20AZ/@62.264056934850785,-148.50731502864818,9z?hl=en",
    "searchString": "independent pharmacy Mesa AZ",
    "language": "en",
    "rank": 6,
    "isAdvertisement": false,
    "imageUrl": "https://lh3.googleusercontent.com/p/AF1QipO7_q-exMj3jjQyYsLUZMHG3RJmp16247Fn87q_=w408-h306-k-no",
    "kgmid": "/g/11clyy8yqv"
  },
  {
    "title": "Community Clinical Pharmacy",
    "price": null,
    "categoryName": "Pharmacy",
    "address": "1450 S Dobson Rd Ste A100 - A105, Mesa, AZ 85202",
    "neighborhood": null,
    "street": "1450 S Dobson Rd Ste A100 - A105",
    "city": "Mesa",
    "postalCode": "85202",
    "state": "Arizona",
    "countryCode": "US",
    "website": "https://communityclinicalrx.com/",
    "phone": "(480) 969-0600",
    "phoneUnformatted": "+14809690600",
    "claimThisBusiness": false,
    "location": {
      "lat": 33.3881659,
      "lng": -111.8766315
    },
    "totalScore": 3,
    "permanentlyClosed": false,
    "temporarilyClosed": false,
    "placeId": "ChIJMe1CypAHK4cRekSAy3hQChw",
    "categories": [
      "Pharmacy"
    ],
    "fid": "0x872b0790ca42ed31:0x1c0a5078cb80447a",
    "cid": "2020515862569567354",
    "reviewsCount": 2,
    "imagesCount": 2,
    "imageCategories": [],
    "scrapedAt": "2025-06-22T04:13:17.713Z",
    "googleFoodUrl": null,
    "hotelAds": [],
    "openingHours": [
      {
        "day": "Monday",
        "hours": "8:30 AM to 5:30 PM"
      },
      {
        "day": "Tuesday",
        "hours": "8:30 AM to 5:30 PM"
      },
      {
        "day": "Wednesday",
        "hours": "8:30 AM to 5:30 PM"
      },
      {
        "day": "Thursday",
        "hours": "8:30 AM to 5:30 PM"
      },
      {
        "day": "Friday",
        "hours": "8:30 AM to 5:30 PM"
      },
      {
        "day": "Saturday",
        "hours": "Closed"
      },
      {
        "day": "Sunday",
        "hours": "Closed"
      }
    ],
    "peopleAlsoSearch": [],
    "placesTags": [],
    "reviewsTags": [],
    "additionalInfo": {
      "From the business": [
        {
          "Small business": true
        }
      ],
      "Service options": [
        {
          "Delivery": true
        }
      ],
      "Accessibility": [
        {
          "Wheelchair accessible entrance": true
        },
        {
          "Wheelchair accessible parking lot": true
        }
      ],
      "Payments": [
        {
          "Credit cards": true
        }
      ]
    },
    "gasPrices": [],
    "url": "https://www.google.com/maps/search/?api=1&query=Community%20Clinical%20Pharmacy&query_place_id=ChIJMe1CypAHK4cRekSAy3hQChw",
    "searchPageUrl": "https://www.google.com/maps/search/independent%20pharmacy%20Mesa%20AZ/@62.264056934850785,-148.50731502864818,9z?hl=en",
    "searchString": "independent pharmacy Mesa AZ",
    "language": "en",
    "rank": 7,
    "isAdvertisement": false,
    "imageUrl": "https://lh3.googleusercontent.com/p/AF1QipNTs0k6kdK2kyQS_TA8_3vTZVvrAY7d80jfJ2cR=w408-h408-k-no",
    "kgmid": "/g/11s58_jr96"
  },
  {
    "title": "Genoa Healthcare Pharmacy",
    "price": null,
    "categoryName": "Pharmacy",
    "address": "1705 W Main St, Mesa, AZ 85201",
    "neighborhood": null,
    "street": "1705 W Main St",
    "city": "Mesa",
    "postalCode": "85201",
    "state": "Arizona",
    "countryCode": "US",
    "website": "https://www.genoahealthcare.com/",
    "phone": "(480) 845-6769",
    "phoneUnformatted": "+14808456769",
    "claimThisBusiness": false,
    "location": {
      "lat": 33.4144668,
      "lng": -111.8677117
    },
    "totalScore": 5,
    "permanentlyClosed": false,
    "temporarilyClosed": false,
    "placeId": "ChIJMZ0QxBkIK4cRXhgWaFRh4so",
    "categories": [
      "Pharmacy"
    ],
    "fid": "0x872b0819c4109d31:0xcae261546816185e",
    "cid": "14619354355549476958",
    "reviewsCount": 2,
    "imagesCount": 1,
    "imageCategories": [],
    "scrapedAt": "2025-06-22T04:13:17.713Z",
    "googleFoodUrl": null,
    "hotelAds": [],
    "openingHours": [
      {
        "day": "Monday",
        "hours": "8 AM to 5 PM"
      },
      {
        "day": "Tuesday",
        "hours": "8 AM to 5 PM"
      },
      {
        "day": "Wednesday",
        "hours": "8 AM to 5 PM"
      },
      {
        "day": "Thursday",
        "hours": "8 AM to 5 PM"
      },
      {
        "day": "Friday",
        "hours": "8 AM to 5 PM"
      },
      {
        "day": "Saturday",
        "hours": "Closed"
      },
      {
        "day": "Sunday",
        "hours": "Closed"
      }
    ],
    "peopleAlsoSearch": [],
    "placesTags": [],
    "reviewsTags": [],
    "additionalInfo": {
      "Accessibility": [
        {
          "Wheelchair accessible entrance": true
        },
        {
          "Wheelchair accessible parking lot": true
        }
      ],
      "Payments": [
        {
          "Credit cards": true
        }
      ]
    },
    "gasPrices": [],
    "url": "https://www.google.com/maps/search/?api=1&query=Genoa%20Healthcare%20Pharmacy&query_place_id=ChIJMZ0QxBkIK4cRXhgWaFRh4so",
    "searchPageUrl": "https://www.google.com/maps/search/independent%20pharmacy%20Mesa%20AZ/@62.264056934850785,-148.50731502864818,9z?hl=en",
    "searchString": "independent pharmacy Mesa AZ",
    "language": "en",
    "rank": 8,
    "isAdvertisement": false,
    "imageUrl": "https://streetviewpixels-pa.googleapis.com/v1/thumbnail?panoid=5lRvMBRqbLjNiB8nfsHtFA&cb_client=search.gws-prod.gps&w=408&h=240&yaw=9.761206&pitch=0&thumbfov=100",
    "kgmid": "/g/11g8ygtbqf"
  },
  {
    "title": "Value Prescription",
    "price": null,
    "categoryName": "Pharmacy",
    "address": "1155 S Power Rd, Mesa, AZ 85206",
    "neighborhood": "Golden Hills",
    "street": "1155 S Power Rd",
    "city": "Mesa",
    "postalCode": "85206",
    "state": "Arizona",
    "countryCode": "US",
    "phone": "(480) 830-5970",
    "phoneUnformatted": "+14808305970",
    "claimThisBusiness": true,
    "location": {
      "lat": 33.3945269,
      "lng": -111.6835945
    },
    "permanentlyClosed": false,
    "temporarilyClosed": true,
    "placeId": "ChIJm8HnL8mvK4cRckY4qD-1lXs",
    "categories": [
      "Pharmacy"
    ],
    "fid": "0x872bafc92fe7c19b:0x7b95b53fa8384672",
    "cid": "8905223123204851314",
    "reviewsCount": 0,
    "imagesCount": 1,
    "imageCategories": [],
    "scrapedAt": "2025-06-22T04:13:17.713Z",
    "googleFoodUrl": null,
    "hotelAds": [],
    "openingHours": [],
    "peopleAlsoSearch": [],
    "placesTags": [],
    "reviewsTags": [],
    "gasPrices": [],
    "url": "https://www.google.com/maps/search/?api=1&query=Value%20Prescription&query_place_id=ChIJm8HnL8mvK4cRckY4qD-1lXs",
    "searchPageUrl": "https://www.google.com/maps/search/independent%20pharmacy%20Mesa%20AZ/@62.264056934850785,-148.50731502864818,9z?hl=en",
    "searchString": "independent pharmacy Mesa AZ",
    "language": "en",
    "rank": 9,
    "isAdvertisement": false,
    "imageUrl": "https://streetviewpixels-pa.googleapis.com/v1/thumbnail?panoid=xuur_zdZ5hkgxtl5esO1IA&cb_client=search.gws-prod.gps&w=408&h=240&yaw=228.12492&pitch=0&thumbfov=100",
    "kgmid": "/g/1wbry7m9"
  },
  {
    "title": "Vital Choice Pharmacy",
    "price": null,
    "categoryName": "Pharmacy",
    "address": "5925 E Southern Ave #101, Mesa, AZ 85206",
    "neighborhood": "Superstition Springs",
    "street": "5925 E Southern Ave #101",
    "city": "Mesa",
    "postalCode": "85206",
    "state": "Arizona",
    "countryCode": "US",
    "website": "https://vitalchoicepharmacy.com/",
    "phone": "(480) 306-7234",
    "phoneUnformatted": "+14803067234",
    "claimThisBusiness": false,
    "location": {
      "lat": 33.3936196,
      "lng": -111.7033161
    },
    "totalScore": 3.8,
    "permanentlyClosed": false,
    "temporarilyClosed": false,
    "placeId": "ChIJ-1MbHEWvK4cRWAC_zAOI1a0",
    "categories": [
      "Pharmacy"
    ],
    "fid": "0x872baf451c1b53fb:0xadd58803ccbf0058",
    "cid": "12526067488502251608",
    "reviewsCount": 10,
    "imagesCount": 17,
    "imageCategories": [],
    "scrapedAt": "2025-06-22T04:13:21.728Z",
    "googleFoodUrl": null,
    "hotelAds": [],
    "openingHours": [
      {
        "day": "Monday",
        "hours": "8 AM to 4 PM"
      },
      {
        "day": "Tuesday",
        "hours": "8 AM to 4 PM"
      },
      {
        "day": "Wednesday",
        "hours": "8 AM to 4 PM"
      },
      {
        "day": "Thursday",
        "hours": "8 AM to 4 PM"
      },
      {
        "day": "Friday",
        "hours": "8 AM to 4 PM"
      },
      {
        "day": "Saturday",
        "hours": "Closed"
      },
      {
        "day": "Sunday",
        "hours": "Closed"
      }
    ],
    "peopleAlsoSearch": [],
    "placesTags": [],
    "reviewsTags": [],
    "additionalInfo": {
      "From the business": [
        {
          "Small business": true
        }
      ],
      "Service options": [
        {
          "Delivery": true
        },
        {
          "In-store pickup": true
        },
        {
          "Same-day delivery": true
        }
      ],
      "Accessibility": [
        {
          "Wheelchair accessible entrance": true
        },
        {
          "Wheelchair accessible parking lot": true
        }
      ],
      "Planning": [
        {
          "Quick visit": true
        }
      ],
      "Payments": [
        {
          "Credit cards": true
        },
        {
          "Debit cards": true
        },
        {
          "NFC mobile payments": true
        },
        {
          "Credit cards": true
        }
      ]
    },
    "gasPrices": [],
    "url": "https://www.google.com/maps/search/?api=1&query=Vital%20Choice%20Pharmacy&query_place_id=ChIJ-1MbHEWvK4cRWAC_zAOI1a0",
    "searchPageUrl": "https://www.google.com/maps/search/independent%20pharmacy%20Mesa%20AZ/@-0.5783026530908715,-159.93028070145297,13z?hl=en",
    "searchString": "independent pharmacy Mesa AZ",
    "language": "en",
    "rank": 8,
    "isAdvertisement": false,
    "imageUrl": "https://lh3.googleusercontent.com/p/AF1QipPmact2_tnTxtax90vVez27Cqj1BEON3nATpS7_=w408-h306-k-no",
    "kgmid": "/g/11shsbkbc4"
  }
]