[
  {
    "title": "Central Pharmacy",
    "price": null,
    "categoryName": "Pharmacy",
    "address": "222 E Alameda St, Norman, OK 73069, United States",
    "neighborhood": "Larsh / Miller",
    "street": "222 E Alameda St",
    "city": "Norman",
    "postalCode": "73069",
    "state": "Oklahoma",
    "countryCode": "US",
    "phone": "+1 405-321-2838",
    "phoneUnformatted": "+14053212838",
    "claimThisBusiness": true,
    "location": {
      "lat": 35.2181646,
      "lng": -97.4385926
    },
    "totalScore": 4.7,
    "permanentlyClosed": false,
    "temporarilyClosed": false,
    "placeId": "ChIJtxFFddhpsocRjqVHvUPs-Bw",
    "categories": [
      "Pharmacy"
    ],
    "fid": "0x87b269d8754511b7:0x1cf8ec43bd47a58e",
    "cid": "2087678202968778126",
    "reviewsCount": 19,
    "imagesCount": 1,
    "imageCategories": [],
    "scrapedAt": "2025-06-22T09:20:09.433Z",
    "googleFoodUrl": null,
    "hotelAds": [],
    "openingHours": [
      {
        "day": "Monday",
        "hours": "9 AM to 6 PM"
      },
      {
        "day": "Tuesday",
        "hours": "9 AM to 6 PM"
      },
      {
        "day": "Wednesday",
        "hours": "9 AM to 6 PM"
      },
      {
        "day": "Thursday",
        "hours": "9 AM to 6 PM"
      },
      {
        "day": "Friday",
        "hours": "9 AM to 6 PM"
      },
      {
        "day": "Saturday",
        "hours": "9 AM to 12 PM"
      },
      {
        "day": "Sunday",
        "hours": "Closed"
      }
    ],
    "peopleAlsoSearch": [],
    "placesTags": [],
    "reviewsTags": [],
    "additionalInfo": {
      "Service options": [
        {
          "Drive-through": true
        },
        {
          "In-store pick-up": true
        }
      ],
      "Accessibility": [
        {
          "Wheelchair-accessible car park": true
        },
        {
          "Wheelchair-accessible entrance": true
        }
      ],
      "Planning": [
        {
          "Quick visit": true
        }
      ],
      "Payments": [
        {
          "Credit cards": true
        }
      ]
    },
    "gasPrices": [],
    "url": "https://www.google.com/maps/search/?api=1&query=Central%20Pharmacy&query_place_id=ChIJtxFFddhpsocRjqVHvUPs-Bw",
    "searchPageUrl": "https://www.google.com/maps/search/independent%20pharmacy%20Norman%20OK/@63.4816040992648,-168.95302698266974,11z?hl=en",
    "searchString": "independent pharmacy Norman OK",
    "language": "en",
    "rank": 1,
    "isAdvertisement": false,
    "imageUrl": "https://streetviewpixels-pa.googleapis.com/v1/thumbnail?panoid=rtuBU2hgstz4IGhB3xTIGw&cb_client=search.gws-prod.gps&w=408&h=240&yaw=173.43938&pitch=0&thumbfov=100",
    "kgmid": "/g/1thw2nkh"
  },
  {
    "title": "INTEGRIS Health Norman Pharmacy",
    "price": null,
    "categoryName": "Pharmacy",
    "address": "700 24th Ave NW, Norman, OK 73069, United States",
    "neighborhood": null,
    "street": "700 24th Ave NW",
    "city": "Norman",
    "postalCode": "73069",
    "state": "Oklahoma",
    "countryCode": "US",
    "website": "https://integrishealth.org/locations/pharmacy/norman-pharmacy",
    "phone": "+1 405-573-5479",
    "phoneUnformatted": "+14055735479",
    "claimThisBusiness": false,
    "location": {
      "lat": 35.2267984,
      "lng": -97.4783295
    },
    "totalScore": 4.9,
    "permanentlyClosed": false,
    "temporarilyClosed": false,
    "placeId": "ChIJpQnGWciDdIgROMlvfx_sjcc",
    "categories": [
      "Pharmacy"
    ],
    "fid": "0x887483c859c609a5:0xc78dec1f7f6fc938",
    "cid": "14379408805290035512",
    "reviewsCount": 33,
    "imagesCount": 1,
    "imageCategories": [],
    "scrapedAt": "2025-06-22T09:20:09.435Z",
    "googleFoodUrl": null,
    "hotelAds": [],
    "openingHours": [
      {
        "day": "Monday",
        "hours": "8 AM to 6 PM"
      },
      {
        "day": "Tuesday",
        "hours": "8 AM to 6 PM"
      },
      {
        "day": "Wednesday",
        "hours": "8 AM to 6 PM"
      },
      {
        "day": "Thursday",
        "hours": "8 AM to 6 PM"
      },
      {
        "day": "Friday",
        "hours": "8 AM to 6 PM"
      },
      {
        "day": "Saturday",
        "hours": "Closed"
      },
      {
        "day": "Sunday",
        "hours": "Closed"
      }
    ],
    "peopleAlsoSearch": [],
    "placesTags": [],
    "reviewsTags": [],
    "additionalInfo": {
      "Service options": [
        {
          "Delivery": true
        },
        {
          "In-store pick-up": true
        },
        {
          "Same-day delivery": true
        }
      ],
      "Accessibility": [
        {
          "Wheelchair-accessible car park": true
        },
        {
          "Wheelchair-accessible entrance": true
        }
      ],
      "Payments": [
        {
          "Credit cards": true
        }
      ]
    },
    "gasPrices": [],
    "url": "https://www.google.com/maps/search/?api=1&query=INTEGRIS%20Health%20Norman%20Pharmacy&query_place_id=ChIJpQnGWciDdIgROMlvfx_sjcc",
    "searchPageUrl": "https://www.google.com/maps/search/independent%20pharmacy%20Norman%20OK/@63.4816040992648,-168.95302698266974,11z?hl=en",
    "searchString": "independent pharmacy Norman OK",
    "language": "en",
    "rank": 2,
    "isAdvertisement": false,
    "imageUrl": "https://streetviewpixels-pa.googleapis.com/v1/thumbnail?panoid=pPIyhyHIL0P8pGhXUOUuZg&cb_client=search.gws-prod.gps&w=408&h=240&yaw=318.23245&pitch=0&thumbfov=100",
    "kgmid": "/g/11fj1knrxd"
  },
  {
    "title": "Sooner Pharmacy",
    "price": null,
    "categoryName": "Pharmacy",
    "address": "1811 W Lindsey St, Norman, OK 73069, United States",
    "neighborhood": null,
    "street": "1811 W Lindsey St",
    "city": "Norman",
    "postalCode": "73069",
    "state": "Oklahoma",
    "countryCode": "US",
    "website": "http://www.soonerrx.com/",
    "phone": "+1 405-329-6001",
    "phoneUnformatted": "+14053296001",
    "claimThisBusiness": false,
    "location": {
      "lat": 35.2043554,
      "lng": -97.4689393
    },
    "totalScore": 4.8,
    "permanentlyClosed": false,
    "temporarilyClosed": false,
    "placeId": "ChIJvQqYy7JpsocRZPSM7P8WiQA",
    "categories": [
      "Pharmacy"
    ],
    "fid": "0x87b269b2cb980abd:0x8916ffec8cf464",
    "cid": "38587360250492004",
    "reviewsCount": 124,
    "imagesCount": 36,
    "imageCategories": [],
    "scrapedAt": "2025-06-22T09:20:09.435Z",
    "googleFoodUrl": null,
    "hotelAds": [],
    "openingHours": [
      {
        "day": "Monday",
        "hours": "9 AM to 6 PM"
      },
      {
        "day": "Tuesday",
        "hours": "9 AM to 6 PM"
      },
      {
        "day": "Wednesday",
        "hours": "9 AM to 6 PM"
      },
      {
        "day": "Thursday",
        "hours": "9 AM to 6 PM"
      },
      {
        "day": "Friday",
        "hours": "9 AM to 6 PM"
      },
      {
        "day": "Saturday",
        "hours": "9 AM to 1 PM"
      },
      {
        "day": "Sunday",
        "hours": "Closed"
      }
    ],
    "additionalOpeningHours": {
      "Delivery": [
        {
          "day": "Monday",
          "hours": "2–6 pm"
        },
        {
          "day": "Tuesday",
          "hours": "2–6 pm"
        },
        {
          "day": "Wednesday",
          "hours": "2–6 pm"
        },
        {
          "day": "Thursday",
          "hours": "2–6 pm"
        },
        {
          "day": "Friday",
          "hours": "2–6 pm"
        },
        {
          "day": "Saturday",
          "hours": "Closed"
        },
        {
          "day": "Sunday",
          "hours": "Closed"
        }
      ]
    },
    "peopleAlsoSearch": [],
    "placesTags": [],
    "reviewsTags": [],
    "additionalInfo": {
      "From the business": [
        {
          "Small Business": true
        }
      ],
      "Service options": [
        {
          "Kerbside pickup": true
        },
        {
          "Delivery": true
        },
        {
          "Drive-through": true
        },
        {
          "In-store pick-up": true
        },
        {
          "In-store shopping": true
        },
        {
          "Same-day delivery": true
        },
        {
          "Spanish": true
        }
      ],
      "Accessibility": [
        {
          "Wheelchair-accessible car park": true
        }
      ],
      "Planning": [
        {
          "Appointment required": true
        },
        {
          "Quick visit": true
        }
      ],
      "Payments": [
        {
          "Cheques": true
        },
        {
          "Credit cards": true
        },
        {
          "Debit cards": true
        },
        {
          "NFC mobile payments": true
        },
        {
          "Credit cards": true
        }
      ]
    },
    "gasPrices": [],
    "url": "https://www.google.com/maps/search/?api=1&query=Sooner%20Pharmacy&query_place_id=ChIJvQqYy7JpsocRZPSM7P8WiQA",
    "searchPageUrl": "https://www.google.com/maps/search/independent%20pharmacy%20Norman%20OK/@63.4816040992648,-168.95302698266974,11z?hl=en",
    "searchString": "independent pharmacy Norman OK",
    "language": "en",
    "rank": 3,
    "isAdvertisement": false,
    "imageUrl": "https://lh3.googleusercontent.com/p/AF1QipOgqBScwfd_OB5ji1zrC2V9qOB3SEap1kqyU28K=w426-h240-k-no",
    "kgmid": "/g/1tdkbl6b"
  },
  {
    "title": "Osborn Drugs Norman",
    "price": null,
    "categoryName": "Pharmacy",
    "address": "900 N Porter Ave #101, Norman, OK 73071, United States",
    "neighborhood": "Old Silk Stocking",
    "street": "900 N Porter Ave #101",
    "city": "Norman",
    "postalCode": "73071",
    "state": "Oklahoma",
    "countryCode": "US",
    "website": "https://www.osborndrugsnorman.com/",
    "phone": "+1 405-364-5222",
    "phoneUnformatted": "+14053645222",
    "claimThisBusiness": false,
    "location": {
      "lat": 35.2298828,
      "lng": -97.4414389
    },
    "totalScore": 4.5,
    "permanentlyClosed": false,
    "temporarilyClosed": false,
    "placeId": "ChIJNZ9g9-BpsocRtaSVcav8m-4",
    "categories": [
      "Pharmacy"
    ],
    "fid": "0x87b269e0f7609f35:0xee9bfcab7195a4b5",
    "cid": "17193613815692240053",
    "reviewsCount": 19,
    "imagesCount": 2,
    "imageCategories": [],
    "scrapedAt": "2025-06-22T09:20:09.435Z",
    "googleFoodUrl": null,
    "hotelAds": [],
    "openingHours": [
      {
        "day": "Monday",
        "hours": "9 AM to 6 PM"
      },
      {
        "day": "Tuesday",
        "hours": "9 AM to 6 PM"
      },
      {
        "day": "Wednesday",
        "hours": "9 AM to 6 PM"
      },
      {
        "day": "Thursday",
        "hours": "9 AM to 6 PM"
      },
      {
        "day": "Friday",
        "hours": "9 AM to 6 PM"
      },
      {
        "day": "Saturday",
        "hours": "9 AM to 12 PM"
      },
      {
        "day": "Sunday",
        "hours": "Closed"
      }
    ],
    "peopleAlsoSearch": [],
    "placesTags": [],
    "reviewsTags": [],
    "additionalInfo": {
      "Service options": [
        {
          "Delivery": true
        },
        {
          "Drive-through": true
        },
        {
          "In-store pick-up": true
        },
        {
          "In-store shopping": true
        },
        {
          "Same-day delivery": true
        }
      ],
      "Accessibility": [
        {
          "Wheelchair-accessible car park": true
        },
        {
          "Wheelchair-accessible entrance": true
        }
      ],
      "Planning": [
        {
          "Quick visit": true
        }
      ],
      "Payments": [
        {
          "Credit cards": true
        }
      ]
    },
    "gasPrices": [],
    "url": "https://www.google.com/maps/search/?api=1&query=Osborn%20Drugs%20Norman&query_place_id=ChIJNZ9g9-BpsocRtaSVcav8m-4",
    "searchPageUrl": "https://www.google.com/maps/search/independent%20pharmacy%20Norman%20OK/@63.4816040992648,-168.95302698266974,11z?hl=en",
    "searchString": "independent pharmacy Norman OK",
    "language": "en",
    "rank": 4,
    "isAdvertisement": false,
    "imageUrl": "https://lh3.googleusercontent.com/gps-cs-s/AC9h4nrVW73FhjssZ8AP1o1eRnbc32MbpGq28rqy7uIzvwV28gHHL3RSOasrsX9aNpDS0b_iyTdnWECgHKhEp_Huhp44kaVJ_krqI-tMNpB41CHTs5gFgxrAh2RVANLAU5ElMcOBcsB0=w408-h544-k-no",
    "kgmid": "/g/1vl5h8xm"
  },
  {
    "title": "Thunder Discount Drug",
    "price": null,
    "categoryName": "Pharmacy",
    "address": "2296 W Main St, Norman, OK 73069, United States",
    "neighborhood": null,
    "street": "2296 W Main St",
    "city": "Norman",
    "postalCode": "73069",
    "state": "Oklahoma",
    "countryCode": "US",
    "website": "http://www.thunderdiscountdrug.com/",
    "phone": "+1 405-212-3177",
    "phoneUnformatted": "+14052123177",
    "claimThisBusiness": false,
    "location": {
      "lat": 35.2178908,
      "lng": -97.4755207
    },
    "totalScore": 4.9,
    "permanentlyClosed": false,
    "temporarilyClosed": false,
    "placeId": "ChIJlQ6GJaRpsocRbJZ0aMM8FXo",
    "categories": [
      "Pharmacy"
    ],
    "fid": "0x87b269a425860e95:0x7a153cc36874966c",
    "cid": "8797004257106892396",
    "reviewsCount": 65,
    "imagesCount": 7,
    "imageCategories": [],
    "scrapedAt": "2025-06-22T09:20:09.435Z",
    "googleFoodUrl": null,
    "hotelAds": [],
    "openingHours": [
      {
        "day": "Monday",
        "hours": "9 AM to 6 PM"
      },
      {
        "day": "Tuesday",
        "hours": "9 AM to 6 PM"
      },
      {
        "day": "Wednesday",
        "hours": "9 AM to 6 PM"
      },
      {
        "day": "Thursday",
        "hours": "9 AM to 6 PM"
      },
      {
        "day": "Friday",
        "hours": "9 AM to 6 PM"
      },
      {
        "day": "Saturday",
        "hours": "9 AM to 1 PM"
      },
      {
        "day": "Sunday",
        "hours": "Closed"
      }
    ],
    "additionalOpeningHours": {
      "Delivery": [
        {
          "day": "Monday",
          "hours": "3–6 pm"
        },
        {
          "day": "Tuesday",
          "hours": "3–6 pm"
        },
        {
          "day": "Wednesday",
          "hours": "3–6 pm"
        },
        {
          "day": "Thursday",
          "hours": "3–6 pm"
        },
        {
          "day": "Friday",
          "hours": "3–6 pm"
        },
        {
          "day": "Saturday",
          "hours": "Closed"
        },
        {
          "day": "Sunday",
          "hours": "Closed"
        }
      ]
    },
    "peopleAlsoSearch": [],
    "placesTags": [],
    "reviewsTags": [],
    "additionalInfo": {
      "From the business": [
        {
          "Small Business": true
        }
      ],
      "Service options": [
        {
          "Kerbside pickup": true
        },
        {
          "Delivery": true
        },
        {
          "Drive-through": true
        },
        {
          "In-store pick-up": true
        },
        {
          "In-store shopping": true
        },
        {
          "On-site services": true
        },
        {
          "Same-day delivery": true
        },
        {
          "Spanish": true
        }
      ],
      "Accessibility": [
        {
          "Wheelchair-accessible car park": true
        },
        {
          "Wheelchair-accessible entrance": true
        }
      ],
      "Planning": [
        {
          "Quick visit": true
        }
      ],
      "Payments": [
        {
          "Credit cards": true
        },
        {
          "Debit cards": true
        },
        {
          "NFC mobile payments": true
        },
        {
          "Credit cards": true
        }
      ]
    },
    "gasPrices": [],
    "url": "https://www.google.com/maps/search/?api=1&query=Thunder%20Discount%20Drug&query_place_id=ChIJlQ6GJaRpsocRbJZ0aMM8FXo",
    "searchPageUrl": "https://www.google.com/maps/search/independent%20pharmacy%20Norman%20OK/@63.4816040992648,-168.95302698266974,11z?hl=en",
    "searchString": "independent pharmacy Norman OK",
    "language": "en",
    "rank": 5,
    "isAdvertisement": false,
    "imageUrl": "https://lh3.googleusercontent.com/gps-cs-s/AC9h4npFjtoOUOt7gjRMGQHLzsxQlzsjcXG36Pq3JdkpxKpF1lciTcFveOW8x-ge9VoplV7GLJDFcbtmXKkVB_7cTulvXPeRcmdrgMAV1eMOGIpMUzHRdruAu4sitizBQvZivrduWDHNTQ=w408-h305-k-no",
    "kgmid": "/g/1pp2x7j6l"
  },
  {
    "title": "Prescription Care Pharmacy",
    "price": null,
    "categoryName": "Pharmacy",
    "address": "800 W Rock Creek Rd #117, Norman, OK 73069, United States",
    "neighborhood": null,
    "street": "800 W Rock Creek Rd #117",
    "city": "Norman",
    "postalCode": "73069",
    "state": "Oklahoma",
    "countryCode": "US",
    "website": "http://prescriptioncare.weebly.com/",
    "phone": "+1 405-928-8985",
    "phoneUnformatted": "+14059288985",
    "claimThisBusiness": false,
    "location": {
      "lat": 35.2467389,
      "lng": -97.4537656
    },
    "totalScore": 5,
    "permanentlyClosed": false,
    "temporarilyClosed": false,
    "placeId": "ChIJfQbnZNppsocRFJIIvk2A5dM",
    "categories": [
      "Pharmacy"
    ],
    "fid": "0x87b269da64e7067d:0xd3e5804dbe089214",
    "cid": "15268751183058604564",
    "reviewsCount": 1,
    "imagesCount": 2,
    "imageCategories": [],
    "scrapedAt": "2025-06-22T09:20:09.436Z",
    "googleFoodUrl": null,
    "hotelAds": [],
    "openingHours": [
      {
        "day": "Monday",
        "hours": "9 AM to 5 PM"
      },
      {
        "day": "Tuesday",
        "hours": "9 AM to 5 PM"
      },
      {
        "day": "Wednesday",
        "hours": "9 AM to 5 PM"
      },
      {
        "day": "Thursday",
        "hours": "9 AM to 5 PM"
      },
      {
        "day": "Friday",
        "hours": "9 AM to 5 PM"
      },
      {
        "day": "Saturday",
        "hours": "Closed"
      },
      {
        "day": "Sunday",
        "hours": "Closed"
      }
    ],
    "peopleAlsoSearch": [],
    "placesTags": [],
    "reviewsTags": [],
    "additionalInfo": {
      "From the business": [
        {
          "Small Business": true
        }
      ],
      "Service options": [
        {
          "Delivery": true
        },
        {
          "Same-day delivery": true
        }
      ],
      "Accessibility": [
        {
          "Wheelchair-accessible car park": true
        },
        {
          "Wheelchair-accessible entrance": true
        }
      ],
      "Payments": [
        {
          "Credit cards": true
        }
      ]
    },
    "gasPrices": [],
    "url": "https://www.google.com/maps/search/?api=1&query=Prescription%20Care%20Pharmacy&query_place_id=ChIJfQbnZNppsocRFJIIvk2A5dM",
    "searchPageUrl": "https://www.google.com/maps/search/independent%20pharmacy%20Norman%20OK/@63.4816040992648,-168.95302698266974,11z?hl=en",
    "searchString": "independent pharmacy Norman OK",
    "language": "en",
    "rank": 6,
    "isAdvertisement": false,
    "imageUrl": "https://lh3.googleusercontent.com/p/AF1QipMI0_9dNSx7tia6qJ2AJOztlWC68hzsNawU7bfu=w459-h240-k-no",
    "kgmid": "/g/11f778l0pc"
  },
  {
    "title": "Dave's Healthmart Pharmacy",
    "price": null,
    "categoryName": "Pharmacy",
    "address": "329 N Porter Ave, Norman, OK 73071, United States",
    "neighborhood": "First Courthouse",
    "street": "329 N Porter Ave",
    "city": "Norman",
    "postalCode": "73071",
    "state": "Oklahoma",
    "countryCode": "US",
    "website": "http://www.davesrx.com/",
    "phone": "+1 405-360-8882",
    "phoneUnformatted": "+14053608882",
    "claimThisBusiness": false,
    "location": {
      "lat": 35.2253879,
      "lng": -97.4406445
    },
    "totalScore": 4.8,
    "permanentlyClosed": false,
    "temporarilyClosed": false,
    "placeId": "ChIJhciaq99psocRq69de7PESMQ",
    "categories": [
      "Pharmacy"
    ],
    "fid": "0x87b269dfab9ac885:0xc448c4b37b5dafab",
    "cid": "14143770904904970155",
    "reviewsCount": 33,
    "imagesCount": 28,
    "imageCategories": [],
    "scrapedAt": "2025-06-22T09:20:09.436Z",
    "googleFoodUrl": null,
    "hotelAds": [],
    "openingHours": [
      {
        "day": "Monday",
        "hours": "9 AM to 6 PM"
      },
      {
        "day": "Tuesday",
        "hours": "9 AM to 6 PM"
      },
      {
        "day": "Wednesday",
        "hours": "9 AM to 6 PM"
      },
      {
        "day": "Thursday",
        "hours": "9 AM to 6 PM"
      },
      {
        "day": "Friday",
        "hours": "9 AM to 6 PM"
      },
      {
        "day": "Saturday",
        "hours": "9 AM to 12 PM"
      },
      {
        "day": "Sunday",
        "hours": "Closed"
      }
    ],
    "additionalOpeningHours": {
      "Delivery": [
        {
          "day": "Monday",
          "hours": "11 am–5 pm"
        },
        {
          "day": "Tuesday",
          "hours": "11 am–5 pm"
        },
        {
          "day": "Wednesday",
          "hours": "11 am–5 pm"
        },
        {
          "day": "Thursday",
          "hours": "11 am–5 pm"
        },
        {
          "day": "Friday",
          "hours": "11 am–5 pm"
        },
        {
          "day": "Saturday",
          "hours": "Closed"
        },
        {
          "day": "Sunday",
          "hours": "Closed"
        }
      ]
    },
    "peopleAlsoSearch": [],
    "placesTags": [],
    "reviewsTags": [],
    "additionalInfo": {
      "Service options": [
        {
          "Delivery": true
        },
        {
          "Drive-through": true
        },
        {
          "In-store pick-up": true
        },
        {
          "In-store shopping": true
        },
        {
          "Same-day delivery": true
        }
      ],
      "Accessibility": [
        {
          "Wheelchair-accessible car park": true
        },
        {
          "Wheelchair-accessible entrance": true
        }
      ],
      "Crowd": [
        {
          "LGBTQ+ friendly": true
        },
        {
          "Transgender safe space": true
        }
      ],
      "Planning": [
        {
          "Quick visit": true
        }
      ],
      "Payments": [
        {
          "Credit cards": true
        },
        {
          "Debit cards": true
        },
        {
          "NFC mobile payments": true
        },
        {
          "Credit cards": true
        }
      ]
    },
    "gasPrices": [],
    "url": "https://www.google.com/maps/search/?api=1&query=Dave's%20Healthmart%20Pharmacy&query_place_id=ChIJhciaq99psocRq69de7PESMQ",
    "searchPageUrl": "https://www.google.com/maps/search/independent%20pharmacy%20Norman%20OK/@63.4816040992648,-168.95302698266974,11z?hl=en",
    "searchString": "independent pharmacy Norman OK",
    "language": "en",
    "rank": 7,
    "isAdvertisement": false,
    "imageUrl": "https://lh3.googleusercontent.com/p/AF1QipNB2IYkl_GJtutr1_iF7CBgr56G3dqEoc4P6Zfe=w408-h509-k-no",
    "kgmid": "/g/1hc4dxgyt"
  },
  {
    "title": "Walgreens Pharmacy",
    "description": "Department of the Walgreens chain providing prescription medications & other health-related items.",
    "price": "$$",
    "categoryName": "Pharmacy",
    "address": "615 W Main St, Norman, OK 73069, United States",
    "neighborhood": null,
    "street": "615 W Main St",
    "city": "Norman",
    "postalCode": "73069",
    "state": "Oklahoma",
    "countryCode": "US",
    "website": "https://www.walgreens.com/locator/walgreens-615+w+main+st-norman-ok-73069/id=6477",
    "phone": "+1 405-573-5019",
    "phoneUnformatted": "+14055735019",
    "claimThisBusiness": false,
    "location": {
      "lat": 35.2187546,
      "lng": -97.4523936
    },
    "totalScore": 3,
    "permanentlyClosed": false,
    "temporarilyClosed": false,
    "placeId": "ChIJZyj3UsRpsocR8k-6l0RK0iA",
    "categories": [
      "Pharmacy"
    ],
    "fid": "0x87b269c452f72867:0x20d24a4497ba4ff2",
    "cid": "2365034412786733042",
    "reviewsCount": 66,
    "imagesCount": 3,
    "imageCategories": [],
    "scrapedAt": "2025-06-22T09:20:09.436Z",
    "googleFoodUrl": null,
    "hotelAds": [],
    "openingHours": [
      {
        "day": "Monday",
        "hours": "2 AM to 1:30 am"
      },
      {
        "day": "Tuesday",
        "hours": "2 AM to 1:30 am"
      },
      {
        "day": "Wednesday",
        "hours": "2 AM to 1:30 am"
      },
      {
        "day": "Thursday",
        "hours": "2 AM to 1:30 am"
      },
      {
        "day": "Friday",
        "hours": "2 AM to 1:30 am"
      },
      {
        "day": "Saturday",
        "hours": "2 AM to 1:30 am"
      },
      {
        "day": "Sunday",
        "hours": "2 AM to 1:30 am"
      }
    ],
    "additionalOpeningHours": {
      "Drive through": [
        {
          "day": "Monday",
          "hours": "2 am–1:30 am"
        },
        {
          "day": "Tuesday",
          "hours": "2 am–1:30 am"
        },
        {
          "day": "Wednesday",
          "hours": "2 am–1:30 am"
        },
        {
          "day": "Thursday",
          "hours": "2 am–1:30 am"
        },
        {
          "day": "Friday",
          "hours": "2 am–1:30 am"
        },
        {
          "day": "Saturday",
          "hours": "2 am–1:30 am"
        },
        {
          "day": "Sunday",
          "hours": "2 am–1:30 am"
        }
      ]
    },
    "peopleAlsoSearch": [],
    "placesTags": [],
    "reviewsTags": [],
    "additionalInfo": {
      "Service options": [
        {
          "Delivery": true
        },
        {
          "Drive-through": true
        },
        {
          "In-store pick-up": true
        },
        {
          "On-site services": true
        }
      ],
      "Accessibility": [
        {
          "Wheelchair-accessible car park": true
        },
        {
          "Wheelchair-accessible entrance": true
        }
      ],
      "Offerings": [
        {
          "Medication disposal": true
        },
        {
          "Naloxone": true
        }
      ],
      "Planning": [
        {
          "Quick visit": true
        }
      ],
      "Payments": [
        {
          "Cheques": true
        },
        {
          "Credit cards": true
        },
        {
          "Debit cards": true
        }
      ]
    },
    "gasPrices": [],
    "url": "https://www.google.com/maps/search/?api=1&query=Walgreens%20Pharmacy&query_place_id=ChIJZyj3UsRpsocR8k-6l0RK0iA",
    "searchPageUrl": "https://www.google.com/maps/search/independent%20pharmacy%20Norman%20OK/@63.4816040992648,-168.95302698266974,11z?hl=en",
    "searchString": "independent pharmacy Norman OK",
    "language": "en",
    "rank": 8,
    "isAdvertisement": false,
    "imageUrl": "https://lh3.googleusercontent.com/p/AF1QipPcXnWAdXsNlRH_ILyicf6IqT1ZsclCltEYYCSP=w525-h240-k-no",
    "kgmid": "/g/11cn94cd7r"
  },
  {
    "title": "Doctors Park Pharmacy",
    "price": null,
    "categoryName": "Pharmacy",
    "address": "500 E Robinson St #200, Norman, OK 73071",
    "neighborhood": "First Courthouse",
    "street": "500 E Robinson St #200",
    "city": "Norman",
    "postalCode": "73071",
    "state": "Oklahoma",
    "countryCode": "US",
    "website": "https://drsparkrx.com/",
    "phone": "(405) 364-5020",
    "phoneUnformatted": "+14053645020",
    "claimThisBusiness": true,
    "location": {
      "lat": 35.2324179,
      "lng": -97.439211
    },
    "totalScore": 4.7,
    "permanentlyClosed": false,
    "temporarilyClosed": false,
    "placeId": "ChIJv5ZF4uFpsocRlMWhYTjnLuY",
    "categories": [
      "Pharmacy"
    ],
    "fid": "0x87b269e1e24596bf:0xe62ee73861a1c594",
    "cid": "16586448706994292116",
    "reviewsCount": 97,
    "imagesCount": null,
    "imageCategories": [],
    "scrapedAt": "2025-06-22T09:20:12.122Z",
    "googleFoodUrl": null,
    "hotelAds": [],
    "openingHours": [
      {
        "day": "Monday",
        "hours": "9 AM to 6 PM"
      },
      {
        "day": "Tuesday",
        "hours": "9 AM to 6 PM"
      },
      {
        "day": "Wednesday",
        "hours": "9 AM to 6 PM"
      },
      {
        "day": "Thursday",
        "hours": "9 AM to 6 PM"
      },
      {
        "day": "Friday",
        "hours": "9 AM to 6 PM"
      },
      {
        "day": "Saturday",
        "hours": "9 AM to 12 PM"
      },
      {
        "day": "Sunday",
        "hours": "Closed"
      }
    ],
    "peopleAlsoSearch": [],
    "placesTags": [],
    "reviewsTags": [],
    "additionalInfo": {
      "Service options": [
        {
          "Delivery": true
        },
        {
          "Drive-through": true
        },
        {
          "In-store pickup": true
        },
        {
          "Onsite services": true
        },
        {
          "Same-day delivery": true
        }
      ],
      "Accessibility": [
        {
          "Wheelchair accessible entrance": true
        },
        {
          "Wheelchair accessible parking lot": true
        }
      ],
      "Planning": [
        {
          "Quick visit": true
        }
      ],
      "Payments": [
        {
          "Credit cards": true
        },
        {
          "Debit cards": true
        },
        {
          "NFC mobile payments": true
        },
        {
          "Credit cards": true
        }
      ]
    },
    "gasPrices": [],
    "url": "https://www.google.com/maps/search/?api=1&query=Doctors%20Park%20Pharmacy&query_place_id=ChIJv5ZF4uFpsocRlMWhYTjnLuY",
    "searchPageUrl": "https://www.google.com/maps/search/independent%20pharmacy%20Norman%20OK/@60.17977372574618,-141.6025211145925,9z?hl=en",
    "searchString": "independent pharmacy Norman OK",
    "language": "en",
    "rank": 9,
    "isAdvertisement": false,
    "kgmid": "/g/1tf3pdrt"
  },
  {
    "title": "Homeland Pharmacy",
    "price": null,
    "categoryName": "Parapharmacy",
    "address": "2600 W Robinson St, Norman, OK 73069",
    "neighborhood": null,
    "street": "2600 W Robinson St",
    "city": "Norman",
    "postalCode": "73069",
    "state": "Oklahoma",
    "countryCode": "US",
    "website": "https://hacweb.rxtouch.com/",
    "phone": "(405) 360-9701",
    "phoneUnformatted": "+14053609701",
    "claimThisBusiness": false,
    "location": {
      "lat": 35.232214,
      "lng": -97.48176
    },
    "totalScore": 4.8,
    "permanentlyClosed": false,
    "temporarilyClosed": false,
    "placeId": "ChIJ493fI3ZpsocRBl0rz92QHM8",
    "categories": [
      "Parapharmacy"
    ],
    "fid": "0x87b2697623dfdde3:0xcf1c90ddcf2b5d06",
    "cid": "14923962547536878854",
    "reviewsCount": 10,
    "imagesCount": 3,
    "imageCategories": [],
    "scrapedAt": "2025-06-22T09:20:12.122Z",
    "googleFoodUrl": null,
    "hotelAds": [],
    "openingHours": [
      {
        "day": "Monday",
        "hours": "9 AM to 7 PM"
      },
      {
        "day": "Tuesday",
        "hours": "9 AM to 7 PM"
      },
      {
        "day": "Wednesday",
        "hours": "9 AM to 7 PM"
      },
      {
        "day": "Thursday",
        "hours": "9 AM to 7 PM"
      },
      {
        "day": "Friday",
        "hours": "9 AM to 7 PM"
      },
      {
        "day": "Saturday",
        "hours": "10 AM to 4 PM"
      },
      {
        "day": "Sunday",
        "hours": "10 AM to 4 PM"
      }
    ],
    "peopleAlsoSearch": [],
    "placesTags": [],
    "reviewsTags": [],
    "additionalInfo": {
      "Service options": [
        {
          "In-store pickup": true
        }
      ],
      "Accessibility": [
        {
          "Wheelchair accessible entrance": true
        },
        {
          "Wheelchair accessible parking lot": true
        }
      ],
      "Amenities": [
        {
          "Wi-Fi": true
        },
        {
          "Free Wi-Fi": true
        }
      ],
      "Planning": [
        {
          "Quick visit": true
        }
      ],
      "Payments": [
        {
          "Credit cards": true
        },
        {
          "NFC mobile payments": true
        }
      ]
    },
    "gasPrices": [],
    "url": "https://www.google.com/maps/search/?api=1&query=Homeland%20Pharmacy&query_place_id=ChIJ493fI3ZpsocRBl0rz92QHM8",
    "searchPageUrl": "https://www.google.com/maps/search/independent%20pharmacy%20Norman%20OK/@60.17977372574618,-141.6025211145925,9z?hl=en",
    "searchString": "independent pharmacy Norman OK",
    "language": "en",
    "rank": 10,
    "isAdvertisement": false,
    "imageUrl": "https://lh3.googleusercontent.com/gps-cs-s/AC9h4nou_6xD-NZn-gHJY6sQafIK_tTNBrPfjCFXR9ski_ivmovS4NPDMnHILP1Jl2PhUT_Q712ujLCOUusdOgKB8j83hDnAarJmha2RRzPu3InMu75tFZXOcAXZq5GA4RwSd5PVtXTJ=w426-h240-k-no",
    "kgmid": "/g/12hk7d0yj"
  },
  {
    "title": "Sav-on Pharmacy",
    "price": null,
    "categoryName": "Pharmacy",
    "address": "1251 E Alameda St, Norman, OK 73071",
    "neighborhood": null,
    "street": "1251 E Alameda St",
    "city": "Norman",
    "postalCode": "73071",
    "state": "Oklahoma",
    "countryCode": "US",
    "phone": "(405) 447-0041",
    "phoneUnformatted": "+14054470041",
    "claimThisBusiness": true,
    "location": {
      "lat": 35.2189423,
      "lng": -97.4211121
    },
    "totalScore": 3,
    "permanentlyClosed": false,
    "temporarilyClosed": false,
    "placeId": "ChIJw6UuuGhCsocRiDhkyHJmCwI",
    "categories": [
      "Pharmacy"
    ],
    "fid": "0x87b24268b82ea5c3:0x20b6672c8643888",
    "cid": "147324055993989256",
    "reviewsCount": 2,
    "imagesCount": 1,
    "imageCategories": [],
    "scrapedAt": "2025-06-22T09:20:12.122Z",
    "googleFoodUrl": null,
    "hotelAds": [],
    "openingHours": [
      {
        "day": "Monday",
        "hours": "9 AM to 9 PM"
      },
      {
        "day": "Tuesday",
        "hours": "9 AM to 9 PM"
      },
      {
        "day": "Wednesday",
        "hours": "9 AM to 9 PM"
      },
      {
        "day": "Thursday",
        "hours": "9 AM to 9 PM"
      },
      {
        "day": "Friday",
        "hours": "9 AM to 9 PM"
      },
      {
        "day": "Saturday",
        "hours": "9 AM to 7 PM"
      },
      {
        "day": "Sunday",
        "hours": "10 AM to 4 PM"
      }
    ],
    "peopleAlsoSearch": [],
    "placesTags": [],
    "reviewsTags": [],
    "additionalInfo": {
      "Accessibility": [
        {
          "Wheelchair accessible entrance": true
        },
        {
          "Wheelchair accessible parking lot": true
        }
      ],
      "Planning": [
        {
          "Quick visit": true
        }
      ],
      "Payments": [
        {
          "Credit cards": true
        }
      ]
    },
    "gasPrices": [],
    "url": "https://www.google.com/maps/search/?api=1&query=Sav-on%20Pharmacy&query_place_id=ChIJw6UuuGhCsocRiDhkyHJmCwI",
    "searchPageUrl": "https://www.google.com/maps/search/independent%20pharmacy%20Norman%20OK/@60.17977372574618,-141.6025211145925,9z?hl=en",
    "searchString": "independent pharmacy Norman OK",
    "language": "en",
    "rank": 11,
    "isAdvertisement": false,
    "imageUrl": "https://streetviewpixels-pa.googleapis.com/v1/thumbnail?panoid=CEG8YLr3aVim0XPo3voMxw&cb_client=search.gws-prod.gps&w=408&h=240&yaw=133.14685&pitch=0&thumbfov=100",
    "kgmid": "/g/1263vfnq2"
  },
  {
    "title": "Legend Care Pharmacy",
    "price": null,
    "categoryName": "Pharmacy",
    "address": "2600 Technology Pl, Norman, OK 73071",
    "neighborhood": null,
    "street": "2600 Technology Pl",
    "city": "Norman",
    "postalCode": "73071",
    "state": "Oklahoma",
    "countryCode": "US",
    "website": "http://www.legendcarepharmacy.com/",
    "phone": "(405) 321-5300",
    "phoneUnformatted": "+14053215300",
    "claimThisBusiness": true,
    "location": {
      "lat": 35.1854705,
      "lng": -97.4006709
    },
    "totalScore": 2.3,
    "permanentlyClosed": false,
    "temporarilyClosed": false,
    "placeId": "ChIJIz7j5N1CsocRNjmhE4w5nKA",
    "categories": [
      "Pharmacy"
    ],
    "fid": "0x87b242dde4e33e23:0xa09c398c13a13936",
    "cid": "11573188416222869814",
    "reviewsCount": 6,
    "imagesCount": 1,
    "imageCategories": [],
    "scrapedAt": "2025-06-22T09:20:12.122Z",
    "googleFoodUrl": null,
    "hotelAds": [],
    "openingHours": [
      {
        "day": "Monday",
        "hours": "9 AM to 5 PM"
      },
      {
        "day": "Tuesday",
        "hours": "9 AM to 5 PM"
      },
      {
        "day": "Wednesday",
        "hours": "9 AM to 5 PM"
      },
      {
        "day": "Thursday",
        "hours": "9 AM to 5 PM"
      },
      {
        "day": "Friday",
        "hours": "9 AM to 5 PM"
      },
      {
        "day": "Saturday",
        "hours": "Closed"
      },
      {
        "day": "Sunday",
        "hours": "Closed"
      }
    ],
    "peopleAlsoSearch": [],
    "placesTags": [],
    "reviewsTags": [],
    "additionalInfo": {
      "Accessibility": [
        {
          "Wheelchair accessible entrance": true
        },
        {
          "Wheelchair accessible parking lot": true
        }
      ]
    },
    "gasPrices": [],
    "url": "https://www.google.com/maps/search/?api=1&query=Legend%20Care%20Pharmacy&query_place_id=ChIJIz7j5N1CsocRNjmhE4w5nKA",
    "searchPageUrl": "https://www.google.com/maps/search/independent%20pharmacy%20Norman%20OK/@60.17977372574618,-141.6025211145925,9z?hl=en",
    "searchString": "independent pharmacy Norman OK",
    "language": "en",
    "rank": 12,
    "isAdvertisement": false,
    "imageUrl": "https://streetviewpixels-pa.googleapis.com/v1/thumbnail?panoid=n1kvT4KCD6687C83bQOnyA&cb_client=search.gws-prod.gps&w=408&h=240&yaw=263.85593&pitch=0&thumbfov=100",
    "kgmid": "/g/12616htb2"
  },
  {
    "title": "Homeland Pharmacy",
    "price": null,
    "categoryName": "Parapharmacy",
    "address": "1724 W Lindsey St, Norman, OK 73069",
    "neighborhood": null,
    "street": "1724 W Lindsey St",
    "city": "Norman",
    "postalCode": "73069",
    "state": "Oklahoma",
    "countryCode": "US",
    "website": "https://homelandstores.com/",
    "phone": "(405) 321-7048",
    "phoneUnformatted": "+14053217048",
    "claimThisBusiness": false,
    "location": {
      "lat": 35.2035728,
      "lng": -97.4660524
    },
    "totalScore": 4.1,
    "permanentlyClosed": false,
    "temporarilyClosed": false,
    "placeId": "ChIJPbuCk0xosocRn6soE8wL5ds",
    "categories": [
      "Parapharmacy"
    ],
    "fid": "0x87b2684c9382bb3d:0xdbe50bcc1328ab9f",
    "cid": "15845083835095624607",
    "reviewsCount": 9,
    "imagesCount": 2,
    "imageCategories": [],
    "scrapedAt": "2025-06-22T09:20:12.122Z",
    "googleFoodUrl": null,
    "hotelAds": [],
    "openingHours": [
      {
        "day": "Monday",
        "hours": "9 AM to 7 PM"
      },
      {
        "day": "Tuesday",
        "hours": "9 AM to 7 PM"
      },
      {
        "day": "Wednesday",
        "hours": "9 AM to 7 PM"
      },
      {
        "day": "Thursday",
        "hours": "9 AM to 7 PM"
      },
      {
        "day": "Friday",
        "hours": "9 AM to 7 PM"
      },
      {
        "day": "Saturday",
        "hours": "9 AM to 5 PM"
      },
      {
        "day": "Sunday",
        "hours": "12 to 6 PM"
      }
    ],
    "peopleAlsoSearch": [],
    "placesTags": [],
    "reviewsTags": [],
    "additionalInfo": {
      "Service options": [
        {
          "In-store pickup": true
        }
      ],
      "Accessibility": [
        {
          "Wheelchair accessible entrance": true
        },
        {
          "Wheelchair accessible parking lot": true
        }
      ],
      "Planning": [
        {
          "Quick visit": true
        }
      ],
      "Payments": [
        {
          "Credit cards": true
        }
      ]
    },
    "gasPrices": [],
    "url": "https://www.google.com/maps/search/?api=1&query=Homeland%20Pharmacy&query_place_id=ChIJPbuCk0xosocRn6soE8wL5ds",
    "searchPageUrl": "https://www.google.com/maps/search/independent%20pharmacy%20Norman%20OK/@60.17977372574618,-141.6025211145925,9z?hl=en",
    "searchString": "independent pharmacy Norman OK",
    "language": "en",
    "rank": 13,
    "isAdvertisement": false,
    "imageUrl": "https://lh3.googleusercontent.com/gps-cs-s/AC9h4nrD6p0rayhIITqlzFdOccgw4qxx1SS-L_NXEJJmvuCejyT7IaUzv8dW9CIBYRSPbubeVgUaaNcAuKK3b20ePUgGiZsQi3bg3Pffq6HvthQBM9HAdaWDrKnVpsrhKb-bmMxMhR3V4w=w456-h240-k-no",
    "kgmid": "/g/11f101pwgm"
  },
  {
    "title": "CVS Pharmacy",
    "price": null,
    "categoryName": "Pharmacy",
    "address": "1100 E Lindsey St, Norman, OK 73071",
    "neighborhood": null,
    "street": "1100 E Lindsey St",
    "city": "Norman",
    "postalCode": "73071",
    "state": "Oklahoma",
    "countryCode": "US",
    "website": "https://www.cvs.com/store-locator/norman-ok-pharmacies/1100-e-lindsey-st-norman-ok-73071/storeid=6024?WT.mc_id=LS_GOOGLE_RX_6024",
    "phone": "(405) 321-0226",
    "phoneUnformatted": "+14053210226",
    "claimThisBusiness": false,
    "location": {
      "lat": 35.2033017,
      "lng": -97.4243294
    },
    "totalScore": 3.7,
    "permanentlyClosed": false,
    "temporarilyClosed": false,
    "placeId": "ChIJ66u-HIlCsocRDirwHXFXQ1s",
    "categories": [
      "Pharmacy"
    ],
    "fid": "0x87b242891cbeabeb:0x5b4357711df02a0e",
    "cid": "6576196024236255758",
    "reviewsCount": 44,
    "imagesCount": 8,
    "imageCategories": [],
    "scrapedAt": "2025-06-22T09:20:12.122Z",
    "googleFoodUrl": null,
    "hotelAds": [],
    "openingHours": [
      {
        "day": "Monday",
        "hours": "8 AM to 1:30 PM, 2 to 8 PM"
      },
      {
        "day": "Tuesday",
        "hours": "8 AM to 1:30 PM, 2 to 8 PM"
      },
      {
        "day": "Wednesday",
        "hours": "8 AM to 1:30 PM, 2 to 8 PM"
      },
      {
        "day": "Thursday",
        "hours": "8 AM to 1:30 PM, 2 to 8 PM"
      },
      {
        "day": "Friday",
        "hours": "8 AM to 1:30 PM, 2 to 8 PM"
      },
      {
        "day": "Saturday",
        "hours": "9 AM to 1:30 PM, 2 to 6 PM"
      },
      {
        "day": "Sunday",
        "hours": "10 AM to 1:30 PM, 2 to 6 PM"
      }
    ],
    "peopleAlsoSearch": [],
    "placesTags": [],
    "reviewsTags": [],
    "additionalInfo": {
      "Service options": [
        {
          "Delivery": true
        },
        {
          "Drive-through": true
        },
        {
          "In-store pickup": true
        },
        {
          "In-store shopping": true
        }
      ],
      "Accessibility": [
        {
          "Wheelchair accessible entrance": true
        },
        {
          "Wheelchair accessible parking lot": true
        }
      ],
      "Offerings": [
        {
          "Medication disposal": true
        },
        {
          "Naloxone": true
        },
        {
          "Passport photos": true
        }
      ],
      "Crowd": [
        {
          "LGBTQ+ friendly": true
        },
        {
          "Transgender safespace": true
        }
      ],
      "Planning": [
        {
          "Quick visit": true
        }
      ],
      "Payments": [
        {
          "Credit cards": true
        },
        {
          "Debit cards": true
        },
        {
          "NFC mobile payments": true
        },
        {
          "SNAP/EBT": true
        },
        {
          "Credit cards": true
        }
      ]
    },
    "gasPrices": [],
    "url": "https://www.google.com/maps/search/?api=1&query=CVS%20Pharmacy&query_place_id=ChIJ66u-HIlCsocRDirwHXFXQ1s",
    "searchPageUrl": "https://www.google.com/maps/search/independent%20pharmacy%20Norman%20OK/@60.17977372574618,-141.6025211145925,9z?hl=en",
    "searchString": "independent pharmacy Norman OK",
    "language": "en",
    "rank": 14,
    "isAdvertisement": false,
    "imageUrl": "https://lh3.googleusercontent.com/p/AF1QipNteWTHrPhheBAsmGZMznvMcyCWniSFoirvkSlq=w408-h272-k-no",
    "kgmid": "/g/11c467wlh4"
  },
  {
    "title": "Meds & Moore Pharmacy: Compounding Pharmacy",
    "price": null,
    "categoryName": "Pharmacy",
    "address": "1280 N Eastern Ave Suite F, Moore, OK 73160",
    "neighborhood": null,
    "street": "1280 N Eastern Ave Suite F",
    "city": "Moore",
    "postalCode": "73160",
    "state": "Oklahoma",
    "countryCode": "US",
    "website": "https://medsandmoore.com/",
    "phone": "(405) 735-5160",
    "phoneUnformatted": "+14057355160",
    "claimThisBusiness": false,
    "location": {
      "lat": 35.3481024,
      "lng": -97.4764645
    },
    "totalScore": 4.7,
    "permanentlyClosed": false,
    "temporarilyClosed": false,
    "placeId": "ChIJPVbhvKZrsocRcD6CS3vVDe8",
    "categories": [
      "Pharmacy",
      "Drug store",
      "Homeopathic pharmacy",
      "Veterinary pharmacy",
      "Vitamin & supplements store"
    ],
    "fid": "0x87b26ba6bce1563d:0xef0dd57b4b823e70",
    "cid": "17225658875286535792",
    "reviewsCount": 55,
    "imagesCount": 24,
    "imageCategories": [],
    "scrapedAt": "2025-06-22T09:20:12.122Z",
    "googleFoodUrl": null,
    "hotelAds": [],
    "openingHours": [
      {
        "day": "Monday",
        "hours": "9 AM to 7 PM"
      },
      {
        "day": "Tuesday",
        "hours": "9 AM to 7 PM"
      },
      {
        "day": "Wednesday",
        "hours": "9 AM to 7 PM"
      },
      {
        "day": "Thursday",
        "hours": "9 AM to 7 PM"
      },
      {
        "day": "Friday",
        "hours": "9 AM to 7 PM"
      },
      {
        "day": "Saturday",
        "hours": "9 AM to 2 PM"
      },
      {
        "day": "Sunday",
        "hours": "Closed"
      }
    ],
    "peopleAlsoSearch": [],
    "placesTags": [],
    "reviewsTags": [],
    "additionalInfo": {
      "From the business": [
        {
          "Small business": true
        }
      ],
      "Service options": [
        {
          "Delivery": true
        },
        {
          "Drive-through": true
        },
        {
          "In-store pickup": true
        },
        {
          "Same-day delivery": true
        }
      ],
      "Accessibility": [
        {
          "Wheelchair accessible entrance": true
        },
        {
          "Wheelchair accessible parking lot": true
        }
      ],
      "Crowd": [
        {
          "LGBTQ+ friendly": true
        },
        {
          "Transgender safespace": true
        }
      ],
      "Planning": [
        {
          "Quick visit": true
        }
      ],
      "Payments": [
        {
          "Credit cards": true
        },
        {
          "Debit cards": true
        },
        {
          "Credit cards": true
        }
      ]
    },
    "gasPrices": [],
    "url": "https://www.google.com/maps/search/?api=1&query=Meds%20%26%20Moore%20Pharmacy%3A%20Compounding%20Pharmacy&query_place_id=ChIJPVbhvKZrsocRcD6CS3vVDe8",
    "searchPageUrl": "https://www.google.com/maps/search/independent%20pharmacy%20Norman%20OK/@60.17977372574618,-141.6025211145925,9z?hl=en",
    "searchString": "independent pharmacy Norman OK",
    "language": "en",
    "rank": 15,
    "isAdvertisement": false,
    "imageUrl": "https://lh3.googleusercontent.com/p/AF1QipMNaakD57pluFrYUdp135Xmy8rzREA8Oe-GLOX2=w408-h272-k-no",
    "kgmid": "/g/11fm4b5l8q"
  },
  {
    "title": "Charles B. Goddard Health Center Pharmacy",
    "price": null,
    "categoryName": "Pharmacy",
    "address": "620 Elm Ave, Norman, OK 73019",
    "neighborhood": null,
    "street": "620 Elm Ave",
    "city": "Norman",
    "postalCode": "73019",
    "state": "Oklahoma",
    "countryCode": "US",
    "website": "http://www.ou.edu/healthservices/pharmacy.html",
    "phone": "(405) 325-5165",
    "phoneUnformatted": "+14053255165",
    "claimThisBusiness": false,
    "location": {
      "lat": 35.2084188,
      "lng": -97.4485487
    },
    "totalScore": 4.3,
    "permanentlyClosed": false,
    "temporarilyClosed": false,
    "placeId": "ChIJr1ZYF9JpsocRrLQA7Xc0YVc",
    "categories": [
      "Pharmacy"
    ],
    "fid": "0x87b269d2175856af:0x57613477ed00b4ac",
    "cid": "6296371443722663084",
    "reviewsCount": 6,
    "imagesCount": 2,
    "imageCategories": [],
    "scrapedAt": "2025-06-22T09:20:12.122Z",
    "googleFoodUrl": null,
    "hotelAds": [],
    "openingHours": [
      {
        "day": "Monday",
        "hours": "8 AM to 5 PM"
      },
      {
        "day": "Tuesday",
        "hours": "8 AM to 5 PM"
      },
      {
        "day": "Wednesday",
        "hours": "8 AM to 5 PM"
      },
      {
        "day": "Thursday",
        "hours": "8 AM to 5 PM"
      },
      {
        "day": "Friday",
        "hours": "8 AM to 5 PM"
      },
      {
        "day": "Saturday",
        "hours": "Closed"
      },
      {
        "day": "Sunday",
        "hours": "Closed"
      }
    ],
    "peopleAlsoSearch": [],
    "placesTags": [],
    "reviewsTags": [],
    "additionalInfo": {
      "From the business": [
        {
          "Small business": true
        }
      ],
      "Accessibility": [
        {
          "Wheelchair accessible entrance": true
        },
        {
          "Wheelchair accessible parking lot": true
        }
      ],
      "Amenities": [
        {
          "Wi-Fi": true
        },
        {
          "Free Wi-Fi": true
        }
      ],
      "Payments": [
        {
          "Credit cards": true
        }
      ]
    },
    "gasPrices": [],
    "url": "https://www.google.com/maps/search/?api=1&query=Charles%20B.%20Goddard%20Health%20Center%20Pharmacy&query_place_id=ChIJr1ZYF9JpsocRrLQA7Xc0YVc",
    "searchPageUrl": "https://www.google.com/maps/search/independent%20pharmacy%20Norman%20OK/@60.17977372574618,-141.6025211145925,9z?hl=en",
    "searchString": "independent pharmacy Norman OK",
    "language": "en",
    "rank": 16,
    "isAdvertisement": false,
    "imageUrl": "https://lh3.googleusercontent.com/gps-cs-s/AC9h4np7tPXGhLoZWdBqiwxuByYC9_QktdQDbI8inS8Y0f_g3wLS_rSqQjeyHw7wpCB1zhcRqdrRajT5Ib3enrYramb9D1Y7jRyjFavAIHU31_hOVEy_B_wRG9Zmi_9UFGatfJir_9DD1g=w408-h544-k-no",
    "kgmid": "/g/11bt_jt8fm"
  },
  {
    "title": "Kale D. Baden, DPH",
    "price": null,
    "categoryName": "Pharmacy",
    "address": "901 N Porter Ave, Norman, OK 73071",
    "neighborhood": "First Courthouse",
    "street": "901 N Porter Ave",
    "city": "Norman",
    "postalCode": "73071",
    "state": "Oklahoma",
    "countryCode": "US",
    "website": "http://www.normanregional.com/",
    "phone": "(405) 307-1000",
    "phoneUnformatted": "+14053071000",
    "claimThisBusiness": true,
    "location": {
      "lat": 35.2301496,
      "lng": -97.4391496
    },
    "permanentlyClosed": false,
    "temporarilyClosed": false,
    "placeId": "ChIJucR2TeBpsocRqrqBYM_1BZY",
    "categories": [
      "Pharmacy"
    ],
    "fid": "0x87b269e04d76c4b9:0x9605f5cf6081baaa",
    "cid": "10810316751598893738",
    "reviewsCount": 0,
    "imagesCount": 1,
    "imageCategories": [],
    "scrapedAt": "2025-06-22T09:20:12.123Z",
    "googleFoodUrl": null,
    "hotelAds": [],
    "openingHours": [],
    "peopleAlsoSearch": [],
    "placesTags": [],
    "reviewsTags": [],
    "additionalInfo": {
      "Service options": [
        {
          "Delivery": true
        }
      ],
      "Accessibility": [
        {
          "Wheelchair accessible entrance": true
        },
        {
          "Wheelchair accessible parking lot": true
        }
      ],
      "Payments": [
        {
          "Credit cards": true
        }
      ]
    },
    "gasPrices": [],
    "url": "https://www.google.com/maps/search/?api=1&query=Kale%20D.%20Baden%2C%20DPH&query_place_id=ChIJucR2TeBpsocRqrqBYM_1BZY",
    "searchPageUrl": "https://www.google.com/maps/search/independent%20pharmacy%20Norman%20OK/@60.17977372574618,-141.6025211145925,9z?hl=en",
    "searchString": "independent pharmacy Norman OK",
    "language": "en",
    "rank": 17,
    "isAdvertisement": false,
    "imageUrl": "https://streetviewpixels-pa.googleapis.com/v1/thumbnail?panoid=ciCUGAYUd7S2JEO3lpIVag&cb_client=search.gws-prod.gps&w=408&h=240&yaw=194.60661&pitch=0&thumbfov=100",
    "kgmid": "/g/1tcx20qh"
  },
  {
    "title": "Walgreens Pharmacy",
    "description": "Department of the Walgreens chain providing prescription medications & other health-related items.",
    "price": "$$",
    "categoryName": "Pharmacy",
    "address": "100 12th Ave NE, Norman, OK 73071",
    "neighborhood": null,
    "street": "100 12th Ave NE",
    "city": "Norman",
    "postalCode": "73071",
    "state": "Oklahoma",
    "countryCode": "US",
    "website": "https://www.walgreens.com/locator/walgreens-100+12th+ave+ne-norman-ok-73071/id=3647",
    "phone": "(405) 329-2314",
    "phoneUnformatted": "+14053292314",
    "claimThisBusiness": false,
    "location": {
      "lat": 35.2187621,
      "lng": -97.4249011
    },
    "totalScore": 2.3,
    "permanentlyClosed": false,
    "temporarilyClosed": false,
    "placeId": "ChIJ6Ua-nm9CsocRCEa0LEwbbPg",
    "categories": [
      "Pharmacy"
    ],
    "fid": "0x87b2426f9ebe46e9:0xf86c1b4c2cb44608",
    "cid": "17900712632872355336",
    "reviewsCount": 36,
    "imagesCount": 3,
    "imageCategories": [],
    "scrapedAt": "2025-06-22T09:20:12.123Z",
    "googleFoodUrl": null,
    "hotelAds": [],
    "openingHours": [
      {
        "day": "Monday",
        "hours": "9 AM to 1:30 PM, 2 to 9 PM"
      },
      {
        "day": "Tuesday",
        "hours": "9 AM to 1:30 PM, 2 to 9 PM"
      },
      {
        "day": "Wednesday",
        "hours": "9 AM to 1:30 PM, 2 to 9 PM"
      },
      {
        "day": "Thursday",
        "hours": "9 AM to 1:30 PM, 2 to 9 PM"
      },
      {
        "day": "Friday",
        "hours": "9 AM to 1:30 PM, 2 to 9 PM"
      },
      {
        "day": "Saturday",
        "hours": "9 AM to 1:30 PM, 2 to 6 PM"
      },
      {
        "day": "Sunday",
        "hours": "10 AM to 1:30 PM, 2 to 6 PM"
      }
    ],
    "additionalOpeningHours": {
      "Drive through": [
        {
          "day": "Monday",
          "hours": "9 AM–1:30 PM"
        },
        {
          "day": "Tuesday",
          "hours": "9 AM–1:30 PM"
        },
        {
          "day": "Wednesday",
          "hours": "9 AM–1:30 PM"
        },
        {
          "day": "Thursday",
          "hours": "9 AM–1:30 PM"
        },
        {
          "day": "Friday",
          "hours": "9 AM–1:30 PM"
        },
        {
          "day": "Saturday",
          "hours": "9 AM–1:30 PM"
        },
        {
          "day": "Sunday",
          "hours": "10 AM–1:30 PM"
        }
      ]
    },
    "peopleAlsoSearch": [],
    "placesTags": [],
    "reviewsTags": [],
    "additionalInfo": {
      "Service options": [
        {
          "Drive-through": true
        },
        {
          "In-store pickup": true
        }
      ],
      "Accessibility": [
        {
          "Wheelchair accessible entrance": true
        },
        {
          "Wheelchair accessible parking lot": true
        }
      ],
      "Offerings": [
        {
          "Medication disposal": true
        },
        {
          "Naloxone": true
        }
      ],
      "Planning": [
        {
          "Quick visit": true
        }
      ],
      "Payments": [
        {
          "Checks": true
        },
        {
          "Credit cards": true
        },
        {
          "Debit cards": true
        }
      ]
    },
    "gasPrices": [],
    "url": "https://www.google.com/maps/search/?api=1&query=Walgreens%20Pharmacy&query_place_id=ChIJ6Ua-nm9CsocRCEa0LEwbbPg",
    "searchPageUrl": "https://www.google.com/maps/search/independent%20pharmacy%20Norman%20OK/@60.17977372574618,-141.6025211145925,9z?hl=en",
    "searchString": "independent pharmacy Norman OK",
    "language": "en",
    "rank": 18,
    "isAdvertisement": false,
    "imageUrl": "https://lh3.googleusercontent.com/p/AF1QipP3AcY7eJKqpEkvHXxtKkUemTo_XXyKkoznCG9_=w525-h240-k-no",
    "kgmid": "/g/11cn9683yj"
  },
  {
    "title": "CVS",
    "description": "Drugstore chain selling a variety of beauty & health products, plus some grocery & household items.",
    "price": null,
    "categoryName": "Drug store",
    "address": "1100 E Lindsey St, Norman, OK 73071",
    "neighborhood": null,
    "street": "1100 E Lindsey St",
    "city": "Norman",
    "postalCode": "73071",
    "state": "Oklahoma",
    "countryCode": "US",
    "website": "https://www.cvs.com/store-locator/norman-ok-pharmacies/1100-e-lindsey-st-norman-ok-73071/storeid=6024?WT.mc_id=LS_GOOGLE_FS_6024",
    "phone": "(405) 321-0226",
    "phoneUnformatted": "+14053210226",
    "claimThisBusiness": false,
    "location": {
      "lat": 35.2034317,
      "lng": -97.4241163
    },
    "locatedIn": "CVS Pharmacy",
    "totalScore": 2.8,
    "permanentlyClosed": false,
    "temporarilyClosed": false,
    "placeId": "ChIJ86n4jW9CsocRCWM17UHT8jI",
    "categories": [
      "Drug store",
      "Beauty supply store",
      "Beer store",
      "Convenience store",
      "Cosmetics store",
      "Greeting card shop",
      "Perfume store",
      "Stationery store",
      "Vitamin & supplements store",
      "Wine store"
    ],
    "fid": "0x87b2426f8df8a9f3:0x32f2d341ed356309",
    "cid": "3671228926366409481",
    "reviewsCount": 162,
    "imagesCount": 36,
    "imageCategories": [],
    "scrapedAt": "2025-06-22T09:20:12.123Z",
    "googleFoodUrl": null,
    "hotelAds": [],
    "openingHours": [
      {
        "day": "Monday",
        "hours": "8 AM to 10 PM"
      },
      {
        "day": "Tuesday",
        "hours": "8 AM to 10 PM"
      },
      {
        "day": "Wednesday",
        "hours": "8 AM to 10 PM"
      },
      {
        "day": "Thursday",
        "hours": "8 AM to 10 PM"
      },
      {
        "day": "Friday",
        "hours": "8 AM to 10 PM"
      },
      {
        "day": "Saturday",
        "hours": "8 AM to 10 PM"
      },
      {
        "day": "Sunday",
        "hours": "8 AM to 10 PM"
      }
    ],
    "additionalOpeningHours": {
      "CVS Pharmacy": [
        {
          "day": "Monday",
          "hours": "8 AM–1:30 PM"
        },
        {
          "day": "Tuesday",
          "hours": "8 AM–1:30 PM"
        },
        {
          "day": "Wednesday",
          "hours": "8 AM–1:30 PM"
        },
        {
          "day": "Thursday",
          "hours": "8 AM–1:30 PM"
        },
        {
          "day": "Friday",
          "hours": "8 AM–1:30 PM"
        },
        {
          "day": "Saturday",
          "hours": "9 AM–1:30 PM"
        },
        {
          "day": "Sunday",
          "hours": "10 AM–1:30 PM"
        }
      ],
      "CVS Photo": [
        {
          "day": "Monday",
          "hours": "8 AM–10 PM"
        },
        {
          "day": "Tuesday",
          "hours": "8 AM–10 PM"
        },
        {
          "day": "Wednesday",
          "hours": "8 AM–10 PM"
        },
        {
          "day": "Thursday",
          "hours": "8 AM–10 PM"
        },
        {
          "day": "Friday",
          "hours": "8 AM–10 PM"
        },
        {
          "day": "Saturday",
          "hours": "8 AM–10 PM"
        },
        {
          "day": "Sunday",
          "hours": "8 AM–10 PM"
        }
      ],
      "LibertyX Bitcoin ATM": [
        {
          "day": "Monday",
          "hours": "8 AM–10 PM"
        },
        {
          "day": "Tuesday",
          "hours": "8 AM–10 PM"
        },
        {
          "day": "Wednesday",
          "hours": "8 AM–10 PM"
        },
        {
          "day": "Thursday",
          "hours": "8 AM–10 PM"
        },
        {
          "day": "Friday",
          "hours": "8 AM–10 PM"
        },
        {
          "day": "Saturday",
          "hours": "8 AM–10 PM"
        },
        {
          "day": "Sunday",
          "hours": "8 AM–10 PM"
        }
      ]
    },
    "peopleAlsoSearch": [],
    "placesTags": [],
    "reviewsTags": [],
    "additionalInfo": {
      "Service options": [
        {
          "Delivery": true
        },
        {
          "Drive-through": true
        },
        {
          "In-store pickup": true
        },
        {
          "In-store shopping": true
        },
        {
          "Same-day delivery": false
        }
      ],
      "Accessibility": [
        {
          "Wheelchair accessible entrance": true
        },
        {
          "Wheelchair accessible parking lot": true
        }
      ],
      "Offerings": [
        {
          "Passport photos": true
        }
      ],
      "Crowd": [
        {
          "LGBTQ+ friendly": true
        },
        {
          "Transgender safespace": true
        }
      ],
      "Planning": [
        {
          "Quick visit": true
        }
      ],
      "Payments": [
        {
          "Credit cards": true
        },
        {
          "Debit cards": true
        },
        {
          "Credit cards": true
        }
      ]
    },
    "gasPrices": [],
    "url": "https://www.google.com/maps/search/?api=1&query=CVS&query_place_id=ChIJ86n4jW9CsocRCWM17UHT8jI",
    "searchPageUrl": "https://www.google.com/maps/search/independent%20pharmacy%20Norman%20OK/@60.17977372574618,-141.6025211145925,9z?hl=en",
    "searchString": "independent pharmacy Norman OK",
    "language": "en",
    "rank": 19,
    "isAdvertisement": false,
    "imageUrl": "https://lh3.googleusercontent.com/gps-cs-s/AC9h4nr-8p1OocSR_V5x-bYUtL1cWwTl_HF9ZP9ij2PNFbOZNCIiWY1mNL3DFbzAhqK5U7c8o6u8_6oBEGOh6C7KmTdaUSPlTlLvOJ4IpIidV4cxIIZaYtDH-MIhF_bPuQhDUIDjCYrALw=w408-h306-k-no",
    "kgmid": "/g/1trxksqm"
  },
  {
    "title": "Midtown Drug",
    "price": null,
    "categoryName": "Pharmacy",
    "address": "525 NW 11th St Suite 112, Oklahoma City, OK 73103",
    "neighborhood": "Downtown Oklahoma City",
    "street": "525 NW 11th St Suite 112",
    "city": "Oklahoma City",
    "postalCode": "73103",
    "state": "Oklahoma",
    "countryCode": "US",
    "website": "http://www.midtowndrugokc.com/",
    "phone": "(405) 768-1002",
    "phoneUnformatted": "+14057681002",
    "claimThisBusiness": false,
    "location": {
      "lat": 35.4801487,
      "lng": -97.5222283
    },
    "totalScore": 5,
    "permanentlyClosed": false,
    "temporarilyClosed": false,
    "placeId": "ChIJGUeU-EsXsocRj-hcdFJH_ts",
    "categories": [
      "Pharmacy"
    ],
    "fid": "0x87b2174bf8944719:0xdbfe4752745ce88f",
    "cid": "15852186157855860879",
    "reviewsCount": 89,
    "imagesCount": 17,
    "imageCategories": [],
    "scrapedAt": "2025-06-22T09:20:12.123Z",
    "googleFoodUrl": null,
    "hotelAds": [],
    "openingHours": [
      {
        "day": "Monday",
        "hours": "9 AM to 6 PM"
      },
      {
        "day": "Tuesday",
        "hours": "9 AM to 6 PM"
      },
      {
        "day": "Wednesday",
        "hours": "9 AM to 6 PM"
      },
      {
        "day": "Thursday",
        "hours": "9 AM to 6 PM"
      },
      {
        "day": "Friday",
        "hours": "9 AM to 6 PM"
      },
      {
        "day": "Saturday",
        "hours": "9 AM to 12 PM"
      },
      {
        "day": "Sunday",
        "hours": "Closed"
      }
    ],
    "peopleAlsoSearch": [],
    "placesTags": [],
    "reviewsTags": [],
    "additionalInfo": {
      "From the business": [
        {
          "Identifies as Asian-owned": true
        },
        {
          "Small business": true
        }
      ],
      "Service options": [
        {
          "Curbside pickup": true
        },
        {
          "Delivery": true
        },
        {
          "In-store pickup": true
        },
        {
          "In-store shopping": true
        },
        {
          "Onsite services": true
        },
        {
          "Same-day delivery": true
        },
        {
          "English": true
        }
      ],
      "Accessibility": [
        {
          "Wheelchair accessible entrance": true
        },
        {
          "Wheelchair accessible parking lot": true
        },
        {
          "Wheelchair accessible seating": true
        },
        {
          "Wheelchair accessible restroom": false
        }
      ],
      "Crowd": [
        {
          "LGBTQ+ friendly": true
        },
        {
          "Transgender safespace": true
        }
      ],
      "Planning": [
        {
          "Quick visit": true
        }
      ],
      "Payments": [
        {
          "Credit cards": true
        },
        {
          "Debit cards": true
        },
        {
          "NFC mobile payments": true
        },
        {
          "Credit cards": true
        }
      ]
    },
    "gasPrices": [],
    "url": "https://www.google.com/maps/search/?api=1&query=Midtown%20Drug&query_place_id=ChIJGUeU-EsXsocRj-hcdFJH_ts",
    "searchPageUrl": "https://www.google.com/maps/search/independent%20pharmacy%20Norman%20OK/@60.17977372574618,-141.6025211145925,9z?hl=en",
    "searchString": "independent pharmacy Norman OK",
    "language": "en",
    "rank": 20,
    "isAdvertisement": false,
    "imageUrl": "https://lh3.googleusercontent.com/p/AF1QipPxxJxuwQPA1Cqd1E_frcmOxxYuJ3uxaGOyUuY=w426-h240-k-no",
    "kgmid": "/g/11sbc0f44f"
  }
]