[
  {
    "title": "McGuire Park Pharmacy",
    "price": null,
    "categoryName": "Pharmacy",
    "address": "2106 E Main St, Richmond, VA 23223",
    "neighborhood": "Shockoe Bottom",
    "street": "2106 E Main St",
    "city": "Richmond",
    "postalCode": "23223",
    "state": "Virginia",
    "countryCode": "US",
    "website": "https://www.mygnp.com/pharmacies/mcguire-park-pharmacy-richmond-va-23223/?utm_source=google&utm_medium=local&utm_campaign=localmaps&utm_content=4808943",
    "phone": "(804) 344-4444",
    "phoneUnformatted": "+18043444444",
    "claimThisBusiness": false,
    "location": {
      "lat": 37.5311866,
      "lng": -77.4245006
    },
    "totalScore": 4.7,
    "permanentlyClosed": false,
    "temporarilyClosed": false,
    "placeId": "ChIJvyMe-R0RsYkRmKy831KUyM4",
    "categories": [
      "Pharmacy",
      "Drug store"
    ],
    "fid": "0x89b1111df91e23bf:0xcec89452dfbcac98",
    "cid": "14900322450817199256",
    "reviewsCount": 26,
    "imagesCount": 6,
    "imageCategories": [],
    "scrapedAt": "2025-06-22T06:49:05.342Z",
    "googleFoodUrl": null,
    "hotelAds": [],
    "openingHours": [
      {
        "day": "Monday",
        "hours": "8:30 AM to 6 PM"
      },
      {
        "day": "Tuesday",
        "hours": "8:30 AM to 6 PM"
      },
      {
        "day": "Wednesday",
        "hours": "8:30 AM to 6 PM"
      },
      {
        "day": "Thursday",
        "hours": "8:30 AM to 6 PM"
      },
      {
        "day": "Friday",
        "hours": "8:30 AM to 6 PM"
      },
      {
        "day": "Saturday",
        "hours": "Closed"
      },
      {
        "day": "Sunday",
        "hours": "Closed"
      }
    ],
    "peopleAlsoSearch": [],
    "placesTags": [],
    "reviewsTags": [],
    "additionalInfo": {
      "Service options": [
        {
          "Delivery": true
        },
        {
          "In-store pickup": true
        },
        {
          "In-store shopping": true
        },
        {
          "Onsite services": true
        }
      ],
      "Accessibility": [
        {
          "Wheelchair accessible entrance": true
        },
        {
          "Wheelchair accessible parking lot": true
        }
      ],
      "Planning": [
        {
          "Quick visit": true
        }
      ],
      "Payments": [
        {
          "Credit cards": true
        },
        {
          "Debit cards": true
        },
        {
          "NFC mobile payments": true
        },
        {
          "Credit cards": true
        }
      ]
    },
    "gasPrices": [],
    "url": "https://www.google.com/maps/search/?api=1&query=McGuire%20Park%20Pharmacy&query_place_id=ChIJvyMe-R0RsYkRmKy831KUyM4",
    "searchPageUrl": "https://www.google.com/maps/search/independent%20pharmacy%20Richmond%20VA/@48.27430768932854,-70.65494205772909,8z?hl=en",
    "searchString": "independent pharmacy Richmond VA",
    "language": "en",
    "rank": 1,
    "isAdvertisement": false,
    "imageUrl": "https://lh3.googleusercontent.com/gps-cs-s/AC9h4nodrnTPmwbebP-lEl4rh8nmRjdi3dR9WjlQRIZ-Vyp-w3Qoes1LEvW-RsR4oO7jtvca2kHaRGndoU5z-7rf4kDSOunoh3zNvM_TItOkcj3MJ-AjDqy9RES0eI4MSTmdj1VvxAwe=w408-h839-k-no",
    "kgmid": "/g/11clvgwvf1"
  },
  {
    "title": "Buford Road Pharmacy",
    "price": null,
    "categoryName": "Pharmacy",
    "address": "2608 Buford Rd, Richmond, VA 23235",
    "neighborhood": null,
    "street": "2608 Buford Rd",
    "city": "Richmond",
    "postalCode": "23235",
    "state": "Virginia",
    "countryCode": "US",
    "website": "https://bufordrx.com/",
    "phone": "(804) 272-1423",
    "phoneUnformatted": "+18042721423",
    "claimThisBusiness": false,
    "location": {
      "lat": 37.5336377,
      "lng": -77.5619604
    },
    "totalScore": 4.6,
    "permanentlyClosed": false,
    "temporarilyClosed": false,
    "placeId": "ChIJjWMEOisTsYkRBlSKPETUj-c",
    "categories": [
      "Pharmacy",
      "Walk-in clinic"
    ],
    "fid": "0x89b1132b3a04638d:0xe78fd4443c8a5406",
    "cid": "16685788533969540102",
    "reviewsCount": 377,
    "imagesCount": 60,
    "imageCategories": [],
    "scrapedAt": "2025-06-22T06:49:05.344Z",
    "googleFoodUrl": null,
    "hotelAds": [],
    "openingHours": [
      {
        "day": "Monday",
        "hours": "9 AM to 6 PM"
      },
      {
        "day": "Tuesday",
        "hours": "9 AM to 6 PM"
      },
      {
        "day": "Wednesday",
        "hours": "9 AM to 6 PM"
      },
      {
        "day": "Thursday",
        "hours": "9 AM to 6 PM"
      },
      {
        "day": "Friday",
        "hours": "9 AM to 6 PM"
      },
      {
        "day": "Saturday",
        "hours": "9 AM to 3 PM"
      },
      {
        "day": "Sunday",
        "hours": "Closed"
      }
    ],
    "peopleAlsoSearch": [],
    "placesTags": [],
    "reviewsTags": [],
    "additionalInfo": {
      "Service options": [
        {
          "Delivery": true
        },
        {
          "In-store pickup": true
        },
        {
          "In-store shopping": true
        },
        {
          "Onsite services": true
        },
        {
          "Same-day delivery": true
        }
      ],
      "Accessibility": [
        {
          "Wheelchair accessible entrance": true
        },
        {
          "Wheelchair accessible parking lot": true
        }
      ],
      "Planning": [
        {
          "Quick visit": true
        }
      ],
      "Payments": [
        {
          "Checks": true
        },
        {
          "Credit cards": true
        },
        {
          "Debit cards": true
        },
        {
          "NFC mobile payments": true
        },
        {
          "Credit cards": true
        }
      ]
    },
    "gasPrices": [],
    "url": "https://www.google.com/maps/search/?api=1&query=Buford%20Road%20Pharmacy&query_place_id=ChIJjWMEOisTsYkRBlSKPETUj-c",
    "searchPageUrl": "https://www.google.com/maps/search/independent%20pharmacy%20Richmond%20VA/@48.27430768932854,-70.65494205772909,8z?hl=en",
    "searchString": "independent pharmacy Richmond VA",
    "language": "en",
    "rank": 2,
    "isAdvertisement": false,
    "imageUrl": "https://lh3.googleusercontent.com/gps-cs-s/AC9h4nq1v5B9cn0Vrux6D1A4r54AnYaXVmZKXC2ywexL96hRftAdxTuH2ecGLXmqF3ptWWD2NSwrhKfaUyMx_ptSx6karVs3NChB7XMDHsXBG5rgkvJVSp6imV5hRqKxpJWuRKxhkt_h=w408-h306-k-no",
    "kgmid": "/g/1tj9v67_"
  },
  {
    "title": "Bremo Pharmacy",
    "price": null,
    "categoryName": "Pharmacy",
    "address": "2024 Staples Mill Rd, Richmond, VA 23230",
    "neighborhood": null,
    "street": "2024 Staples Mill Rd",
    "city": "Richmond",
    "postalCode": "23230",
    "state": "Virginia",
    "countryCode": "US",
    "website": "http://www.bremorx.com/",
    "phone": "(804) 288-8361",
    "phoneUnformatted": "+18042888361",
    "claimThisBusiness": false,
    "location": {
      "lat": 37.5848198,
      "lng": -77.4925332
    },
    "totalScore": 4.7,
    "permanentlyClosed": false,
    "temporarilyClosed": false,
    "placeId": "ChIJ15UkNxUUsYkRPn5349WJ1no",
    "categories": [
      "Pharmacy",
      "Medical equipment supplier",
      "Training centre",
      "Weight loss service"
    ],
    "fid": "0x89b11415372495d7:0x7ad689d5e3777e3e",
    "cid": "8851413669380587070",
    "reviewsCount": 153,
    "imagesCount": 28,
    "imageCategories": [],
    "scrapedAt": "2025-06-22T06:49:05.344Z",
    "googleFoodUrl": null,
    "hotelAds": [],
    "openingHours": [
      {
        "day": "Monday",
        "hours": "9 AM to 6 PM"
      },
      {
        "day": "Tuesday",
        "hours": "9 AM to 6 PM"
      },
      {
        "day": "Wednesday",
        "hours": "9 AM to 6 PM"
      },
      {
        "day": "Thursday",
        "hours": "9 AM to 6 PM"
      },
      {
        "day": "Friday",
        "hours": "9 AM to 6 PM"
      },
      {
        "day": "Saturday",
        "hours": "9 AM to 1 PM"
      },
      {
        "day": "Sunday",
        "hours": "Closed"
      }
    ],
    "peopleAlsoSearch": [],
    "placesTags": [],
    "reviewsTags": [],
    "additionalInfo": {
      "From the business": [
        {
          "Identifies as women-owned": true
        },
        {
          "Small business": true
        }
      ],
      "Service options": [
        {
          "Curbside pickup": true
        },
        {
          "Delivery": true
        },
        {
          "In-store pickup": true
        },
        {
          "In-store shopping": true
        }
      ],
      "Accessibility": [
        {
          "Wheelchair accessible entrance": true
        },
        {
          "Wheelchair accessible parking lot": true
        }
      ],
      "Crowd": [
        {
          "LGBTQ+ friendly": true
        },
        {
          "Transgender safespace": true
        }
      ],
      "Planning": [
        {
          "Quick visit": true
        }
      ],
      "Payments": [
        {
          "Debit cards": true
        },
        {
          "NFC mobile payments": true
        },
        {
          "Credit cards": true
        }
      ]
    },
    "gasPrices": [],
    "url": "https://www.google.com/maps/search/?api=1&query=Bremo%20Pharmacy&query_place_id=ChIJ15UkNxUUsYkRPn5349WJ1no",
    "searchPageUrl": "https://www.google.com/maps/search/independent%20pharmacy%20Richmond%20VA/@48.27430768932854,-70.65494205772909,8z?hl=en",
    "searchString": "independent pharmacy Richmond VA",
    "language": "en",
    "rank": 3,
    "isAdvertisement": false,
    "imageUrl": "https://lh3.googleusercontent.com/gps-cs-s/AC9h4nqFERspa_p00dXBW7AvCCCA5dzBl6tACvmXiD_D6chGw_kcl6X7-ZFWLpALDZyaLh5_Hjdyk2ng5NP08XW9EVTyfPzAARF8PwyuKekyCk1QjiKKK0raV7yphtK6ZksvxfCari1P=w408-h306-k-no",
    "kgmid": "/g/1td3schz"
  },
  {
    "title": "HOPE Pharmacy",
    "price": null,
    "categoryName": "Pharmacy",
    "address": "1330 N 25th St, Richmond, VA 23223",
    "neighborhood": "East End",
    "street": "1330 N 25th St",
    "city": "Richmond",
    "postalCode": "23223",
    "state": "Virginia",
    "countryCode": "US",
    "website": "http://www.hopepharmacyrva.com/",
    "phone": "(804) 537-0103",
    "phoneUnformatted": "+18045370103",
    "claimThisBusiness": false,
    "location": {
      "lat": 37.5409802,
      "lng": -77.4105618
    },
    "totalScore": 4.6,
    "permanentlyClosed": false,
    "temporarilyClosed": false,
    "placeId": "ChIJR4nYR-ARsYkR--43cyBo_c8",
    "categories": [
      "Pharmacy"
    ],
    "fid": "0x89b111e047d88947:0xcffd68207337eefb",
    "cid": "14987249623540166395",
    "reviewsCount": 43,
    "imagesCount": 24,
    "imageCategories": [],
    "scrapedAt": "2025-06-22T06:49:05.344Z",
    "googleFoodUrl": null,
    "hotelAds": [],
    "openingHours": [
      {
        "day": "Monday",
        "hours": "9 AM to 6 PM"
      },
      {
        "day": "Tuesday",
        "hours": "9 AM to 6 PM"
      },
      {
        "day": "Wednesday",
        "hours": "9 AM to 6 PM"
      },
      {
        "day": "Thursday",
        "hours": "9 AM to 6 PM"
      },
      {
        "day": "Friday",
        "hours": "9 AM to 6 PM"
      },
      {
        "day": "Saturday",
        "hours": "Closed"
      },
      {
        "day": "Sunday",
        "hours": "Closed"
      }
    ],
    "peopleAlsoSearch": [],
    "placesTags": [],
    "reviewsTags": [],
    "additionalInfo": {
      "From the business": [
        {
          "Identifies as Black-owned": true
        },
        {
          "Identifies as women-owned": true
        },
        {
          "Small business": true
        }
      ],
      "Service options": [
        {
          "Delivery": true
        },
        {
          "In-store pickup": true
        },
        {
          "Same-day delivery": true
        }
      ],
      "Accessibility": [
        {
          "Wheelchair accessible entrance": true
        },
        {
          "Wheelchair accessible parking lot": true
        }
      ],
      "Crowd": [
        {
          "LGBTQ+ friendly": true
        }
      ],
      "Planning": [
        {
          "Quick visit": true
        }
      ],
      "Payments": [
        {
          "Credit cards": true
        },
        {
          "Debit cards": true
        },
        {
          "NFC mobile payments": true
        },
        {
          "Credit cards": true
        }
      ]
    },
    "gasPrices": [],
    "url": "https://www.google.com/maps/search/?api=1&query=HOPE%20Pharmacy&query_place_id=ChIJR4nYR-ARsYkR--43cyBo_c8",
    "searchPageUrl": "https://www.google.com/maps/search/independent%20pharmacy%20Richmond%20VA/@48.27430768932854,-70.65494205772909,8z?hl=en",
    "searchString": "independent pharmacy Richmond VA",
    "language": "en",
    "rank": 4,
    "isAdvertisement": false,
    "imageUrl": "https://lh3.googleusercontent.com/p/AF1QipOAG84VmSsdy5L-DlMWnCsrhyvANKsL_L9eRywc=w408-h272-k-no",
    "kgmid": "/g/11h1dpfg6b"
  },
  {
    "title": "Westwood Pharmacy",
    "price": null,
    "categoryName": "Pharmacy",
    "address": "5823 Patterson Ave, Richmond, VA 23226",
    "neighborhood": "The West End",
    "street": "5823 Patterson Ave",
    "city": "Richmond",
    "postalCode": "23226",
    "state": "Virginia",
    "countryCode": "US",
    "website": "https://www.mygnp.com/pharmacies/westwood-pharmacy-richmond-va-23226/?utm_source=google&utm_medium=local&utm_campaign=localmaps&utm_content=4808777",
    "phone": "(804) 288-1933",
    "phoneUnformatted": "+18042881933",
    "claimThisBusiness": false,
    "location": {
      "lat": 37.580221,
      "lng": -77.5160783
    },
    "totalScore": 3.9,
    "permanentlyClosed": false,
    "temporarilyClosed": false,
    "placeId": "ChIJ37gXKogUsYkR_pnAKtJKKzg",
    "categories": [
      "Pharmacy",
      "Drug store"
    ],
    "fid": "0x89b114882a17b8df:0x382b4ad22ac099fe",
    "cid": "4047410956643375614",
    "reviewsCount": 49,
    "imagesCount": 17,
    "imageCategories": [],
    "scrapedAt": "2025-06-22T06:49:05.344Z",
    "googleFoodUrl": null,
    "hotelAds": [],
    "openingHours": [
      {
        "day": "Monday",
        "hours": "8:30 AM to 6:30 PM"
      },
      {
        "day": "Tuesday",
        "hours": "8:30 AM to 6:30 PM"
      },
      {
        "day": "Wednesday",
        "hours": "8:30 AM to 6:30 PM"
      },
      {
        "day": "Thursday",
        "hours": "8:30 AM to 6:30 PM"
      },
      {
        "day": "Friday",
        "hours": "8:30 AM to 6:30 PM"
      },
      {
        "day": "Saturday",
        "hours": "9 AM to 4 PM"
      },
      {
        "day": "Sunday",
        "hours": "10 AM to 3 PM"
      }
    ],
    "peopleAlsoSearch": [],
    "placesTags": [],
    "reviewsTags": [],
    "additionalInfo": {
      "Service options": [
        {
          "Delivery": true
        },
        {
          "In-store pickup": true
        },
        {
          "In-store shopping": true
        },
        {
          "Onsite services": true
        },
        {
          "Same-day delivery": true
        }
      ],
      "Accessibility": [
        {
          "Wheelchair accessible entrance": true
        },
        {
          "Wheelchair accessible parking lot": true
        }
      ],
      "Planning": [
        {
          "Quick visit": true
        }
      ],
      "Payments": [
        {
          "Credit cards": true
        },
        {
          "Debit cards": true
        },
        {
          "NFC mobile payments": true
        },
        {
          "Credit cards": true
        }
      ]
    },
    "gasPrices": [],
    "url": "https://www.google.com/maps/search/?api=1&query=Westwood%20Pharmacy&query_place_id=ChIJ37gXKogUsYkR_pnAKtJKKzg",
    "searchPageUrl": "https://www.google.com/maps/search/independent%20pharmacy%20Richmond%20VA/@48.27430768932854,-70.65494205772909,8z?hl=en",
    "searchString": "independent pharmacy Richmond VA",
    "language": "en",
    "rank": 5,
    "isAdvertisement": false,
    "imageUrl": "https://lh3.googleusercontent.com/gps-cs-s/AC9h4noxpKLQoTEp21alKWca4hD2RmAcOBya1MfUERb58-QLnOfaGkzwv5Ch4s0Gzuh8sQCcgJGvHoxUc2CLX3F6YIwETn6vod1R4UtJ-e-NlbcV8tQV7TGtN6lSuElL3AiyYfAsaL8W=w408-h305-k-no",
    "kgmid": "/g/1td2nc87"
  },
  {
    "title": "Mayson's Pharmacy at Retreat",
    "price": null,
    "categoryName": "Pharmacy",
    "address": "110 N Robinson St #101, Richmond, VA 23220",
    "neighborhood": "The Fan District",
    "street": "110 N Robinson St #101",
    "city": "Richmond",
    "postalCode": "23220",
    "state": "Virginia",
    "countryCode": "US",
    "phone": "(804) 658-1080",
    "phoneUnformatted": "+18046581080",
    "claimThisBusiness": false,
    "location": {
      "lat": 37.5535075,
      "lng": -77.4731549
    },
    "totalScore": 4.5,
    "permanentlyClosed": false,
    "temporarilyClosed": false,
    "placeId": "ChIJM3dI9TcTsYkRepcS3JDQ2fE",
    "categories": [
      "Pharmacy"
    ],
    "fid": "0x89b11337f5487733:0xf1d9d090dc12977a",
    "cid": "17427189553672918906",
    "reviewsCount": 29,
    "imagesCount": 2,
    "imageCategories": [],
    "scrapedAt": "2025-06-22T06:49:05.345Z",
    "googleFoodUrl": null,
    "hotelAds": [],
    "openingHours": [
      {
        "day": "Monday",
        "hours": "9:30 AM to 5:30 PM"
      },
      {
        "day": "Tuesday",
        "hours": "9:30 AM to 5:30 PM"
      },
      {
        "day": "Wednesday",
        "hours": "9:30 AM to 5:30 PM"
      },
      {
        "day": "Thursday",
        "hours": "9:30 AM to 5:30 PM"
      },
      {
        "day": "Friday",
        "hours": "9:30 AM to 5:30 PM"
      },
      {
        "day": "Saturday",
        "hours": "Closed"
      },
      {
        "day": "Sunday",
        "hours": "Closed"
      }
    ],
    "peopleAlsoSearch": [],
    "placesTags": [],
    "reviewsTags": [],
    "additionalInfo": {
      "From the business": [
        {
          "Small business": true
        }
      ],
      "Service options": [
        {
          "Delivery": true
        },
        {
          "In-store pickup": true
        },
        {
          "Same-day delivery": true
        }
      ],
      "Accessibility": [
        {
          "Wheelchair accessible entrance": true
        },
        {
          "Wheelchair accessible parking lot": true
        }
      ],
      "Payments": [
        {
          "Credit cards": true
        },
        {
          "Debit cards": true
        },
        {
          "NFC mobile payments": true
        },
        {
          "Credit cards": true
        }
      ]
    },
    "gasPrices": [],
    "url": "https://www.google.com/maps/search/?api=1&query=Mayson's%20Pharmacy%20at%20Retreat&query_place_id=ChIJM3dI9TcTsYkRepcS3JDQ2fE",
    "searchPageUrl": "https://www.google.com/maps/search/independent%20pharmacy%20Richmond%20VA/@48.27430768932854,-70.65494205772909,8z?hl=en",
    "searchString": "independent pharmacy Richmond VA",
    "language": "en",
    "rank": 6,
    "isAdvertisement": false,
    "imageUrl": "https://lh3.googleusercontent.com/p/AF1QipMNOPMDD0dmfqwgDD8BJT7WfEcRoxmZRcbwk0_E=w408-h544-k-no",
    "kgmid": "/g/11lgpqbl90"
  },
  {
    "title": "Westbury Apothecary",
    "price": null,
    "categoryName": "Pharmacy",
    "address": "8903 Three Chopt Rd, Henrico, VA 23229",
    "neighborhood": "Regency",
    "street": "8903 Three Chopt Rd",
    "city": "Henrico",
    "postalCode": "23229",
    "state": "Virginia",
    "countryCode": "US",
    "website": "https://www.westburyapothecary.com/",
    "phone": "(804) 285-3428",
    "phoneUnformatted": "+18042853428",
    "claimThisBusiness": false,
    "location": {
      "lat": 37.6036131,
      "lng": -77.5605133
    },
    "totalScore": 3.8,
    "permanentlyClosed": false,
    "temporarilyClosed": false,
    "placeId": "ChIJLT2eYs0UsYkRRyTIX0RxSFI",
    "categories": [
      "Pharmacy",
      "Drug store"
    ],
    "fid": "0x89b114cd629e3d2d:0x524871445fc82447",
    "cid": "5929113447911924807",
    "reviewsCount": 165,
    "imagesCount": 34,
    "imageCategories": [],
    "scrapedAt": "2025-06-22T06:49:05.345Z",
    "googleFoodUrl": null,
    "hotelAds": [],
    "openingHours": [
      {
        "day": "Monday",
        "hours": "8:30 AM to 8 PM"
      },
      {
        "day": "Tuesday",
        "hours": "8:30 AM to 8 PM"
      },
      {
        "day": "Wednesday",
        "hours": "8:30 AM to 8 PM"
      },
      {
        "day": "Thursday",
        "hours": "8:30 AM to 8 PM"
      },
      {
        "day": "Friday",
        "hours": "8:30 AM to 8 PM"
      },
      {
        "day": "Saturday",
        "hours": "8:30 AM to 7 PM"
      },
      {
        "day": "Sunday",
        "hours": "8:30 AM to 5 PM"
      }
    ],
    "peopleAlsoSearch": [],
    "placesTags": [],
    "reviewsTags": [],
    "additionalInfo": {
      "From the business": [
        {
          "Small business": true
        }
      ],
      "Service options": [
        {
          "Delivery": true
        },
        {
          "In-store pickup": true
        },
        {
          "Onsite services": true
        }
      ],
      "Accessibility": [
        {
          "Wheelchair accessible entrance": true
        },
        {
          "Wheelchair accessible parking lot": true
        }
      ],
      "Planning": [
        {
          "Quick visit": true
        }
      ],
      "Payments": [
        {
          "Checks": true
        },
        {
          "Credit cards": true
        },
        {
          "Debit cards": true
        },
        {
          "NFC mobile payments": true
        },
        {
          "Credit cards": true
        }
      ]
    },
    "gasPrices": [],
    "url": "https://www.google.com/maps/search/?api=1&query=Westbury%20Apothecary&query_place_id=ChIJLT2eYs0UsYkRRyTIX0RxSFI",
    "searchPageUrl": "https://www.google.com/maps/search/independent%20pharmacy%20Richmond%20VA/@48.27430768932854,-70.65494205772909,8z?hl=en",
    "searchString": "independent pharmacy Richmond VA",
    "language": "en",
    "rank": 7,
    "isAdvertisement": false,
    "imageUrl": "https://lh3.googleusercontent.com/gps-cs-s/AC9h4nrypDzbE0KwPOvmlznI073LLUxm-1ymih_Ws_IH020PrGTEfmnfCtEeQU2ievAjJa4KzxAQpnU0ZrasHrgoyzHXNHr1FkE54HGhQkP1clR9_WgkbHlUaj5YQ1U0WZPKJwgxshuURw=w408-h306-k-no",
    "kgmid": "/g/1td2hsnj"
  },
  {
    "title": "Good Health Pharmacy at Reynolds Crossing",
    "price": null,
    "categoryName": "Pharmacy",
    "address": "6900 Forest Ave #100, Richmond, VA 23230",
    "neighborhood": null,
    "street": "6900 Forest Ave #100",
    "city": "Richmond",
    "postalCode": "23230",
    "state": "Virginia",
    "countryCode": "US",
    "website": "https://www.bonsecours.com/locations/pharmacy/richmond/bon-secours-good-health-pharmacy-at-reynolds?utm_source=google&utm_medium=organic&utm_content=local_website_link",
    "phone": "(804) 893-8630",
    "phoneUnformatted": "+18048938630",
    "claimThisBusiness": false,
    "location": {
      "lat": 37.6045315,
      "lng": -77.5216936
    },
    "totalScore": 3.5,
    "permanentlyClosed": false,
    "temporarilyClosed": false,
    "placeId": "ChIJ9_4g_PsUsYkROynDxYjPeyQ",
    "categories": [
      "Pharmacy",
      "Drug store",
      "Hospital department"
    ],
    "fid": "0x89b114fbfc20fef7:0x247bcf88c5c3293b",
    "cid": "2628922993841219899",
    "reviewsCount": 12,
    "imagesCount": 1,
    "imageCategories": [],
    "scrapedAt": "2025-06-22T06:49:05.345Z",
    "googleFoodUrl": null,
    "hotelAds": [],
    "openingHours": [
      {
        "day": "Monday",
        "hours": "8:30 AM to 4:30 PM"
      },
      {
        "day": "Tuesday",
        "hours": "8:30 AM to 4:30 PM"
      },
      {
        "day": "Wednesday",
        "hours": "8:30 AM to 4:30 PM"
      },
      {
        "day": "Thursday",
        "hours": "8:30 AM to 4:30 PM"
      },
      {
        "day": "Friday",
        "hours": "8:30 AM to 4:30 PM"
      },
      {
        "day": "Saturday",
        "hours": "Closed"
      },
      {
        "day": "Sunday",
        "hours": "Closed"
      }
    ],
    "peopleAlsoSearch": [],
    "placesTags": [],
    "reviewsTags": [],
    "additionalInfo": {
      "Service options": [
        {
          "In-store pickup": true
        },
        {
          "In-store shopping": true
        },
        {
          "Onsite services": true
        }
      ],
      "Accessibility": [
        {
          "Wheelchair accessible entrance": true
        },
        {
          "Wheelchair accessible parking lot": true
        }
      ],
      "Payments": [
        {
          "Cash-only": true
        }
      ]
    },
    "gasPrices": [],
    "url": "https://www.google.com/maps/search/?api=1&query=Good%20Health%20Pharmacy%20at%20Reynolds%20Crossing&query_place_id=ChIJ9_4g_PsUsYkROynDxYjPeyQ",
    "searchPageUrl": "https://www.google.com/maps/search/independent%20pharmacy%20Richmond%20VA/@48.27430768932854,-70.65494205772909,8z?hl=en",
    "searchString": "independent pharmacy Richmond VA",
    "language": "en",
    "rank": 8,
    "isAdvertisement": false,
    "imageUrl": "https://streetviewpixels-pa.googleapis.com/v1/thumbnail?panoid=_BHehoq6DS8c85zjX4j2nQ&cb_client=search.gws-prod.gps&w=408&h=240&yaw=255.16933&pitch=0&thumbfov=100",
    "kgmid": "/g/11xc9kxmn"
  },
  {
    "title": "Walgreens Specialty Pharmacy",
    "price": "$$",
    "categoryName": "Pharmacy",
    "address": "312 E Broad St Ste 101, Richmond, VA 23219",
    "neighborhood": "City Center",
    "street": "312 E Broad St Ste 101",
    "city": "Richmond",
    "postalCode": "23219",
    "state": "Virginia",
    "countryCode": "US",
    "website": "https://www.walgreens.com/locator/walgreens-312+e+broad+st-richmond-va-23219/id=16401",
    "phone": "(804) 655-4419",
    "phoneUnformatted": "+18046554419",
    "claimThisBusiness": false,
    "location": {
      "lat": 37.5439551,
      "lng": -77.4389959
    },
    "totalScore": 4.7,
    "permanentlyClosed": false,
    "temporarilyClosed": false,
    "placeId": "ChIJI5_GeDsRsYkRqgvTZT4g_U0",
    "categories": [
      "Pharmacy"
    ],
    "fid": "0x89b1113b78c69f23:0x4dfd203e65d30baa",
    "cid": "5619683362396638122",
    "reviewsCount": 16,
    "imagesCount": 3,
    "imageCategories": [],
    "scrapedAt": "2025-06-22T06:49:05.345Z",
    "googleFoodUrl": null,
    "hotelAds": [],
    "openingHours": [
      {
        "day": "Monday",
        "hours": "8:30 AM to 5 PM"
      },
      {
        "day": "Tuesday",
        "hours": "8:30 AM to 5 PM"
      },
      {
        "day": "Wednesday",
        "hours": "8:30 AM to 5 PM"
      },
      {
        "day": "Thursday",
        "hours": "8:30 AM to 5 PM"
      },
      {
        "day": "Friday",
        "hours": "8:30 AM to 5 PM"
      },
      {
        "day": "Saturday",
        "hours": "Closed"
      },
      {
        "day": "Sunday",
        "hours": "Closed"
      }
    ],
    "peopleAlsoSearch": [],
    "placesTags": [],
    "reviewsTags": [],
    "additionalInfo": {
      "Service options": [
        {
          "In-store pickup": true
        }
      ],
      "Accessibility": [
        {
          "Wheelchair accessible entrance": true
        }
      ],
      "Offerings": [
        {
          "Passport photos": true
        }
      ],
      "Planning": [
        {
          "Quick visit": true
        }
      ],
      "Payments": [
        {
          "Credit cards": true
        },
        {
          "Debit cards": true
        },
        {
          "NFC mobile payments": true
        },
        {
          "Credit cards": true
        }
      ]
    },
    "gasPrices": [],
    "url": "https://www.google.com/maps/search/?api=1&query=Walgreens%20Specialty%20Pharmacy&query_place_id=ChIJI5_GeDsRsYkRqgvTZT4g_U0",
    "searchPageUrl": "https://www.google.com/maps/search/independent%20pharmacy%20Richmond%20VA/@48.27430768932854,-70.65494205772909,8z?hl=en",
    "searchString": "independent pharmacy Richmond VA",
    "language": "en",
    "rank": 9,
    "isAdvertisement": false,
    "imageUrl": "https://lh3.googleusercontent.com/gps-cs-s/AC9h4nrCfkzQZj7aG0PF4irOGU9Snx3s6g_WIN__LnskbQOOfD-yh-OkHEuopIO6H5Bo6-6dJ8rpzPZdfAE1ovxzlgnDcLxJTO0oib_0YNS4ZJVtgr21TkedxrbIqMWKV5KqZrygVKmS=w408-h306-k-no",
    "kgmid": "/g/11cmfj_2gj"
  },
  {
    "title": "RX3 Compounding Pharmacy",
    "price": null,
    "categoryName": "Pharmacy",
    "address": "11934 W Broad St #100, Richmond, VA 23233",
    "neighborhood": null,
    "street": "11934 W Broad St #100",
    "city": "Richmond",
    "postalCode": "23233",
    "state": "Virginia",
    "countryCode": "US",
    "website": "http://www.rx3pharmacy.com/",
    "phone": "(804) 717-5000",
    "phoneUnformatted": "+18047175000",
    "claimThisBusiness": false,
    "location": {
      "lat": 37.6568185,
      "lng": -77.6265626
    },
    "totalScore": 4,
    "permanentlyClosed": false,
    "temporarilyClosed": false,
    "placeId": "ChIJNbXHvXNqsYkRQ65VVMNfjoo",
    "categories": [
      "Pharmacy"
    ],
    "fid": "0x89b16a73bdc7b535:0x8a8e5fc35455ae43",
    "cid": "9984022716465131075",
    "reviewsCount": 47,
    "imagesCount": 16,
    "imageCategories": [],
    "scrapedAt": "2025-06-22T06:49:05.345Z",
    "googleFoodUrl": null,
    "hotelAds": [],
    "openingHours": [
      {
        "day": "Monday",
        "hours": "9 AM to 6 PM"
      },
      {
        "day": "Tuesday",
        "hours": "9 AM to 6 PM"
      },
      {
        "day": "Wednesday",
        "hours": "9 AM to 6 PM"
      },
      {
        "day": "Thursday",
        "hours": "9 AM to 6 PM"
      },
      {
        "day": "Friday",
        "hours": "9 AM to 6 PM"
      },
      {
        "day": "Saturday",
        "hours": "Closed"
      },
      {
        "day": "Sunday",
        "hours": "Closed"
      }
    ],
    "peopleAlsoSearch": [],
    "placesTags": [],
    "reviewsTags": [],
    "additionalInfo": {
      "From the business": [
        {
          "Small business": true
        }
      ],
      "Service options": [
        {
          "Delivery": true
        },
        {
          "In-store pickup": true
        }
      ],
      "Accessibility": [
        {
          "Wheelchair accessible entrance": true
        },
        {
          "Wheelchair accessible parking lot": true
        }
      ],
      "Planning": [
        {
          "Quick visit": true
        }
      ],
      "Payments": [
        {
          "Credit cards": true
        },
        {
          "Debit cards": true
        },
        {
          "NFC mobile payments": true
        },
        {
          "Credit cards": true
        }
      ]
    },
    "gasPrices": [],
    "url": "https://www.google.com/maps/search/?api=1&query=RX3%20Compounding%20Pharmacy&query_place_id=ChIJNbXHvXNqsYkRQ65VVMNfjoo",
    "searchPageUrl": "https://www.google.com/maps/search/independent%20pharmacy%20Richmond%20VA/@48.27430768932854,-70.65494205772909,8z?hl=en",
    "searchString": "independent pharmacy Richmond VA",
    "language": "en",
    "rank": 10,
    "isAdvertisement": false,
    "imageUrl": "https://lh3.googleusercontent.com/p/AF1QipNqe9qJCfpRXMmB--AxgZo3Rhof9wFcrjhBbfV4=w408-h271-k-no",
    "kgmid": "/g/11c2l9fy03"
  },
  {
    "title": "Harmony Care Pharmacy",
    "price": null,
    "categoryName": "Pharmacy",
    "address": "8519 Midlothian Tpke, North Chesterfield, VA 23235",
    "neighborhood": "North Chesterfield",
    "street": "8519 Midlothian Tpke",
    "city": "North Chesterfield",
    "postalCode": "23235",
    "state": "Virginia",
    "countryCode": "US",
    "website": "http://www.harmonycarepharmacy.com/",
    "phone": "(804) 716-3300",
    "phoneUnformatted": "+18047163300",
    "claimThisBusiness": false,
    "location": {
      "lat": 37.4940642,
      "lng": -77.5538554
    },
    "totalScore": 5,
    "permanentlyClosed": false,
    "temporarilyClosed": false,
    "placeId": "ChIJuUFAd4wTsYkRSUD1cPKonYE",
    "categories": [
      "Pharmacy",
      "Battery store",
      "Convenience store",
      "Drug store",
      "Foot care",
      "Greeting card shop",
      "Medical supply store",
      "Vitamin & supplements store"
    ],
    "fid": "0x89b1138c774041b9:0x819da8f270f54049",
    "cid": "9339806961466949705",
    "reviewsCount": 124,
    "imagesCount": 12,
    "imageCategories": [],
    "scrapedAt": "2025-06-22T06:49:05.345Z",
    "googleFoodUrl": null,
    "hotelAds": [],
    "openingHours": [
      {
        "day": "Monday",
        "hours": "9 AM to 6 PM"
      },
      {
        "day": "Tuesday",
        "hours": "9 AM to 6 PM"
      },
      {
        "day": "Wednesday",
        "hours": "9 AM to 6 PM"
      },
      {
        "day": "Thursday",
        "hours": "9 AM to 6 PM"
      },
      {
        "day": "Friday",
        "hours": "9 AM to 6 PM"
      },
      {
        "day": "Saturday",
        "hours": "10 AM to 2 PM"
      },
      {
        "day": "Sunday",
        "hours": "Closed"
      }
    ],
    "peopleAlsoSearch": [],
    "placesTags": [],
    "reviewsTags": [],
    "additionalInfo": {
      "From the business": [
        {
          "Small business": true
        }
      ],
      "Service options": [
        {
          "Curbside pickup": true
        },
        {
          "Delivery": true
        },
        {
          "In-store shopping": true
        },
        {
          "Same-day delivery": true
        },
        {
          "English": true
        }
      ],
      "Accessibility": [
        {
          "Wheelchair accessible entrance": true
        },
        {
          "Wheelchair accessible parking lot": true
        }
      ],
      "Payments": [
        {
          "Checks": true
        },
        {
          "Credit cards": true
        },
        {
          "Debit cards": true
        },
        {
          "NFC mobile payments": true
        },
        {
          "Credit cards": true
        }
      ]
    },
    "gasPrices": [],
    "url": "https://www.google.com/maps/search/?api=1&query=Harmony%20Care%20Pharmacy&query_place_id=ChIJuUFAd4wTsYkRSUD1cPKonYE",
    "searchPageUrl": "https://www.google.com/maps/search/independent%20pharmacy%20Richmond%20VA/@48.27430768932854,-70.65494205772909,8z?hl=en",
    "searchString": "independent pharmacy Richmond VA",
    "language": "en",
    "rank": 11,
    "isAdvertisement": false,
    "imageUrl": "https://lh3.googleusercontent.com/p/AF1QipOLq0Fr65Z24NHpEjz3s5cAVmA0UlK-SeHgiOfK=w408-h306-k-no",
    "kgmid": "/g/11vdzzpws_"
  },
  {
    "title": "Bremo Long Term Care Pharmacy",
    "price": null,
    "categoryName": "Pharmacy",
    "address": "2002 Staples Mill Rd, Richmond, VA 23230",
    "neighborhood": null,
    "street": "2002 Staples Mill Rd",
    "city": "Richmond",
    "postalCode": "23230",
    "state": "Virginia",
    "countryCode": "US",
    "website": "https://bremorx.com/ltc/",
    "phone": "(804) 285-7823",
    "phoneUnformatted": "+18042857823",
    "claimThisBusiness": false,
    "location": {
      "lat": 37.5849714,
      "lng": -77.4940256
    },
    "totalScore": 4.8,
    "permanentlyClosed": false,
    "temporarilyClosed": false,
    "placeId": "ChIJez3ZymoUsYkRyOs4_MHDFNY",
    "categories": [
      "Pharmacy",
      "Wellness program"
    ],
    "fid": "0x89b1146acad93d7b:0xd614c3c1fc38ebc8",
    "cid": "15426169861578484680",
    "reviewsCount": 18,
    "imagesCount": 11,
    "imageCategories": [],
    "scrapedAt": "2025-06-22T06:49:05.345Z",
    "googleFoodUrl": null,
    "hotelAds": [],
    "openingHours": [
      {
        "day": "Monday",
        "hours": "9 AM to 5:30 PM"
      },
      {
        "day": "Tuesday",
        "hours": "9 AM to 5:30 PM"
      },
      {
        "day": "Wednesday",
        "hours": "9 AM to 5:30 PM"
      },
      {
        "day": "Thursday",
        "hours": "9 AM to 5:30 PM"
      },
      {
        "day": "Friday",
        "hours": "9 AM to 5:30 PM"
      },
      {
        "day": "Saturday",
        "hours": "9 AM to 1 PM"
      },
      {
        "day": "Sunday",
        "hours": "Closed"
      }
    ],
    "peopleAlsoSearch": [],
    "placesTags": [],
    "reviewsTags": [],
    "additionalInfo": {
      "From the business": [
        {
          "Small business": true
        }
      ],
      "Service options": [
        {
          "Delivery": true
        },
        {
          "Same-day delivery": true
        }
      ],
      "Accessibility": [
        {
          "Wheelchair accessible entrance": true
        },
        {
          "Wheelchair accessible parking lot": true
        }
      ],
      "Payments": [
        {
          "Credit cards": true
        }
      ]
    },
    "gasPrices": [],
    "url": "https://www.google.com/maps/search/?api=1&query=Bremo%20Long%20Term%20Care%20Pharmacy&query_place_id=ChIJez3ZymoUsYkRyOs4_MHDFNY",
    "searchPageUrl": "https://www.google.com/maps/search/independent%20pharmacy%20Richmond%20VA/@48.27430768932854,-70.65494205772909,8z?hl=en",
    "searchString": "independent pharmacy Richmond VA",
    "language": "en",
    "rank": 12,
    "isAdvertisement": false,
    "imageUrl": "https://lh3.googleusercontent.com/p/AF1QipOkRQb2mhgS7rQgYYysyaPNKyvx4Fdrb5yr19o4=w408-h261-k-no",
    "kgmid": "/g/1tdfv00z"
  },
  {
    "title": "RVA PHARMACY",
    "price": null,
    "categoryName": "Pharmacy",
    "address": "7801 W Broad St STE 19, Richmond, VA 23294",
    "neighborhood": null,
    "street": "7801 W Broad St STE 19",
    "city": "Richmond",
    "postalCode": "23294",
    "state": "Virginia",
    "countryCode": "US",
    "phone": "(804) 528-5589",
    "phoneUnformatted": "+18045285589",
    "claimThisBusiness": false,
    "location": {
      "lat": 37.6197997,
      "lng": -77.5267029
    },
    "totalScore": 4.5,
    "permanentlyClosed": false,
    "temporarilyClosed": false,
    "placeId": "ChIJ5-SquL0VsYkRIPWQLUjb9dQ",
    "categories": [
      "Pharmacy"
    ],
    "fid": "0x89b115bdb8aae4e7:0xd4f5db482d90f520",
    "cid": "15345412408383436064",
    "reviewsCount": 40,
    "imagesCount": 2,
    "imageCategories": [],
    "scrapedAt": "2025-06-22T06:49:05.345Z",
    "googleFoodUrl": null,
    "hotelAds": [],
    "openingHours": [
      {
        "day": "Monday",
        "hours": "9 AM to 6 PM"
      },
      {
        "day": "Tuesday",
        "hours": "9 AM to 6 PM"
      },
      {
        "day": "Wednesday",
        "hours": "9 AM to 6 PM"
      },
      {
        "day": "Thursday",
        "hours": "9 AM to 6 PM"
      },
      {
        "day": "Friday",
        "hours": "9 AM to 6 PM"
      },
      {
        "day": "Saturday",
        "hours": "10 AM to 2 PM"
      },
      {
        "day": "Sunday",
        "hours": "Closed"
      }
    ],
    "peopleAlsoSearch": [],
    "placesTags": [],
    "reviewsTags": [],
    "additionalInfo": {
      "From the business": [
        {
          "Small business": true
        }
      ],
      "Service options": [
        {
          "Delivery": true
        },
        {
          "In-store pickup": true
        },
        {
          "Same-day delivery": true
        }
      ],
      "Accessibility": [
        {
          "Wheelchair accessible entrance": true
        },
        {
          "Wheelchair accessible parking lot": true
        }
      ],
      "Payments": [
        {
          "Credit cards": true
        },
        {
          "Debit cards": true
        },
        {
          "NFC mobile payments": true
        },
        {
          "Credit cards": true
        }
      ]
    },
    "gasPrices": [],
    "url": "https://www.google.com/maps/search/?api=1&query=RVA%20PHARMACY&query_place_id=ChIJ5-SquL0VsYkRIPWQLUjb9dQ",
    "searchPageUrl": "https://www.google.com/maps/search/independent%20pharmacy%20Richmond%20VA/@48.27430768932854,-70.65494205772909,8z?hl=en",
    "searchString": "independent pharmacy Richmond VA",
    "language": "en",
    "rank": 13,
    "isAdvertisement": false,
    "imageUrl": "https://lh3.googleusercontent.com/gps-cs-s/AC9h4noFQFNl5WuJGIbhmco1uASWs6iGh0l5-hbYHj25nyg3ur3Jxey6vzXjbQQbmaQxaYTfclaKY6r01pdRj2b6MJGjZqsBKYlAMDT07t9yVu8NTJQ_DD0ienSe5jgSU2KoMKpJVtArOA=w426-h240-k-no",
    "kgmid": "/g/11gxymhnpx"
  },
  {
    "title": "Family Care Pharmacy",
    "price": null,
    "categoryName": "Pharmacy",
    "address": "2576 Gayton Centre Dr, Richmond, VA 23238",
    "neighborhood": null,
    "street": "2576 Gayton Centre Dr",
    "city": "Richmond",
    "postalCode": "23238",
    "state": "Virginia",
    "countryCode": "US",
    "website": "https://www.familycareltc.com/",
    "phone": "(804) 740-3300",
    "phoneUnformatted": "+18047403300",
    "claimThisBusiness": true,
    "location": {
      "lat": 37.62288,
      "lng": -77.6411145
    },
    "totalScore": 4.1,
    "permanentlyClosed": false,
    "temporarilyClosed": false,
    "placeId": "ChIJxyLzrDJqsYkRaBGOg4TGYPA",
    "categories": [
      "Pharmacy"
    ],
    "fid": "0x89b16a32acf322c7:0xf060c684838e1168",
    "cid": "17321062439312036200",
    "reviewsCount": 9,
    "imagesCount": 1,
    "imageCategories": [],
    "scrapedAt": "2025-06-22T06:49:05.345Z",
    "googleFoodUrl": null,
    "hotelAds": [],
    "openingHours": [],
    "peopleAlsoSearch": [],
    "placesTags": [],
    "reviewsTags": [],
    "additionalInfo": {
      "Accessibility": [
        {
          "Wheelchair accessible entrance": true
        },
        {
          "Wheelchair accessible parking lot": true
        }
      ],
      "Payments": [
        {
          "Credit cards": true
        },
        {
          "Debit cards": true
        },
        {
          "NFC mobile payments": true
        },
        {
          "Credit cards": true
        }
      ]
    },
    "gasPrices": [],
    "url": "https://www.google.com/maps/search/?api=1&query=Family%20Care%20Pharmacy&query_place_id=ChIJxyLzrDJqsYkRaBGOg4TGYPA",
    "searchPageUrl": "https://www.google.com/maps/search/independent%20pharmacy%20Richmond%20VA/@48.27430768932854,-70.65494205772909,8z?hl=en",
    "searchString": "independent pharmacy Richmond VA",
    "language": "en",
    "rank": 14,
    "isAdvertisement": false,
    "imageUrl": "https://streetviewpixels-pa.googleapis.com/v1/thumbnail?panoid=4LzEYvb3a9fNHhbYCy_lnQ&cb_client=search.gws-prod.gps&w=408&h=240&yaw=67.62839&pitch=0&thumbfov=100",
    "kgmid": "/g/1td1kw8r"
  },
  {
    "title": "Granger Pharmacy",
    "price": null,
    "categoryName": "Pharmacy",
    "address": "601 Biotech Dr Suite 156, North Chesterfield, VA 23235",
    "neighborhood": "North Chesterfield",
    "street": "601 Biotech Dr Suite 156",
    "city": "North Chesterfield",
    "postalCode": "23235",
    "state": "Virginia",
    "countryCode": "US",
    "website": "https://www.grangerrx.com/",
    "phone": "(804) 521-7384",
    "phoneUnformatted": "+18045217384",
    "claimThisBusiness": false,
    "location": {
      "lat": 37.5010874,
      "lng": -77.5550457
    },
    "totalScore": 5,
    "permanentlyClosed": false,
    "temporarilyClosed": false,
    "placeId": "ChIJjzJ3hsolQUkRmtEafefW_Ic",
    "categories": [
      "Pharmacy"
    ],
    "fid": "0x494125ca8677328f:0x87fcd6e77d1ad19a",
    "cid": "9798943178976055706",
    "reviewsCount": 1,
    "imagesCount": 4,
    "imageCategories": [],
    "scrapedAt": "2025-06-22T06:49:05.345Z",
    "googleFoodUrl": null,
    "hotelAds": [],
    "openingHours": [
      {
        "day": "Monday",
        "hours": "Closed"
      },
      {
        "day": "Tuesday",
        "hours": "9 AM to 5 PM"
      },
      {
        "day": "Wednesday",
        "hours": "9 AM to 5 PM"
      },
      {
        "day": "Thursday",
        "hours": "Closed"
      },
      {
        "day": "Friday",
        "hours": "Closed"
      },
      {
        "day": "Saturday",
        "hours": "Closed"
      },
      {
        "day": "Sunday",
        "hours": "Closed"
      }
    ],
    "peopleAlsoSearch": [],
    "placesTags": [],
    "reviewsTags": [],
    "additionalInfo": {
      "From the business": [
        {
          "Identifies as women-owned": true
        },
        {
          "Small business": true
        }
      ],
      "Service options": [
        {
          "Curbside pickup": true
        },
        {
          "Delivery": true
        },
        {
          "Same-day delivery": true
        },
        {
          "English": true
        }
      ],
      "Accessibility": [
        {
          "Wheelchair accessible entrance": true
        },
        {
          "Wheelchair accessible parking lot": true
        }
      ],
      "Payments": [
        {
          "Credit cards": true
        },
        {
          "Debit cards": true
        },
        {
          "NFC mobile payments": true
        },
        {
          "Credit cards": true
        }
      ]
    },
    "gasPrices": [],
    "url": "https://www.google.com/maps/search/?api=1&query=Granger%20Pharmacy&query_place_id=ChIJjzJ3hsolQUkRmtEafefW_Ic",
    "searchPageUrl": "https://www.google.com/maps/search/independent%20pharmacy%20Richmond%20VA/@48.27430768932854,-70.65494205772909,8z?hl=en",
    "searchString": "independent pharmacy Richmond VA",
    "language": "en",
    "rank": 15,
    "isAdvertisement": false,
    "imageUrl": "https://lh3.googleusercontent.com/p/AF1QipNvx8qZxeZKptAvd5QQJcw0p2DCtHZ358tblIOq=w408-h375-k-no",
    "kgmid": "/g/11sfdtftks"
  },
  {
    "title": "Rx3 Compounding Pharmacy",
    "price": null,
    "categoryName": "Pharmacy",
    "address": "12230 Iron Bridge Rd Ste C, Chester, VA 23831",
    "neighborhood": null,
    "street": "12230 Iron Bridge Rd Ste C",
    "city": "Chester",
    "postalCode": "23831",
    "state": "Virginia",
    "countryCode": "US",
    "website": "https://www.rx3pharmacy.com/",
    "phone": "(804) 717-5000",
    "phoneUnformatted": "+18047175000",
    "claimThisBusiness": false,
    "location": {
      "lat": 37.3507979,
      "lng": -77.47806
    },
    "totalScore": 3.8,
    "permanentlyClosed": false,
    "temporarilyClosed": false,
    "placeId": "ChIJjVN2iywKsYkR94PQRhKPLxo",
    "categories": [
      "Pharmacy",
      "Alternative medicine practitioner",
      "Natural goods store",
      "Vitamin & supplements store"
    ],
    "fid": "0x89b10a2c8b76538d:0x1a2f8f1246d083f7",
    "cid": "1886884077551780855",
    "reviewsCount": 86,
    "imagesCount": 36,
    "imageCategories": [],
    "scrapedAt": "2025-06-22T06:49:05.346Z",
    "googleFoodUrl": null,
    "hotelAds": [],
    "openingHours": [
      {
        "day": "Monday",
        "hours": "9 AM to 6 PM"
      },
      {
        "day": "Tuesday",
        "hours": "9 AM to 6 PM"
      },
      {
        "day": "Wednesday",
        "hours": "9 AM to 6 PM"
      },
      {
        "day": "Thursday",
        "hours": "9 AM to 6 PM"
      },
      {
        "day": "Friday",
        "hours": "9 AM to 6 PM"
      },
      {
        "day": "Saturday",
        "hours": "9 AM to 2 PM"
      },
      {
        "day": "Sunday",
        "hours": "Closed"
      }
    ],
    "peopleAlsoSearch": [],
    "placesTags": [],
    "reviewsTags": [],
    "additionalInfo": {
      "From the business": [
        {
          "Small business": true
        }
      ],
      "Service options": [
        {
          "Delivery": true
        },
        {
          "In-store pickup": true
        },
        {
          "In-store shopping": true
        },
        {
          "Same-day delivery": true
        }
      ],
      "Accessibility": [
        {
          "Wheelchair accessible entrance": true
        },
        {
          "Wheelchair accessible parking lot": true
        }
      ],
      "Planning": [
        {
          "Quick visit": true
        }
      ],
      "Payments": [
        {
          "Credit cards": true
        },
        {
          "Debit cards": true
        },
        {
          "NFC mobile payments": true
        }
      ]
    },
    "gasPrices": [],
    "url": "https://www.google.com/maps/search/?api=1&query=Rx3%20Compounding%20Pharmacy&query_place_id=ChIJjVN2iywKsYkR94PQRhKPLxo",
    "searchPageUrl": "https://www.google.com/maps/search/independent%20pharmacy%20Richmond%20VA/@48.27430768932854,-70.65494205772909,8z?hl=en",
    "searchString": "independent pharmacy Richmond VA",
    "language": "en",
    "rank": 16,
    "isAdvertisement": false,
    "imageUrl": "https://lh3.googleusercontent.com/p/AF1QipM7oGLFaeL1AbWGPF-Qa6k6AQsEIZmI0tV3TFiH=w408-h271-k-no",
    "kgmid": "/g/1tgp1p9h"
  },
  {
    "title": "Harness Health Pharmacy - St. Mary's",
    "price": null,
    "categoryName": "Pharmacy",
    "address": "5801 Bremo Rd, Richmond, VA 23226",
    "neighborhood": null,
    "street": "5801 Bremo Rd",
    "city": "Richmond",
    "postalCode": "23226",
    "state": "Virginia",
    "countryCode": "US",
    "website": "https://www.bonsecours.com/locations/pharmacy/richmond/harness-health-pharmacy-st-marys?utm_source=google&utm_medium=organic&utm_content=local_website_link",
    "phone": "(804) 281-8425",
    "phoneUnformatted": "+18042818425",
    "claimThisBusiness": false,
    "location": {
      "lat": 37.5842426,
      "lng": -77.512691
    },
    "totalScore": 4.8,
    "permanentlyClosed": false,
    "temporarilyClosed": false,
    "placeId": "ChIJS0GmEmEUsYkRSlD-fq8NBeQ",
    "categories": [
      "Pharmacy",
      "Drug store",
      "Hospital department"
    ],
    "fid": "0x89b1146112a6414b:0xe4050daf7efe504a",
    "cid": "16430553862932156490",
    "reviewsCount": 9,
    "imagesCount": 1,
    "imageCategories": [],
    "scrapedAt": "2025-06-22T06:49:05.346Z",
    "googleFoodUrl": null,
    "hotelAds": [],
    "openingHours": [
      {
        "day": "Monday",
        "hours": "9 AM to 5 PM"
      },
      {
        "day": "Tuesday",
        "hours": "9 AM to 5 PM"
      },
      {
        "day": "Wednesday",
        "hours": "9 AM to 5 PM"
      },
      {
        "day": "Thursday",
        "hours": "9 AM to 5 PM"
      },
      {
        "day": "Friday",
        "hours": "9 AM to 5 PM"
      },
      {
        "day": "Saturday",
        "hours": "Closed"
      },
      {
        "day": "Sunday",
        "hours": "Closed"
      }
    ],
    "peopleAlsoSearch": [],
    "placesTags": [],
    "reviewsTags": [],
    "additionalInfo": {
      "Service options": [
        {
          "In-store shopping": true
        }
      ],
      "Accessibility": [
        {
          "Wheelchair accessible entrance": true
        },
        {
          "Wheelchair accessible parking lot": true
        }
      ],
      "Payments": [
        {
          "Cash-only": true
        }
      ]
    },
    "gasPrices": [],
    "url": "https://www.google.com/maps/search/?api=1&query=Harness%20Health%20Pharmacy%20-%20St.%20Mary's&query_place_id=ChIJS0GmEmEUsYkRSlD-fq8NBeQ",
    "searchPageUrl": "https://www.google.com/maps/search/independent%20pharmacy%20Richmond%20VA/@48.27430768932854,-70.65494205772909,8z?hl=en",
    "searchString": "independent pharmacy Richmond VA",
    "language": "en",
    "rank": 17,
    "isAdvertisement": false,
    "imageUrl": "https://streetviewpixels-pa.googleapis.com/v1/thumbnail?panoid=9Q9I4B2WHBmoqSwUmFm4BA&cb_client=search.gws-prod.gps&w=408&h=240&yaw=110.33102&pitch=0&thumbfov=100",
    "kgmid": "/g/1tdx4_td"
  },
  {
    "title": "ACC Pharmacy",
    "price": null,
    "categoryName": "Pharmacy",
    "address": "417 N 11th St, Richmond, VA 23219",
    "neighborhood": "Downtown",
    "street": "417 N 11th St",
    "city": "Richmond",
    "postalCode": "23219",
    "state": "Virginia",
    "countryCode": "US",
    "phone": "(804) 828-8329",
    "phoneUnformatted": "+18048288329",
    "claimThisBusiness": true,
    "location": {
      "lat": 37.5410315,
      "lng": -77.4304616
    },
    "totalScore": 3.3,
    "permanentlyClosed": false,
    "temporarilyClosed": false,
    "placeId": "ChIJC1k10iMRsYkRVE_kgCSyGqU",
    "categories": [
      "Pharmacy"
    ],
    "fid": "0x89b11123d235590b:0xa51ab22480e44f54",
    "cid": "11897017235503599444",
    "reviewsCount": 35,
    "imagesCount": 3,
    "imageCategories": [],
    "scrapedAt": "2025-06-22T06:49:05.346Z",
    "googleFoodUrl": null,
    "hotelAds": [],
    "openingHours": [
      {
        "day": "Monday",
        "hours": "8 AM to 7 PM"
      },
      {
        "day": "Tuesday",
        "hours": "8 AM to 7 PM"
      },
      {
        "day": "Wednesday",
        "hours": "8 AM to 7 PM"
      },
      {
        "day": "Thursday",
        "hours": "8 AM to 7 PM"
      },
      {
        "day": "Friday",
        "hours": "8 AM to 7 PM"
      },
      {
        "day": "Saturday",
        "hours": "9 AM to 5:30 PM"
      },
      {
        "day": "Sunday",
        "hours": "9 AM to 5:30 PM"
      }
    ],
    "peopleAlsoSearch": [],
    "placesTags": [],
    "reviewsTags": [],
    "additionalInfo": {
      "Accessibility": [
        {
          "Wheelchair accessible entrance": true
        },
        {
          "Wheelchair accessible parking lot": true
        }
      ],
      "Payments": [
        {
          "Credit cards": true
        }
      ]
    },
    "gasPrices": [],
    "url": "https://www.google.com/maps/search/?api=1&query=ACC%20Pharmacy&query_place_id=ChIJC1k10iMRsYkRVE_kgCSyGqU",
    "searchPageUrl": "https://www.google.com/maps/search/independent%20pharmacy%20Richmond%20VA/@48.27430768932854,-70.65494205772909,8z?hl=en",
    "searchString": "independent pharmacy Richmond VA",
    "language": "en",
    "rank": 18,
    "isAdvertisement": false,
    "imageUrl": "https://lh3.googleusercontent.com/gps-cs-s/AC9h4nrCgM9srZBEt_3e_RpF8eausgGNwrdv5uxHsm40IZvdRLlgdE8W6nWH-EdauxGe1M4k3qvP42TJlZZN_H3NQsww9YHlzKBJbyVB120abRGY8pZvtSiLeaPKCXbYc4Sog_XrWUnBlQ=w408-h544-k-no",
    "kgmid": "/g/1tlbvlcp"
  },
  {
    "title": "Rx Partnership",
    "price": null,
    "categoryName": "Pharmacy",
    "address": "1500 Forest Ave #201, Richmond, VA 23229",
    "neighborhood": null,
    "street": "1500 Forest Ave #201",
    "city": "Richmond",
    "postalCode": "23229",
    "state": "Virginia",
    "countryCode": "US",
    "website": "http://www.rxpartnership.org/",
    "phone": "(804) 377-1057",
    "phoneUnformatted": "+18043771057",
    "claimThisBusiness": true,
    "location": {
      "lat": 37.6002345,
      "lng": -77.5464025
    },
    "totalScore": 5,
    "permanentlyClosed": false,
    "temporarilyClosed": false,
    "placeId": "ChIJNam5CAIVsYkRxhA9deEGmQ8",
    "categories": [
      "Pharmacy"
    ],
    "fid": "0x89b1150208b9a935:0xf9906e1753d10c6",
    "cid": "1123937147409993926",
    "reviewsCount": 1,
    "imagesCount": 1,
    "imageCategories": [],
    "scrapedAt": "2025-06-22T06:49:05.346Z",
    "googleFoodUrl": null,
    "hotelAds": [],
    "openingHours": [],
    "peopleAlsoSearch": [],
    "placesTags": [],
    "reviewsTags": [],
    "additionalInfo": {
      "Accessibility": [
        {
          "Wheelchair accessible entrance": true
        },
        {
          "Wheelchair accessible parking lot": true
        }
      ]
    },
    "gasPrices": [],
    "url": "https://www.google.com/maps/search/?api=1&query=Rx%20Partnership&query_place_id=ChIJNam5CAIVsYkRxhA9deEGmQ8",
    "searchPageUrl": "https://www.google.com/maps/search/independent%20pharmacy%20Richmond%20VA/@48.27430768932854,-70.65494205772909,8z?hl=en",
    "searchString": "independent pharmacy Richmond VA",
    "language": "en",
    "rank": 19,
    "isAdvertisement": false,
    "imageUrl": "https://streetviewpixels-pa.googleapis.com/v1/thumbnail?panoid=de1XSkf1StFJ3EQO8iun5w&cb_client=search.gws-prod.gps&w=408&h=240&yaw=13.100146&pitch=0&thumbfov=100",
    "kgmid": "/g/1tkc7k8t"
  },
  {
    "title": "NeighborCare Pharmacy in Westminster Canterbury",
    "price": null,
    "categoryName": "Pharmacy",
    "address": "1600 Westbrook Ave, Richmond, VA 23227",
    "neighborhood": null,
    "street": "1600 Westbrook Ave",
    "city": "Richmond",
    "postalCode": "23227",
    "state": "Virginia",
    "countryCode": "US",
    "website": "http://neighborcare.com/",
    "phone": "(804) 264-6245",
    "phoneUnformatted": "+18042646245",
    "claimThisBusiness": true,
    "location": {
      "lat": 37.5980897,
      "lng": -77.4607077
    },
    "permanentlyClosed": false,
    "temporarilyClosed": false,
    "placeId": "ChIJL-1ZtYUWsYkR3N26UpTLy6A",
    "categories": [
      "Pharmacy"
    ],
    "fid": "0x89b11685b559ed2f:0xa0cbcb9452badddc",
    "cid": "11586578304244309468",
    "reviewsCount": 0,
    "imagesCount": 1,
    "imageCategories": [],
    "scrapedAt": "2025-06-22T06:49:05.346Z",
    "googleFoodUrl": null,
    "hotelAds": [],
    "openingHours": [
      {
        "day": "Monday",
        "hours": "9 AM to 5 PM"
      },
      {
        "day": "Tuesday",
        "hours": "9 AM to 5 PM"
      },
      {
        "day": "Wednesday",
        "hours": "9 AM to 5 PM"
      },
      {
        "day": "Thursday",
        "hours": "9 AM to 5 PM"
      },
      {
        "day": "Friday",
        "hours": "9 AM to 5 PM"
      },
      {
        "day": "Saturday",
        "hours": "Closed"
      },
      {
        "day": "Sunday",
        "hours": "Closed"
      }
    ],
    "peopleAlsoSearch": [],
    "placesTags": [],
    "reviewsTags": [],
    "additionalInfo": {
      "Accessibility": [
        {
          "Wheelchair accessible entrance": true
        },
        {
          "Wheelchair accessible parking lot": true
        }
      ],
      "Payments": [
        {
          "Credit cards": true
        }
      ]
    },
    "gasPrices": [],
    "url": "https://www.google.com/maps/search/?api=1&query=NeighborCare%20Pharmacy%20in%20Westminster%20Canterbury&query_place_id=ChIJL-1ZtYUWsYkR3N26UpTLy6A",
    "searchPageUrl": "https://www.google.com/maps/search/independent%20pharmacy%20Richmond%20VA/@48.27430768932854,-70.65494205772909,8z?hl=en",
    "searchString": "independent pharmacy Richmond VA",
    "language": "en",
    "rank": 20,
    "isAdvertisement": false,
    "imageUrl": "https://lh3.googleusercontent.com/p/AF1QipPSY0t1VgC3klCM6RGNC1kdGwmBu4cEfsK-g3Xf=w424-h240-k-no",
    "kgmid": "/g/1262gnbh7"
  }
]