[
  {
    "title": "Baltimore Highlands Pharmacy",
    "price": null,
    "categoryName": "Pharmacy",
    "address": "4109 Annapolis Rd, Baltimore, MD 21227",
    "neighborhood": "Lansdowne - Baltimore Highlands",
    "street": "4109 Annapolis Rd",
    "city": "Baltimore",
    "postalCode": "21227",
    "state": "Maryland",
    "countryCode": "US",
    "website": "http://www.baltimorehighlandspharmacy.com/",
    "phone": "(410) 636-1035",
    "phoneUnformatted": "+14106361035",
    "claimThisBusiness": false,
    "location": {
      "lat": 39.2384042,
      "lng": -76.6410374
    },
    "totalScore": 4.7,
    "permanentlyClosed": false,
    "temporarilyClosed": false,
    "placeId": "ChIJD8pmNM0CyIkRm03Io9Bd7y4",
    "categories": [
      "Pharmacy"
    ],
    "fid": "0x89c802cd3466ca0f:0x2eef5dd0a3c84d9b",
    "cid": "3382024995860925851",
    "reviewsCount": 44,
    "imagesCount": 8,
    "imageCategories": [],
    "scrapedAt": "2025-06-22T05:27:23.654Z",
    "googleFoodUrl": null,
    "hotelAds": [],
    "openingHours": [
      {
        "day": "Monday",
        "hours": "9 AM to 6 PM"
      },
      {
        "day": "Tuesday",
        "hours": "9 AM to 6 PM"
      },
      {
        "day": "Wednesday",
        "hours": "9 AM to 6 PM"
      },
      {
        "day": "Thursday",
        "hours": "9 AM to 6 PM"
      },
      {
        "day": "Friday",
        "hours": "9 AM to 6 PM"
      },
      {
        "day": "Saturday",
        "hours": "Closed"
      },
      {
        "day": "Sunday",
        "hours": "Closed"
      }
    ],
    "peopleAlsoSearch": [],
    "placesTags": [],
    "reviewsTags": [],
    "additionalInfo": {
      "From the business": [
        {
          "Identifies as women-owned": true
        },
        {
          "Small business": true
        }
      ],
      "Service options": [
        {
          "Delivery": true
        },
        {
          "In-store pickup": true
        },
        {
          "In-store shopping": true
        },
        {
          "Onsite services": true
        },
        {
          "Same-day delivery": true
        }
      ],
      "Accessibility": [
        {
          "Wheelchair accessible entrance": true
        },
        {
          "Wheelchair accessible parking lot": true
        }
      ],
      "Planning": [
        {
          "Quick visit": true
        }
      ],
      "Payments": [
        {
          "Credit cards": true
        },
        {
          "Debit cards": true
        },
        {
          "NFC mobile payments": true
        },
        {
          "Credit cards": true
        }
      ]
    },
    "gasPrices": [],
    "url": "https://www.google.com/maps/search/?api=1&query=Baltimore%20Highlands%20Pharmacy&query_place_id=ChIJD8pmNM0CyIkRm03Io9Bd7y4",
    "searchPageUrl": "https://www.google.com/maps/search/independent%20pharmacy%20Baltimore%20MD/@24.002753066812627,-166.46403603314175,12z?hl=en",
    "searchString": "independent pharmacy Baltimore MD",
    "language": "en",
    "rank": 1,
    "isAdvertisement": false,
    "imageUrl": "https://lh3.googleusercontent.com/p/AF1QipPyo4c5VJa3GDZMnY7oFXg0uZrgmsHWlSeIKJe-=w408-h306-k-no",
    "kgmid": "/g/1tk9rqvw"
  },
  {
    "title": "Belair Pharmacy",
    "price": null,
    "categoryName": "Pharmacy",
    "address": "5309 Belair Rd, Baltimore, MD 21206",
    "neighborhood": "Frankford",
    "street": "5309 Belair Rd",
    "city": "Baltimore",
    "postalCode": "21206",
    "state": "Maryland",
    "countryCode": "US",
    "website": "http://www.myhealthstoremd.com/",
    "phone": "(410) 601-3136",
    "phoneUnformatted": "+14106013136",
    "claimThisBusiness": false,
    "location": {
      "lat": 39.3376862,
      "lng": -76.5520043
    },
    "totalScore": 4.8,
    "permanentlyClosed": false,
    "temporarilyClosed": false,
    "placeId": "ChIJ21e33t4FyIkR5a8p5OtMms8",
    "categories": [
      "Pharmacy",
      "Diabetes equipment supplier"
    ],
    "fid": "0x89c805dedeb757db:0xcf9a4cebe429afe5",
    "cid": "14959353688293486565",
    "reviewsCount": 86,
    "imagesCount": 2,
    "imageCategories": [],
    "scrapedAt": "2025-06-22T05:27:23.655Z",
    "googleFoodUrl": null,
    "hotelAds": [],
    "openingHours": [
      {
        "day": "Monday",
        "hours": "10 AM to 6:30 PM"
      },
      {
        "day": "Tuesday",
        "hours": "10 AM to 6:30 PM"
      },
      {
        "day": "Wednesday",
        "hours": "10 AM to 6:30 PM"
      },
      {
        "day": "Thursday",
        "hours": "10 AM to 6:30 PM"
      },
      {
        "day": "Friday",
        "hours": "10 AM to 6:30 PM"
      },
      {
        "day": "Saturday",
        "hours": "10 AM to 3 PM"
      },
      {
        "day": "Sunday",
        "hours": "Closed"
      }
    ],
    "peopleAlsoSearch": [],
    "placesTags": [],
    "reviewsTags": [],
    "additionalInfo": {
      "From the business": [
        {
          "Small business": true
        }
      ],
      "Service options": [
        {
          "Delivery": true
        },
        {
          "In-store pickup": true
        },
        {
          "In-store shopping": true
        },
        {
          "Same-day delivery": true
        }
      ],
      "Accessibility": [
        {
          "Wheelchair accessible entrance": true
        },
        {
          "Wheelchair accessible parking lot": true
        }
      ],
      "Payments": [
        {
          "Credit cards": true
        }
      ]
    },
    "gasPrices": [],
    "url": "https://www.google.com/maps/search/?api=1&query=Belair%20Pharmacy&query_place_id=ChIJ21e33t4FyIkR5a8p5OtMms8",
    "searchPageUrl": "https://www.google.com/maps/search/independent%20pharmacy%20Baltimore%20MD/@24.002753066812627,-166.46403603314175,12z?hl=en",
    "searchString": "independent pharmacy Baltimore MD",
    "language": "en",
    "rank": 2,
    "isAdvertisement": false,
    "imageUrl": "http://t2.gstatic.com/images?q=tbn:ANd9GcR2X001vnkeQPLuiLK2E0PnNd0s2vKqB1KVN4FnraVg3KzCuL3V",
    "kgmid": "/g/11f15h7jhh"
  },
  {
    "title": "Ultra Care Pharmacy",
    "price": null,
    "categoryName": "Pharmacy",
    "address": "4419 Falls Rd STE B, Baltimore, MD 21211",
    "neighborhood": "Hoes Heights",
    "street": "4419 Falls Rd STE B",
    "city": "Baltimore",
    "postalCode": "21211",
    "state": "Maryland",
    "countryCode": "US",
    "website": "https://www.rxucp.com/",
    "phone": "(410) 878-1031",
    "phoneUnformatted": "+14108781031",
    "claimThisBusiness": false,
    "location": {
      "lat": 39.3427175,
      "lng": -76.639712
    },
    "totalScore": 5,
    "permanentlyClosed": false,
    "temporarilyClosed": false,
    "placeId": "ChIJuTY6Jk4FyIkRiD-KoQyMrd8",
    "categories": [
      "Pharmacy",
      "Drug store",
      "Surgical supply store"
    ],
    "fid": "0x89c8054e263a36b9:0xdfad8c0ca18a3f88",
    "cid": "16117692627306561416",
    "reviewsCount": 44,
    "imagesCount": 9,
    "imageCategories": [],
    "scrapedAt": "2025-06-22T05:27:23.655Z",
    "googleFoodUrl": null,
    "hotelAds": [],
    "openingHours": [
      {
        "day": "Monday",
        "hours": "9 AM to 6 PM"
      },
      {
        "day": "Tuesday",
        "hours": "9 AM to 6 PM"
      },
      {
        "day": "Wednesday",
        "hours": "9 AM to 6 PM"
      },
      {
        "day": "Thursday",
        "hours": "9 AM to 6 PM"
      },
      {
        "day": "Friday",
        "hours": "9 AM to 6 PM"
      },
      {
        "day": "Saturday",
        "hours": "Closed"
      },
      {
        "day": "Sunday",
        "hours": "Closed"
      }
    ],
    "peopleAlsoSearch": [],
    "placesTags": [],
    "reviewsTags": [],
    "additionalInfo": {
      "From the business": [
        {
          "Small business": true
        }
      ],
      "Service options": [
        {
          "Delivery": true
        },
        {
          "In-store pickup": true
        },
        {
          "Same-day delivery": true
        }
      ],
      "Accessibility": [
        {
          "Wheelchair accessible entrance": true
        },
        {
          "Wheelchair accessible parking lot": true
        }
      ],
      "Planning": [
        {
          "Quick visit": true
        }
      ],
      "Payments": [
        {
          "Credit cards": true
        },
        {
          "Debit cards": true
        },
        {
          "NFC mobile payments": true
        }
      ]
    },
    "gasPrices": [],
    "url": "https://www.google.com/maps/search/?api=1&query=Ultra%20Care%20Pharmacy&query_place_id=ChIJuTY6Jk4FyIkRiD-KoQyMrd8",
    "searchPageUrl": "https://www.google.com/maps/search/independent%20pharmacy%20Baltimore%20MD/@24.002753066812627,-166.46403603314175,12z?hl=en",
    "searchString": "independent pharmacy Baltimore MD",
    "language": "en",
    "rank": 3,
    "isAdvertisement": false,
    "imageUrl": "https://lh3.googleusercontent.com/p/AF1QipOIu_brTDL5icK0-foepIJAf4p-MX-oUfW_u2-P=w408-h306-k-no",
    "kgmid": "/g/11jdt4sy97"
  },
  {
    "title": "Park Ave Pharmacy",
    "price": null,
    "categoryName": "Pharmacy",
    "address": "1535 Park Ave, Baltimore, MD 21217",
    "neighborhood": "Bolton Hill",
    "street": "1535 Park Ave",
    "city": "Baltimore",
    "postalCode": "21217",
    "state": "Maryland",
    "countryCode": "US",
    "phone": "(410) 225-0800",
    "phoneUnformatted": "+14102250800",
    "claimThisBusiness": true,
    "location": {
      "lat": 39.3085381,
      "lng": -76.6256499
    },
    "totalScore": 4.6,
    "permanentlyClosed": false,
    "temporarilyClosed": false,
    "placeId": "ChIJRaANMfIFyIkRPPT0p6jOEUg",
    "categories": [
      "Pharmacy"
    ],
    "fid": "0x89c805f2310da045:0x4811cea8a7f4f43c",
    "cid": "5193159069102568508",
    "reviewsCount": 16,
    "imagesCount": 9,
    "imageCategories": [],
    "scrapedAt": "2025-06-22T05:27:23.656Z",
    "googleFoodUrl": null,
    "hotelAds": [],
    "openingHours": [
      {
        "day": "Monday",
        "hours": "9 AM to 6 PM"
      },
      {
        "day": "Tuesday",
        "hours": "9 AM to 6 PM"
      },
      {
        "day": "Wednesday",
        "hours": "9 AM to 6 PM"
      },
      {
        "day": "Thursday",
        "hours": "9 AM to 6 PM"
      },
      {
        "day": "Friday",
        "hours": "9 AM to 6 PM"
      },
      {
        "day": "Saturday",
        "hours": "9 AM to 3 PM"
      },
      {
        "day": "Sunday",
        "hours": "Closed"
      }
    ],
    "peopleAlsoSearch": [],
    "placesTags": [],
    "reviewsTags": [],
    "additionalInfo": {
      "Planning": [
        {
          "Quick visit": true
        }
      ],
      "Payments": [
        {
          "Credit cards": true
        },
        {
          "Debit cards": true
        },
        {
          "NFC mobile payments": true
        },
        {
          "Credit cards": true
        }
      ]
    },
    "gasPrices": [],
    "url": "https://www.google.com/maps/search/?api=1&query=Park%20Ave%20Pharmacy&query_place_id=ChIJRaANMfIFyIkRPPT0p6jOEUg",
    "searchPageUrl": "https://www.google.com/maps/search/independent%20pharmacy%20Baltimore%20MD/@24.002753066812627,-166.46403603314175,12z?hl=en",
    "searchString": "independent pharmacy Baltimore MD",
    "language": "en",
    "rank": 4,
    "isAdvertisement": false,
    "imageUrl": "https://lh3.googleusercontent.com/gps-cs-s/AC9h4nrvA4mK9bOTQm3oci86ki-CwcpV0UVa6ptQSFkgfPgJjro1gzlqA1XDd18h1gjjRsZ2CL8mqNU_RzZjR57pIotJvRzB39vCggVXvjf3SqiK7xbGJabDBkLBZpLKX83AGt1wgSQn=w408-h544-k-no",
    "kgmid": "/g/11n5w8v615"
  },
  {
    "title": "Edmondson Pharmacy",
    "price": null,
    "categoryName": "Pharmacy",
    "address": "4506 Edmondson Ave, Baltimore, MD 21229",
    "neighborhood": "Rognel Heights",
    "street": "4506 Edmondson Ave",
    "city": "Baltimore",
    "postalCode": "21229",
    "state": "Maryland",
    "countryCode": "US",
    "website": "http://edmondsonpharmacy.com/",
    "phone": "(410) 566-5565",
    "phoneUnformatted": "+14105665565",
    "claimThisBusiness": false,
    "location": {
      "lat": 39.2943843,
      "lng": -76.6914652
    },
    "totalScore": 5,
    "permanentlyClosed": false,
    "temporarilyClosed": false,
    "placeId": "ChIJ36VFyX4cyIkRM-ORZGO_Xa8",
    "categories": [
      "Pharmacy"
    ],
    "fid": "0x89c81c7ec945a5df:0xaf5dbf636491e333",
    "cid": "12636466563081429811",
    "reviewsCount": 86,
    "imagesCount": 7,
    "imageCategories": [],
    "scrapedAt": "2025-06-22T05:27:23.656Z",
    "googleFoodUrl": null,
    "hotelAds": [],
    "openingHours": [
      {
        "day": "Monday",
        "hours": "9 AM to 5 PM"
      },
      {
        "day": "Tuesday",
        "hours": "9 AM to 5 PM"
      },
      {
        "day": "Wednesday",
        "hours": "9 AM to 5 PM"
      },
      {
        "day": "Thursday",
        "hours": "9 AM to 5 PM"
      },
      {
        "day": "Friday",
        "hours": "9 AM to 5 PM"
      },
      {
        "day": "Saturday",
        "hours": "10 AM to 2 PM"
      },
      {
        "day": "Sunday",
        "hours": "Closed"
      }
    ],
    "peopleAlsoSearch": [],
    "placesTags": [],
    "reviewsTags": [],
    "additionalInfo": {
      "From the business": [
        {
          "Small business": true
        }
      ],
      "Service options": [
        {
          "Delivery": true
        }
      ],
      "Accessibility": [
        {
          "Wheelchair accessible entrance": true
        },
        {
          "Wheelchair accessible parking lot": true
        }
      ],
      "Planning": [
        {
          "Quick visit": true
        }
      ],
      "Payments": [
        {
          "Credit cards": true
        },
        {
          "Debit cards": true
        },
        {
          "NFC mobile payments": true
        },
        {
          "Credit cards": true
        }
      ]
    },
    "gasPrices": [],
    "url": "https://www.google.com/maps/search/?api=1&query=Edmondson%20Pharmacy&query_place_id=ChIJ36VFyX4cyIkRM-ORZGO_Xa8",
    "searchPageUrl": "https://www.google.com/maps/search/independent%20pharmacy%20Baltimore%20MD/@24.002753066812627,-166.46403603314175,12z?hl=en",
    "searchString": "independent pharmacy Baltimore MD",
    "language": "en",
    "rank": 5,
    "isAdvertisement": false,
    "imageUrl": "https://lh3.googleusercontent.com/p/AF1QipPD6pKXFnMuaK-HyFwgdgElSllGu34SuIGOsjhq=w429-h240-k-no",
    "kgmid": "/g/1262wxvtz"
  },
  {
    "title": "Mt Vernon Pharmacy",
    "price": null,
    "categoryName": "Pharmacy",
    "address": "900 Cathedral St # 8, Baltimore, MD 21201",
    "neighborhood": "Midtown",
    "street": "900 Cathedral St # 8",
    "city": "Baltimore",
    "postalCode": "21201",
    "state": "Maryland",
    "countryCode": "US",
    "website": "http://www.mtvernonpharmacy.com/",
    "phone": "(410) 539-8030",
    "phoneUnformatted": "+14105398030",
    "claimThisBusiness": false,
    "location": {
      "lat": 39.2998445,
      "lng": -76.6175944
    },
    "totalScore": 4.8,
    "permanentlyClosed": false,
    "temporarilyClosed": false,
    "placeId": "ChIJOQcZ6JcEyIkRc7hAS_47uV0",
    "categories": [
      "Pharmacy"
    ],
    "fid": "0x89c80497e8190739:0x5db93bfe4b40b873",
    "cid": "6753495079589034099",
    "reviewsCount": 28,
    "imagesCount": 4,
    "imageCategories": [],
    "scrapedAt": "2025-06-22T05:27:23.656Z",
    "googleFoodUrl": null,
    "hotelAds": [],
    "openingHours": [
      {
        "day": "Monday",
        "hours": "8 AM to 6 PM"
      },
      {
        "day": "Tuesday",
        "hours": "8 AM to 6 PM"
      },
      {
        "day": "Wednesday",
        "hours": "8 AM to 6 PM"
      },
      {
        "day": "Thursday",
        "hours": "8 AM to 6 PM"
      },
      {
        "day": "Friday",
        "hours": "8 AM to 6 PM"
      },
      {
        "day": "Saturday",
        "hours": "9 AM to 2 PM"
      },
      {
        "day": "Sunday",
        "hours": "Closed"
      }
    ],
    "peopleAlsoSearch": [],
    "placesTags": [],
    "reviewsTags": [],
    "additionalInfo": {
      "Service options": [
        {
          "Delivery": true
        },
        {
          "In-store pickup": true
        },
        {
          "Same-day delivery": true
        }
      ],
      "Payments": [
        {
          "Credit cards": true
        },
        {
          "Debit cards": true
        },
        {
          "NFC mobile payments": true
        },
        {
          "Credit cards": true
        }
      ]
    },
    "gasPrices": [],
    "url": "https://www.google.com/maps/search/?api=1&query=Mt%20Vernon%20Pharmacy&query_place_id=ChIJOQcZ6JcEyIkRc7hAS_47uV0",
    "searchPageUrl": "https://www.google.com/maps/search/independent%20pharmacy%20Baltimore%20MD/@24.002753066812627,-166.46403603314175,12z?hl=en",
    "searchString": "independent pharmacy Baltimore MD",
    "language": "en",
    "rank": 6,
    "isAdvertisement": false,
    "imageUrl": "https://lh3.googleusercontent.com/gps-cs-s/AC9h4npAZPTDknx7BNcNViTCLk2eJWqHHewJ0EEWPKPz8gy1jfTZDpxAzNaX2ViVwaUG7bJyCKI0JtpyHdpZA7YQvjF2UfnthL3JwbTIe1aJi94QIHvYSALVXEj2iWobYaR_qAwaOc2rNg=w408-h307-k-no",
    "kgmid": "/g/1v9410b3"
  },
  {
    "title": "Midtown Discount Pharmacy",
    "price": null,
    "categoryName": "Pharmacy",
    "address": "2014 Maryland Ave, Baltimore, MD 21218",
    "neighborhood": "Charles North",
    "street": "2014 Maryland Ave",
    "city": "Baltimore",
    "postalCode": "21218",
    "state": "Maryland",
    "countryCode": "US",
    "phone": "(410) 528-6010",
    "phoneUnformatted": "+14105286010",
    "claimThisBusiness": false,
    "location": {
      "lat": 39.3124589,
      "lng": -76.6188726
    },
    "totalScore": 4.6,
    "permanentlyClosed": false,
    "temporarilyClosed": false,
    "placeId": "ChIJB4EjdeoEyIkR1FjSFDZAUgc",
    "categories": [
      "Pharmacy"
    ],
    "fid": "0x89c804ea75238107:0x752403614d258d4",
    "cid": "527554707377510612",
    "reviewsCount": 33,
    "imagesCount": 5,
    "imageCategories": [],
    "scrapedAt": "2025-06-22T05:27:23.656Z",
    "googleFoodUrl": null,
    "hotelAds": [],
    "openingHours": [
      {
        "day": "Monday",
        "hours": "9 AM to 6 PM"
      },
      {
        "day": "Tuesday",
        "hours": "9 AM to 6 PM"
      },
      {
        "day": "Wednesday",
        "hours": "9 AM to 6 PM"
      },
      {
        "day": "Thursday",
        "hours": "9 AM to 6 PM"
      },
      {
        "day": "Friday",
        "hours": "9 AM to 6 PM"
      },
      {
        "day": "Saturday",
        "hours": "9 AM to 1 PM"
      },
      {
        "day": "Sunday",
        "hours": "Closed"
      }
    ],
    "peopleAlsoSearch": [],
    "placesTags": [],
    "reviewsTags": [],
    "additionalInfo": {
      "From the business": [
        {
          "Small business": true
        }
      ],
      "Service options": [
        {
          "Delivery": true
        },
        {
          "In-store pickup": true
        },
        {
          "In-store shopping": true
        }
      ],
      "Accessibility": [
        {
          "Wheelchair accessible entrance": true
        },
        {
          "Wheelchair accessible parking lot": true
        }
      ],
      "Planning": [
        {
          "Quick visit": true
        }
      ],
      "Payments": [
        {
          "Credit cards": true
        },
        {
          "Debit cards": true
        },
        {
          "NFC mobile payments": true
        },
        {
          "Credit cards": true
        }
      ]
    },
    "gasPrices": [],
    "url": "https://www.google.com/maps/search/?api=1&query=Midtown%20Discount%20Pharmacy&query_place_id=ChIJB4EjdeoEyIkR1FjSFDZAUgc",
    "searchPageUrl": "https://www.google.com/maps/search/independent%20pharmacy%20Baltimore%20MD/@24.002753066812627,-166.46403603314175,12z?hl=en",
    "searchString": "independent pharmacy Baltimore MD",
    "language": "en",
    "rank": 7,
    "isAdvertisement": false,
    "imageUrl": "https://lh3.googleusercontent.com/p/AF1QipOkHe0H9-qVssbEQK0_aXNjx_5mf46aVOzsducx=w408-h306-k-no",
    "kgmid": "/g/11b7q8grlt"
  },
  {
    "title": "Eutaw Pharmacy",
    "price": null,
    "categoryName": "Pharmacy",
    "address": "622 N Eutaw St, Baltimore, MD 21201",
    "neighborhood": "Bromo Arts District",
    "street": "622 N Eutaw St",
    "city": "Baltimore",
    "postalCode": "21201",
    "state": "Maryland",
    "countryCode": "US",
    "website": "https://eutawpharmacy.com/",
    "phone": "(410) 225-3904",
    "phoneUnformatted": "+14102253904",
    "claimThisBusiness": false,
    "location": {
      "lat": 39.296393,
      "lng": -76.621647
    },
    "totalScore": 4.6,
    "permanentlyClosed": false,
    "temporarilyClosed": false,
    "placeId": "ChIJNaAoqKMEyIkR-XwiWb_7UE4",
    "categories": [
      "Pharmacy"
    ],
    "fid": "0x89c804a3a828a035:0x4e50fbbf59227cf9",
    "cid": "5643287132347989241",
    "reviewsCount": 26,
    "imagesCount": 1,
    "imageCategories": [],
    "scrapedAt": "2025-06-22T05:27:23.656Z",
    "googleFoodUrl": null,
    "hotelAds": [],
    "openingHours": [
      {
        "day": "Monday",
        "hours": "9 AM to 6 PM"
      },
      {
        "day": "Tuesday",
        "hours": "9 AM to 6 PM"
      },
      {
        "day": "Wednesday",
        "hours": "9 AM to 6 PM"
      },
      {
        "day": "Thursday",
        "hours": "9 AM to 6 PM"
      },
      {
        "day": "Friday",
        "hours": "9 AM to 6 PM"
      },
      {
        "day": "Saturday",
        "hours": "9 AM to 3 PM"
      },
      {
        "day": "Sunday",
        "hours": "Closed"
      }
    ],
    "peopleAlsoSearch": [],
    "placesTags": [],
    "reviewsTags": [],
    "additionalInfo": {
      "From the business": [
        {
          "Small business": true
        }
      ],
      "Service options": [
        {
          "Delivery": true
        }
      ],
      "Planning": [
        {
          "Quick visit": true
        }
      ],
      "Payments": [
        {
          "Credit cards": true
        },
        {
          "Debit cards": true
        },
        {
          "Credit cards": true
        }
      ]
    },
    "gasPrices": [],
    "url": "https://www.google.com/maps/search/?api=1&query=Eutaw%20Pharmacy&query_place_id=ChIJNaAoqKMEyIkR-XwiWb_7UE4",
    "searchPageUrl": "https://www.google.com/maps/search/independent%20pharmacy%20Baltimore%20MD/@24.002753066812627,-166.46403603314175,12z?hl=en",
    "searchString": "independent pharmacy Baltimore MD",
    "language": "en",
    "rank": 8,
    "isAdvertisement": false,
    "imageUrl": "https://streetviewpixels-pa.googleapis.com/v1/thumbnail?panoid=BsBEsdJ_1iguyT8tSRxivQ&cb_client=search.gws-prod.gps&w=408&h=240&yaw=265.34897&pitch=0&thumbfov=100",
    "kgmid": "/g/11hy9p4h3v"
  },
  {
    "title": "Highlandtown Pharmacy",
    "price": null,
    "categoryName": "Pharmacy",
    "address": "3911 Eastern Ave, Baltimore, MD 21224",
    "neighborhood": "Brewers Hill",
    "street": "3911 Eastern Ave",
    "city": "Baltimore",
    "postalCode": "21224",
    "state": "Maryland",
    "countryCode": "US",
    "phone": "(667) 212-3621",
    "phoneUnformatted": "+16672123621",
    "claimThisBusiness": false,
    "location": {
      "lat": 39.2864626,
      "lng": -76.5638844
    },
    "totalScore": 4.8,
    "permanentlyClosed": false,
    "temporarilyClosed": false,
    "placeId": "ChIJofjsSAkEyIkR8vyTY2Yfw8E",
    "categories": [
      "Pharmacy"
    ],
    "fid": "0x89c8040948ecf8a1:0xc1c31f666393fcf2",
    "cid": "13962037794396437746",
    "reviewsCount": 47,
    "imagesCount": 51,
    "imageCategories": [],
    "scrapedAt": "2025-06-22T05:27:23.656Z",
    "googleFoodUrl": null,
    "hotelAds": [],
    "openingHours": [
      {
        "day": "Monday",
        "hours": "8:30 AM to 5:30 PM"
      },
      {
        "day": "Tuesday",
        "hours": "8:30 AM to 5:30 PM"
      },
      {
        "day": "Wednesday",
        "hours": "8:30 AM to 5:30 PM"
      },
      {
        "day": "Thursday",
        "hours": "8:30 AM to 5:30 PM"
      },
      {
        "day": "Friday",
        "hours": "8:30 AM to 5:30 PM"
      },
      {
        "day": "Saturday",
        "hours": "9 AM to 2 PM"
      },
      {
        "day": "Sunday",
        "hours": "Closed"
      }
    ],
    "peopleAlsoSearch": [],
    "placesTags": [],
    "reviewsTags": [],
    "additionalInfo": {
      "From the business": [
        {
          "Small business": true
        }
      ],
      "Service options": [
        {
          "Delivery": true
        },
        {
          "In-store pickup": true
        },
        {
          "Same-day delivery": true
        }
      ],
      "Accessibility": [
        {
          "Wheelchair accessible entrance": true
        },
        {
          "Wheelchair accessible parking lot": true
        }
      ],
      "Planning": [
        {
          "Quick visit": true
        }
      ],
      "Payments": [
        {
          "Checks": true
        },
        {
          "Credit cards": true
        },
        {
          "Debit cards": true
        },
        {
          "NFC mobile payments": true
        },
        {
          "Credit cards": true
        }
      ],
      "Parking": [
        {
          "Paid street parking": true
        }
      ]
    },
    "gasPrices": [],
    "url": "https://www.google.com/maps/search/?api=1&query=Highlandtown%20Pharmacy&query_place_id=ChIJofjsSAkEyIkR8vyTY2Yfw8E",
    "searchPageUrl": "https://www.google.com/maps/search/independent%20pharmacy%20Baltimore%20MD/@24.002753066812627,-166.46403603314175,12z?hl=en",
    "searchString": "independent pharmacy Baltimore MD",
    "language": "en",
    "rank": 9,
    "isAdvertisement": false,
    "imageUrl": "https://lh3.googleusercontent.com/p/AF1QipOjpFwbIiE9DTmMc12OYaVqICrtGX7Wc2pwkDzt=w408-h544-k-no",
    "kgmid": "/g/11b73lnzq2"
  },
  {
    "title": "Belvedere Pharmacy",
    "price": null,
    "categoryName": "Pharmacy",
    "address": "5845 York Rd, Baltimore, MD 21212",
    "neighborhood": "Belvedere",
    "street": "5845 York Rd",
    "city": "Baltimore",
    "postalCode": "21212",
    "state": "Maryland",
    "countryCode": "US",
    "website": "https://www.belvederepharmacybaltimore.com/",
    "phone": "(410) 323-4117",
    "phoneUnformatted": "+14103234117",
    "claimThisBusiness": false,
    "location": {
      "lat": 39.3630695,
      "lng": -76.6096672
    },
    "totalScore": 4.3,
    "permanentlyClosed": false,
    "temporarilyClosed": false,
    "placeId": "ChIJBZd6Y2QFyIkRpgHcZSoAVZk",
    "categories": [
      "Pharmacy"
    ],
    "fid": "0x89c80564637a9705:0x9955002a65dc01a6",
    "cid": "11048737442920923558",
    "reviewsCount": 13,
    "imagesCount": 2,
    "imageCategories": [],
    "scrapedAt": "2025-06-22T05:27:23.656Z",
    "googleFoodUrl": null,
    "hotelAds": [],
    "openingHours": [
      {
        "day": "Monday",
        "hours": "10 AM to 6 PM"
      },
      {
        "day": "Tuesday",
        "hours": "10 AM to 6 PM"
      },
      {
        "day": "Wednesday",
        "hours": "10 AM to 6 PM"
      },
      {
        "day": "Thursday",
        "hours": "10 AM to 6 PM"
      },
      {
        "day": "Friday",
        "hours": "10 AM to 6 PM"
      },
      {
        "day": "Saturday",
        "hours": "Closed"
      },
      {
        "day": "Sunday",
        "hours": "Closed"
      }
    ],
    "peopleAlsoSearch": [],
    "placesTags": [],
    "reviewsTags": [],
    "additionalInfo": {
      "From the business": [
        {
          "Small business": true
        }
      ],
      "Service options": [
        {
          "Delivery": true
        },
        {
          "Same-day delivery": true
        }
      ],
      "Accessibility": [
        {
          "Wheelchair accessible entrance": true
        },
        {
          "Wheelchair accessible parking lot": true
        }
      ],
      "Planning": [
        {
          "Quick visit": true
        }
      ],
      "Payments": [
        {
          "Credit cards": true
        },
        {
          "Debit cards": true
        },
        {
          "NFC mobile payments": true
        },
        {
          "Credit cards": true
        }
      ]
    },
    "gasPrices": [],
    "url": "https://www.google.com/maps/search/?api=1&query=Belvedere%20Pharmacy&query_place_id=ChIJBZd6Y2QFyIkRpgHcZSoAVZk",
    "searchPageUrl": "https://www.google.com/maps/search/independent%20pharmacy%20Baltimore%20MD/@24.002753066812627,-166.46403603314175,12z?hl=en",
    "searchString": "independent pharmacy Baltimore MD",
    "language": "en",
    "rank": 10,
    "isAdvertisement": false,
    "imageUrl": "https://lh3.googleusercontent.com/p/AF1QipM58pzPP4-HvxDyzvRxDxUxZ9W3Yna2VBXNAct-=w582-h240-k-no",
    "kgmid": "/g/11c1sk0lsg"
  },
  {
    "title": "Mimikay Pharmacy",
    "price": null,
    "categoryName": "Pharmacy",
    "address": "1027 W 36th St, Baltimore, MD 21211",
    "neighborhood": "Hampden",
    "street": "1027 W 36th St",
    "city": "Baltimore",
    "postalCode": "21211",
    "state": "Maryland",
    "countryCode": "US",
    "phone": "(410) 469-9206",
    "phoneUnformatted": "+14104699206",
    "claimThisBusiness": false,
    "location": {
      "lat": 39.330937,
      "lng": -76.63351
    },
    "totalScore": 4.7,
    "permanentlyClosed": false,
    "temporarilyClosed": false,
    "placeId": "ChIJ2-lg2CkFyIkRJibuxFEffk8",
    "categories": [
      "Pharmacy"
    ],
    "fid": "0x89c80529d860e9db:0x4f7e1f51c4ee2626",
    "cid": "5728050212118603302",
    "reviewsCount": 30,
    "imagesCount": 1,
    "imageCategories": [],
    "scrapedAt": "2025-06-22T05:27:23.656Z",
    "googleFoodUrl": null,
    "hotelAds": [],
    "openingHours": [
      {
        "day": "Monday",
        "hours": "10 AM to 6 PM"
      },
      {
        "day": "Tuesday",
        "hours": "10 AM to 6 PM"
      },
      {
        "day": "Wednesday",
        "hours": "10 AM to 6 PM"
      },
      {
        "day": "Thursday",
        "hours": "10 AM to 6 PM"
      },
      {
        "day": "Friday",
        "hours": "10 AM to 6 PM"
      },
      {
        "day": "Saturday",
        "hours": "12 to 2 PM"
      },
      {
        "day": "Sunday",
        "hours": "Closed"
      }
    ],
    "peopleAlsoSearch": [],
    "placesTags": [],
    "reviewsTags": [],
    "additionalInfo": {
      "From the business": [
        {
          "Small business": true
        }
      ],
      "Service options": [
        {
          "Delivery": true
        }
      ],
      "Planning": [
        {
          "Quick visit": true
        }
      ],
      "Payments": [
        {
          "Credit cards": true
        },
        {
          "Debit cards": true
        },
        {
          "NFC mobile payments": true
        },
        {
          "Credit cards": true
        }
      ]
    },
    "gasPrices": [],
    "url": "https://www.google.com/maps/search/?api=1&query=Mimikay%20Pharmacy&query_place_id=ChIJ2-lg2CkFyIkRJibuxFEffk8",
    "searchPageUrl": "https://www.google.com/maps/search/independent%20pharmacy%20Baltimore%20MD/@24.002753066812627,-166.46403603314175,12z?hl=en",
    "searchString": "independent pharmacy Baltimore MD",
    "language": "en",
    "rank": 11,
    "isAdvertisement": false,
    "imageUrl": "https://streetviewpixels-pa.googleapis.com/v1/thumbnail?panoid=GqZrHBsQWk4zsmaI9tqrLw&cb_client=search.gws-prod.gps&w=408&h=240&yaw=197.14551&pitch=0&thumbfov=100",
    "kgmid": "/g/11bw3d27xg"
  },
  {
    "title": "Voshell's Pharmacy",
    "price": null,
    "categoryName": "Pharmacy",
    "address": "3455 Wilkens Ave, Baltimore, MD 21229",
    "neighborhood": "Violetville",
    "street": "3455 Wilkens Ave",
    "city": "Baltimore",
    "postalCode": "21229",
    "state": "Maryland",
    "countryCode": "US",
    "website": "http://www.voshellspharmacy.com/",
    "phone": "(410) 644-8400",
    "phoneUnformatted": "+14106448400",
    "claimThisBusiness": false,
    "location": {
      "lat": 39.2718654,
      "lng": -76.676576
    },
    "totalScore": 4.2,
    "permanentlyClosed": false,
    "temporarilyClosed": false,
    "placeId": "ChIJIbl0e_IcyIkRbBi8I-CKybk",
    "categories": [
      "Pharmacy"
    ],
    "fid": "0x89c81cf27b74b921:0xb9c98ae023bc186c",
    "cid": "13387384062612346988",
    "reviewsCount": 92,
    "imagesCount": 1,
    "imageCategories": [],
    "scrapedAt": "2025-06-22T05:27:23.657Z",
    "googleFoodUrl": null,
    "hotelAds": [],
    "openingHours": [
      {
        "day": "Monday",
        "hours": "9 AM to 5:30 PM"
      },
      {
        "day": "Tuesday",
        "hours": "9 AM to 5:30 PM"
      },
      {
        "day": "Wednesday",
        "hours": "9 AM to 5:30 PM"
      },
      {
        "day": "Thursday",
        "hours": "9 AM to 5:30 PM"
      },
      {
        "day": "Friday",
        "hours": "9 AM to 5:30 PM"
      },
      {
        "day": "Saturday",
        "hours": "9 AM to 1 PM"
      },
      {
        "day": "Sunday",
        "hours": "Closed"
      }
    ],
    "peopleAlsoSearch": [],
    "placesTags": [],
    "reviewsTags": [],
    "additionalInfo": {
      "From the business": [
        {
          "Identifies as Asian-owned": true
        },
        {
          "Small business": true
        }
      ],
      "Service options": [
        {
          "Delivery": true
        },
        {
          "In-store pickup": true
        },
        {
          "In-store shopping": true
        },
        {
          "Same-day delivery": true
        },
        {
          "English": true
        }
      ],
      "Accessibility": [
        {
          "Wheelchair accessible entrance": true
        },
        {
          "Wheelchair accessible parking lot": true
        }
      ],
      "Crowd": [
        {
          "LGBTQ+ friendly": true
        },
        {
          "Transgender safespace": true
        }
      ],
      "Payments": [
        {
          "Credit cards": true
        },
        {
          "Debit cards": true
        },
        {
          "NFC mobile payments": true
        },
        {
          "Credit cards": true
        }
      ]
    },
    "gasPrices": [],
    "url": "https://www.google.com/maps/search/?api=1&query=Voshell's%20Pharmacy&query_place_id=ChIJIbl0e_IcyIkRbBi8I-CKybk",
    "searchPageUrl": "https://www.google.com/maps/search/independent%20pharmacy%20Baltimore%20MD/@24.002753066812627,-166.46403603314175,12z?hl=en",
    "searchString": "independent pharmacy Baltimore MD",
    "language": "en",
    "rank": 12,
    "isAdvertisement": false,
    "imageUrl": "https://streetviewpixels-pa.googleapis.com/v1/thumbnail?panoid=opLZvlLiuBU7NcFaHF9VbA&cb_client=search.gws-prod.gps&w=408&h=240&yaw=86.70959&pitch=0&thumbfov=100",
    "kgmid": "/g/1tdjs31n"
  },
  {
    "title": "NU World Pharmacy",
    "price": null,
    "categoryName": "Pharmacy",
    "address": "1800 N Charles St, Baltimore, MD 21201",
    "neighborhood": "Charles North",
    "street": "1800 N Charles St",
    "city": "Baltimore",
    "postalCode": "21201",
    "state": "Maryland",
    "countryCode": "US",
    "phone": "(410) 659-5000",
    "phoneUnformatted": "+14106595000",
    "claimThisBusiness": true,
    "location": {
      "lat": 39.3099794,
      "lng": -76.6167561
    },
    "totalScore": 4,
    "permanentlyClosed": false,
    "temporarilyClosed": false,
    "placeId": "ChIJa4kT0SoFyIkR7_hGc1Ifgh0",
    "categories": [
      "Pharmacy"
    ],
    "fid": "0x89c8052ad113896b:0x1d821f527346f8ef",
    "cid": "2126296413054105839",
    "reviewsCount": 2,
    "imagesCount": 3,
    "imageCategories": [],
    "scrapedAt": "2025-06-22T05:27:23.657Z",
    "googleFoodUrl": null,
    "hotelAds": [],
    "openingHours": [],
    "peopleAlsoSearch": [],
    "placesTags": [],
    "reviewsTags": [],
    "additionalInfo": {
      "Accessibility": [
        {
          "Wheelchair accessible entrance": true
        },
        {
          "Wheelchair accessible parking lot": true
        }
      ],
      "Payments": [
        {
          "Credit cards": true
        }
      ]
    },
    "gasPrices": [],
    "url": "https://www.google.com/maps/search/?api=1&query=NU%20World%20Pharmacy&query_place_id=ChIJa4kT0SoFyIkR7_hGc1Ifgh0",
    "searchPageUrl": "https://www.google.com/maps/search/independent%20pharmacy%20Baltimore%20MD/@24.002753066812627,-166.46403603314175,12z?hl=en",
    "searchString": "independent pharmacy Baltimore MD",
    "language": "en",
    "rank": 13,
    "isAdvertisement": false,
    "imageUrl": "https://lh3.googleusercontent.com/gps-cs-s/AC9h4nrGozC-ucp5CH6znx0U0fw144RLfwQDHhnOS5j9wS-ulI2BnF8oTRomqn7fYVcuEDq8AZBfXQiQT0KKxGEM_S5d6__TtgvKdZUvPJgXoUyTL6i86RVcsbKL2zDW45wvrFvTRWeL=w408-h544-k-no",
    "kgmid": "/g/11f6y9kn_6"
  },
  {
    "title": "LexPharm Pharmacy",
    "price": null,
    "categoryName": "Pharmacy",
    "address": "11 E Lexington St, Baltimore, MD 21202",
    "neighborhood": "Downtown",
    "street": "11 E Lexington St",
    "city": "Baltimore",
    "postalCode": "21202",
    "state": "Maryland",
    "countryCode": "US",
    "phone": "(410) 200-9275",
    "phoneUnformatted": "+14102009275",
    "claimThisBusiness": false,
    "location": {
      "lat": 39.2908951,
      "lng": -76.6145322
    },
    "totalScore": 5,
    "permanentlyClosed": false,
    "temporarilyClosed": false,
    "placeId": "ChIJAyI2J48FyIkRIiHMGgLvNkQ",
    "categories": [
      "Pharmacy"
    ],
    "fid": "0x89c8058f27362203:0x4436ef021acc2122",
    "cid": "4915378835640033570",
    "reviewsCount": 4,
    "imagesCount": 4,
    "imageCategories": [],
    "scrapedAt": "2025-06-22T05:27:23.657Z",
    "googleFoodUrl": null,
    "hotelAds": [],
    "openingHours": [
      {
        "day": "Monday",
        "hours": "11 AM to 5 PM"
      },
      {
        "day": "Tuesday",
        "hours": "11 AM to 5 PM"
      },
      {
        "day": "Wednesday",
        "hours": "11 AM to 5 PM"
      },
      {
        "day": "Thursday",
        "hours": "11 AM to 5 PM"
      },
      {
        "day": "Friday",
        "hours": "11 AM to 5 PM"
      },
      {
        "day": "Saturday",
        "hours": "Closed"
      },
      {
        "day": "Sunday",
        "hours": "Closed"
      }
    ],
    "peopleAlsoSearch": [],
    "placesTags": [],
    "reviewsTags": [],
    "additionalInfo": {
      "From the business": [
        {
          "Small business": true
        }
      ],
      "Planning": [
        {
          "Quick visit": true
        }
      ],
      "Payments": [
        {
          "Credit cards": true
        },
        {
          "Debit cards": true
        },
        {
          "Credit cards": true
        }
      ]
    },
    "gasPrices": [],
    "url": "https://www.google.com/maps/search/?api=1&query=LexPharm%20Pharmacy&query_place_id=ChIJAyI2J48FyIkRIiHMGgLvNkQ",
    "searchPageUrl": "https://www.google.com/maps/search/independent%20pharmacy%20Baltimore%20MD/@24.002753066812627,-166.46403603314175,12z?hl=en",
    "searchString": "independent pharmacy Baltimore MD",
    "language": "en",
    "rank": 14,
    "isAdvertisement": false,
    "imageUrl": "https://lh3.googleusercontent.com/p/AF1QipMoD8ZUMA0t-GTGcxlwk0iyN5OYW5HJ0NeQHDJU=w533-h240-k-no",
    "kgmid": "/g/11vb_hfddc"
  },
  {
    "title": "Charlesmead Pharmacy Inc",
    "price": null,
    "categoryName": "Pharmacy",
    "address": "6242 Bellona Ave #1, Baltimore, MD 21212",
    "neighborhood": "Bellona-Gittings",
    "street": "6242 Bellona Ave #1",
    "city": "Baltimore",
    "postalCode": "21212",
    "state": "Maryland",
    "countryCode": "US",
    "website": "http://www.charlesmeadpharmacy.com/",
    "phone": "(410) 435-0210",
    "phoneUnformatted": "+14104350210",
    "claimThisBusiness": false,
    "location": {
      "lat": 39.3712651,
      "lng": -76.6185445
    },
    "totalScore": 4.8,
    "permanentlyClosed": false,
    "temporarilyClosed": false,
    "placeId": "ChIJdbLPNfUPyIkRDy8rBdXp3i4",
    "categories": [
      "Pharmacy"
    ],
    "fid": "0x89c80ff535cfb275:0x2edee9d5052b2f0f",
    "cid": "3377393871698472719",
    "reviewsCount": 30,
    "imagesCount": 9,
    "imageCategories": [],
    "scrapedAt": "2025-06-22T05:27:23.657Z",
    "googleFoodUrl": null,
    "hotelAds": [],
    "openingHours": [
      {
        "day": "Monday",
        "hours": "9 AM to 6 PM"
      },
      {
        "day": "Tuesday",
        "hours": "9 AM to 6 PM"
      },
      {
        "day": "Wednesday",
        "hours": "9 AM to 6 PM"
      },
      {
        "day": "Thursday",
        "hours": "9 AM to 6 PM"
      },
      {
        "day": "Friday",
        "hours": "9 AM to 6 PM"
      },
      {
        "day": "Saturday",
        "hours": "9 AM to 2 PM"
      },
      {
        "day": "Sunday",
        "hours": "Closed"
      }
    ],
    "peopleAlsoSearch": [],
    "placesTags": [],
    "reviewsTags": [],
    "additionalInfo": {
      "From the business": [
        {
          "Small business": true
        }
      ],
      "Service options": [
        {
          "Delivery": true
        },
        {
          "In-store pickup": true
        },
        {
          "Onsite services": true
        },
        {
          "Same-day delivery": true
        }
      ],
      "Accessibility": [
        {
          "Wheelchair accessible entrance": true
        },
        {
          "Wheelchair accessible parking lot": true
        }
      ],
      "Amenities": [
        {
          "Wi-Fi": true
        },
        {
          "Free Wi-Fi": true
        }
      ],
      "Planning": [
        {
          "Quick visit": true
        }
      ],
      "Payments": [
        {
          "Credit cards": true
        },
        {
          "Debit cards": true
        },
        {
          "NFC mobile payments": true
        },
        {
          "Credit cards": true
        }
      ]
    },
    "gasPrices": [],
    "url": "https://www.google.com/maps/search/?api=1&query=Charlesmead%20Pharmacy%20Inc&query_place_id=ChIJdbLPNfUPyIkRDy8rBdXp3i4",
    "searchPageUrl": "https://www.google.com/maps/search/independent%20pharmacy%20Baltimore%20MD/@24.002753066812627,-166.46403603314175,12z?hl=en",
    "searchString": "independent pharmacy Baltimore MD",
    "language": "en",
    "rank": 15,
    "isAdvertisement": false,
    "imageUrl": "https://lh3.googleusercontent.com/gps-cs-s/AC9h4nrW7-7HWsXauRMflmay5jAheJ6Vxm-5tKIExMV1ZSeE5lbsi9PJ3pvph9coxQejJ0ekhkgS0r1grkaIvT-qigTmUgkTQ7cpiW01kxbCoT7WfNyjpIViACoiT8q7MC6-dGGa_L5q=w408-h306-k-no",
    "kgmid": "/g/1tm69xll"
  },
  {
    "title": "James Pharmacy",
    "price": null,
    "categoryName": "Pharmacy",
    "address": "1119 Light St, Baltimore, MD 21230",
    "neighborhood": "Riverside",
    "street": "1119 Light St",
    "city": "Baltimore",
    "postalCode": "21230",
    "state": "Maryland",
    "countryCode": "US",
    "website": "http://www.jamespharmacyfedhill.com/",
    "phone": "(410) 752-5810",
    "phoneUnformatted": "+14107525810",
    "claimThisBusiness": false,
    "location": {
      "lat": 39.276569,
      "lng": -76.612032
    },
    "totalScore": 4.4,
    "permanentlyClosed": false,
    "temporarilyClosed": false,
    "placeId": "ChIJJeuLTG8DyIkR5GCgibyvJLo",
    "categories": [
      "Pharmacy"
    ],
    "fid": "0x89c8036f4c8beb25:0xba24afbc89a060e4",
    "cid": "13413038814513881316",
    "reviewsCount": 53,
    "imagesCount": 3,
    "imageCategories": [],
    "scrapedAt": "2025-06-22T05:27:23.657Z",
    "googleFoodUrl": null,
    "hotelAds": [],
    "openingHours": [
      {
        "day": "Monday",
        "hours": "9 AM to 7 PM"
      },
      {
        "day": "Tuesday",
        "hours": "9 AM to 7 PM"
      },
      {
        "day": "Wednesday",
        "hours": "9 AM to 7 PM"
      },
      {
        "day": "Thursday",
        "hours": "9 AM to 7 PM"
      },
      {
        "day": "Friday",
        "hours": "9 AM to 7 PM"
      },
      {
        "day": "Saturday",
        "hours": "9 AM to 1 PM"
      },
      {
        "day": "Sunday",
        "hours": "Closed"
      }
    ],
    "peopleAlsoSearch": [],
    "placesTags": [],
    "reviewsTags": [],
    "additionalInfo": {
      "From the business": [
        {
          "Small business": true
        }
      ],
      "Service options": [
        {
          "Delivery": true
        },
        {
          "In-store pickup": true
        },
        {
          "In-store shopping": true
        },
        {
          "Same-day delivery": true
        }
      ],
      "Accessibility": [
        {
          "Wheelchair accessible entrance": true
        },
        {
          "Wheelchair accessible parking lot": true
        }
      ],
      "Planning": [
        {
          "Quick visit": true
        }
      ],
      "Payments": [
        {
          "Credit cards": true
        },
        {
          "Debit cards": true
        },
        {
          "NFC mobile payments": true
        },
        {
          "Credit cards": true
        }
      ]
    },
    "gasPrices": [],
    "url": "https://www.google.com/maps/search/?api=1&query=James%20Pharmacy&query_place_id=ChIJJeuLTG8DyIkR5GCgibyvJLo",
    "searchPageUrl": "https://www.google.com/maps/search/independent%20pharmacy%20Baltimore%20MD/@24.002753066812627,-166.46403603314175,12z?hl=en",
    "searchString": "independent pharmacy Baltimore MD",
    "language": "en",
    "rank": 16,
    "isAdvertisement": false,
    "imageUrl": "https://lh3.googleusercontent.com/p/AF1QipOh-ZLGyYICFirYzKM8uqEnaiPLelRYwgpoQfdN=w408-h306-k-no",
    "kgmid": "/g/1tfpqnjd"
  },
  {
    "title": "Comfort Pharmacy",
    "price": null,
    "categoryName": "Pharmacy",
    "address": "3240 Belair Rd, Baltimore, MD 21213",
    "neighborhood": "Belair-Edison",
    "street": "3240 Belair Rd",
    "city": "Baltimore",
    "postalCode": "21213",
    "state": "Maryland",
    "countryCode": "US",
    "website": "https://www.comfortpharmacymd.com/",
    "phone": "(410) 342-0617",
    "phoneUnformatted": "+14103420617",
    "claimThisBusiness": false,
    "location": {
      "lat": 39.3215636,
      "lng": -76.5739668
    },
    "totalScore": 4.8,
    "permanentlyClosed": false,
    "temporarilyClosed": false,
    "placeId": "ChIJK3pA9koEyIkRbqwOHrTGAeo",
    "categories": [
      "Pharmacy"
    ],
    "fid": "0x89c8044af6407a2b:0xea01c6b41e0eac6e",
    "cid": "16861976956752538734",
    "reviewsCount": 13,
    "imagesCount": 2,
    "imageCategories": [],
    "scrapedAt": "2025-06-22T05:27:23.657Z",
    "googleFoodUrl": null,
    "hotelAds": [],
    "openingHours": [
      {
        "day": "Monday",
        "hours": "10 AM to 7 PM"
      },
      {
        "day": "Tuesday",
        "hours": "10 AM to 7 PM"
      },
      {
        "day": "Wednesday",
        "hours": "10 AM to 7 PM"
      },
      {
        "day": "Thursday",
        "hours": "10 AM to 7 PM"
      },
      {
        "day": "Friday",
        "hours": "10 AM to 7 PM"
      },
      {
        "day": "Saturday",
        "hours": "10 AM to 3 PM"
      },
      {
        "day": "Sunday",
        "hours": "Closed"
      }
    ],
    "peopleAlsoSearch": [],
    "placesTags": [],
    "reviewsTags": [],
    "additionalInfo": {
      "Service options": [
        {
          "Delivery": true
        }
      ],
      "Accessibility": [
        {
          "Wheelchair accessible entrance": true
        }
      ],
      "Planning": [
        {
          "Quick visit": true
        }
      ],
      "Payments": [
        {
          "Credit cards": true
        },
        {
          "Debit cards": true
        },
        {
          "Credit cards": true
        }
      ]
    },
    "gasPrices": [],
    "url": "https://www.google.com/maps/search/?api=1&query=Comfort%20Pharmacy&query_place_id=ChIJK3pA9koEyIkRbqwOHrTGAeo",
    "searchPageUrl": "https://www.google.com/maps/search/independent%20pharmacy%20Baltimore%20MD/@24.002753066812627,-166.46403603314175,12z?hl=en",
    "searchString": "independent pharmacy Baltimore MD",
    "language": "en",
    "rank": 17,
    "isAdvertisement": false,
    "imageUrl": "https://lh3.googleusercontent.com/p/AF1QipOB-cJJZTTIy1xIc-x0gE4Sc4brMT_ZsjADbEhJ=w768-h240-k-no",
    "kgmid": "/g/1hc1wdgpz"
  },
  {
    "title": "Mt Vernon Pharmacy At Fallsway",
    "price": null,
    "categoryName": "Pharmacy",
    "address": "421 Fallsway, Baltimore, MD 21202",
    "neighborhood": "Penn-Fallsway",
    "street": "421 Fallsway",
    "city": "Baltimore",
    "postalCode": "21202",
    "state": "Maryland",
    "countryCode": "US",
    "website": "http://www.mtvernonpharmacy.com/",
    "phone": "(410) 962-1100",
    "phoneUnformatted": "+14109621100",
    "claimThisBusiness": false,
    "location": {
      "lat": 39.2938598,
      "lng": -76.6096581
    },
    "totalScore": 4.3,
    "permanentlyClosed": false,
    "temporarilyClosed": false,
    "placeId": "ChIJkzDWo5sEyIkRZvj3MXZBkH8",
    "categories": [
      "Pharmacy"
    ],
    "fid": "0x89c8049ba3d63093:0x7f90417631f7f866",
    "cid": "9191918815363463270",
    "reviewsCount": 29,
    "imagesCount": 1,
    "imageCategories": [],
    "scrapedAt": "2025-06-22T05:27:23.657Z",
    "googleFoodUrl": null,
    "hotelAds": [],
    "openingHours": [
      {
        "day": "Monday",
        "hours": "8 AM to 5:30 PM"
      },
      {
        "day": "Tuesday",
        "hours": "8 AM to 5:30 PM"
      },
      {
        "day": "Wednesday",
        "hours": "8 AM to 5:30 PM"
      },
      {
        "day": "Thursday",
        "hours": "8 AM to 5:30 PM"
      },
      {
        "day": "Friday",
        "hours": "8 AM to 5:30 PM"
      },
      {
        "day": "Saturday",
        "hours": "9 AM to 2 PM"
      },
      {
        "day": "Sunday",
        "hours": "Closed"
      }
    ],
    "peopleAlsoSearch": [],
    "placesTags": [],
    "reviewsTags": [],
    "additionalInfo": {
      "Service options": [
        {
          "Delivery": true
        }
      ],
      "Accessibility": [
        {
          "Wheelchair accessible entrance": true
        },
        {
          "Wheelchair accessible parking lot": true
        }
      ],
      "Payments": [
        {
          "Credit cards": true
        }
      ]
    },
    "gasPrices": [],
    "url": "https://www.google.com/maps/search/?api=1&query=Mt%20Vernon%20Pharmacy%20At%20Fallsway&query_place_id=ChIJkzDWo5sEyIkRZvj3MXZBkH8",
    "searchPageUrl": "https://www.google.com/maps/search/independent%20pharmacy%20Baltimore%20MD/@24.002753066812627,-166.46403603314175,12z?hl=en",
    "searchString": "independent pharmacy Baltimore MD",
    "language": "en",
    "rank": 18,
    "isAdvertisement": false,
    "imageUrl": "https://streetviewpixels-pa.googleapis.com/v1/thumbnail?panoid=hrpd2Suv6G4NbAnOuH9t_Q&cb_client=search.gws-prod.gps&w=408&h=240&yaw=55.572777&pitch=0&thumbfov=100",
    "kgmid": "/g/1tgd7hck"
  },
  {
    "title": "Ruxton Pharmacy",
    "price": null,
    "categoryName": "Pharmacy",
    "address": "7621 Bellona Ave, Towson, MD 21204",
    "neighborhood": "Ruxton",
    "street": "7621 Bellona Ave",
    "city": "Towson",
    "postalCode": "21204",
    "state": "Maryland",
    "countryCode": "US",
    "website": "http://www.ruxtonrx.com/",
    "phone": "(410) 823-1453",
    "phoneUnformatted": "+14108231453",
    "claimThisBusiness": false,
    "location": {
      "lat": 39.3979035,
      "lng": -76.6446543
    },
    "totalScore": 4.9,
    "permanentlyClosed": false,
    "temporarilyClosed": false,
    "placeId": "ChIJ2dYOMCEQyIkR2CD2Euwa-qo",
    "categories": [
      "Pharmacy"
    ],
    "fid": "0x89c81021300ed6d9:0xaafa1aec12f620d8",
    "cid": "12320189331858137304",
    "reviewsCount": 30,
    "imagesCount": 6,
    "imageCategories": [],
    "scrapedAt": "2025-06-22T05:27:23.657Z",
    "googleFoodUrl": null,
    "hotelAds": [],
    "openingHours": [
      {
        "day": "Monday",
        "hours": "9 AM to 6 PM"
      },
      {
        "day": "Tuesday",
        "hours": "9 AM to 6 PM"
      },
      {
        "day": "Wednesday",
        "hours": "9 AM to 6 PM"
      },
      {
        "day": "Thursday",
        "hours": "9 AM to 6 PM"
      },
      {
        "day": "Friday",
        "hours": "9 AM to 6 PM"
      },
      {
        "day": "Saturday",
        "hours": "9 AM to 1 PM"
      },
      {
        "day": "Sunday",
        "hours": "Closed"
      }
    ],
    "peopleAlsoSearch": [],
    "placesTags": [],
    "reviewsTags": [],
    "additionalInfo": {
      "From the business": [
        {
          "Small business": true
        }
      ],
      "Service options": [
        {
          "Delivery": true
        },
        {
          "In-store pickup": true
        },
        {
          "Same-day delivery": true
        }
      ],
      "Accessibility": [
        {
          "Wheelchair accessible parking lot": true
        },
        {
          "Wheelchair accessible entrance": false
        }
      ],
      "Planning": [
        {
          "Quick visit": true
        }
      ],
      "Payments": [
        {
          "Checks": true
        },
        {
          "Debit cards": true
        },
        {
          "NFC mobile payments": true
        },
        {
          "Credit cards": true
        }
      ]
    },
    "gasPrices": [],
    "url": "https://www.google.com/maps/search/?api=1&query=Ruxton%20Pharmacy&query_place_id=ChIJ2dYOMCEQyIkR2CD2Euwa-qo",
    "searchPageUrl": "https://www.google.com/maps/search/independent%20pharmacy%20Baltimore%20MD/@24.002753066812627,-166.46403603314175,12z?hl=en",
    "searchString": "independent pharmacy Baltimore MD",
    "language": "en",
    "rank": 19,
    "isAdvertisement": false,
    "imageUrl": "https://lh3.googleusercontent.com/p/AF1QipPE6ps8Vgr-TW00t44EM29UIvsCSH0h2CMbv8s7=w408-h259-k-no",
    "kgmid": "/g/1tht2dzx"
  },
  {
    "title": "Belvedere Pharmacy",
    "price": null,
    "categoryName": "Pharmacy",
    "address": "3716 1/2, 3716 W Belvedere Ave, Baltimore, MD 21215",
    "neighborhood": "Arlington",
    "street": "3716 1/2, 3716 W Belvedere Ave",
    "city": "Baltimore",
    "postalCode": "21215",
    "state": "Maryland",
    "countryCode": "US",
    "website": "http://www.belvedererx.com/",
    "phone": "(410) 367-5628",
    "phoneUnformatted": "+14103675628",
    "claimThisBusiness": false,
    "location": {
      "lat": 39.3462214,
      "lng": -76.6808553
    },
    "totalScore": 4.2,
    "permanentlyClosed": false,
    "temporarilyClosed": false,
    "placeId": "ChIJ0esVD_oayIkRBr9KeqhjfRw",
    "categories": [
      "Pharmacy"
    ],
    "fid": "0x89c81afa0f15ebd1:0x1c7d63a87a4abf06",
    "cid": "2052906580408188678",
    "reviewsCount": 22,
    "imagesCount": 1,
    "imageCategories": [],
    "scrapedAt": "2025-06-22T05:27:23.657Z",
    "googleFoodUrl": null,
    "hotelAds": [],
    "openingHours": [
      {
        "day": "Monday",
        "hours": "10 AM to 5:30 PM"
      },
      {
        "day": "Tuesday",
        "hours": "10 AM to 5:30 PM"
      },
      {
        "day": "Wednesday",
        "hours": "10 AM to 5:30 PM"
      },
      {
        "day": "Thursday",
        "hours": "10 AM to 5:30 PM"
      },
      {
        "day": "Friday",
        "hours": "10 AM to 5:30 PM"
      },
      {
        "day": "Saturday",
        "hours": "Closed"
      },
      {
        "day": "Sunday",
        "hours": "Closed"
      }
    ],
    "peopleAlsoSearch": [],
    "placesTags": [],
    "reviewsTags": [],
    "additionalInfo": {
      "From the business": [
        {
          "Small business": true
        }
      ],
      "Service options": [
        {
          "Delivery": true
        },
        {
          "Same-day delivery": true
        }
      ],
      "Accessibility": [
        {
          "Wheelchair accessible entrance": true
        },
        {
          "Wheelchair accessible parking lot": true
        }
      ],
      "Planning": [
        {
          "Quick visit": true
        }
      ],
      "Payments": [
        {
          "Credit cards": true
        },
        {
          "Debit cards": true
        },
        {
          "NFC mobile payments": true
        },
        {
          "Credit cards": true
        }
      ]
    },
    "gasPrices": [],
    "url": "https://www.google.com/maps/search/?api=1&query=Belvedere%20Pharmacy&query_place_id=ChIJ0esVD_oayIkRBr9KeqhjfRw",
    "searchPageUrl": "https://www.google.com/maps/search/independent%20pharmacy%20Baltimore%20MD/@24.002753066812627,-166.46403603314175,12z?hl=en",
    "searchString": "independent pharmacy Baltimore MD",
    "language": "en",
    "rank": 20,
    "isAdvertisement": false,
    "imageUrl": "https://streetviewpixels-pa.googleapis.com/v1/thumbnail?panoid=1ppxcS_niNvaEmkEwUkRPQ&cb_client=search.gws-prod.gps&w=408&h=240&yaw=305.3129&pitch=0&thumbfov=100",
    "kgmid": "/g/1tx8v58f"
  }
]