[
  {
    "title": "Naperville Pharmacy",
    "price": null,
    "categoryName": "Pharmacy",
    "address": "1020 E Ogden Ave #114, Naperville, IL 60563",
    "neighborhood": "Naperville Park District",
    "street": "1020 E Ogden Ave #114",
    "city": "Naperville",
    "postalCode": "60563",
    "state": "Illinois",
    "countryCode": "US",
    "phone": "(630) 922-1100",
    "phoneUnformatted": "+16309221100",
    "claimThisBusiness": false,
    "location": {
      "lat": 41.790647,
      "lng": -88.1297809
    },
    "totalScore": 4.3,
    "permanentlyClosed": false,
    "temporarilyClosed": false,
    "placeId": "ChIJ5cSCclZWDogRdfVAANX4BV8",
    "categories": [
      "Pharmacy"
    ],
    "fid": "0x880e56567282c4e5:0x5f05f8d50040f575",
    "cid": "6847152402202686837",
    "reviewsCount": 22,
    "imagesCount": 1,
    "imageCategories": [],
    "scrapedAt": "2025-06-22T05:10:40.475Z",
    "googleFoodUrl": null,
    "hotelAds": [],
    "openingHours": [
      {
        "day": "Monday",
        "hours": "9 AM to 5 PM"
      },
      {
        "day": "Tuesday",
        "hours": "9 AM to 5 PM"
      },
      {
        "day": "Wednesday",
        "hours": "9 AM to 5 PM"
      },
      {
        "day": "Thursday",
        "hours": "9 AM to 5 PM"
      },
      {
        "day": "Friday",
        "hours": "9 AM to 5 PM"
      },
      {
        "day": "Saturday",
        "hours": "9 AM to 12 PM"
      },
      {
        "day": "Sunday",
        "hours": "Closed"
      }
    ],
    "peopleAlsoSearch": [],
    "placesTags": [],
    "reviewsTags": [],
    "additionalInfo": {
      "From the business": [
        {
          "Small business": true
        }
      ],
      "Service options": [
        {
          "Delivery": true
        },
        {
          "In-store pickup": true
        }
      ],
      "Accessibility": [
        {
          "Wheelchair accessible entrance": true
        },
        {
          "Wheelchair accessible parking lot": true
        }
      ],
      "Planning": [
        {
          "Quick visit": true
        }
      ],
      "Payments": [
        {
          "Credit cards": true
        },
        {
          "Debit cards": true
        },
        {
          "NFC mobile payments": true
        },
        {
          "Credit cards": true
        }
      ]
    },
    "gasPrices": [],
    "url": "https://www.google.com/maps/search/?api=1&query=Naperville%20Pharmacy&query_place_id=ChIJ5cSCclZWDogRdfVAANX4BV8",
    "searchPageUrl": "https://www.google.com/maps/search/independent%20pharmacy%20Naperville%20IL/@17.865635363529062,-64.73544815,12z?hl=en",
    "searchString": "independent pharmacy Naperville IL",
    "language": "en",
    "rank": 1,
    "isAdvertisement": false,
    "imageUrl": "https://streetviewpixels-pa.googleapis.com/v1/thumbnail?panoid=m0XyFNEFZs_UWORDN-owBg&cb_client=search.gws-prod.gps&w=408&h=240&yaw=317.4304&pitch=0&thumbfov=100",
    "kgmid": "/g/1tfmnzyw"
  },
  {
    "title": "Apotheco Pharmacy Naperville",
    "price": null,
    "categoryName": "Pharmacy",
    "address": "2155 City Gate Ln Suite 127, Naperville, IL 60563",
    "neighborhood": "Naperville Park District",
    "street": "2155 City Gate Ln Suite 127",
    "city": "Naperville",
    "postalCode": "60563",
    "state": "Illinois",
    "countryCode": "US",
    "website": "https://www.apothecopharmacy.com/location/apotheco-pharmacy-naperville/",
    "phone": "(630) 566-4580",
    "phoneUnformatted": "+16305664580",
    "claimThisBusiness": false,
    "location": {
      "lat": 41.8085951,
      "lng": -88.2008215
    },
    "totalScore": 5,
    "permanentlyClosed": false,
    "temporarilyClosed": false,
    "placeId": "ChIJNV0U77FTDogRjV--rj2L63A",
    "categories": [
      "Pharmacy"
    ],
    "fid": "0x880e53b1ef145d35:0x70eb8b3daebe5f8d",
    "cid": "8136750248815910797",
    "reviewsCount": 9,
    "imagesCount": 2,
    "imageCategories": [],
    "scrapedAt": "2025-06-22T05:10:40.477Z",
    "googleFoodUrl": null,
    "hotelAds": [],
    "openingHours": [
      {
        "day": "Monday",
        "hours": "9 AM to 5 PM"
      },
      {
        "day": "Tuesday",
        "hours": "9 AM to 5 PM"
      },
      {
        "day": "Wednesday",
        "hours": "9 AM to 5 PM"
      },
      {
        "day": "Thursday",
        "hours": "9 AM to 5 PM"
      },
      {
        "day": "Friday",
        "hours": "9 AM to 5 PM"
      },
      {
        "day": "Saturday",
        "hours": "Closed"
      },
      {
        "day": "Sunday",
        "hours": "Closed"
      }
    ],
    "peopleAlsoSearch": [],
    "placesTags": [],
    "reviewsTags": [],
    "additionalInfo": {
      "Service options": [
        {
          "Delivery": true
        },
        {
          "In-store pickup": true
        },
        {
          "Onsite services": true
        },
        {
          "Same-day delivery": true
        }
      ],
      "Accessibility": [
        {
          "Wheelchair accessible entrance": true
        },
        {
          "Wheelchair accessible parking lot": true
        }
      ],
      "Payments": [
        {
          "Credit cards": true
        },
        {
          "Debit cards": true
        },
        {
          "NFC mobile payments": true
        },
        {
          "Credit cards": true
        }
      ]
    },
    "gasPrices": [],
    "url": "https://www.google.com/maps/search/?api=1&query=Apotheco%20Pharmacy%20Naperville&query_place_id=ChIJNV0U77FTDogRjV--rj2L63A",
    "searchPageUrl": "https://www.google.com/maps/search/independent%20pharmacy%20Naperville%20IL/@17.865635363529062,-64.73544815,12z?hl=en",
    "searchString": "independent pharmacy Naperville IL",
    "language": "en",
    "rank": 2,
    "isAdvertisement": false,
    "imageUrl": "https://lh3.googleusercontent.com/p/AF1QipPHXwzYZaCoWIUd3WMj225QF1U896ceVXZjd0qE=w417-h240-k-no",
    "kgmid": "/g/11fjs6xqvg"
  },
  {
    "title": "Oswald's Pharmacy",
    "price": null,
    "categoryName": "Pharmacy",
    "address": "88 W Gartner Rd #112, Naperville, IL 60540",
    "neighborhood": "Naperville Park District",
    "street": "88 W Gartner Rd #112",
    "city": "Naperville",
    "postalCode": "60540",
    "state": "Illinois",
    "countryCode": "US",
    "website": "http://oswaldspharmacy.com/",
    "phone": "(630) 355-2500",
    "phoneUnformatted": "+16303552500",
    "claimThisBusiness": false,
    "location": {
      "lat": 41.7542729,
      "lng": -88.140661
    },
    "totalScore": 4.8,
    "permanentlyClosed": false,
    "temporarilyClosed": false,
    "placeId": "ChIJSY3KG45XDogR0GUApk4T7eA",
    "categories": [
      "Pharmacy",
      "Medical supply store"
    ],
    "fid": "0x880e578e1bca8d49:0xe0ed134ea60065d0",
    "cid": "16207631862489703888",
    "reviewsCount": 299,
    "imagesCount": 295,
    "imageCategories": [],
    "scrapedAt": "2025-06-22T05:10:40.477Z",
    "googleFoodUrl": null,
    "hotelAds": [],
    "openingHours": [
      {
        "day": "Monday",
        "hours": "9 AM to 8 PM"
      },
      {
        "day": "Tuesday",
        "hours": "9 AM to 8 PM"
      },
      {
        "day": "Wednesday",
        "hours": "9 AM to 8 PM"
      },
      {
        "day": "Thursday",
        "hours": "9 AM to 8 PM"
      },
      {
        "day": "Friday",
        "hours": "9 AM to 8 PM"
      },
      {
        "day": "Saturday",
        "hours": "9 AM to 6 PM"
      },
      {
        "day": "Sunday",
        "hours": "9 AM to 6 PM"
      }
    ],
    "peopleAlsoSearch": [],
    "placesTags": [],
    "reviewsTags": [],
    "additionalInfo": {
      "Service options": [
        {
          "Delivery": true
        },
        {
          "In-store pickup": true
        },
        {
          "Onsite services": true
        },
        {
          "Same-day delivery": true
        }
      ],
      "Accessibility": [
        {
          "Wheelchair accessible entrance": true
        },
        {
          "Wheelchair accessible parking lot": true
        }
      ],
      "Planning": [
        {
          "Quick visit": true
        }
      ],
      "Payments": [
        {
          "Checks": true
        },
        {
          "Credit cards": true
        },
        {
          "Debit cards": true
        },
        {
          "NFC mobile payments": true
        },
        {
          "Credit cards": true
        }
      ]
    },
    "gasPrices": [],
    "url": "https://www.google.com/maps/search/?api=1&query=Oswald's%20Pharmacy&query_place_id=ChIJSY3KG45XDogR0GUApk4T7eA",
    "searchPageUrl": "https://www.google.com/maps/search/independent%20pharmacy%20Naperville%20IL/@17.865635363529062,-64.73544815,12z?hl=en",
    "searchString": "independent pharmacy Naperville IL",
    "language": "en",
    "rank": 3,
    "isAdvertisement": false,
    "imageUrl": "https://lh3.googleusercontent.com/gps-cs-s/AC9h4npfaT7C_7boitY1I7-MlMaFUoHYpJ0q8hZ7pMmqtq6VTIBI_roiMwNw5LSX73sx3kte5KDbPSfaG2iRebkHmlUf1WfOCaBL07OlGcLR_1saxU5roK6lv1I1uUpDFEEf5lcKFMBs=w408-h306-k-no",
    "kgmid": "/g/1t_hzkz2"
  },
  {
    "title": "Pure Compounding Pharmacy",
    "price": null,
    "categoryName": "Pharmacy",
    "address": "603 E Diehl Rd #131, Naperville, IL 60563",
    "neighborhood": "Naperville Park District",
    "street": "603 E Diehl Rd #131",
    "city": "Naperville",
    "postalCode": "60563",
    "state": "Illinois",
    "countryCode": "US",
    "website": "http://stores.purecompoundingpharmacy.com/",
    "phone": "(630) 995-4300",
    "phoneUnformatted": "+16309954300",
    "claimThisBusiness": false,
    "location": {
      "lat": 41.803635,
      "lng": -88.137164
    },
    "totalScore": 4.3,
    "permanentlyClosed": false,
    "temporarilyClosed": false,
    "placeId": "ChIJpRy6JF1WDogRVdDMaT6oMkw",
    "categories": [
      "Pharmacy"
    ],
    "fid": "0x880e565d24ba1ca5:0x4c32a83e69ccd055",
    "cid": "5490635881734525013",
    "reviewsCount": 7,
    "imagesCount": 3,
    "imageCategories": [],
    "scrapedAt": "2025-06-22T05:10:40.477Z",
    "googleFoodUrl": null,
    "hotelAds": [],
    "openingHours": [
      {
        "day": "Monday",
        "hours": "9 AM to 5:30 PM"
      },
      {
        "day": "Tuesday",
        "hours": "9 AM to 5:30 PM"
      },
      {
        "day": "Wednesday",
        "hours": "9 AM to 5:30 PM"
      },
      {
        "day": "Thursday",
        "hours": "9 AM to 5:30 PM"
      },
      {
        "day": "Friday",
        "hours": "9 AM to 5:30 PM"
      },
      {
        "day": "Saturday",
        "hours": "Closed"
      },
      {
        "day": "Sunday",
        "hours": "Closed"
      }
    ],
    "peopleAlsoSearch": [],
    "placesTags": [],
    "reviewsTags": [],
    "additionalInfo": {
      "From the business": [
        {
          "Identifies as women-owned": true
        },
        {
          "Small business": true
        }
      ],
      "Service options": [
        {
          "Delivery": true
        },
        {
          "In-store pickup": true
        }
      ],
      "Accessibility": [
        {
          "Wheelchair accessible entrance": true
        },
        {
          "Wheelchair accessible parking lot": true
        }
      ],
      "Payments": [
        {
          "Credit cards": true
        },
        {
          "Debit cards": true
        },
        {
          "NFC mobile payments": true
        },
        {
          "Credit cards": true
        }
      ]
    },
    "gasPrices": [],
    "url": "https://www.google.com/maps/search/?api=1&query=Pure%20Compounding%20Pharmacy&query_place_id=ChIJpRy6JF1WDogRVdDMaT6oMkw",
    "searchPageUrl": "https://www.google.com/maps/search/independent%20pharmacy%20Naperville%20IL/@17.865635363529062,-64.73544815,12z?hl=en",
    "searchString": "independent pharmacy Naperville IL",
    "language": "en",
    "rank": 4,
    "isAdvertisement": false,
    "imageUrl": "https://lh3.googleusercontent.com/p/AF1QipOiTQEvjfGRyu_6vAo2BL2Al256JLrXi__FI_Mb=w408-h408-k-no",
    "kgmid": "/g/1tcx_f1k"
  },
  {
    "title": "Jewel-Osco Pharmacy",
    "price": "$$",
    "categoryName": "Pharmacy",
    "address": "2855 95th St, Naperville, IL 60564",
    "neighborhood": "Naperville Park District",
    "street": "2855 95th St",
    "city": "Naperville",
    "postalCode": "60564",
    "state": "Illinois",
    "countryCode": "US",
    "website": "https://local.pharmacy.jewelosco.com/il/naperville/2855-95th-st.html",
    "phone": "(630) 904-7709",
    "phoneUnformatted": "+16309047709",
    "claimThisBusiness": false,
    "location": {
      "lat": 41.7119896,
      "lng": -88.2033372
    },
    "totalScore": 3.2,
    "permanentlyClosed": false,
    "temporarilyClosed": false,
    "placeId": "ChIJb-U5XKn3DogRFjWHq8I2XtM",
    "categories": [
      "Pharmacy",
      "Drug store",
      "Vitamin & supplements store"
    ],
    "fid": "0x880ef7a95c39e56f:0xd35e36c2ab873516",
    "cid": "15230671199542916374",
    "reviewsCount": 45,
    "imagesCount": 9,
    "imageCategories": [],
    "scrapedAt": "2025-06-22T05:11:13.637Z",
    "googleFoodUrl": null,
    "hotelAds": [],
    "openingHours": [
      {
        "day": "Monday",
        "hours": "Open 24 hours"
      },
      {
        "day": "Tuesday",
        "hours": "Open 24 hours"
      },
      {
        "day": "Wednesday",
        "hours": "Open 24 hours"
      },
      {
        "day": "Thursday",
        "hours": "Open 24 hours"
      },
      {
        "day": "Friday",
        "hours": "Open 24 hours"
      },
      {
        "day": "Saturday",
        "hours": "Open 24 hours"
      },
      {
        "day": "Sunday",
        "hours": "Open 24 hours"
      }
    ],
    "peopleAlsoSearch": [],
    "placesTags": [],
    "reviewsTags": [],
    "additionalInfo": {
      "Service options": [
        {
          "Delivery": true
        },
        {
          "Drive-through": true
        },
        {
          "In-store pickup": true
        },
        {
          "In-store shopping": true
        },
        {
          "Same-day delivery": true
        }
      ],
      "Accessibility": [
        {
          "Wheelchair accessible entrance": true
        },
        {
          "Wheelchair accessible parking lot": true
        }
      ],
      "Crowd": [
        {
          "LGBTQ+ friendly": true
        }
      ],
      "Planning": [
        {
          "Appointment required": true
        },
        {
          "Quick visit": true
        }
      ],
      "Payments": [
        {
          "Checks": true
        },
        {
          "Debit cards": true
        },
        {
          "Credit cards": true
        }
      ]
    },
    "gasPrices": [],
    "url": "https://www.google.com/maps/search/?api=1&query=Jewel-Osco%20Pharmacy&query_place_id=ChIJb-U5XKn3DogRFjWHq8I2XtM",
    "searchPageUrl": "https://www.google.com/maps/search/independent%20pharmacy%20Naperville%20IL/@60.848488265290186,-172.9390442428424,12z?hl=en",
    "searchString": "independent pharmacy Naperville IL",
    "language": "en",
    "rank": 5,
    "isAdvertisement": false,
    "imageUrl": "https://lh3.googleusercontent.com/gps-cs-s/AC9h4nqEONT6Tlb8EV2fb5-lzxisVIzmytnv9RPV6tNfxSQCbnY4bXYcJD6a9v2K-v2Hed31a1t2QfD4R0mYkenawF4N3BDekcFvXTA0qas1vJAatPYVWKokAUzpdOX6xZ24Uxr4eVc=w408-h408-k-no",
    "kgmid": "/g/11bv1qly44"
  },
  {
    "title": "Oaktech Inc",
    "price": null,
    "categoryName": "Pharmacy",
    "address": "520 S Washington St, Naperville, IL 60540",
    "neighborhood": "Naperville Park District",
    "street": "520 S Washington St",
    "city": "Naperville",
    "postalCode": "60540",
    "state": "Illinois",
    "countryCode": "US",
    "phone": "(630) 983-4119",
    "phoneUnformatted": "+16309834119",
    "claimThisBusiness": true,
    "location": {
      "lat": 41.7688377,
      "lng": -88.1478841
    },
    "permanentlyClosed": false,
    "temporarilyClosed": false,
    "placeId": "ChIJtSrZYL9XDogR8Teh-yWaRTE",
    "categories": [
      "Pharmacy"
    ],
    "fid": "0x880e57bf60d92ab5:0x31459a25fba137f1",
    "cid": "3550413369177618417",
    "reviewsCount": 0,
    "imagesCount": 1,
    "imageCategories": [],
    "scrapedAt": "2025-06-22T05:11:13.637Z",
    "googleFoodUrl": null,
    "hotelAds": [],
    "openingHours": [],
    "peopleAlsoSearch": [],
    "placesTags": [],
    "reviewsTags": [],
    "additionalInfo": {
      "Accessibility": [
        {
          "Wheelchair accessible entrance": true
        },
        {
          "Wheelchair accessible parking lot": true
        }
      ]
    },
    "gasPrices": [],
    "url": "https://www.google.com/maps/search/?api=1&query=Oaktech%20Inc&query_place_id=ChIJtSrZYL9XDogR8Teh-yWaRTE",
    "searchPageUrl": "https://www.google.com/maps/search/independent%20pharmacy%20Naperville%20IL/@60.848488265290186,-172.9390442428424,12z?hl=en",
    "searchString": "independent pharmacy Naperville IL",
    "language": "en",
    "rank": 6,
    "isAdvertisement": false,
    "imageUrl": "https://streetviewpixels-pa.googleapis.com/v1/thumbnail?panoid=W1E3egUyZw_HoCPEHWugMQ&cb_client=search.gws-prod.gps&w=408&h=240&yaw=102.9927&pitch=0&thumbfov=100",
    "kgmid": "/g/1tdwl2k_"
  },
  {
    "title": "Walgreens Pharmacy",
    "description": "Department of the Walgreens chain providing prescription medications & other health-related items.",
    "price": "$$",
    "categoryName": "Pharmacy",
    "address": "612 Raymond Dr, Naperville, IL 60563",
    "neighborhood": "Naperville Park District",
    "street": "612 Raymond Dr",
    "city": "Naperville",
    "postalCode": "60563",
    "state": "Illinois",
    "countryCode": "US",
    "website": "https://www.walgreens.com/locator/walgreens-612+raymond+dr-naperville-il-60563/id=3861",
    "phone": "(630) 428-9171",
    "phoneUnformatted": "+16304289171",
    "claimThisBusiness": false,
    "location": {
      "lat": 41.7806652,
      "lng": -88.1823999
    },
    "totalScore": 2.1,
    "permanentlyClosed": false,
    "temporarilyClosed": false,
    "placeId": "ChIJBe5yA2T4DogRsmxQxDNppQ4",
    "categories": [
      "Pharmacy"
    ],
    "fid": "0x880ef8640372ee05:0xea56933c4506cb2",
    "cid": "1055365358746102962",
    "reviewsCount": 35,
    "imagesCount": 3,
    "imageCategories": [],
    "scrapedAt": "2025-06-22T05:11:13.637Z",
    "googleFoodUrl": null,
    "hotelAds": [],
    "openingHours": [
      {
        "day": "Monday",
        "hours": "8 to 11 AM, 11:30 AM to 6:45 PM, 7:15 to 10 PM"
      },
      {
        "day": "Tuesday",
        "hours": "8 to 11 AM, 11:30 AM to 6:45 PM, 7:15 to 10 PM"
      },
      {
        "day": "Wednesday",
        "hours": "8 to 11 AM, 11:30 AM to 6:45 PM, 7:15 to 10 PM"
      },
      {
        "day": "Thursday",
        "hours": "8 to 11 AM, 11:30 AM to 6:45 PM, 7:15 to 10 PM"
      },
      {
        "day": "Friday",
        "hours": "8 to 11 AM, 11:30 AM to 6:45 PM, 7:15 to 10 PM"
      },
      {
        "day": "Saturday",
        "hours": "9 AM to 1 PM, 1:30 to 6 PM"
      },
      {
        "day": "Sunday",
        "hours": "10 AM to 1 PM, 1:30 to 6 PM"
      }
    ],
    "additionalOpeningHours": {
      "Drive through": [
        {
          "day": "Monday",
          "hours": "8 AM–6:45 PM"
        },
        {
          "day": "Tuesday",
          "hours": "8 AM–6:45 PM"
        },
        {
          "day": "Wednesday",
          "hours": "8 AM–6:45 PM"
        },
        {
          "day": "Thursday",
          "hours": "8 AM–6:45 PM"
        },
        {
          "day": "Friday",
          "hours": "8 AM–6:45 PM"
        },
        {
          "day": "Saturday",
          "hours": "9 AM–1 PM"
        },
        {
          "day": "Sunday",
          "hours": "10 AM–1 PM"
        }
      ]
    },
    "peopleAlsoSearch": [],
    "placesTags": [],
    "reviewsTags": [],
    "additionalInfo": {
      "Service options": [
        {
          "Delivery": true
        },
        {
          "Drive-through": true
        },
        {
          "In-store pickup": true
        },
        {
          "Onsite services": true
        }
      ],
      "Accessibility": [
        {
          "Wheelchair accessible entrance": true
        },
        {
          "Wheelchair accessible parking lot": true
        }
      ],
      "Offerings": [
        {
          "Naloxone": true
        }
      ],
      "Planning": [
        {
          "Quick visit": true
        }
      ],
      "Payments": [
        {
          "Credit cards": true
        },
        {
          "Debit cards": true
        }
      ]
    },
    "gasPrices": [],
    "url": "https://www.google.com/maps/search/?api=1&query=Walgreens%20Pharmacy&query_place_id=ChIJBe5yA2T4DogRsmxQxDNppQ4",
    "searchPageUrl": "https://www.google.com/maps/search/independent%20pharmacy%20Naperville%20IL/@60.848488265290186,-172.9390442428424,12z?hl=en",
    "searchString": "independent pharmacy Naperville IL",
    "language": "en",
    "rank": 7,
    "isAdvertisement": false,
    "imageUrl": "https://lh3.googleusercontent.com/p/AF1QipN7QrUqc17inzMauSHzs9QUEmL4RfjDfQ7k_HE1=w525-h240-k-no",
    "kgmid": "/g/11cn9647ng"
  },
  {
    "title": "Edward Pharmacy",
    "price": null,
    "categoryName": "Pharmacy",
    "address": "100 Spalding Dr #101, Naperville, IL 60540",
    "neighborhood": "Naperville Park District",
    "street": "100 Spalding Dr #101",
    "city": "Naperville",
    "postalCode": "60540",
    "state": "Illinois",
    "countryCode": "US",
    "website": "http://www.edward.org/",
    "phone": "(630) 527-5204",
    "phoneUnformatted": "+16305275204",
    "claimThisBusiness": false,
    "location": {
      "lat": 41.761174,
      "lng": -88.1512502
    },
    "totalScore": 4.4,
    "permanentlyClosed": false,
    "temporarilyClosed": false,
    "placeId": "ChIJq2-Ci-tXDogRd3M-p_MQgd8",
    "categories": [
      "Pharmacy"
    ],
    "fid": "0x880e57eb8b826fab:0xdf8110f3a73e7377",
    "cid": "16105172381122589559",
    "reviewsCount": 10,
    "imagesCount": 5,
    "imageCategories": [],
    "scrapedAt": "2025-06-22T05:11:38.110Z",
    "googleFoodUrl": null,
    "hotelAds": [],
    "openingHours": [
      {
        "day": "Monday",
        "hours": "8 AM to 6 PM"
      },
      {
        "day": "Tuesday",
        "hours": "8 AM to 6 PM"
      },
      {
        "day": "Wednesday",
        "hours": "8 AM to 6 PM"
      },
      {
        "day": "Thursday",
        "hours": "8 AM to 6 PM"
      },
      {
        "day": "Friday",
        "hours": "8 AM to 6 PM"
      },
      {
        "day": "Saturday",
        "hours": "Closed"
      },
      {
        "day": "Sunday",
        "hours": "Closed"
      }
    ],
    "peopleAlsoSearch": [],
    "placesTags": [],
    "reviewsTags": [],
    "additionalInfo": {
      "Accessibility": [
        {
          "Wheelchair accessible entrance": true
        },
        {
          "Wheelchair accessible parking lot": true
        }
      ],
      "Payments": [
        {
          "Credit cards": true
        }
      ]
    },
    "gasPrices": [],
    "url": "https://www.google.com/maps/search/?api=1&query=Edward%20Pharmacy&query_place_id=ChIJq2-Ci-tXDogRd3M-p_MQgd8",
    "searchPageUrl": "https://www.google.com/maps/search/independent%20pharmacy%20Naperville%20IL/@25.995147870820777,-173.77978655819646,13z?hl=en",
    "searchString": "independent pharmacy Naperville IL",
    "language": "en",
    "rank": 7,
    "isAdvertisement": false,
    "imageUrl": "https://lh3.googleusercontent.com/p/AF1QipNkoerpsXN3t7FoLjAa0WLkCmKNnVJPNGBjVMWN=w564-h240-k-no",
    "kgmid": "/g/11ckxw05zc"
  },
  {
    "title": "Daniel's Pharmacy",
    "price": null,
    "categoryName": "Pharmacy",
    "address": "943 Geneva Ave, San Francisco, CA 94112",
    "neighborhood": "Excelsior",
    "street": "943 Geneva Ave",
    "city": "San Francisco",
    "postalCode": "94112",
    "state": "California",
    "countryCode": "US",
    "website": "http://www.danielspharmacysf.com/",
    "phone": "(415) 584-2210",
    "phoneUnformatted": "+14155842210",
    "claimThisBusiness": false,
    "location": {
      "lat": 37.7163218,
      "lng": -122.4403456
    },
    "totalScore": 3.9,
    "permanentlyClosed": false,
    "temporarilyClosed": false,
    "placeId": "ChIJJ7ZZZZt-j4AR1SG7OV9YpMg",
    "categories": [
      "Pharmacy",
      "Drug store"
    ],
    "fid": "0x808f7e9b6559b627:0xc8a4585f39bb21d5",
    "cid": "14457777869779837397",
    "reviewsCount": 50,
    "imagesCount": 25,
    "imageCategories": [],
    "scrapedAt": "2025-06-22T05:11:40.279Z",
    "googleFoodUrl": null,
    "hotelAds": [],
    "openingHours": [
      {
        "day": "Monday",
        "hours": "9 AM to 5:30 PM"
      },
      {
        "day": "Tuesday",
        "hours": "9 AM to 5:30 PM"
      },
      {
        "day": "Wednesday",
        "hours": "9 AM to 5:30 PM"
      },
      {
        "day": "Thursday",
        "hours": "9 AM to 5:30 PM"
      },
      {
        "day": "Friday",
        "hours": "9 AM to 5:30 PM"
      },
      {
        "day": "Saturday",
        "hours": "10 AM to 1 PM"
      },
      {
        "day": "Sunday",
        "hours": "Closed"
      }
    ],
    "peopleAlsoSearch": [],
    "placesTags": [],
    "reviewsTags": [],
    "additionalInfo": {
      "From the business": [
        {
          "Small business": true
        }
      ],
      "Service options": [
        {
          "Delivery": true
        },
        {
          "In-store pickup": true
        },
        {
          "In-store shopping": true
        }
      ],
      "Accessibility": [
        {
          "Wheelchair accessible entrance": true
        }
      ],
      "Planning": [
        {
          "Quick visit": true
        }
      ],
      "Payments": [
        {
          "Credit cards": true
        },
        {
          "Debit cards": true
        },
        {
          "NFC mobile payments": true
        },
        {
          "Credit cards": true
        }
      ]
    },
    "gasPrices": [],
    "url": "https://www.google.com/maps/search/?api=1&query=Daniel's%20Pharmacy&query_place_id=ChIJJ7ZZZZt-j4AR1SG7OV9YpMg",
    "searchPageUrl": "https://www.google.com/maps/search/independent%20pharmacy%20Naperville%20IL/@36.81849750000001,-121.31455714227097,8z?hl=en",
    "searchString": "independent pharmacy Naperville IL",
    "language": "en",
    "rank": 1,
    "isAdvertisement": false,
    "imageUrl": "https://lh3.googleusercontent.com/gps-cs-s/AC9h4npsoZ2TLYXzITX_64KuY6arG_8GHgNS_z1v8PDQb2ycO6meyMwFEQu-ZRZLyyuQCu83Me6Wqd-DivzfSP20Phr0gXoRm6G0tpl860RVbpORTPWeNGzLOyYJtbInL2UJauFGDMdC0w=w408-h306-k-no",
    "kgmid": "/g/1tzgpfz_"
  },
  {
    "title": "Visitacion Valley Pharmacy",
    "price": null,
    "categoryName": "Pharmacy",
    "address": "100 Leland Ave, San Francisco, CA 94134",
    "neighborhood": "Visitacion Valley",
    "street": "100 Leland Ave",
    "city": "San Francisco",
    "postalCode": "94134",
    "state": "California",
    "countryCode": "US",
    "phone": "(415) 239-5811",
    "phoneUnformatted": "+14152395811",
    "claimThisBusiness": true,
    "location": {
      "lat": 37.7120703,
      "lng": -122.4057189
    },
    "totalScore": 4.4,
    "permanentlyClosed": false,
    "temporarilyClosed": false,
    "placeId": "ChIJvW4wC9l-j4ARrZKP9uVygY4",
    "categories": [
      "Pharmacy"
    ],
    "fid": "0x808f7ed90b306ebd:0x8e8172e5f68f92ad",
    "cid": "10268614957391123117",
    "reviewsCount": 16,
    "imagesCount": 1,
    "imageCategories": [],
    "scrapedAt": "2025-06-22T05:11:40.279Z",
    "googleFoodUrl": null,
    "hotelAds": [],
    "openingHours": [
      {
        "day": "Monday",
        "hours": "9:30 AM to 5:30 PM"
      },
      {
        "day": "Tuesday",
        "hours": "9:30 AM to 5:30 PM"
      },
      {
        "day": "Wednesday",
        "hours": "9:30 AM to 5:30 PM"
      },
      {
        "day": "Thursday",
        "hours": "9:30 AM to 5:30 PM"
      },
      {
        "day": "Friday",
        "hours": "9:30 AM to 5:30 PM"
      },
      {
        "day": "Saturday",
        "hours": "9:30 AM to 1 PM"
      },
      {
        "day": "Sunday",
        "hours": "Closed"
      }
    ],
    "peopleAlsoSearch": [],
    "placesTags": [],
    "reviewsTags": [],
    "additionalInfo": {
      "Accessibility": [
        {
          "Wheelchair accessible entrance": true
        }
      ],
      "Planning": [
        {
          "Quick visit": true
        }
      ],
      "Payments": [
        {
          "Credit cards": true
        },
        {
          "Debit cards": true
        },
        {
          "NFC mobile payments": true
        },
        {
          "Credit cards": true
        }
      ]
    },
    "gasPrices": [],
    "url": "https://www.google.com/maps/search/?api=1&query=Visitacion%20Valley%20Pharmacy&query_place_id=ChIJvW4wC9l-j4ARrZKP9uVygY4",
    "searchPageUrl": "https://www.google.com/maps/search/independent%20pharmacy%20Naperville%20IL/@36.81849750000001,-121.31455714227097,8z?hl=en",
    "searchString": "independent pharmacy Naperville IL",
    "language": "en",
    "rank": 2,
    "isAdvertisement": false,
    "imageUrl": "https://streetviewpixels-pa.googleapis.com/v1/thumbnail?panoid=uKRnSuZ98bsRZNeWb1RhuA&cb_client=search.gws-prod.gps&w=408&h=240&yaw=244.51479&pitch=0&thumbfov=100",
    "kgmid": "/g/1wf38vlf"
  },
  {
    "title": "Central Drug Store",
    "price": null,
    "categoryName": "Pharmacy",
    "address": "4494 Mission St, San Francisco, CA 94112",
    "neighborhood": "Mission Terrace",
    "street": "4494 Mission St",
    "city": "San Francisco",
    "postalCode": "94112",
    "state": "California",
    "countryCode": "US",
    "phone": "(415) 585-0111",
    "phoneUnformatted": "+14155850111",
    "claimThisBusiness": false,
    "location": {
      "lat": 37.725956,
      "lng": -122.4341
    },
    "totalScore": 5,
    "permanentlyClosed": false,
    "temporarilyClosed": false,
    "placeId": "ChIJHcmulYh-j4ARHi7t0BSN0rg",
    "categories": [
      "Pharmacy"
    ],
    "fid": "0x808f7e8895aec91d:0xb8d28d14d0ed2e1e",
    "cid": "13317862168632045086",
    "reviewsCount": 17,
    "imagesCount": 35,
    "imageCategories": [],
    "scrapedAt": "2025-06-22T05:11:40.279Z",
    "googleFoodUrl": null,
    "hotelAds": [],
    "openingHours": [
      {
        "day": "Monday",
        "hours": "10 AM to 5 PM"
      },
      {
        "day": "Tuesday",
        "hours": "10 AM to 5 PM"
      },
      {
        "day": "Wednesday",
        "hours": "10 AM to 5 PM"
      },
      {
        "day": "Thursday",
        "hours": "10 AM to 5 PM"
      },
      {
        "day": "Friday",
        "hours": "10 AM to 5 PM"
      },
      {
        "day": "Saturday",
        "hours": "Closed"
      },
      {
        "day": "Sunday",
        "hours": "Closed"
      }
    ],
    "peopleAlsoSearch": [],
    "placesTags": [],
    "reviewsTags": [],
    "additionalInfo": {
      "From the business": [
        {
          "Identifies as women-owned": true
        },
        {
          "Small business": true
        }
      ],
      "Service options": [
        {
          "Delivery": true
        },
        {
          "In-store pickup": true
        }
      ],
      "Accessibility": [
        {
          "Wheelchair accessible entrance": true
        }
      ],
      "Crowd": [
        {
          "LGBTQ+ friendly": true
        },
        {
          "Transgender safespace": true
        }
      ],
      "Planning": [
        {
          "Quick visit": true
        }
      ],
      "Payments": [
        {
          "Credit cards": true
        },
        {
          "Debit cards": true
        },
        {
          "NFC mobile payments": true
        },
        {
          "Credit cards": true
        }
      ]
    },
    "gasPrices": [],
    "url": "https://www.google.com/maps/search/?api=1&query=Central%20Drug%20Store&query_place_id=ChIJHcmulYh-j4ARHi7t0BSN0rg",
    "searchPageUrl": "https://www.google.com/maps/search/independent%20pharmacy%20Naperville%20IL/@36.81849750000001,-121.31455714227097,8z?hl=en",
    "searchString": "independent pharmacy Naperville IL",
    "language": "en",
    "rank": 3,
    "isAdvertisement": false,
    "imageUrl": "https://lh3.googleusercontent.com/gps-proxy/ALd4DhGiraG1ejaNEc-vEIVuhcWfLS6DApsoFrErQXIG4qPUFwm-zakjdPl6ABCSEtmc0UyR2F3JYnAuJ5hn_R44FS_7RFwHT9Bs8cU1XJ9ceGNzxbcknpTZH-YFGICg7PecKabb0hKV84ALvFPZj5YRTDiteuzajttJyUmIn0zdDHwkMkE05oNRsV2CKRj0UP2maPGAor4=w408-h271-k-no",
    "kgmid": "/g/1tgtfqzs"
  },
  {
    "title": "Wellspring Pharmacy",
    "price": null,
    "categoryName": "Pharmacy",
    "address": "4184 Piedmont Ave C, Oakland, CA 94611",
    "neighborhood": "Piedmont Avenue",
    "street": "4184 Piedmont Ave C",
    "city": "Oakland",
    "postalCode": "94611",
    "state": "California",
    "countryCode": "US",
    "website": "https://www.wellspringrx.com/",
    "phone": "(510) 428-1559",
    "phoneUnformatted": "+15104281559",
    "claimThisBusiness": false,
    "location": {
      "lat": 37.8270846,
      "lng": -122.2513156
    },
    "totalScore": 2.9,
    "permanentlyClosed": false,
    "temporarilyClosed": false,
    "placeId": "ChIJaRo2Hvd9hYAR-_jw7zcy27I",
    "categories": [
      "Pharmacy"
    ],
    "fid": "0x80857df71e361a69:0xb2db3237eff0f8fb",
    "cid": "12887949974480943355",
    "reviewsCount": 37,
    "imagesCount": 7,
    "imageCategories": [],
    "scrapedAt": "2025-06-22T05:11:40.279Z",
    "googleFoodUrl": null,
    "hotelAds": [],
    "openingHours": [
      {
        "day": "Monday",
        "hours": "9 AM to 4:30 PM"
      },
      {
        "day": "Tuesday",
        "hours": "9 AM to 4:30 PM"
      },
      {
        "day": "Wednesday",
        "hours": "9 AM to 4:30 PM"
      },
      {
        "day": "Thursday",
        "hours": "9 AM to 4:30 PM"
      },
      {
        "day": "Friday",
        "hours": "9 AM to 2 PM"
      },
      {
        "day": "Saturday",
        "hours": "Closed"
      },
      {
        "day": "Sunday",
        "hours": "Closed"
      }
    ],
    "peopleAlsoSearch": [],
    "placesTags": [],
    "reviewsTags": [],
    "additionalInfo": {
      "Service options": [
        {
          "Delivery": true
        },
        {
          "In-store pickup": true
        }
      ],
      "Accessibility": [
        {
          "Wheelchair accessible entrance": true
        },
        {
          "Wheelchair accessible parking lot": true
        }
      ],
      "Offerings": [
        {
          "Medication disposal": true
        }
      ],
      "Planning": [
        {
          "Quick visit": true
        }
      ],
      "Payments": [
        {
          "Credit cards": true
        },
        {
          "Debit cards": true
        },
        {
          "Credit cards": true
        }
      ]
    },
    "gasPrices": [],
    "url": "https://www.google.com/maps/search/?api=1&query=Wellspring%20Pharmacy&query_place_id=ChIJaRo2Hvd9hYAR-_jw7zcy27I",
    "searchPageUrl": "https://www.google.com/maps/search/independent%20pharmacy%20Naperville%20IL/@36.81849750000001,-121.31455714227097,8z?hl=en",
    "searchString": "independent pharmacy Naperville IL",
    "language": "en",
    "rank": 4,
    "isAdvertisement": false,
    "imageUrl": "https://lh3.googleusercontent.com/gps-cs-s/AC9h4nqkn7UN7alTOmViElFmOz4pxECj4Zqj3VeJdiHiNhJQx0nrE_3HcVS0hPz4YdMLQpK7e8I0wRcs9JInaMfoFyc8L2_k1Aq6LAr0Rydgb7NTN546qcRJN01WDqm0-AAL8r8y5xT_gw=w426-h240-k-no",
    "kgmid": "/g/1hc383_s6"
  },
  {
    "title": "Koshland Pharm: Custom Compounding Pharmacy",
    "price": null,
    "categoryName": "Pharmacy",
    "address": "301 Folsom St suite b, San Francisco, CA 94105",
    "neighborhood": "Rincon Hill",
    "street": "301 Folsom St suite b",
    "city": "San Francisco",
    "postalCode": "94105",
    "state": "California",
    "countryCode": "US",
    "website": "http://www.koshlandpharm.com/",
    "phone": "(415) 344-0600",
    "phoneUnformatted": "+14153440600",
    "claimThisBusiness": false,
    "location": {
      "lat": 37.788482,
      "lng": -122.392783
    },
    "totalScore": 4.7,
    "permanentlyClosed": false,
    "temporarilyClosed": false,
    "placeId": "ChIJhYtN4HqAhYARYXBwaSTbuQY",
    "categories": [
      "Pharmacy",
      "Vitamin & supplements store"
    ],
    "fid": "0x8085807ae04d8b85:0x6b9db2469707061",
    "cid": "484659384353321057",
    "reviewsCount": 123,
    "imagesCount": 23,
    "imageCategories": [],
    "scrapedAt": "2025-06-22T05:11:40.279Z",
    "googleFoodUrl": null,
    "hotelAds": [],
    "openingHours": [
      {
        "day": "Monday",
        "hours": "10 AM to 6 PM"
      },
      {
        "day": "Tuesday",
        "hours": "10 AM to 6 PM"
      },
      {
        "day": "Wednesday",
        "hours": "10 AM to 6 PM"
      },
      {
        "day": "Thursday",
        "hours": "10 AM to 6 PM"
      },
      {
        "day": "Friday",
        "hours": "10 AM to 6 PM"
      },
      {
        "day": "Saturday",
        "hours": "Closed"
      },
      {
        "day": "Sunday",
        "hours": "Closed"
      }
    ],
    "peopleAlsoSearch": [],
    "placesTags": [],
    "reviewsTags": [],
    "additionalInfo": {
      "From the business": [
        {
          "Small business": true
        }
      ],
      "Service options": [
        {
          "Delivery": true
        },
        {
          "In-store pickup": true
        },
        {
          "In-store shopping": true
        },
        {
          "Onsite services": true
        },
        {
          "Same-day delivery": true
        }
      ],
      "Accessibility": [
        {
          "Wheelchair accessible entrance": true
        }
      ],
      "Crowd": [
        {
          "LGBTQ+ friendly": true
        },
        {
          "Transgender safespace": true
        }
      ],
      "Payments": [
        {
          "Checks": true
        },
        {
          "Credit cards": true
        },
        {
          "Debit cards": true
        },
        {
          "NFC mobile payments": true
        },
        {
          "Credit cards": true
        }
      ]
    },
    "gasPrices": [],
    "url": "https://www.google.com/maps/search/?api=1&query=Koshland%20Pharm%3A%20Custom%20Compounding%20Pharmacy&query_place_id=ChIJhYtN4HqAhYARYXBwaSTbuQY",
    "searchPageUrl": "https://www.google.com/maps/search/independent%20pharmacy%20Naperville%20IL/@36.81849750000001,-121.31455714227097,8z?hl=en",
    "searchString": "independent pharmacy Naperville IL",
    "language": "en",
    "rank": 5,
    "isAdvertisement": false,
    "imageUrl": "https://lh3.googleusercontent.com/p/AF1QipPpxLY53O2aRuIcVr8C3ubn8YrMCBzCEg540m1a=w408-h306-k-no",
    "kgmid": "/g/1th87bwr"
  },
  {
    "title": "Mission Wellness Pharmacy",
    "price": null,
    "categoryName": "Pharmacy",
    "address": "2424 Mission St, San Francisco, CA 94110",
    "neighborhood": "Mission District",
    "street": "2424 Mission St",
    "city": "San Francisco",
    "postalCode": "94110",
    "state": "California",
    "countryCode": "US",
    "website": "http://www.missionwellness.com/",
    "phone": "(415) 826-3484",
    "phoneUnformatted": "+14158263484",
    "claimThisBusiness": false,
    "location": {
      "lat": 37.758153,
      "lng": -122.419306
    },
    "totalScore": 3.9,
    "permanentlyClosed": false,
    "temporarilyClosed": false,
    "placeId": "ChIJU5yBGzx-j4ARzcZUx_qskY8",
    "categories": [
      "Pharmacy"
    ],
    "fid": "0x808f7e3c1b819c53:0x8f91acfac754c6cd",
    "cid": "10345240012132763341",
    "reviewsCount": 42,
    "imagesCount": 5,
    "imageCategories": [],
    "scrapedAt": "2025-06-22T05:11:40.279Z",
    "googleFoodUrl": null,
    "hotelAds": [],
    "openingHours": [
      {
        "day": "Monday",
        "hours": "9:30 AM to 6 PM"
      },
      {
        "day": "Tuesday",
        "hours": "9:30 AM to 6 PM"
      },
      {
        "day": "Wednesday",
        "hours": "9:30 AM to 6 PM"
      },
      {
        "day": "Thursday",
        "hours": "9:30 AM to 6 PM"
      },
      {
        "day": "Friday",
        "hours": "9:30 AM to 6 PM"
      },
      {
        "day": "Saturday",
        "hours": "Closed"
      },
      {
        "day": "Sunday",
        "hours": "Closed"
      }
    ],
    "peopleAlsoSearch": [],
    "placesTags": [],
    "reviewsTags": [],
    "additionalInfo": {
      "From the business": [
        {
          "Small business": true
        }
      ],
      "Service options": [
        {
          "Delivery": true
        }
      ],
      "Accessibility": [
        {
          "Wheelchair accessible entrance": true
        }
      ],
      "Payments": [
        {
          "Credit cards": true
        },
        {
          "Debit cards": true
        },
        {
          "NFC mobile payments": true
        },
        {
          "Credit cards": true
        }
      ]
    },
    "gasPrices": [],
    "url": "https://www.google.com/maps/search/?api=1&query=Mission%20Wellness%20Pharmacy&query_place_id=ChIJU5yBGzx-j4ARzcZUx_qskY8",
    "searchPageUrl": "https://www.google.com/maps/search/independent%20pharmacy%20Naperville%20IL/@36.81849750000001,-121.31455714227097,8z?hl=en",
    "searchString": "independent pharmacy Naperville IL",
    "language": "en",
    "rank": 7,
    "isAdvertisement": false,
    "imageUrl": "https://lh3.googleusercontent.com/gps-cs-s/AC9h4npfsqqfE3sLUufOFOveC9yMLUwzTLMaqSQAlQTsIt0yNVDDoC8N0pdJBjoohY3heXewJnc21iwsBAwM9-Y6cQAxuBFnL4WEjNoU5sJE4SNWaazbmB3DFdRq3E9_nYCsm05cMqw=w408-h320-k-no",
    "kgmid": "/g/11btm2q17s"
  },
  {
    "title": "Anchor Drugs Pharmacy",
    "price": null,
    "categoryName": "Pharmacy",
    "address": "161 S Spruce Ave, South San Francisco, CA 94080",
    "neighborhood": "Lindenville",
    "street": "161 S Spruce Ave",
    "city": "South San Francisco",
    "postalCode": "94080",
    "state": "California",
    "countryCode": "US",
    "website": "http://www.anchorpharmacy.com/",
    "phone": "(650) 360-5300",
    "phoneUnformatted": "+16503605300",
    "claimThisBusiness": false,
    "location": {
      "lat": 37.6490748,
      "lng": -122.4180829
    },
    "totalScore": 4.5,
    "permanentlyClosed": false,
    "temporarilyClosed": false,
    "placeId": "ChIJVVVVVaF5j4ARYhwqTkkyndM",
    "categories": [
      "Pharmacy"
    ],
    "fid": "0x808f79a155555555:0xd39d32494e2a1c62",
    "cid": "15248399203771751522",
    "reviewsCount": 47,
    "imagesCount": 7,
    "imageCategories": [],
    "scrapedAt": "2025-06-22T05:11:40.279Z",
    "googleFoodUrl": null,
    "hotelAds": [],
    "openingHours": [
      {
        "day": "Monday",
        "hours": "9 AM to 6 PM"
      },
      {
        "day": "Tuesday",
        "hours": "9 AM to 6 PM"
      },
      {
        "day": "Wednesday",
        "hours": "9 AM to 12 AM"
      },
      {
        "day": "Thursday",
        "hours": "12 to 6 AM, 9 AM to 6 PM"
      },
      {
        "day": "Friday",
        "hours": "9 AM to 6 PM"
      },
      {
        "day": "Saturday",
        "hours": "9 AM to 2 PM"
      },
      {
        "day": "Sunday",
        "hours": "Closed"
      }
    ],
    "peopleAlsoSearch": [],
    "placesTags": [],
    "reviewsTags": [],
    "additionalInfo": {
      "From the business": [
        {
          "Small business": true
        }
      ],
      "Service options": [
        {
          "Delivery": true
        },
        {
          "In-store pickup": true
        },
        {
          "In-store shopping": true
        },
        {
          "Same-day delivery": true
        }
      ],
      "Accessibility": [
        {
          "Wheelchair accessible entrance": true
        },
        {
          "Wheelchair accessible parking lot": true
        },
        {
          "Wheelchair accessible restroom": true
        },
        {
          "Wheelchair accessible seating": true
        }
      ],
      "Planning": [
        {
          "Quick visit": true
        }
      ],
      "Payments": [
        {
          "Credit cards": true
        },
        {
          "Debit cards": true
        },
        {
          "NFC mobile payments": true
        }
      ],
      "Parking": [
        {
          "Free parking lot": true
        },
        {
          "Free street parking": true
        },
        {
          "On-site parking": true
        }
      ]
    },
    "gasPrices": [],
    "url": "https://www.google.com/maps/search/?api=1&query=Anchor%20Drugs%20Pharmacy&query_place_id=ChIJVVVVVaF5j4ARYhwqTkkyndM",
    "searchPageUrl": "https://www.google.com/maps/search/independent%20pharmacy%20Naperville%20IL/@36.81849750000001,-121.31455714227097,8z?hl=en",
    "searchString": "independent pharmacy Naperville IL",
    "language": "en",
    "rank": 9,
    "isAdvertisement": false,
    "imageUrl": "https://lh3.googleusercontent.com/gps-cs-s/AC9h4nq6SplmtXS90jtcYo2P8sz8AG2K8cm7aSdmkJL4vqNBr1UXij4H-PCRxypijO5aOc_xQJXsV3p2IRic_OSdF71819z5Pt6ZpO9j-4UYOz9DX-sZzA5IrOsiEKz9LK6RRxugENG7=w408-h306-k-no",
    "kgmid": "/g/1w_vnhl7"
  },
  {
    "title": "Customized Medications",
    "price": null,
    "categoryName": "Pharmacy",
    "address": "541 Roske Dr E, Elkhart, IN 46516",
    "neighborhood": null,
    "street": "541 Roske Dr E",
    "city": "Elkhart",
    "postalCode": "46516",
    "state": "Indiana",
    "countryCode": "US",
    "phone": "(574) 522-1940",
    "phoneUnformatted": "+15745221940",
    "claimThisBusiness": true,
    "location": {
      "lat": 41.6877091,
      "lng": -85.8968037
    },
    "totalScore": 5,
    "permanentlyClosed": false,
    "temporarilyClosed": false,
    "placeId": "ChIJ7bJRO9bnFogRRsxs2w9ob_s",
    "categories": [
      "Pharmacy"
    ],
    "fid": "0x8816e7d63b51b2ed:0xfb6f680fdb6ccc46",
    "cid": "18117814243249933382",
    "reviewsCount": 5,
    "imagesCount": 1,
    "imageCategories": [],
    "scrapedAt": "2025-06-22T05:11:40.989Z",
    "googleFoodUrl": null,
    "hotelAds": [],
    "openingHours": [
      {
        "day": "Monday",
        "hours": "10 AM to 5 PM"
      },
      {
        "day": "Tuesday",
        "hours": "10 AM to 5 PM"
      },
      {
        "day": "Wednesday",
        "hours": "8 to 11 AM"
      },
      {
        "day": "Thursday",
        "hours": "10 AM to 5 PM"
      },
      {
        "day": "Friday",
        "hours": "10 AM to 5 PM"
      },
      {
        "day": "Saturday",
        "hours": "Closed"
      },
      {
        "day": "Sunday",
        "hours": "Closed"
      }
    ],
    "peopleAlsoSearch": [],
    "placesTags": [],
    "reviewsTags": [],
    "additionalInfo": {
      "Accessibility": [
        {
          "Wheelchair accessible entrance": true
        },
        {
          "Wheelchair accessible parking lot": true
        }
      ],
      "Payments": [
        {
          "Credit cards": true
        },
        {
          "Debit cards": true
        },
        {
          "NFC mobile payments": true
        },
        {
          "Credit cards": true
        }
      ]
    },
    "gasPrices": [],
    "url": "https://www.google.com/maps/search/?api=1&query=Customized%20Medications&query_place_id=ChIJ7bJRO9bnFogRRsxs2w9ob_s",
    "searchPageUrl": "https://www.google.com/maps/search/independent%20pharmacy%20Naperville%20IL/@42.54640259466427,-83.31984582886456,8z?hl=en",
    "searchString": "independent pharmacy Naperville IL",
    "language": "en",
    "rank": 2,
    "isAdvertisement": false,
    "imageUrl": "https://streetviewpixels-pa.googleapis.com/v1/thumbnail?panoid=uBYpGcifeuiWvXLpHiVZzw&cb_client=search.gws-prod.gps&w=408&h=240&yaw=271.75012&pitch=0&thumbfov=100",
    "kgmid": "/g/1tf2sv4t"
  },
  {
    "title": "Alwan Pharmacy",
    "price": null,
    "categoryName": "Pharmacy",
    "address": "311 N Western Ave, Peoria, IL 61604",
    "neighborhood": null,
    "street": "311 N Western Ave",
    "city": "Peoria",
    "postalCode": "61604",
    "state": "Illinois",
    "countryCode": "US",
    "website": "https://www.alwanrx.com/",
    "phone": "(309) 676-6333",
    "phoneUnformatted": "+13096766333",
    "claimThisBusiness": false,
    "location": {
      "lat": 40.691657,
      "lng": -89.6232637
    },
    "totalScore": 4.1,
    "permanentlyClosed": false,
    "temporarilyClosed": false,
    "placeId": "ChIJV5--9jRZCogRxoD5RYEfayA",
    "categories": [
      "Pharmacy",
      "Drug store"
    ],
    "fid": "0x880a5934f6be9f57:0x206b1f8145f980c6",
    "cid": "2335995471806955718",
    "reviewsCount": 105,
    "reviewsDistribution": {
      "oneStar": 12,
      "twoStar": 9,
      "threeStar": 4,
      "fourStar": 7,
      "fiveStar": 73
    },
    "imagesCount": 29,
    "imageCategories": [],
    "scrapedAt": "2025-06-22T05:12:04.094Z",
    "googleFoodUrl": null,
    "hotelAds": [],
    "openingHours": [
      {
        "day": "Monday",
        "hours": "9 AM to 6 PM"
      },
      {
        "day": "Tuesday",
        "hours": "9 AM to 6 PM"
      },
      {
        "day": "Wednesday",
        "hours": "9 AM to 6 PM"
      },
      {
        "day": "Thursday",
        "hours": "9 AM to 6 PM"
      },
      {
        "day": "Friday",
        "hours": "9 AM to 6 PM"
      },
      {
        "day": "Saturday",
        "hours": "9 AM to 1 PM"
      },
      {
        "day": "Sunday",
        "hours": "Closed"
      }
    ],
    "peopleAlsoSearch": [],
    "placesTags": [],
    "reviewsTags": [],
    "additionalInfo": {
      "From the business": [
        {
          "Small business": true
        }
      ],
      "Service options": [
        {
          "Curbside pickup": true
        },
        {
          "Delivery": true
        },
        {
          "In-store pickup": true
        },
        {
          "In-store shopping": true
        },
        {
          "Onsite services": true
        },
        {
          "Same-day delivery": true
        }
      ],
      "Accessibility": [
        {
          "Wheelchair accessible entrance": true
        },
        {
          "Wheelchair accessible parking lot": true
        }
      ],
      "Planning": [
        {
          "Quick visit": true
        }
      ],
      "Payments": [
        {
          "Checks": true
        },
        {
          "Credit cards": true
        },
        {
          "Debit cards": true
        },
        {
          "NFC mobile payments": true
        },
        {
          "Credit cards": true
        }
      ]
    },
    "gasPrices": [],
    "url": "https://www.google.com/maps/search/?api=1&query=Alwan%20Pharmacy&query_place_id=ChIJV5--9jRZCogRxoD5RYEfayA",
    "searchPageUrl": "https://www.google.com/maps/search/independent%20pharmacy%20Naperville%20IL/@39.68245004733214,-89.6522977144323,8z?hl=en",
    "searchString": "independent pharmacy Naperville IL",
    "language": "en",
    "rank": 21,
    "isAdvertisement": false,
    "imageUrl": "https://lh3.googleusercontent.com/p/AF1QipPGhEX4XazcTAi4mHeaAfcU7XKaFcrEl7aY7eoV=w408-h272-k-no",
    "kgmid": "/g/1tjl6h3z"
  },
  {
    "title": "Alwood Pharmacy",
    "price": null,
    "categoryName": "Pharmacy",
    "address": "211 S 1st St, Alpha, IL 61413",
    "neighborhood": null,
    "street": "211 S 1st St",
    "city": "Alpha",
    "postalCode": "61413",
    "state": "Illinois",
    "countryCode": "US",
    "website": "https://www.mygnp.com/pharmacies/alwood-pharmacy-alpha-il-61413/?utm_source=google&utm_medium=local&utm_campaign=localmaps&utm_content=1493612",
    "phone": "(309) 629-4506",
    "phoneUnformatted": "+13096294506",
    "claimThisBusiness": false,
    "location": {
      "lat": 41.1898297,
      "lng": -90.3796725
    },
    "totalScore": 5,
    "permanentlyClosed": false,
    "temporarilyClosed": false,
    "placeId": "ChIJzYzpyq6O4YcRoJwtY5d0xNc",
    "categories": [
      "Pharmacy",
      "Drug store"
    ],
    "fid": "0x87e18eaecae98ccd:0xd7c47497632d9ca0",
    "cid": "15547680007142612128",
    "reviewsCount": 13,
    "reviewsDistribution": {
      "oneStar": 0,
      "twoStar": 0,
      "threeStar": 0,
      "fourStar": 0,
      "fiveStar": 13
    },
    "imagesCount": 8,
    "imageCategories": [],
    "scrapedAt": "2025-06-22T05:12:04.094Z",
    "googleFoodUrl": null,
    "hotelAds": [],
    "openingHours": [
      {
        "day": "Monday",
        "hours": "9 AM to 5:30 PM"
      },
      {
        "day": "Tuesday",
        "hours": "9 AM to 5:30 PM"
      },
      {
        "day": "Wednesday",
        "hours": "9 AM to 5:30 PM"
      },
      {
        "day": "Thursday",
        "hours": "9 AM to 5:30 PM"
      },
      {
        "day": "Friday",
        "hours": "9 AM to 5:30 PM"
      },
      {
        "day": "Saturday",
        "hours": "9 AM to 12:30 PM"
      },
      {
        "day": "Sunday",
        "hours": "Closed"
      }
    ],
    "peopleAlsoSearch": [],
    "placesTags": [],
    "reviewsTags": [],
    "additionalInfo": {
      "From the business": [
        {
          "Identifies as women-owned": true
        },
        {
          "Small business": true
        }
      ],
      "Service options": [
        {
          "Curbside pickup": true
        },
        {
          "Delivery": true
        },
        {
          "In-store shopping": true
        },
        {
          "Onsite services": true
        }
      ],
      "Accessibility": [
        {
          "Wheelchair accessible entrance": true
        },
        {
          "Wheelchair accessible parking lot": true
        }
      ],
      "Planning": [
        {
          "Quick visit": true
        }
      ],
      "Payments": [
        {
          "Checks": true
        },
        {
          "Credit cards": true
        },
        {
          "Debit cards": true
        },
        {
          "NFC mobile payments": true
        },
        {
          "Credit cards": true
        }
      ]
    },
    "gasPrices": [],
    "url": "https://www.google.com/maps/search/?api=1&query=Alwood%20Pharmacy&query_place_id=ChIJzYzpyq6O4YcRoJwtY5d0xNc",
    "searchPageUrl": "https://www.google.com/maps/search/independent%20pharmacy%20Naperville%20IL/@39.68245004733214,-89.6522977144323,8z?hl=en",
    "searchString": "independent pharmacy Naperville IL",
    "language": "en",
    "rank": 22,
    "isAdvertisement": false,
    "imageUrl": "https://lh3.googleusercontent.com/p/AF1QipP_R-VYf7av7RsLTMWq7TrFymKGXpuzQqTMDwFl=w408-h306-k-no",
    "kgmid": "/g/1ths9xjk"
  },
  {
    "title": "Bond County Pharmacy",
    "price": null,
    "categoryName": "Pharmacy",
    "address": "224 E Harris Ave, Greenville, IL 62246",
    "neighborhood": null,
    "street": "224 E Harris Ave",
    "city": "Greenville",
    "postalCode": "62246",
    "state": "Illinois",
    "countryCode": "US",
    "website": "https://www.facebook.com/bondcountypharmacy/",
    "phone": "(618) 690-5000",
    "phoneUnformatted": "+16186905000",
    "claimThisBusiness": false,
    "location": {
      "lat": 38.8864732,
      "lng": -89.4095063
    },
    "totalScore": 4.2,
    "permanentlyClosed": false,
    "temporarilyClosed": false,
    "placeId": "ChIJiX2B3MrNdYgRRE8TKcmCva0",
    "categories": [
      "Pharmacy"
    ],
    "fid": "0x8875cdcadc817d89:0xadbd82c929134f44",
    "cid": "12519306339649015620",
    "reviewsCount": 27,
    "reviewsDistribution": {
      "oneStar": 4,
      "twoStar": 1,
      "threeStar": 1,
      "fourStar": 0,
      "fiveStar": 21
    },
    "imagesCount": 5,
    "imageCategories": [],
    "scrapedAt": "2025-06-22T05:12:04.094Z",
    "googleFoodUrl": null,
    "hotelAds": [],
    "openingHours": [
      {
        "day": "Monday",
        "hours": "8 AM to 5:30 PM"
      },
      {
        "day": "Tuesday",
        "hours": "8 AM to 5:30 PM"
      },
      {
        "day": "Wednesday",
        "hours": "8 AM to 5:30 PM"
      },
      {
        "day": "Thursday",
        "hours": "8 AM to 5:30 PM"
      },
      {
        "day": "Friday",
        "hours": "8 AM to 5:30 PM"
      },
      {
        "day": "Saturday",
        "hours": "8 AM to 1 PM"
      },
      {
        "day": "Sunday",
        "hours": "Closed"
      }
    ],
    "peopleAlsoSearch": [],
    "placesTags": [],
    "reviewsTags": [],
    "additionalInfo": {
      "From the business": [
        {
          "Small business": true
        }
      ],
      "Service options": [
        {
          "Delivery": true
        },
        {
          "In-store pickup": true
        }
      ],
      "Accessibility": [
        {
          "Wheelchair accessible entrance": true
        },
        {
          "Wheelchair accessible parking lot": true
        }
      ],
      "Planning": [
        {
          "Quick visit": true
        }
      ],
      "Payments": [
        {
          "Credit cards": true
        },
        {
          "Debit cards": true
        },
        {
          "NFC mobile payments": true
        },
        {
          "Credit cards": true
        }
      ]
    },
    "gasPrices": [],
    "url": "https://www.google.com/maps/search/?api=1&query=Bond%20County%20Pharmacy&query_place_id=ChIJiX2B3MrNdYgRRE8TKcmCva0",
    "searchPageUrl": "https://www.google.com/maps/search/independent%20pharmacy%20Naperville%20IL/@39.68245004733214,-89.6522977144323,8z?hl=en",
    "searchString": "independent pharmacy Naperville IL",
    "language": "en",
    "rank": 23,
    "isAdvertisement": false,
    "imageUrl": "https://lh3.googleusercontent.com/p/AF1QipOl7RbV7Y8S8Fj4T_ggL_aAuGGD_YQ6v0SR0Oyq=w408-h306-k-no",
    "kgmid": "/g/11px1crt34"
  }
]