[
  {
    "title": "Jonestown Pharmacy",
    "price": null,
    "categoryName": "Pharmacy",
    "address": "300 Jonestown Rd #5, Winston-Salem, NC 27104",
    "neighborhood": null,
    "street": "300 Jonestown Rd #5",
    "city": "Winston-Salem",
    "postalCode": "27104",
    "state": "North Carolina",
    "countryCode": "US",
    "website": "http://www.jonestownpharmacy.com/",
    "phone": "(336) 774-1445",
    "phoneUnformatted": "+13367741445",
    "claimThisBusiness": false,
    "location": {
      "lat": 36.0761265,
      "lng": -80.336427
    },
    "totalScore": 5,
    "permanentlyClosed": false,
    "temporarilyClosed": false,
    "placeId": "ChIJTZd3GO-wU4gRuprPYd1bnI8",
    "categories": [
      "Pharmacy"
    ],
    "fid": "0x8853b0ef1877974d:0x8f9c5bdd61cf9aba",
    "cid": "10348247050177452730",
    "reviewsCount": 38,
    "imagesCount": 13,
    "imageCategories": [],
    "scrapedAt": "2025-06-22T06:19:56.990Z",
    "googleFoodUrl": null,
    "hotelAds": [],
    "openingHours": [
      {
        "day": "Monday",
        "hours": "9 AM to 5:30 PM"
      },
      {
        "day": "Tuesday",
        "hours": "9 AM to 5:30 PM"
      },
      {
        "day": "Wednesday",
        "hours": "9 AM to 5:30 PM"
      },
      {
        "day": "Thursday",
        "hours": "9 AM to 5:30 PM"
      },
      {
        "day": "Friday",
        "hours": "9 AM to 5:30 PM"
      },
      {
        "day": "Saturday",
        "hours": "9 AM to 12:30 PM"
      },
      {
        "day": "Sunday",
        "hours": "Closed"
      }
    ],
    "peopleAlsoSearch": [],
    "placesTags": [],
    "reviewsTags": [],
    "additionalInfo": {
      "From the business": [
        {
          "Small business": true
        }
      ],
      "Service options": [
        {
          "Curbside pickup": true
        },
        {
          "Delivery": true
        },
        {
          "In-store shopping": true
        },
        {
          "Same-day delivery": true
        }
      ],
      "Accessibility": [
        {
          "Wheelchair accessible entrance": true
        },
        {
          "Wheelchair accessible parking lot": true
        }
      ],
      "Planning": [
        {
          "Quick visit": true
        }
      ],
      "Payments": [
        {
          "Checks": true
        },
        {
          "Credit cards": true
        },
        {
          "Debit cards": true
        },
        {
          "Credit cards": true
        }
      ]
    },
    "gasPrices": [],
    "url": "https://www.google.com/maps/search/?api=1&query=Jonestown%20Pharmacy&query_place_id=ChIJTZd3GO-wU4gRuprPYd1bnI8",
    "searchPageUrl": "https://www.google.com/maps/search/independent%20pharmacy%20Winston-Salem%20NC/@67.82214549246302,-149.65811401432413,9z?hl=en",
    "searchString": "independent pharmacy Winston-Salem NC",
    "language": "en",
    "rank": 1,
    "isAdvertisement": false,
    "imageUrl": "https://lh3.googleusercontent.com/gps-cs-s/AC9h4nq-TZsVv7En3ZwXoGmmGQ6tXKtbEzQMGkSjfHxyQ_66uWjXEUnZ0swekFBHA8Thk4iisc0yJhZOCT8xGYDqs9P4tYPCE8ngpyrnCGHEZuwZzLE27iyJGj7GVZWGymiSJ2_i87N5mg=w408-h306-k-no",
    "kgmid": "/g/1tm0tw44"
  },
  {
    "title": "Southside Discount Pharmacy",
    "price": null,
    "categoryName": "Pharmacy",
    "address": "3085 Waughtown St, Winston-Salem, NC 27107",
    "neighborhood": null,
    "street": "3085 Waughtown St",
    "city": "Winston-Salem",
    "postalCode": "27107",
    "state": "North Carolina",
    "countryCode": "US",
    "website": "https://southsidediscountrx.com/",
    "phone": "(336) 830-8774",
    "phoneUnformatted": "+13368308774",
    "claimThisBusiness": false,
    "location": {
      "lat": 36.078007,
      "lng": -80.178193
    },
    "totalScore": 4.9,
    "permanentlyClosed": false,
    "temporarilyClosed": false,
    "placeId": "ChIJTeteRCipU4gR8f0Fth7onWM",
    "categories": [
      "Pharmacy"
    ],
    "fid": "0x8853a928445eeb4d:0x639de81eb605fdf1",
    "cid": "7178148599698947569",
    "reviewsCount": 32,
    "imagesCount": 2,
    "imageCategories": [],
    "scrapedAt": "2025-06-22T06:19:56.991Z",
    "googleFoodUrl": null,
    "hotelAds": [],
    "openingHours": [
      {
        "day": "Monday",
        "hours": "9 AM to 6 PM"
      },
      {
        "day": "Tuesday",
        "hours": "9 AM to 6 PM"
      },
      {
        "day": "Wednesday",
        "hours": "9 AM to 6 PM"
      },
      {
        "day": "Thursday",
        "hours": "9 AM to 6 PM"
      },
      {
        "day": "Friday",
        "hours": "9 AM to 6 PM"
      },
      {
        "day": "Saturday",
        "hours": "10 AM to 2 PM"
      },
      {
        "day": "Sunday",
        "hours": "Closed"
      }
    ],
    "peopleAlsoSearch": [],
    "placesTags": [],
    "reviewsTags": [],
    "additionalInfo": {
      "From the business": [
        {
          "Small business": true
        }
      ],
      "Service options": [
        {
          "Delivery": true
        },
        {
          "In-store pickup": true
        }
      ],
      "Accessibility": [
        {
          "Wheelchair accessible entrance": true
        },
        {
          "Wheelchair accessible parking lot": true
        }
      ],
      "Planning": [
        {
          "Quick visit": true
        }
      ],
      "Payments": [
        {
          "Credit cards": true
        },
        {
          "Debit cards": true
        },
        {
          "NFC mobile payments": true
        },
        {
          "Credit cards": true
        }
      ]
    },
    "gasPrices": [],
    "url": "https://www.google.com/maps/search/?api=1&query=Southside%20Discount%20Pharmacy&query_place_id=ChIJTeteRCipU4gR8f0Fth7onWM",
    "searchPageUrl": "https://www.google.com/maps/search/independent%20pharmacy%20Winston-Salem%20NC/@67.82214549246302,-149.65811401432413,9z?hl=en",
    "searchString": "independent pharmacy Winston-Salem NC",
    "language": "en",
    "rank": 2,
    "isAdvertisement": false,
    "imageUrl": "https://lh3.googleusercontent.com/p/AF1QipNNMREDYQtF9xOLF6teGwRsYjsOAa28Gy_QIYPb=w408-h408-k-no",
    "kgmid": "/g/11b5pjnq5y"
  },
  {
    "title": "Stanleyville Family Pharmacy",
    "price": null,
    "categoryName": "Pharmacy",
    "address": "475 Summit Square Blvd, Winston-Salem, NC 27105",
    "neighborhood": null,
    "street": "475 Summit Square Blvd",
    "city": "Winston-Salem",
    "postalCode": "27105",
    "state": "North Carolina",
    "countryCode": "US",
    "website": "http://www.stanleyvillepharmacy.com/",
    "phone": "(336) 377-3979",
    "phoneUnformatted": "+13363773979",
    "claimThisBusiness": false,
    "location": {
      "lat": 36.189287,
      "lng": -80.274627
    },
    "totalScore": 5,
    "permanentlyClosed": false,
    "temporarilyClosed": false,
    "placeId": "ChIJyVknVGCtU4gRpKw2NBBzj9A",
    "categories": [
      "Pharmacy"
    ],
    "fid": "0x8853ad60542759c9:0xd08f73103436aca4",
    "cid": "15028356994991303844",
    "reviewsCount": 30,
    "imagesCount": 6,
    "imageCategories": [],
    "scrapedAt": "2025-06-22T06:19:56.991Z",
    "googleFoodUrl": null,
    "hotelAds": [],
    "openingHours": [
      {
        "day": "Monday",
        "hours": "9 AM to 6 PM"
      },
      {
        "day": "Tuesday",
        "hours": "9 AM to 6 PM"
      },
      {
        "day": "Wednesday",
        "hours": "9 AM to 6 PM"
      },
      {
        "day": "Thursday",
        "hours": "9 AM to 6 PM"
      },
      {
        "day": "Friday",
        "hours": "9 AM to 6 PM"
      },
      {
        "day": "Saturday",
        "hours": "9 AM to 1 PM"
      },
      {
        "day": "Sunday",
        "hours": "Closed"
      }
    ],
    "peopleAlsoSearch": [],
    "placesTags": [],
    "reviewsTags": [],
    "additionalInfo": {
      "From the business": [
        {
          "Small business": true
        }
      ],
      "Service options": [
        {
          "Delivery": true
        },
        {
          "Drive-through": true
        },
        {
          "In-store pickup": true
        },
        {
          "Same-day delivery": true
        }
      ],
      "Accessibility": [
        {
          "Wheelchair accessible entrance": true
        },
        {
          "Wheelchair accessible parking lot": true
        }
      ],
      "Offerings": [
        {
          "Medication disposal": true
        }
      ],
      "Planning": [
        {
          "Quick visit": true
        }
      ],
      "Payments": [
        {
          "Credit cards": true
        },
        {
          "Debit cards": true
        },
        {
          "NFC mobile payments": true
        },
        {
          "Credit cards": true
        }
      ]
    },
    "gasPrices": [],
    "url": "https://www.google.com/maps/search/?api=1&query=Stanleyville%20Family%20Pharmacy&query_place_id=ChIJyVknVGCtU4gRpKw2NBBzj9A",
    "searchPageUrl": "https://www.google.com/maps/search/independent%20pharmacy%20Winston-Salem%20NC/@67.82214549246302,-149.65811401432413,9z?hl=en",
    "searchString": "independent pharmacy Winston-Salem NC",
    "language": "en",
    "rank": 3,
    "isAdvertisement": false,
    "imageUrl": "https://lh3.googleusercontent.com/p/AF1QipN99i6-BTtrPSDkHf2B4OeepcS3rYTPg61DWsIH=w408-h306-k-no",
    "kgmid": "/g/1tfgq2n6"
  },
  {
    "title": "Robinhood Family Pharmacy",
    "price": null,
    "categoryName": "Pharmacy",
    "address": "3424 Robinhood Rd, Winston-Salem, NC 27106",
    "neighborhood": null,
    "street": "3424 Robinhood Rd",
    "city": "Winston-Salem",
    "postalCode": "27106",
    "state": "North Carolina",
    "countryCode": "US",
    "website": "http://www.robinhoodfamilypharmacy.com/",
    "phone": "(336) 283-9355",
    "phoneUnformatted": "+13362839355",
    "claimThisBusiness": false,
    "location": {
      "lat": 36.116511,
      "lng": -80.3158811
    },
    "totalScore": 4.7,
    "permanentlyClosed": false,
    "temporarilyClosed": false,
    "placeId": "ChIJP6pMg5yxU4gReZG5QdnwZpA",
    "categories": [
      "Pharmacy"
    ],
    "fid": "0x8853b19c834caa3f:0x9066f0d941b99179",
    "cid": "10405268804987359609",
    "reviewsCount": 37,
    "imagesCount": 4,
    "imageCategories": [],
    "scrapedAt": "2025-06-22T06:19:56.991Z",
    "googleFoodUrl": null,
    "hotelAds": [],
    "openingHours": [
      {
        "day": "Monday",
        "hours": "8:30 AM to 6 PM"
      },
      {
        "day": "Tuesday",
        "hours": "8:30 AM to 6 PM"
      },
      {
        "day": "Wednesday",
        "hours": "8:30 AM to 6 PM"
      },
      {
        "day": "Thursday",
        "hours": "8:30 AM to 6 PM"
      },
      {
        "day": "Friday",
        "hours": "8:30 AM to 6 PM"
      },
      {
        "day": "Saturday",
        "hours": "9 AM to 12 PM"
      },
      {
        "day": "Sunday",
        "hours": "Closed"
      }
    ],
    "additionalOpeningHours": {
      "Drive through": [
        {
          "day": "Monday",
          "hours": "8:30 AM–6 PM"
        },
        {
          "day": "Tuesday",
          "hours": "8:30 AM–6 PM"
        },
        {
          "day": "Wednesday",
          "hours": "8:30 AM–6 PM"
        },
        {
          "day": "Thursday",
          "hours": "8:30 AM–6 PM"
        },
        {
          "day": "Friday",
          "hours": "8:30 AM–6 PM"
        },
        {
          "day": "Saturday",
          "hours": "9 AM–12 PM"
        },
        {
          "day": "Sunday",
          "hours": "Closed"
        }
      ]
    },
    "peopleAlsoSearch": [],
    "placesTags": [],
    "reviewsTags": [],
    "additionalInfo": {
      "From the business": [
        {
          "Small business": true
        }
      ],
      "Service options": [
        {
          "Delivery": true
        },
        {
          "Drive-through": true
        },
        {
          "In-store pickup": true
        }
      ],
      "Accessibility": [
        {
          "Wheelchair accessible entrance": true
        },
        {
          "Wheelchair accessible parking lot": true
        }
      ],
      "Planning": [
        {
          "Quick visit": true
        }
      ],
      "Payments": [
        {
          "Credit cards": true
        },
        {
          "Debit cards": true
        },
        {
          "NFC mobile payments": true
        },
        {
          "Credit cards": true
        }
      ]
    },
    "gasPrices": [],
    "url": "https://www.google.com/maps/search/?api=1&query=Robinhood%20Family%20Pharmacy&query_place_id=ChIJP6pMg5yxU4gReZG5QdnwZpA",
    "searchPageUrl": "https://www.google.com/maps/search/independent%20pharmacy%20Winston-Salem%20NC/@67.82214549246302,-149.65811401432413,9z?hl=en",
    "searchString": "independent pharmacy Winston-Salem NC",
    "language": "en",
    "rank": 4,
    "isAdvertisement": false,
    "imageUrl": "https://lh3.googleusercontent.com/p/AF1QipOyBHOhfetICfzfLGhVP3Zj9A0qOn0mySeF4P4=w408-h306-k-no",
    "kgmid": "/g/1vh_921d"
  },
  {
    "title": "Andrews Apothecary",
    "price": null,
    "categoryName": "Pharmacy",
    "address": "3072-A, Trenwest Dr, Winston-Salem, NC 27103",
    "neighborhood": null,
    "street": "3072-A, Trenwest Dr",
    "city": "Winston-Salem",
    "postalCode": "27103",
    "state": "North Carolina",
    "countryCode": "US",
    "website": "http://www.andrewsapothecary.com/",
    "phone": "(336) 723-1679",
    "phoneUnformatted": "+13367231679",
    "claimThisBusiness": false,
    "location": {
      "lat": 36.0796286,
      "lng": -80.2976836
    },
    "totalScore": 4.8,
    "permanentlyClosed": false,
    "temporarilyClosed": false,
    "placeId": "ChIJH-3j7S6wU4gRZteCpj-uDMQ",
    "categories": [
      "Pharmacy",
      "Gift shop",
      "Pharmaceutical lab",
      "Veterinary pharmacy"
    ],
    "fid": "0x8853b02eede3ed1f:0xc40cae3fa682d766",
    "cid": "14126857719554168678",
    "reviewsCount": 94,
    "imagesCount": 88,
    "imageCategories": [],
    "scrapedAt": "2025-06-22T06:19:56.992Z",
    "googleFoodUrl": null,
    "hotelAds": [],
    "openingHours": [
      {
        "day": "Monday",
        "hours": "9 AM to 6 PM"
      },
      {
        "day": "Tuesday",
        "hours": "9 AM to 6 PM"
      },
      {
        "day": "Wednesday",
        "hours": "9 AM to 6 PM"
      },
      {
        "day": "Thursday",
        "hours": "9 AM to 6 PM"
      },
      {
        "day": "Friday",
        "hours": "9 AM to 6 PM"
      },
      {
        "day": "Saturday",
        "hours": "Closed"
      },
      {
        "day": "Sunday",
        "hours": "Closed"
      }
    ],
    "peopleAlsoSearch": [],
    "placesTags": [],
    "reviewsTags": [],
    "additionalInfo": {
      "From the business": [
        {
          "Small business": true
        }
      ],
      "Service options": [
        {
          "Curbside pickup": true
        },
        {
          "Delivery": true
        },
        {
          "In-store pickup": true
        },
        {
          "In-store shopping": true
        },
        {
          "Onsite services": true
        },
        {
          "Same-day delivery": false
        },
        {
          "Spanish": true
        }
      ],
      "Accessibility": [
        {
          "Wheelchair accessible entrance": true
        },
        {
          "Wheelchair accessible parking lot": true
        },
        {
          "Wheelchair accessible restroom": true
        }
      ],
      "Amenities": [
        {
          "Gender-neutral restroom": true
        }
      ],
      "Crowd": [
        {
          "LGBTQ+ friendly": true
        },
        {
          "Transgender safespace": true
        }
      ],
      "Planning": [
        {
          "Quick visit": true
        }
      ],
      "Payments": [
        {
          "Checks": true
        },
        {
          "Credit cards": true
        },
        {
          "Debit cards": true
        },
        {
          "NFC mobile payments": true
        },
        {
          "Credit cards": true
        }
      ],
      "Parking": [
        {
          "Free parking lot": true
        }
      ]
    },
    "gasPrices": [],
    "url": "https://www.google.com/maps/search/?api=1&query=Andrews%20Apothecary&query_place_id=ChIJH-3j7S6wU4gRZteCpj-uDMQ",
    "searchPageUrl": "https://www.google.com/maps/search/independent%20pharmacy%20Winston-Salem%20NC/@67.82214549246302,-149.65811401432413,9z?hl=en",
    "searchString": "independent pharmacy Winston-Salem NC",
    "language": "en",
    "rank": 5,
    "isAdvertisement": false,
    "imageUrl": "https://lh3.googleusercontent.com/p/AF1QipO0BUrCkzqUqlIi0ctOOW7m6fua5hNC7rFPqM19=w408-h544-k-no",
    "kgmid": "/g/1tkjlxc4"
  },
  {
    "title": "Med Solutions Compounding",
    "price": null,
    "categoryName": "Pharmacy",
    "address": "1365 Westgate Center Dr STE F2, Winston-Salem, NC 27103",
    "neighborhood": null,
    "street": "1365 Westgate Center Dr STE F2",
    "city": "Winston-Salem",
    "postalCode": "27103",
    "state": "North Carolina",
    "countryCode": "US",
    "website": "https://www.mscpharmacy.com/",
    "phone": "(336) 765-4406",
    "phoneUnformatted": "+13367654406",
    "claimThisBusiness": false,
    "location": {
      "lat": 36.0719164,
      "lng": -80.3109581
    },
    "totalScore": 4.9,
    "permanentlyClosed": false,
    "temporarilyClosed": false,
    "placeId": "ChIJwWtlbluwU4gRWtIl__I0tqs",
    "categories": [
      "Pharmacy"
    ],
    "fid": "0x8853b05b6e656bc1:0xabb634f2ff25d25a",
    "cid": "12373135244514415194",
    "reviewsCount": 74,
    "imagesCount": 11,
    "imageCategories": [],
    "scrapedAt": "2025-06-22T06:19:56.992Z",
    "googleFoodUrl": null,
    "hotelAds": [],
    "openingHours": [
      {
        "day": "Monday",
        "hours": "9 AM to 5:30 PM"
      },
      {
        "day": "Tuesday",
        "hours": "9 AM to 5:30 PM"
      },
      {
        "day": "Wednesday",
        "hours": "9 AM to 5:30 PM"
      },
      {
        "day": "Thursday",
        "hours": "9 AM to 5:30 PM"
      },
      {
        "day": "Friday",
        "hours": "9 AM to 2 PM"
      },
      {
        "day": "Saturday",
        "hours": "Closed"
      },
      {
        "day": "Sunday",
        "hours": "Closed"
      }
    ],
    "peopleAlsoSearch": [],
    "placesTags": [],
    "reviewsTags": [],
    "additionalInfo": {
      "From the business": [
        {
          "Small business": true
        }
      ],
      "Service options": [
        {
          "Delivery": true
        },
        {
          "In-store pickup": true
        }
      ],
      "Accessibility": [
        {
          "Wheelchair accessible entrance": true
        },
        {
          "Wheelchair accessible parking lot": true
        }
      ],
      "Payments": [
        {
          "Credit cards": true
        },
        {
          "Debit cards": true
        },
        {
          "NFC mobile payments": true
        },
        {
          "Credit cards": true
        }
      ]
    },
    "gasPrices": [],
    "url": "https://www.google.com/maps/search/?api=1&query=Med%20Solutions%20Compounding&query_place_id=ChIJwWtlbluwU4gRWtIl__I0tqs",
    "searchPageUrl": "https://www.google.com/maps/search/independent%20pharmacy%20Winston-Salem%20NC/@67.82214549246302,-149.65811401432413,9z?hl=en",
    "searchString": "independent pharmacy Winston-Salem NC",
    "language": "en",
    "rank": 6,
    "isAdvertisement": false,
    "imageUrl": "https://lh3.googleusercontent.com/p/AF1QipPrLettvagMnTsBDHGXiIgTEfcsNV2NeSipX2Hk=w408-h544-k-no",
    "kgmid": "/g/1tkl4060"
  },
  {
    "title": "Triad Choice Pharmacy",
    "price": null,
    "categoryName": "Pharmacy",
    "address": "658 Waughtown St, Winston-Salem, NC 27107",
    "neighborhood": null,
    "street": "658 Waughtown St",
    "city": "Winston-Salem",
    "postalCode": "27107",
    "state": "North Carolina",
    "countryCode": "US",
    "website": "http://www.triadchoicepharmacy.com/",
    "phone": "(336) 893-6286",
    "phoneUnformatted": "+13368936286",
    "claimThisBusiness": false,
    "location": {
      "lat": 36.069475,
      "lng": -80.2244073
    },
    "totalScore": 3.9,
    "permanentlyClosed": false,
    "temporarilyClosed": false,
    "placeId": "ChIJAQAAAA-vU4gRTDD2gtZ_028",
    "categories": [
      "Pharmacy"
    ],
    "fid": "0x8853af0f00000001:0x6fd37fd682f6304c",
    "cid": "8057924717592850508",
    "reviewsCount": 33,
    "imagesCount": 10,
    "imageCategories": [],
    "scrapedAt": "2025-06-22T06:19:56.992Z",
    "googleFoodUrl": null,
    "hotelAds": [],
    "openingHours": [
      {
        "day": "Monday",
        "hours": "9 AM to 6 PM"
      },
      {
        "day": "Tuesday",
        "hours": "9 AM to 6 PM"
      },
      {
        "day": "Wednesday",
        "hours": "9 AM to 6 PM"
      },
      {
        "day": "Thursday",
        "hours": "9 AM to 6 PM"
      },
      {
        "day": "Friday",
        "hours": "9 AM to 6 PM"
      },
      {
        "day": "Saturday",
        "hours": "10 AM to 2 PM"
      },
      {
        "day": "Sunday",
        "hours": "Closed"
      }
    ],
    "peopleAlsoSearch": [],
    "placesTags": [],
    "reviewsTags": [],
    "additionalInfo": {
      "From the business": [
        {
          "Small business": true
        }
      ],
      "Service options": [
        {
          "Delivery": true
        },
        {
          "Drive-through": true
        },
        {
          "In-store pickup": true
        },
        {
          "Same-day delivery": true
        }
      ],
      "Accessibility": [
        {
          "Wheelchair accessible entrance": true
        },
        {
          "Wheelchair accessible parking lot": true
        }
      ],
      "Planning": [
        {
          "Quick visit": true
        }
      ],
      "Payments": [
        {
          "Credit cards": true
        },
        {
          "Debit cards": true
        },
        {
          "NFC mobile payments": true
        },
        {
          "Credit cards": true
        }
      ]
    },
    "gasPrices": [],
    "url": "https://www.google.com/maps/search/?api=1&query=Triad%20Choice%20Pharmacy&query_place_id=ChIJAQAAAA-vU4gRTDD2gtZ_028",
    "searchPageUrl": "https://www.google.com/maps/search/independent%20pharmacy%20Winston-Salem%20NC/@67.82214549246302,-149.65811401432413,9z?hl=en",
    "searchString": "independent pharmacy Winston-Salem NC",
    "language": "en",
    "rank": 7,
    "isAdvertisement": false,
    "imageUrl": "https://lh3.googleusercontent.com/gps-cs-s/AC9h4nrdIQgY5wSWmq0_rTEpSNzftjqepBhCDlsxmy7s-PwyTrNe8W_52D8mt0n71-LUxlMC94RM2AZovIWHVkRVY5VSsWaxjuh6XSjCM6wzqGtYqz-3mJFz7fVAx8nHICZmT1CwFdvi=w408-h306-k-no",
    "kgmid": "/g/11g7_h66m5"
  },
  {
    "title": "South Park Family Pharmacy",
    "price": null,
    "categoryName": "Pharmacy",
    "address": "1215A W Clemmonsville Rd, Winston-Salem, NC 27127",
    "neighborhood": null,
    "street": "1215A W Clemmonsville Rd",
    "city": "Winston-Salem",
    "postalCode": "27127",
    "state": "North Carolina",
    "countryCode": "US",
    "website": "http://www.southparkfamilypharmacy.com/",
    "phone": "(336) 293-4755",
    "phoneUnformatted": "+13362934755",
    "claimThisBusiness": true,
    "location": {
      "lat": 36.0415131,
      "lng": -80.2588731
    },
    "totalScore": 4.8,
    "permanentlyClosed": false,
    "temporarilyClosed": false,
    "placeId": "ChIJY_unuPWvU4gRUZuGrW-NkOc",
    "categories": [
      "Pharmacy"
    ],
    "fid": "0x8853aff5b8a7fb63:0xe7908d6fad869b51",
    "cid": "16685992130199853905",
    "reviewsCount": 59,
    "imagesCount": 4,
    "imageCategories": [],
    "scrapedAt": "2025-06-22T06:19:56.992Z",
    "googleFoodUrl": null,
    "hotelAds": [],
    "openingHours": [
      {
        "day": "Monday",
        "hours": "9 AM to 6 PM"
      },
      {
        "day": "Tuesday",
        "hours": "9 AM to 6 PM"
      },
      {
        "day": "Wednesday",
        "hours": "9 AM to 6 PM"
      },
      {
        "day": "Thursday",
        "hours": "9 AM to 6 PM"
      },
      {
        "day": "Friday",
        "hours": "9 AM to 6 PM"
      },
      {
        "day": "Saturday",
        "hours": "9 AM to 1 PM"
      },
      {
        "day": "Sunday",
        "hours": "Closed"
      }
    ],
    "peopleAlsoSearch": [],
    "placesTags": [],
    "reviewsTags": [],
    "additionalInfo": {
      "Service options": [
        {
          "Delivery": true
        },
        {
          "Drive-through": true
        }
      ],
      "Accessibility": [
        {
          "Wheelchair accessible entrance": true
        },
        {
          "Wheelchair accessible parking lot": true
        }
      ],
      "Planning": [
        {
          "Appointment required": true
        },
        {
          "Quick visit": true
        }
      ],
      "Payments": [
        {
          "Credit cards": true
        },
        {
          "Debit cards": true
        },
        {
          "NFC mobile payments": true
        },
        {
          "Credit cards": true
        }
      ]
    },
    "gasPrices": [],
    "url": "https://www.google.com/maps/search/?api=1&query=South%20Park%20Family%20Pharmacy&query_place_id=ChIJY_unuPWvU4gRUZuGrW-NkOc",
    "searchPageUrl": "https://www.google.com/maps/search/independent%20pharmacy%20Winston-Salem%20NC/@67.82214549246302,-149.65811401432413,9z?hl=en",
    "searchString": "independent pharmacy Winston-Salem NC",
    "language": "en",
    "rank": 8,
    "isAdvertisement": false,
    "imageUrl": "https://lh3.googleusercontent.com/gps-cs-s/AC9h4npdf76rcEXvSHMfkUFNhR3ROyG6gNaYvSLbpYhQ4QyCvKXHHbCuhFYgGQgnl1zgwGCc9G0urvhis0Cmm1XBn_Lp1-ssuuJdjZGR-Nvji80kuJULi_FjYQjvgCA2274nQe2xm0BZRw=w408-h306-k-no",
    "kgmid": "/g/11b7w67ldx"
  },
  {
    "title": "Marley Drug",
    "price": null,
    "categoryName": "Pharmacy",
    "address": "5008 Peters Creek Pkwy, Winston-Salem, NC 27127",
    "neighborhood": null,
    "street": "5008 Peters Creek Pkwy",
    "city": "Winston-Salem",
    "postalCode": "27127",
    "state": "North Carolina",
    "countryCode": "US",
    "website": "http://marleydrug.com/?utm_source=Google+Business+Page&utm_medium=Business+&utm_campaign=My+Business",
    "phone": "(336) 771-7672",
    "phoneUnformatted": "+13367717672",
    "claimThisBusiness": false,
    "location": {
      "lat": 36.0033987,
      "lng": -80.2639702
    },
    "totalScore": 4.4,
    "permanentlyClosed": false,
    "temporarilyClosed": false,
    "placeId": "ChIJD5iAwSWlU4gRUWM9ramsCqA",
    "categories": [
      "Pharmacy"
    ],
    "fid": "0x8853a525c180980f:0xa00aaca9ad3d6351",
    "cid": "11532219640591508305",
    "reviewsCount": 109,
    "imagesCount": 29,
    "imageCategories": [],
    "scrapedAt": "2025-06-22T06:19:56.992Z",
    "googleFoodUrl": null,
    "hotelAds": [],
    "openingHours": [
      {
        "day": "Monday",
        "hours": "9 AM to 6 PM"
      },
      {
        "day": "Tuesday",
        "hours": "9 AM to 6 PM"
      },
      {
        "day": "Wednesday",
        "hours": "9 AM to 6 PM"
      },
      {
        "day": "Thursday",
        "hours": "9 AM to 6 PM"
      },
      {
        "day": "Friday",
        "hours": "9 AM to 6 PM"
      },
      {
        "day": "Saturday",
        "hours": "9 AM to 6 PM"
      },
      {
        "day": "Sunday",
        "hours": "Closed"
      }
    ],
    "additionalOpeningHours": {
      "Online service hours": [
        {
          "day": "Monday",
          "hours": "9 AM–6 PM"
        },
        {
          "day": "Tuesday",
          "hours": "9 AM–6 PM"
        },
        {
          "day": "Wednesday",
          "hours": "9 AM–6 PM"
        },
        {
          "day": "Thursday",
          "hours": "9 AM–6 PM"
        },
        {
          "day": "Friday",
          "hours": "9 AM–6 PM"
        },
        {
          "day": "Saturday",
          "hours": "9 AM–6 PM"
        },
        {
          "day": "Sunday",
          "hours": "Closed"
        }
      ]
    },
    "peopleAlsoSearch": [],
    "placesTags": [],
    "reviewsTags": [],
    "additionalInfo": {
      "From the business": [
        {
          "Small business": true
        }
      ],
      "Service options": [
        {
          "Delivery": true
        },
        {
          "Drive-through": true
        },
        {
          "In-store pickup": true
        },
        {
          "In-store shopping": true
        }
      ],
      "Accessibility": [
        {
          "Wheelchair accessible entrance": true
        },
        {
          "Wheelchair accessible parking lot": true
        }
      ],
      "Planning": [
        {
          "Quick visit": true
        }
      ],
      "Payments": [
        {
          "Credit cards": true
        },
        {
          "Debit cards": true
        },
        {
          "NFC mobile payments": true
        },
        {
          "Credit cards": true
        }
      ]
    },
    "gasPrices": [],
    "url": "https://www.google.com/maps/search/?api=1&query=Marley%20Drug&query_place_id=ChIJD5iAwSWlU4gRUWM9ramsCqA",
    "searchPageUrl": "https://www.google.com/maps/search/independent%20pharmacy%20Winston-Salem%20NC/@67.82214549246302,-149.65811401432413,9z?hl=en",
    "searchString": "independent pharmacy Winston-Salem NC",
    "language": "en",
    "rank": 9,
    "isAdvertisement": false,
    "imageUrl": "https://lh3.googleusercontent.com/p/AF1QipMOsEdZd5puI5Ba-OIXK6PWIgL3SSrcbDm37i-W=w408-h408-k-no",
    "kgmid": "/g/1tfzhgjr"
  },
  {
    "title": "Novant Health Specialty Pharmacy – Westgate",
    "price": null,
    "categoryName": "Pharmacy",
    "address": "1381 Westgate Center Dr, Winston-Salem, NC 27103",
    "neighborhood": null,
    "street": "1381 Westgate Center Dr",
    "city": "Winston-Salem",
    "postalCode": "27103",
    "state": "North Carolina",
    "countryCode": "US",
    "website": "https://www.novanthealth.org/services/pharmacy/?utm_source=maps.google.com&utm_medium=organic&utm_campaign=GBP&utm_content=OP-058",
    "phone": "(336) 718-1111",
    "phoneUnformatted": "+13367181111",
    "claimThisBusiness": false,
    "location": {
      "lat": 36.0709806,
      "lng": -80.311032
    },
    "totalScore": 4.1,
    "permanentlyClosed": false,
    "temporarilyClosed": false,
    "placeId": "ChIJ7T4Id7OxU4gRvWLCPhKzGzw",
    "categories": [
      "Pharmacy",
      "Health and beauty shop"
    ],
    "fid": "0x8853b1b377083eed:0x3c1bb3123ec262bd",
    "cid": "4331252357590573757",
    "reviewsCount": 10,
    "imagesCount": 1,
    "imageCategories": [],
    "scrapedAt": "2025-06-22T06:19:56.992Z",
    "googleFoodUrl": null,
    "hotelAds": [],
    "openingHours": [
      {
        "day": "Monday",
        "hours": "8 AM to 5 PM"
      },
      {
        "day": "Tuesday",
        "hours": "8 AM to 5 PM"
      },
      {
        "day": "Wednesday",
        "hours": "8 AM to 5 PM"
      },
      {
        "day": "Thursday",
        "hours": "8 AM to 5 PM"
      },
      {
        "day": "Friday",
        "hours": "8 AM to 5 PM"
      },
      {
        "day": "Saturday",
        "hours": "Closed"
      },
      {
        "day": "Sunday",
        "hours": "Closed"
      }
    ],
    "peopleAlsoSearch": [],
    "placesTags": [],
    "reviewsTags": [],
    "additionalInfo": {
      "Service options": [
        {
          "Delivery": true
        }
      ],
      "Accessibility": [
        {
          "Wheelchair accessible entrance": true
        },
        {
          "Wheelchair accessible parking lot": true
        }
      ],
      "Payments": [
        {
          "Credit cards": true
        }
      ]
    },
    "gasPrices": [],
    "url": "https://www.google.com/maps/search/?api=1&query=Novant%20Health%20Specialty%20Pharmacy%20%E2%80%93%20Westgate&query_place_id=ChIJ7T4Id7OxU4gRvWLCPhKzGzw",
    "searchPageUrl": "https://www.google.com/maps/search/independent%20pharmacy%20Winston-Salem%20NC/@67.82214549246302,-149.65811401432413,9z?hl=en",
    "searchString": "independent pharmacy Winston-Salem NC",
    "language": "en",
    "rank": 10,
    "isAdvertisement": false,
    "imageUrl": "https://streetviewpixels-pa.googleapis.com/v1/thumbnail?panoid=i6GUsv9WAqSlfzkjFIUlyg&cb_client=search.gws-prod.gps&w=408&h=240&yaw=98.51288&pitch=0&thumbfov=100",
    "kgmid": "/g/11r4ly0_bs"
  },
  {
    "title": "McNeill's Pharmacy",
    "price": null,
    "categoryName": "Pharmacy",
    "address": "2560 Landmark Dr, Winston-Salem, NC 27103",
    "neighborhood": null,
    "street": "2560 Landmark Dr",
    "city": "Winston-Salem",
    "postalCode": "27103",
    "state": "North Carolina",
    "countryCode": "US",
    "claimThisBusiness": true,
    "location": {
      "lat": 36.0377651,
      "lng": -80.3284274
    },
    "permanentlyClosed": false,
    "temporarilyClosed": false,
    "placeId": "ChIJ48iBaYy7U4gRRRrXuXzieF0",
    "categories": [
      "Pharmacy"
    ],
    "fid": "0x8853bb8c6981c8e3:0x5d78e27cb9d71a45",
    "cid": "6735382268054280773",
    "reviewsCount": 0,
    "imagesCount": 1,
    "imageCategories": [],
    "scrapedAt": "2025-06-22T06:19:56.992Z",
    "googleFoodUrl": null,
    "hotelAds": [],
    "openingHours": [],
    "peopleAlsoSearch": [],
    "placesTags": [],
    "reviewsTags": [],
    "additionalInfo": {
      "Accessibility": [
        {
          "Wheelchair accessible entrance": true
        },
        {
          "Wheelchair accessible parking lot": true
        }
      ],
      "Payments": [
        {
          "Credit cards": true
        }
      ]
    },
    "gasPrices": [],
    "url": "https://www.google.com/maps/search/?api=1&query=McNeill's%20Pharmacy&query_place_id=ChIJ48iBaYy7U4gRRRrXuXzieF0",
    "searchPageUrl": "https://www.google.com/maps/search/independent%20pharmacy%20Winston-Salem%20NC/@67.82214549246302,-149.65811401432413,9z?hl=en",
    "searchString": "independent pharmacy Winston-Salem NC",
    "language": "en",
    "rank": 11,
    "isAdvertisement": false,
    "imageUrl": "https://streetviewpixels-pa.googleapis.com/v1/thumbnail?panoid=GKflnNAKvICha1YsomXxVg&cb_client=search.gws-prod.gps&w=408&h=240&yaw=170.14803&pitch=0&thumbfov=100",
    "kgmid": "/g/11pzyx00jh"
  },
  {
    "title": "CVS Pharmacy",
    "price": null,
    "categoryName": "Pharmacy",
    "address": "589 N Martin Luther King Jr Dr, Winston-Salem, NC 27101",
    "neighborhood": null,
    "street": "589 N Martin Luther King Jr Dr",
    "city": "Winston-Salem",
    "postalCode": "27101",
    "state": "North Carolina",
    "countryCode": "US",
    "website": "https://www.cvs.com/store-locator/winston-salem-nc-pharmacies/589-n-martin-luther-king-jr-dr-winston-salem-nc-27101/storeid=5595?WT.mc_id=LS_GOOGLE_RX_5595",
    "phone": "(336) 722-2792",
    "phoneUnformatted": "+13367222792",
    "claimThisBusiness": false,
    "location": {
      "lat": 36.1020264,
      "lng": -80.2276873
    },
    "totalScore": 3.4,
    "permanentlyClosed": false,
    "temporarilyClosed": false,
    "placeId": "ChIJ2YqOS4uuU4gRpjJtKEguerI",
    "categories": [
      "Pharmacy"
    ],
    "fid": "0x8853ae8b4b8e8ad9:0xb27a2e48286d32a6",
    "cid": "12860642573360640678",
    "reviewsCount": 14,
    "imagesCount": 8,
    "imageCategories": [],
    "scrapedAt": "2025-06-22T06:19:56.992Z",
    "googleFoodUrl": null,
    "hotelAds": [],
    "openingHours": [
      {
        "day": "Monday",
        "hours": "9 AM to 1:30 PM, 2 to 7 PM"
      },
      {
        "day": "Tuesday",
        "hours": "9 AM to 1:30 PM, 2 to 7 PM"
      },
      {
        "day": "Wednesday",
        "hours": "9 AM to 1:30 PM, 2 to 7 PM"
      },
      {
        "day": "Thursday",
        "hours": "9 AM to 1:30 PM, 2 to 7 PM"
      },
      {
        "day": "Friday",
        "hours": "9 AM to 1:30 PM, 2 to 7 PM"
      },
      {
        "day": "Saturday",
        "hours": "10 AM to 1:30 PM, 2 to 6 PM"
      },
      {
        "day": "Sunday",
        "hours": "11 AM to 1:30 PM, 2 to 5 PM"
      }
    ],
    "peopleAlsoSearch": [],
    "placesTags": [],
    "reviewsTags": [],
    "additionalInfo": {
      "Service options": [
        {
          "Delivery": true
        },
        {
          "Drive-through": true
        },
        {
          "In-store shopping": true
        }
      ],
      "Accessibility": [
        {
          "Wheelchair accessible entrance": true
        },
        {
          "Wheelchair accessible parking lot": true
        }
      ],
      "Offerings": [
        {
          "Naloxone": true
        },
        {
          "Passport photos": true
        }
      ],
      "Crowd": [
        {
          "LGBTQ+ friendly": true
        },
        {
          "Transgender safespace": true
        }
      ],
      "Planning": [
        {
          "Quick visit": true
        }
      ],
      "Payments": [
        {
          "Credit cards": true
        },
        {
          "Debit cards": true
        },
        {
          "NFC mobile payments": true
        },
        {
          "Credit cards": true
        }
      ]
    },
    "gasPrices": [],
    "url": "https://www.google.com/maps/search/?api=1&query=CVS%20Pharmacy&query_place_id=ChIJ2YqOS4uuU4gRpjJtKEguerI",
    "searchPageUrl": "https://www.google.com/maps/search/independent%20pharmacy%20Winston-Salem%20NC/@67.82214549246302,-149.65811401432413,9z?hl=en",
    "searchString": "independent pharmacy Winston-Salem NC",
    "language": "en",
    "rank": 12,
    "isAdvertisement": false,
    "imageUrl": "https://lh3.googleusercontent.com/p/AF1QipOToAGaQAkqst2NjLwFi_olKuJPaSIsqhORnc5e=w408-h272-k-no",
    "kgmid": "/g/11c468k2ck"
  },
  {
    "title": "MLK Pharmacy",
    "price": null,
    "categoryName": "Pharmacy",
    "address": "1489 New Walkertown Rd, Winston-Salem, NC 27101, United States",
    "neighborhood": null,
    "street": "1489 New Walkertown Rd",
    "city": "Winston-Salem",
    "postalCode": "27101",
    "state": "North Carolina",
    "countryCode": "US",
    "phone": "+1 336-722-0077",
    "phoneUnformatted": "+13367220077",
    "claimThisBusiness": true,
    "location": {
      "lat": 36.1033052,
      "lng": -80.2269207
    },
    "totalScore": 4.7,
    "permanentlyClosed": false,
    "temporarilyClosed": false,
    "placeId": "ChIJh2YlV4uuU4gRGmOApOBxl_o",
    "categories": [
      "Pharmacy"
    ],
    "fid": "0x8853ae8b57256687:0xfa9771e0a480631a",
    "cid": "18057026440611783450",
    "reviewsCount": 46,
    "imagesCount": 1,
    "imageCategories": [],
    "scrapedAt": "2025-06-22T06:20:10.215Z",
    "googleFoodUrl": null,
    "hotelAds": [],
    "openingHours": [
      {
        "day": "Monday",
        "hours": "9 AM to 6 PM"
      },
      {
        "day": "Tuesday",
        "hours": "9 AM to 6 PM"
      },
      {
        "day": "Wednesday",
        "hours": "9 AM to 6 PM"
      },
      {
        "day": "Thursday",
        "hours": "9 AM to 6 PM"
      },
      {
        "day": "Friday",
        "hours": "9 AM to 6 PM"
      },
      {
        "day": "Saturday",
        "hours": "10 AM to 1 PM"
      },
      {
        "day": "Sunday",
        "hours": "Closed"
      }
    ],
    "peopleAlsoSearch": [],
    "placesTags": [],
    "reviewsTags": [],
    "additionalInfo": {
      "Service options": [
        {
          "Delivery": true
        }
      ],
      "Accessibility": [
        {
          "Wheelchair-accessible car park": true
        },
        {
          "Wheelchair-accessible entrance": true
        }
      ],
      "Planning": [
        {
          "Quick visit": true
        }
      ],
      "Payments": [
        {
          "Credit cards": true
        },
        {
          "Debit cards": true
        },
        {
          "NFC mobile payments": true
        },
        {
          "Credit cards": true
        }
      ]
    },
    "gasPrices": [],
    "url": "https://www.google.com/maps/search/?api=1&query=MLK%20Pharmacy&query_place_id=ChIJh2YlV4uuU4gRGmOApOBxl_o",
    "searchPageUrl": "https://www.google.com/maps/search/independent%20pharmacy%20Winston-Salem%20NC/@56.01120730753697,-162.31690285675955,9z?hl=en",
    "searchString": "independent pharmacy Winston-Salem NC",
    "language": "en",
    "rank": 7,
    "isAdvertisement": false,
    "imageUrl": "https://streetviewpixels-pa.googleapis.com/v1/thumbnail?panoid=NlCkzTFu--4IJaPnFMWJEw&cb_client=search.gws-prod.gps&w=408&h=240&yaw=351.38925&pitch=0&thumbfov=100",
    "kgmid": "/g/1tg5_bfy"
  },
  {
    "title": "Atrium Health Wake Forest Baptist Piedmont Plaza Pharmacy",
    "price": null,
    "categoryName": "Pharmacy",
    "address": "1920 W 1st St, Winston-Salem, NC 27104, United States",
    "neighborhood": null,
    "street": "1920 W 1st St",
    "city": "Winston-Salem",
    "postalCode": "27104",
    "state": "North Carolina",
    "countryCode": "US",
    "website": "https://www.wakehealth.edu/locations/pharmacies/piedmont-plaza-pharmacy?utm_source=GMB&utm_medium=Organic&utm_campaign=AHWFB",
    "phone": "+1 336-716-5800",
    "phoneUnformatted": "+13367165800",
    "claimThisBusiness": false,
    "location": {
      "lat": 36.0958579,
      "lng": -80.2736762
    },
    "totalScore": 4.5,
    "permanentlyClosed": false,
    "temporarilyClosed": false,
    "placeId": "ChIJ43nbzCeuU4gRDW6uzo_fXz8",
    "categories": [
      "Pharmacy"
    ],
    "fid": "0x8853ae27ccdb79e3:0x3f5fdf8fceae6e0d",
    "cid": "4566614355917827597",
    "reviewsCount": 25,
    "imagesCount": 1,
    "imageCategories": [],
    "scrapedAt": "2025-06-22T06:20:10.215Z",
    "googleFoodUrl": null,
    "hotelAds": [],
    "openingHours": [
      {
        "day": "Monday",
        "hours": "8 AM to 4:30 PM"
      },
      {
        "day": "Tuesday",
        "hours": "8 AM to 4:30 PM"
      },
      {
        "day": "Wednesday",
        "hours": "8 AM to 4:30 PM"
      },
      {
        "day": "Thursday",
        "hours": "8 AM to 4:30 PM"
      },
      {
        "day": "Friday",
        "hours": "8 AM to 4:30 PM"
      },
      {
        "day": "Saturday",
        "hours": "Closed"
      },
      {
        "day": "Sunday",
        "hours": "Closed"
      }
    ],
    "peopleAlsoSearch": [],
    "placesTags": [],
    "reviewsTags": [],
    "additionalInfo": {
      "Accessibility": [
        {
          "Wheelchair-accessible car park": true
        },
        {
          "Wheelchair-accessible entrance": true
        }
      ],
      "Amenities": [
        {
          "Wi-Fi": true
        }
      ],
      "Payments": [
        {
          "Credit cards": true
        },
        {
          "NFC mobile payments": true
        }
      ]
    },
    "gasPrices": [],
    "url": "https://www.google.com/maps/search/?api=1&query=Atrium%20Health%20Wake%20Forest%20Baptist%20Piedmont%20Plaza%20Pharmacy&query_place_id=ChIJ43nbzCeuU4gRDW6uzo_fXz8",
    "searchPageUrl": "https://www.google.com/maps/search/independent%20pharmacy%20Winston-Salem%20NC/@56.01120730753697,-162.31690285675955,9z?hl=en",
    "searchString": "independent pharmacy Winston-Salem NC",
    "language": "en",
    "rank": 12,
    "isAdvertisement": false,
    "imageUrl": "https://lh3.googleusercontent.com/gps-cs-s/AC9h4no57EtJp52ELGKDIOS8y2fhWPLGDhHDXbRW1JhZh5bVrde0PZeENS6EdXi2pYAF-T7nz2d0swWmNw33hT-dzUR1YEBgwDxondGhr-NJpP8hLm8T7G5k9B6uJo5IrSxIie1rdz-D=w408-h306-k-no",
    "kgmid": "/g/11b6vqtt6h"
  },
  {
    "title": "Pharmacy",
    "price": null,
    "categoryName": "Pharmacy",
    "address": "971 S Main St, Kernersville, NC 27284",
    "neighborhood": null,
    "street": "971 S Main St",
    "city": "Kernersville",
    "postalCode": "27284",
    "state": "North Carolina",
    "countryCode": "US",
    "website": "https://kernersvillepharmacy.com/",
    "phone": "(336) 497-4511",
    "phoneUnformatted": "+13364974511",
    "claimThisBusiness": true,
    "location": {
      "lat": 36.1074609,
      "lng": -80.0948539
    },
    "permanentlyClosed": false,
    "temporarilyClosed": false,
    "placeId": "ChIJMYpELFQHU4gR4iv-NPBKdfk",
    "categories": [
      "Pharmacy"
    ],
    "fid": "0x885307542c448a31:0xf9754af034fe2be2",
    "cid": "17975355883260881890",
    "reviewsCount": 0,
    "imagesCount": 1,
    "imageCategories": [],
    "scrapedAt": "2025-06-22T06:20:32.418Z",
    "googleFoodUrl": null,
    "hotelAds": [],
    "openingHours": [],
    "peopleAlsoSearch": [],
    "placesTags": [],
    "reviewsTags": [],
    "additionalInfo": {
      "Service options": [
        {
          "Delivery": true
        },
        {
          "In-store pickup": true
        },
        {
          "Same-day delivery": true
        }
      ],
      "Accessibility": [
        {
          "Wheelchair accessible entrance": true
        },
        {
          "Wheelchair accessible parking lot": true
        }
      ],
      "Planning": [
        {
          "Quick visit": true
        }
      ],
      "Payments": [
        {
          "Credit cards": true
        }
      ]
    },
    "gasPrices": [],
    "url": "https://www.google.com/maps/search/?api=1&query=Pharmacy&query_place_id=ChIJMYpELFQHU4gR4iv-NPBKdfk",
    "searchPageUrl": "https://www.google.com/maps/search/independent%20pharmacy%20Winston-Salem%20NC/@60.71475349352679,-172.6715933,12z?hl=en",
    "searchString": "independent pharmacy Winston-Salem NC",
    "language": "en",
    "rank": 10,
    "isAdvertisement": false,
    "imageUrl": "https://streetviewpixels-pa.googleapis.com/v1/thumbnail?panoid=k-CrwlHl6ffsd_NCTAvRWA&cb_client=search.gws-prod.gps&w=408&h=240&yaw=139.60164&pitch=0&thumbfov=100",
    "kgmid": "/g/11h7fyjrf6"
  },
  {
    "title": "SUMMIT PHARMACY & SURGICAL SUPPLY",
    "price": null,
    "categoryName": "Pharmacy",
    "address": "930 Summit Ave, Greensboro, NC 27405",
    "neighborhood": null,
    "street": "930 Summit Ave",
    "city": "Greensboro",
    "postalCode": "27405",
    "state": "North Carolina",
    "countryCode": "US",
    "website": "http://www.summitpharmacyss.com/",
    "phone": "(336) 763-7282",
    "phoneUnformatted": "+13367637282",
    "claimThisBusiness": true,
    "location": {
      "lat": 36.0841811,
      "lng": -79.7763134
    },
    "totalScore": 4.9,
    "permanentlyClosed": false,
    "temporarilyClosed": false,
    "placeId": "ChIJx9K739IYU4gROZkHkFNBE_Y",
    "categories": [
      "Pharmacy"
    ],
    "fid": "0x885318d2dfbbd2c7:0xf613415390079939",
    "cid": "17731587985042282809",
    "reviewsCount": 37,
    "imagesCount": 13,
    "imageCategories": [],
    "scrapedAt": "2025-06-22T06:21:07.914Z",
    "googleFoodUrl": null,
    "hotelAds": [],
    "openingHours": [
      {
        "day": "Monday",
        "hours": "9 AM to 6 PM"
      },
      {
        "day": "Tuesday",
        "hours": "9 AM to 6 PM"
      },
      {
        "day": "Wednesday",
        "hours": "9 AM to 6 PM"
      },
      {
        "day": "Thursday",
        "hours": "9 AM to 6 PM"
      },
      {
        "day": "Friday",
        "hours": "9 AM to 6 PM"
      },
      {
        "day": "Saturday",
        "hours": "10 AM to 1 PM"
      },
      {
        "day": "Sunday",
        "hours": "Closed"
      }
    ],
    "peopleAlsoSearch": [],
    "placesTags": [],
    "reviewsTags": [],
    "additionalInfo": {
      "Service options": [
        {
          "Delivery": true
        },
        {
          "In-store pickup": true
        },
        {
          "Same-day delivery": true
        }
      ],
      "Accessibility": [
        {
          "Wheelchair accessible entrance": true
        },
        {
          "Wheelchair accessible parking lot": true
        }
      ],
      "Planning": [
        {
          "Quick visit": true
        }
      ],
      "Payments": [
        {
          "Credit cards": true
        },
        {
          "Debit cards": true
        },
        {
          "Credit cards": true
        }
      ]
    },
    "gasPrices": [],
    "url": "https://www.google.com/maps/search/?api=1&query=SUMMIT%20PHARMACY%20%26%20SURGICAL%20SUPPLY&query_place_id=ChIJx9K739IYU4gROZkHkFNBE_Y",
    "searchPageUrl": "https://www.google.com/maps/search/independent%20pharmacy%20Winston-Salem%20NC/@36.81849750000001,-76.98739394329682,8z?hl=en",
    "searchString": "independent pharmacy Winston-Salem NC",
    "language": "en",
    "rank": 9,
    "isAdvertisement": false,
    "imageUrl": "https://lh3.googleusercontent.com/gps-cs-s/AC9h4nobSYKXuC412uZUgbG49IY41Er_fQv-sj9TxELdsF1L-eO81bJ07ks9pRs2DpukeghXyBDvOVT0_4zTZ265mqAEeTzLjvQgDozFij7RStlPabt79fa_V-F-UQX0bQjK4EDei_VZiw=w408-h725-k-no",
    "kgmid": "/g/11fzb12v3p"
  },
  {
    "title": "North Village Pharmacy",
    "price": null,
    "categoryName": "Pharmacy",
    "address": "1493 Main St B, Yanceyville, NC 27379",
    "neighborhood": null,
    "street": "1493 Main St B",
    "city": "Yanceyville",
    "postalCode": "27379",
    "state": "North Carolina",
    "countryCode": "US",
    "website": "http://www.northvillagepharmacy.com/",
    "phone": "(336) 694-4104",
    "phoneUnformatted": "+13366944104",
    "claimThisBusiness": false,
    "location": {
      "lat": 36.4160539,
      "lng": -79.3538812
    },
    "totalScore": 4.8,
    "permanentlyClosed": false,
    "temporarilyClosed": false,
    "placeId": "ChIJEUSIpus0rYkRuuy_ujzrqb0",
    "categories": [
      "Pharmacy"
    ],
    "fid": "0x89ad34eba6884411:0xbda9eb3cbabfecba",
    "cid": "13666713190296186042",
    "reviewsCount": 60,
    "imagesCount": 3,
    "imageCategories": [],
    "scrapedAt": "2025-06-22T06:21:07.914Z",
    "googleFoodUrl": null,
    "hotelAds": [],
    "openingHours": [
      {
        "day": "Monday",
        "hours": "8 AM to 6 PM"
      },
      {
        "day": "Tuesday",
        "hours": "8 AM to 6 PM"
      },
      {
        "day": "Wednesday",
        "hours": "8 AM to 6 PM"
      },
      {
        "day": "Thursday",
        "hours": "8 AM to 6 PM"
      },
      {
        "day": "Friday",
        "hours": "8 AM to 6 PM"
      },
      {
        "day": "Saturday",
        "hours": "9 AM to 1 PM"
      },
      {
        "day": "Sunday",
        "hours": "Closed"
      }
    ],
    "peopleAlsoSearch": [],
    "placesTags": [],
    "reviewsTags": [],
    "additionalInfo": {
      "From the business": [
        {
          "Small business": true
        }
      ],
      "Service options": [
        {
          "Delivery": true
        },
        {
          "Drive-through": true
        },
        {
          "In-store pickup": true
        },
        {
          "Same-day delivery": true
        }
      ],
      "Accessibility": [
        {
          "Wheelchair accessible entrance": true
        },
        {
          "Wheelchair accessible parking lot": true
        }
      ],
      "Planning": [
        {
          "Quick visit": true
        }
      ],
      "Payments": [
        {
          "Credit cards": true
        },
        {
          "Debit cards": true
        },
        {
          "NFC mobile payments": true
        },
        {
          "Credit cards": true
        }
      ]
    },
    "gasPrices": [],
    "url": "https://www.google.com/maps/search/?api=1&query=North%20Village%20Pharmacy&query_place_id=ChIJEUSIpus0rYkRuuy_ujzrqb0",
    "searchPageUrl": "https://www.google.com/maps/search/independent%20pharmacy%20Winston-Salem%20NC/@36.81849750000001,-76.98739394329682,8z?hl=en",
    "searchString": "independent pharmacy Winston-Salem NC",
    "language": "en",
    "rank": 12,
    "isAdvertisement": false,
    "imageUrl": "https://lh3.googleusercontent.com/gps-cs-s/AC9h4npHnkUfV7v279EpSQRyRkYL54YHyupnc4cQNoXcJvRtkmm2T0ZdImm0XqxW9tRUWAwcYsHafeFkaDf4pEo_2w5u0lnL1Kvg25RQpvY5mtDa3SoXzLkWtJ0PatuBYBY0n6kCpys=w408-h284-k-no",
    "kgmid": "/g/1tvymnf2"
  },
  {
    "title": "Kernersville Pharmacy",
    "price": null,
    "categoryName": "Pharmacy",
    "address": "841 Old Winston Rd, Kernersville, NC 27284",
    "neighborhood": null,
    "street": "841 Old Winston Rd",
    "city": "Kernersville",
    "postalCode": "27284",
    "state": "North Carolina",
    "countryCode": "US",
    "website": "https://kernersvillepharmacy.com/",
    "phone": "(336) 497-4511",
    "phoneUnformatted": "+13364974511",
    "claimThisBusiness": false,
    "location": {
      "lat": 36.1122085,
      "lng": -80.0905251
    },
    "totalScore": 4.9,
    "permanentlyClosed": false,
    "temporarilyClosed": false,
    "placeId": "ChIJ3Sy_MlMHU4gRd-F7z2smxRc",
    "categories": [
      "Pharmacy"
    ],
    "fid": "0x8853075332bf2cdd:0x17c5266bcf7be177",
    "cid": "1712817477768700279",
    "reviewsCount": 108,
    "imagesCount": 4,
    "imageCategories": [],
    "scrapedAt": "2025-06-22T06:21:07.914Z",
    "googleFoodUrl": null,
    "hotelAds": [],
    "openingHours": [
      {
        "day": "Monday",
        "hours": "9 AM to 6 PM"
      },
      {
        "day": "Tuesday",
        "hours": "9 AM to 6 PM"
      },
      {
        "day": "Wednesday",
        "hours": "9 AM to 6 PM"
      },
      {
        "day": "Thursday",
        "hours": "9 AM to 6 PM"
      },
      {
        "day": "Friday",
        "hours": "9 AM to 6 PM"
      },
      {
        "day": "Saturday",
        "hours": "9 AM to 2 PM"
      },
      {
        "day": "Sunday",
        "hours": "Closed"
      }
    ],
    "peopleAlsoSearch": [],
    "placesTags": [],
    "reviewsTags": [],
    "additionalInfo": {
      "From the business": [
        {
          "Small business": true
        }
      ],
      "Service options": [
        {
          "Delivery": true
        },
        {
          "Drive-through": true
        },
        {
          "In-store pickup": true
        },
        {
          "Same-day delivery": true
        }
      ],
      "Accessibility": [
        {
          "Wheelchair accessible entrance": true
        },
        {
          "Wheelchair accessible parking lot": true
        }
      ],
      "Planning": [
        {
          "Quick visit": true
        }
      ],
      "Payments": [
        {
          "Credit cards": true
        },
        {
          "Debit cards": true
        },
        {
          "NFC mobile payments": true
        },
        {
          "Credit cards": true
        }
      ]
    },
    "gasPrices": [],
    "url": "https://www.google.com/maps/search/?api=1&query=Kernersville%20Pharmacy&query_place_id=ChIJ3Sy_MlMHU4gRd-F7z2smxRc",
    "searchPageUrl": "https://www.google.com/maps/search/independent%20pharmacy%20Winston-Salem%20NC/@36.81849750000001,-76.98739394329682,8z?hl=en",
    "searchString": "independent pharmacy Winston-Salem NC",
    "language": "en",
    "rank": 13,
    "isAdvertisement": false,
    "imageUrl": "https://lh3.googleusercontent.com/gps-cs-s/AC9h4no1NSmsumBm241nUaL2kejmEacaV-2DfhQT8oW1M12W63qQL3vD6TSW9Vv9pzb2djS4m0OLig6NbuK1c7zhDmptCkW8skkipw_FN71gXk_74t7Sqj_aW0YzTNp2U3wbvUfMcf6W=w408-h480-k-no",
    "kgmid": "/g/1tc_fz3s"
  },
  {
    "title": "Broad Street Pharmacy",
    "price": null,
    "categoryName": "Pharmacy",
    "address": "8055 Broad St, Rural Hall, NC 27045",
    "neighborhood": null,
    "street": "8055 Broad St",
    "city": "Rural Hall",
    "postalCode": "27045",
    "state": "North Carolina",
    "countryCode": "US",
    "website": "http://www.stokespharmacync.com/",
    "phone": "(336) 969-0444",
    "phoneUnformatted": "+13369690444",
    "claimThisBusiness": false,
    "location": {
      "lat": 36.24102,
      "lng": -80.292886
    },
    "totalScore": 4.7,
    "permanentlyClosed": false,
    "temporarilyClosed": false,
    "placeId": "ChIJRSE1UGlNUogRyEhx8D0BlAc",
    "categories": [
      "Pharmacy"
    ],
    "fid": "0x88524d6950352145:0x794013df07148c8",
    "cid": "546062820357261512",
    "reviewsCount": 33,
    "reviewsDistribution": {
      "oneStar": 1,
      "twoStar": 1,
      "threeStar": 1,
      "fourStar": 2,
      "fiveStar": 28
    },
    "imagesCount": 5,
    "imageCategories": [],
    "scrapedAt": "2025-06-22T06:21:08.786Z",
    "googleFoodUrl": null,
    "hotelAds": [],
    "openingHours": [
      {
        "day": "Monday",
        "hours": "8:30 AM to 6 PM"
      },
      {
        "day": "Tuesday",
        "hours": "8:30 AM to 6 PM"
      },
      {
        "day": "Wednesday",
        "hours": "8:30 AM to 6 PM"
      },
      {
        "day": "Thursday",
        "hours": "8:30 AM to 6 PM"
      },
      {
        "day": "Friday",
        "hours": "8:30 AM to 6 PM"
      },
      {
        "day": "Saturday",
        "hours": "8:30 AM to 1 PM"
      },
      {
        "day": "Sunday",
        "hours": "Closed"
      }
    ],
    "additionalOpeningHours": {
      "Delivery": [
        {
          "day": "Monday",
          "hours": "1–5 PM"
        },
        {
          "day": "Tuesday",
          "hours": "1–5 PM"
        },
        {
          "day": "Wednesday",
          "hours": "1–5 PM"
        },
        {
          "day": "Thursday",
          "hours": "1–5 PM"
        },
        {
          "day": "Friday",
          "hours": "1–5 PM"
        },
        {
          "day": "Saturday",
          "hours": "Closed"
        },
        {
          "day": "Sunday",
          "hours": "Closed"
        }
      ],
      "Drive through": [
        {
          "day": "Monday",
          "hours": "8:30 AM–6 PM"
        },
        {
          "day": "Tuesday",
          "hours": "8:30 AM–6 PM"
        },
        {
          "day": "Wednesday",
          "hours": "8:30 AM–6 PM"
        },
        {
          "day": "Thursday",
          "hours": "8:30 AM–6 PM"
        },
        {
          "day": "Friday",
          "hours": "8:30 AM–6 PM"
        },
        {
          "day": "Saturday",
          "hours": "8:30 AM–1 PM"
        },
        {
          "day": "Sunday",
          "hours": "Closed"
        }
      ]
    },
    "peopleAlsoSearch": [],
    "placesTags": [],
    "reviewsTags": [],
    "additionalInfo": {
      "From the business": [
        {
          "Small business": true
        }
      ],
      "Service options": [
        {
          "Delivery": true
        },
        {
          "Drive-through": true
        },
        {
          "In-store pickup": true
        },
        {
          "In-store shopping": true
        }
      ],
      "Accessibility": [
        {
          "Wheelchair accessible entrance": true
        },
        {
          "Wheelchair accessible parking lot": true
        }
      ],
      "Planning": [
        {
          "Quick visit": true
        }
      ],
      "Payments": [
        {
          "Checks": true
        },
        {
          "Credit cards": true
        },
        {
          "Debit cards": true
        },
        {
          "NFC mobile payments": true
        },
        {
          "Credit cards": true
        }
      ]
    },
    "gasPrices": [],
    "url": "https://www.google.com/maps/search/?api=1&query=Broad%20Street%20Pharmacy&query_place_id=ChIJRSE1UGlNUogRyEhx8D0BlAc",
    "searchPageUrl": "https://www.google.com/maps/search/independent%20pharmacy%20Winston-Salem%20NC/@36.81849750000001,-76.98739394329682,8z?hl=en",
    "searchString": "independent pharmacy Winston-Salem NC",
    "language": "en",
    "rank": 35,
    "isAdvertisement": false,
    "imageUrl": "https://lh3.googleusercontent.com/gps-cs-s/AC9h4npN3c6rfYhDXPCt_2kbMTb7Ds5vTCE_S-rooCTVWJcEE5eOJO_Y_yUlesVxtF7OC3Z79EK035K3QaXhP9al9wgGGSf3fyop5ylJ_imNiWw--Sk8NLLDoeOulsEDz1KJ_aCLU5X4jA=w408-h306-k-no",
    "kgmid": "/g/1vppt6l2"
  },
  {
    "title": "CVS Pharmacy",
    "price": null,
    "categoryName": "Pharmacy",
    "address": "5001 Country Club Rd, Winston-Salem, NC 27104",
    "neighborhood": null,
    "street": "5001 Country Club Rd",
    "city": "Winston-Salem",
    "postalCode": "27104",
    "state": "North Carolina",
    "countryCode": "US",
    "website": "https://www.cvs.com/store-locator/winston-salem-nc-pharmacies/5001-country-club-rd-winston-salem-nc-27104/storeid=7030?WT.mc_id=LS_GOOGLE_RX_7030",
    "phone": "(336) 659-0391",
    "phoneUnformatted": "+13366590391",
    "claimThisBusiness": false,
    "location": {
      "lat": 36.0849974,
      "lng": -80.3482017
    },
    "totalScore": 4.3,
    "permanentlyClosed": false,
    "temporarilyClosed": false,
    "placeId": "ChIJ37yqpt6wU4gRXKQqfgvQf4s",
    "categories": [
      "Pharmacy"
    ],
    "fid": "0x8853b0dea6aabcdf:0x8b7fd00b7e2aa45c",
    "cid": "10051981641094177884",
    "reviewsCount": 11,
    "reviewsDistribution": {
      "oneStar": 2,
      "twoStar": 0,
      "threeStar": 0,
      "fourStar": 0,
      "fiveStar": 9
    },
    "imagesCount": 8,
    "imageCategories": [],
    "scrapedAt": "2025-06-22T06:21:08.786Z",
    "googleFoodUrl": null,
    "hotelAds": [],
    "openingHours": [
      {
        "day": "Monday",
        "hours": "9 AM to 1:30 PM, 2 to 8 PM"
      },
      {
        "day": "Tuesday",
        "hours": "9 AM to 1:30 PM, 2 to 8 PM"
      },
      {
        "day": "Wednesday",
        "hours": "9 AM to 1:30 PM, 2 to 8 PM"
      },
      {
        "day": "Thursday",
        "hours": "9 AM to 1:30 PM, 2 to 8 PM"
      },
      {
        "day": "Friday",
        "hours": "9 AM to 1:30 PM, 2 to 8 PM"
      },
      {
        "day": "Saturday",
        "hours": "9 AM to 1:30 PM, 2 to 6 PM"
      },
      {
        "day": "Sunday",
        "hours": "10 AM to 1:30 PM, 2 to 6 PM"
      }
    ],
    "peopleAlsoSearch": [],
    "placesTags": [],
    "reviewsTags": [],
    "additionalInfo": {
      "Service options": [
        {
          "Delivery": true
        },
        {
          "Drive-through": true
        },
        {
          "In-store shopping": true
        },
        {
          "Onsite services": true
        }
      ],
      "Accessibility": [
        {
          "Wheelchair accessible entrance": true
        },
        {
          "Wheelchair accessible parking lot": true
        }
      ],
      "Offerings": [
        {
          "Naloxone": true
        },
        {
          "Passport photos": true
        }
      ],
      "Crowd": [
        {
          "LGBTQ+ friendly": true
        },
        {
          "Transgender safespace": true
        }
      ],
      "Planning": [
        {
          "Quick visit": true
        }
      ],
      "Payments": [
        {
          "Credit cards": true
        },
        {
          "Debit cards": true
        },
        {
          "NFC mobile payments": true
        },
        {
          "SNAP/EBT": true
        },
        {
          "Credit cards": true
        }
      ]
    },
    "gasPrices": [],
    "url": "https://www.google.com/maps/search/?api=1&query=CVS%20Pharmacy&query_place_id=ChIJ37yqpt6wU4gRXKQqfgvQf4s",
    "searchPageUrl": "https://www.google.com/maps/search/independent%20pharmacy%20Winston-Salem%20NC/@36.81849750000001,-76.98739394329682,8z?hl=en",
    "searchString": "independent pharmacy Winston-Salem NC",
    "language": "en",
    "rank": 36,
    "isAdvertisement": false,
    "imageUrl": "https://lh3.googleusercontent.com/p/AF1QipMJFuCHLvkGzx0tji8hPME8ptyEWay_2e_ZbGSt=w408-h272-k-no",
    "kgmid": "/g/11c467j077"
  }
]