[
  {
    "title": "Premier Pharmacy and Wellness Center",
    "price": null,
    "categoryName": "Pharmacy",
    "address": "3010 Monroe Rd STE 101, Charlotte, NC 28205",
    "neighborhood": "Echo Hills",
    "street": "3010 Monroe Rd STE 101",
    "city": "Charlotte",
    "postalCode": "28205",
    "state": "North Carolina",
    "countryCode": "US",
    "website": "http://www.yourwellnesskey.com/",
    "phone": "(704) 496-9182",
    "phoneUnformatted": "+17044969182",
    "claimThisBusiness": false,
    "location": {
      "lat": 35.2038969,
      "lng": -80.8046597
    },
    "totalScore": 4.8,
    "permanentlyClosed": false,
    "temporarilyClosed": false,
    "placeId": "ChIJ-cghSw8gVIgRs1J9fxwLMgw",
    "categories": [
      "Pharmacy"
    ],
    "fid": "0x8854200f4b21c8f9:0xc320b1c7f7d52b3",
    "cid": "878777094316577459",
    "reviewsCount": 59,
    "imagesCount": 6,
    "imageCategories": [],
    "scrapedAt": "2025-06-22T06:15:11.336Z",
    "googleFoodUrl": null,
    "hotelAds": [],
    "openingHours": [
      {
        "day": "Monday",
        "hours": "9 AM to 6 PM"
      },
      {
        "day": "Tuesday",
        "hours": "9 AM to 6 PM"
      },
      {
        "day": "Wednesday",
        "hours": "9 AM to 6 PM"
      },
      {
        "day": "Thursday",
        "hours": "9 AM to 6 PM"
      },
      {
        "day": "Friday",
        "hours": "9 AM to 6 PM"
      },
      {
        "day": "Saturday",
        "hours": "Closed"
      },
      {
        "day": "Sunday",
        "hours": "Closed"
      }
    ],
    "peopleAlsoSearch": [],
    "placesTags": [],
    "reviewsTags": [],
    "additionalInfo": {
      "From the business": [
        {
          "Small business": true
        }
      ],
      "Service options": [
        {
          "Delivery": true
        },
        {
          "In-store pickup": true
        }
      ],
      "Accessibility": [
        {
          "Wheelchair accessible entrance": true
        },
        {
          "Wheelchair accessible parking lot": true
        }
      ],
      "Offerings": [
        {
          "Medication disposal": true
        }
      ],
      "Planning": [
        {
          "Quick visit": true
        }
      ],
      "Payments": [
        {
          "Credit cards": true
        }
      ]
    },
    "gasPrices": [],
    "url": "https://www.google.com/maps/search/?api=1&query=Premier%20Pharmacy%20and%20Wellness%20Center&query_place_id=ChIJ-cghSw8gVIgRs1J9fxwLMgw",
    "searchPageUrl": "https://www.google.com/maps/search/independent%20pharmacy%20Charlotte%20NC/@19.84741553460614,-156.2513937052025,11z?hl=en",
    "searchString": "independent pharmacy Charlotte NC",
    "language": "en",
    "rank": 1,
    "isAdvertisement": false,
    "imageUrl": "https://lh3.googleusercontent.com/gps-cs-s/AC9h4no5Is7fFssoc_e44rVbuHBN4vYfqTa0yRWf8Wcdx50tr3k0y0K5iEwUwTuVHv5cLBR8UhmLrZ_YQgv-iDqcI4epKv_-K3nLuI7wQaYmin4PHX5BKxzX03bSz4QRtzvS47rvmN9jAA=w408-h725-k-no",
    "kgmid": "/g/11bwh5tks_"
  },
  {
    "title": "Oakhurst Pharmacy",
    "price": null,
    "categoryName": "Pharmacy",
    "address": "1630 Oakhurst Commons Dr Suite 206, Charlotte, NC 28205",
    "neighborhood": "Oakhurst",
    "street": "1630 Oakhurst Commons Dr Suite 206",
    "city": "Charlotte",
    "postalCode": "28205",
    "state": "North Carolina",
    "countryCode": "US",
    "website": "http://www.oakhurstrxnc.com/",
    "phone": "(980) 273-1810",
    "phoneUnformatted": "+19802731810",
    "claimThisBusiness": false,
    "location": {
      "lat": 35.1938423,
      "lng": -80.7821631
    },
    "totalScore": 4.9,
    "permanentlyClosed": false,
    "temporarilyClosed": false,
    "placeId": "ChIJLbDNzGIhVIgRi8PKwaxYziA",
    "categories": [
      "Pharmacy"
    ],
    "fid": "0x88542162cccdb02d:0x20ce58acc1cac38b",
    "cid": "2363924353424999307",
    "reviewsCount": 77,
    "imagesCount": 24,
    "imageCategories": [],
    "scrapedAt": "2025-06-22T06:15:11.337Z",
    "googleFoodUrl": null,
    "hotelAds": [],
    "openingHours": [
      {
        "day": "Monday",
        "hours": "9 AM to 6 PM"
      },
      {
        "day": "Tuesday",
        "hours": "9 AM to 6 PM"
      },
      {
        "day": "Wednesday",
        "hours": "9 AM to 6 PM"
      },
      {
        "day": "Thursday",
        "hours": "9 AM to 6 PM"
      },
      {
        "day": "Friday",
        "hours": "9 AM to 6 PM"
      },
      {
        "day": "Saturday",
        "hours": "9 AM to 12 PM"
      },
      {
        "day": "Sunday",
        "hours": "Closed"
      }
    ],
    "peopleAlsoSearch": [],
    "placesTags": [],
    "reviewsTags": [],
    "additionalInfo": {
      "From the business": [
        {
          "Small business": true
        }
      ],
      "Service options": [
        {
          "Delivery": true
        },
        {
          "In-store pickup": true
        },
        {
          "In-store shopping": true
        },
        {
          "Onsite services": true
        },
        {
          "Same-day delivery": true
        }
      ],
      "Accessibility": [
        {
          "Wheelchair accessible entrance": true
        },
        {
          "Wheelchair accessible parking lot": true
        }
      ],
      "Crowd": [
        {
          "LGBTQ+ friendly": true
        },
        {
          "Transgender safespace": true
        }
      ],
      "Planning": [
        {
          "Quick visit": true
        }
      ],
      "Payments": [
        {
          "Checks": true
        },
        {
          "Credit cards": true
        },
        {
          "Debit cards": true
        },
        {
          "NFC mobile payments": true
        },
        {
          "Credit cards": true
        }
      ]
    },
    "gasPrices": [],
    "url": "https://www.google.com/maps/search/?api=1&query=Oakhurst%20Pharmacy&query_place_id=ChIJLbDNzGIhVIgRi8PKwaxYziA",
    "searchPageUrl": "https://www.google.com/maps/search/independent%20pharmacy%20Charlotte%20NC/@19.84741553460614,-156.2513937052025,11z?hl=en",
    "searchString": "independent pharmacy Charlotte NC",
    "language": "en",
    "rank": 2,
    "isAdvertisement": false,
    "imageUrl": "https://lh3.googleusercontent.com/p/AF1QipM3rbH3pxhil05z9jrD1zjNm5GaHmVWo1DxuzMU=w408-h305-k-no",
    "kgmid": "/g/11fqzyhw_g"
  },
  {
    "title": "Queens Pharmacy",
    "price": null,
    "categoryName": "Pharmacy",
    "address": "1943 E 7th St, Charlotte, NC 28204",
    "neighborhood": "Elizabeth",
    "street": "1943 E 7th St",
    "city": "Charlotte",
    "postalCode": "28204",
    "state": "North Carolina",
    "countryCode": "US",
    "website": "http://www.queenspharmacy7.com/",
    "phone": "(980) 880-6400",
    "phoneUnformatted": "+19808806400",
    "claimThisBusiness": false,
    "location": {
      "lat": 35.2130556,
      "lng": -80.818296
    },
    "totalScore": 5,
    "permanentlyClosed": false,
    "temporarilyClosed": false,
    "placeId": "ChIJ5-Fqv5afVogRPSHxZ3F5qjE",
    "categories": [
      "Pharmacy",
      "ATM",
      "Crypto ATM",
      "Drug store",
      "Vitamin & supplements store"
    ],
    "fid": "0x88569f96bf6ae1e7:0x31aa797167f1213d",
    "cid": "3578806381881401661",
    "reviewsCount": 65,
    "imagesCount": 23,
    "imageCategories": [],
    "scrapedAt": "2025-06-22T06:15:11.337Z",
    "googleFoodUrl": null,
    "hotelAds": [],
    "openingHours": [
      {
        "day": "Monday",
        "hours": "9 AM to 7 PM"
      },
      {
        "day": "Tuesday",
        "hours": "9 AM to 7 PM"
      },
      {
        "day": "Wednesday",
        "hours": "9 AM to 7 PM"
      },
      {
        "day": "Thursday",
        "hours": "9 AM to 7 PM"
      },
      {
        "day": "Friday",
        "hours": "9 AM to 7 PM"
      },
      {
        "day": "Saturday",
        "hours": "10 AM to 2 PM"
      },
      {
        "day": "Sunday",
        "hours": "Closed"
      }
    ],
    "peopleAlsoSearch": [],
    "placesTags": [],
    "reviewsTags": [],
    "additionalInfo": {
      "From the business": [
        {
          "Small business": true
        }
      ],
      "Service options": [
        {
          "Curbside pickup": true
        },
        {
          "Delivery": true
        },
        {
          "In-store pickup": true
        },
        {
          "In-store shopping": true
        },
        {
          "Onsite services": true
        },
        {
          "Same-day delivery": true
        },
        {
          "Hindi": true
        }
      ],
      "Accessibility": [
        {
          "Wheelchair accessible entrance": true
        },
        {
          "Wheelchair accessible parking lot": true
        },
        {
          "Wheelchair accessible seating": true
        },
        {
          "Wheelchair accessible restroom": false
        }
      ],
      "Crowd": [
        {
          "LGBTQ+ friendly": true
        },
        {
          "Transgender safespace": true
        }
      ],
      "Planning": [
        {
          "Quick visit": true
        }
      ],
      "Payments": [
        {
          "Checks": true
        },
        {
          "Credit cards": true
        },
        {
          "Debit cards": true
        },
        {
          "NFC mobile payments": true
        },
        {
          "Credit cards": true
        }
      ]
    },
    "gasPrices": [],
    "url": "https://www.google.com/maps/search/?api=1&query=Queens%20Pharmacy&query_place_id=ChIJ5-Fqv5afVogRPSHxZ3F5qjE",
    "searchPageUrl": "https://www.google.com/maps/search/independent%20pharmacy%20Charlotte%20NC/@19.84741553460614,-156.2513937052025,11z?hl=en",
    "searchString": "independent pharmacy Charlotte NC",
    "language": "en",
    "rank": 3,
    "isAdvertisement": false,
    "imageUrl": "https://lh3.googleusercontent.com/p/AF1QipNAIdxS8C8sb9Nv2O6B00hjO-l8-zTwp2veKBlE=w408-h272-k-no",
    "kgmid": "/g/11q1sd4p6c"
  },
  {
    "title": "Charlotte Family Pharmacy",
    "price": null,
    "categoryName": "Pharmacy",
    "address": "7008 E W.T. Harris Blvd Suite 4, Charlotte, NC 28215",
    "neighborhood": "Farm Pond",
    "street": "7008 E W.T. Harris Blvd Suite 4",
    "city": "Charlotte",
    "postalCode": "28215",
    "state": "North Carolina",
    "countryCode": "US",
    "website": "http://www.charlottefamilypharmacy.com/",
    "phone": "(704) 885-5669",
    "phoneUnformatted": "+17048855669",
    "claimThisBusiness": false,
    "location": {
      "lat": 35.2235893,
      "lng": -80.7277197
    },
    "totalScore": 4.9,
    "permanentlyClosed": false,
    "temporarilyClosed": false,
    "placeId": "ChIJN8XTmk4fVIgRlDpU6UhDZ1U",
    "categories": [
      "Pharmacy"
    ],
    "fid": "0x88541f4e9ad3c537:0x55674348e9543a94",
    "cid": "6153961396256389780",
    "reviewsCount": 80,
    "imagesCount": 7,
    "imageCategories": [],
    "scrapedAt": "2025-06-22T06:15:11.338Z",
    "googleFoodUrl": null,
    "hotelAds": [],
    "openingHours": [
      {
        "day": "Monday",
        "hours": "9 AM to 6 PM"
      },
      {
        "day": "Tuesday",
        "hours": "9 AM to 6 PM"
      },
      {
        "day": "Wednesday",
        "hours": "9 AM to 6 PM"
      },
      {
        "day": "Thursday",
        "hours": "9 AM to 6 PM"
      },
      {
        "day": "Friday",
        "hours": "9 AM to 5 PM"
      },
      {
        "day": "Saturday",
        "hours": "9 AM to 12:45 PM"
      },
      {
        "day": "Sunday",
        "hours": "Closed"
      }
    ],
    "peopleAlsoSearch": [],
    "placesTags": [],
    "reviewsTags": [],
    "additionalInfo": {
      "From the business": [
        {
          "Small business": true
        }
      ],
      "Service options": [
        {
          "Delivery": true
        },
        {
          "In-store pickup": true
        }
      ],
      "Accessibility": [
        {
          "Wheelchair accessible entrance": true
        },
        {
          "Wheelchair accessible parking lot": true
        }
      ],
      "Planning": [
        {
          "Quick visit": true
        }
      ],
      "Payments": [
        {
          "Credit cards": true
        },
        {
          "Debit cards": true
        },
        {
          "NFC mobile payments": true
        },
        {
          "Credit cards": true
        }
      ]
    },
    "gasPrices": [],
    "url": "https://www.google.com/maps/search/?api=1&query=Charlotte%20Family%20Pharmacy&query_place_id=ChIJN8XTmk4fVIgRlDpU6UhDZ1U",
    "searchPageUrl": "https://www.google.com/maps/search/independent%20pharmacy%20Charlotte%20NC/@19.84741553460614,-156.2513937052025,11z?hl=en",
    "searchString": "independent pharmacy Charlotte NC",
    "language": "en",
    "rank": 4,
    "isAdvertisement": false,
    "imageUrl": "https://lh3.googleusercontent.com/p/AF1QipN2rz1AVBJsvF4t3T0HwPfbWnss9pyHhB53N6Q2=w426-h240-k-no",
    "kgmid": "/g/11g9qj37rw"
  },
  {
    "title": "Pike's Pharmacy",
    "price": null,
    "categoryName": "Pharmacy",
    "address": "2133 Shamrock Dr, Charlotte, NC 28205",
    "neighborhood": "Plaza-Shamrock",
    "street": "2133 Shamrock Dr",
    "city": "Charlotte",
    "postalCode": "28205",
    "state": "North Carolina",
    "countryCode": "US",
    "website": "http://www.pikespharmacy.com/",
    "phone": "(704) 563-2286",
    "phoneUnformatted": "+17045632286",
    "claimThisBusiness": false,
    "location": {
      "lat": 35.2350546,
      "lng": -80.7876161
    },
    "totalScore": 4.6,
    "permanentlyClosed": false,
    "temporarilyClosed": false,
    "placeId": "ChIJK0L1NZUfVIgRxzgRZ3CzXCY",
    "categories": [
      "Pharmacy"
    ],
    "fid": "0x88541f9535f5422b:0x265cb370671138c7",
    "cid": "2764281566645532871",
    "reviewsCount": 56,
    "imagesCount": 21,
    "imageCategories": [],
    "scrapedAt": "2025-06-22T06:15:11.338Z",
    "googleFoodUrl": null,
    "hotelAds": [],
    "openingHours": [
      {
        "day": "Monday",
        "hours": "10 AM to 6 PM"
      },
      {
        "day": "Tuesday",
        "hours": "10 AM to 6 PM"
      },
      {
        "day": "Wednesday",
        "hours": "10 AM to 6 PM"
      },
      {
        "day": "Thursday",
        "hours": "10 AM to 6 PM"
      },
      {
        "day": "Friday",
        "hours": "10 AM to 6 PM"
      },
      {
        "day": "Saturday",
        "hours": "10 AM to 2 PM"
      },
      {
        "day": "Sunday",
        "hours": "Closed"
      }
    ],
    "peopleAlsoSearch": [],
    "placesTags": [],
    "reviewsTags": [],
    "additionalInfo": {
      "From the business": [
        {
          "Identifies as women-owned": true
        },
        {
          "Small business": true
        }
      ],
      "Service options": [
        {
          "Delivery": true
        },
        {
          "In-store pickup": true
        },
        {
          "In-store shopping": true
        },
        {
          "Spanish": true
        }
      ],
      "Accessibility": [
        {
          "Wheelchair accessible entrance": true
        },
        {
          "Wheelchair accessible parking lot": true
        }
      ],
      "Crowd": [
        {
          "LGBTQ+ friendly": true
        },
        {
          "Transgender safespace": true
        }
      ],
      "Planning": [
        {
          "Quick visit": true
        }
      ],
      "Payments": [
        {
          "Checks": true
        },
        {
          "Credit cards": true
        },
        {
          "Debit cards": true
        },
        {
          "NFC mobile payments": true
        },
        {
          "Credit cards": true
        }
      ]
    },
    "gasPrices": [],
    "url": "https://www.google.com/maps/search/?api=1&query=Pike's%20Pharmacy&query_place_id=ChIJK0L1NZUfVIgRxzgRZ3CzXCY",
    "searchPageUrl": "https://www.google.com/maps/search/independent%20pharmacy%20Charlotte%20NC/@19.84741553460614,-156.2513937052025,11z?hl=en",
    "searchString": "independent pharmacy Charlotte NC",
    "language": "en",
    "rank": 5,
    "isAdvertisement": false,
    "imageUrl": "https://lh3.googleusercontent.com/gps-cs-s/AC9h4np9KHtnHjdJO4cpnudLiG31T90BGFqLjXGIncTIK0frxu_Ns9Z7P4jNZx2vcI6aFSSW8fP0PPX2KowHjiJu-wsHvf_AdC0QWF-JWH4HGAMO1YffxbyNLywHY_K5qhPL0a6M3jXov8UQSbs=w408-h544-k-no",
    "kgmid": "/g/1tgwbm58"
  },
  {
    "title": "Carolina Pharmacy - Arboretum",
    "price": null,
    "categoryName": "Pharmacy",
    "address": "8035 Providence Rd #300, Charlotte, NC 28277",
    "neighborhood": "Hembstead",
    "street": "8035 Providence Rd #300",
    "city": "Charlotte",
    "postalCode": "28277",
    "state": "North Carolina",
    "countryCode": "US",
    "website": "https://carolinapharmacy.com/",
    "phone": "(704) 909-4700",
    "phoneUnformatted": "+17049094700",
    "claimThisBusiness": false,
    "location": {
      "lat": 35.0986611,
      "lng": -80.7764285
    },
    "totalScore": 4.9,
    "permanentlyClosed": false,
    "temporarilyClosed": false,
    "placeId": "ChIJgQLVDhonVIgR5vFFRuhWkDg",
    "categories": [
      "Pharmacy",
      "Diagnostic center",
      "Drug store",
      "Medical spa"
    ],
    "fid": "0x8854271a0ed50281:0x389056e84645f1e6",
    "cid": "4075853218381689318",
    "reviewsCount": 207,
    "imagesCount": 36,
    "imageCategories": [],
    "scrapedAt": "2025-06-22T06:15:11.338Z",
    "googleFoodUrl": null,
    "hotelAds": [],
    "openingHours": [
      {
        "day": "Monday",
        "hours": "9 AM to 6 PM"
      },
      {
        "day": "Tuesday",
        "hours": "9 AM to 6 PM"
      },
      {
        "day": "Wednesday",
        "hours": "9 AM to 6 PM"
      },
      {
        "day": "Thursday",
        "hours": "9 AM to 6 PM"
      },
      {
        "day": "Friday",
        "hours": "9 AM to 6 PM"
      },
      {
        "day": "Saturday",
        "hours": "9 AM to 1 PM"
      },
      {
        "day": "Sunday",
        "hours": "Closed"
      }
    ],
    "peopleAlsoSearch": [],
    "placesTags": [],
    "reviewsTags": [],
    "additionalInfo": {
      "Service options": [
        {
          "Curbside pickup": true
        },
        {
          "Delivery": true
        },
        {
          "Drive-through": true
        },
        {
          "In-store pickup": true
        },
        {
          "In-store shopping": true
        },
        {
          "Onsite services": true
        },
        {
          "Same-day delivery": true
        }
      ],
      "Accessibility": [
        {
          "Wheelchair accessible entrance": true
        },
        {
          "Wheelchair accessible parking lot": true
        }
      ],
      "Planning": [
        {
          "Quick visit": true
        }
      ],
      "Payments": [
        {
          "Credit cards": true
        },
        {
          "Debit cards": true
        }
      ]
    },
    "gasPrices": [],
    "url": "https://www.google.com/maps/search/?api=1&query=Carolina%20Pharmacy%20-%20Arboretum&query_place_id=ChIJgQLVDhonVIgR5vFFRuhWkDg",
    "searchPageUrl": "https://www.google.com/maps/search/independent%20pharmacy%20Charlotte%20NC/@19.84741553460614,-156.2513937052025,11z?hl=en",
    "searchString": "independent pharmacy Charlotte NC",
    "language": "en",
    "rank": 6,
    "isAdvertisement": false,
    "imageUrl": "https://lh3.googleusercontent.com/p/AF1QipNNu7jYZv6_FPh9SjiwXBBhATtv2GipigrF26cc=w408-h268-k-no",
    "kgmid": "/g/11clyttfnz"
  },
  {
    "title": "Kaitlyn's Pharmacy",
    "price": null,
    "categoryName": "Pharmacy",
    "address": "9100-A S Tryon St, Charlotte, NC 28273",
    "neighborhood": "Griers Fork",
    "street": "9100-A S Tryon St",
    "city": "Charlotte",
    "postalCode": "28273",
    "state": "North Carolina",
    "countryCode": "US",
    "website": "https://www.kaitlynspharmacy.com/",
    "phone": "(704) 588-9623",
    "phoneUnformatted": "+17045889623",
    "claimThisBusiness": false,
    "location": {
      "lat": 35.1344447,
      "lng": -80.9405587
    },
    "totalScore": 4.3,
    "permanentlyClosed": false,
    "temporarilyClosed": false,
    "placeId": "ChIJM2HF9NSbVogRg7OFg4Vmhow",
    "categories": [
      "Pharmacy",
      "Drug store",
      "Herbal medicine store",
      "Medical supply store",
      "Stamp shop",
      "Vitamin & supplements store"
    ],
    "fid": "0x88569bd4f4c56133:0x8c8666858385b383",
    "cid": "10125893535812400003",
    "reviewsCount": 52,
    "imagesCount": 598,
    "imageCategories": [],
    "scrapedAt": "2025-06-22T06:15:11.338Z",
    "googleFoodUrl": null,
    "hotelAds": [],
    "openingHours": [
      {
        "day": "Monday",
        "hours": "9 AM to 6 PM"
      },
      {
        "day": "Tuesday",
        "hours": "9 AM to 6 PM"
      },
      {
        "day": "Wednesday",
        "hours": "9 AM to 6 PM"
      },
      {
        "day": "Thursday",
        "hours": "9 AM to 6 PM"
      },
      {
        "day": "Friday",
        "hours": "9 AM to 6 PM"
      },
      {
        "day": "Saturday",
        "hours": "9 AM to 4 PM"
      },
      {
        "day": "Sunday",
        "hours": "Closed"
      }
    ],
    "additionalOpeningHours": {
      "Delivery": [
        {
          "day": "Monday",
          "hours": "9 AM–12 PM"
        },
        {
          "day": "Tuesday",
          "hours": "9 AM–12 PM"
        },
        {
          "day": "Wednesday",
          "hours": "9 AM–12 PM"
        },
        {
          "day": "Thursday",
          "hours": "9 AM–12 PM"
        },
        {
          "day": "Friday",
          "hours": "9 AM–12 PM"
        },
        {
          "day": "Saturday",
          "hours": "9 AM–12 PM"
        },
        {
          "day": "Sunday",
          "hours": "Closed"
        }
      ],
      "Pickup": [
        {
          "day": "Monday",
          "hours": "9 AM–6 PM"
        },
        {
          "day": "Tuesday",
          "hours": "9 AM–6 PM"
        },
        {
          "day": "Wednesday",
          "hours": "9 AM–6 PM"
        },
        {
          "day": "Thursday",
          "hours": "9 AM–6 PM"
        },
        {
          "day": "Friday",
          "hours": "9 AM–6 PM"
        },
        {
          "day": "Saturday",
          "hours": "9 AM–4 PM"
        },
        {
          "day": "Sunday",
          "hours": "Closed"
        }
      ]
    },
    "peopleAlsoSearch": [],
    "placesTags": [],
    "reviewsTags": [],
    "additionalInfo": {
      "From the business": [
        {
          "Identifies as Asian-owned": true
        },
        {
          "Small business": true
        }
      ],
      "Service options": [
        {
          "Curbside pickup": true
        },
        {
          "Delivery": true
        },
        {
          "In-store pickup": true
        },
        {
          "In-store shopping": true
        },
        {
          "Onsite services": true
        },
        {
          "Same-day delivery": true
        },
        {
          "English": true
        }
      ],
      "Accessibility": [
        {
          "Wheelchair accessible entrance": true
        },
        {
          "Wheelchair accessible parking lot": true
        },
        {
          "Assistive hearing loop": false
        },
        {
          "Wheelchair accessible restroom": false
        },
        {
          "Wheelchair accessible seating": false
        }
      ],
      "Amenities": [
        {
          "Wi-Fi": true
        },
        {
          "Paid Wi-Fi": true
        }
      ],
      "Planning": [
        {
          "Appointment required": true
        },
        {
          "Quick visit": true
        },
        {
          "Accepts walk-ins": true
        }
      ],
      "Payments": [
        {
          "Credit cards": true
        },
        {
          "Debit cards": true
        },
        {
          "NFC mobile payments": true
        },
        {
          "Credit cards": true
        }
      ],
      "Parking": [
        {
          "Free parking lot": true
        },
        {
          "Free street parking": true
        },
        {
          "On-site parking": true
        }
      ]
    },
    "gasPrices": [],
    "url": "https://www.google.com/maps/search/?api=1&query=Kaitlyn's%20Pharmacy&query_place_id=ChIJM2HF9NSbVogRg7OFg4Vmhow",
    "searchPageUrl": "https://www.google.com/maps/search/independent%20pharmacy%20Charlotte%20NC/@19.84741553460614,-156.2513937052025,11z?hl=en",
    "searchString": "independent pharmacy Charlotte NC",
    "language": "en",
    "rank": 7,
    "isAdvertisement": false,
    "imageUrl": "https://lh3.googleusercontent.com/gps-cs-s/AC9h4nohxvzcxa0rmT7Wk8OznmNNFS6bj_0_DGBKIvon_gBSH1rpmhSzd0e5G1aTYNQyW5dvaMKAlRTzMj0ava0j56RPuPPXOiS619zELJuZJ4dHbsvcc71G-cXWCjs8w4nX5gOc_Caf=w408-h306-k-no",
    "kgmid": "/g/1tgfxbc_"
  },
  {
    "title": "Nalle Pharmacy Inc.",
    "price": null,
    "categoryName": "Pharmacy",
    "address": "1918 Randolph Rd ste 120, Charlotte, NC 28207",
    "neighborhood": "Elizabeth",
    "street": "1918 Randolph Rd ste 120",
    "city": "Charlotte",
    "postalCode": "28207",
    "state": "North Carolina",
    "countryCode": "US",
    "website": "https://www.nallepharmacync.com/",
    "phone": "(704) 342-8180",
    "phoneUnformatted": "+17043428180",
    "claimThisBusiness": false,
    "location": {
      "lat": 35.2095292,
      "lng": -80.8248897
    },
    "totalScore": 4.7,
    "permanentlyClosed": false,
    "temporarilyClosed": false,
    "placeId": "ChIJ13ufDvGfVogRxtEaDztNtV0",
    "categories": [
      "Pharmacy"
    ],
    "fid": "0x88569ff10e9f7bd7:0x5db54d3b0f1ad1c6",
    "cid": "6752388132363751878",
    "reviewsCount": 27,
    "imagesCount": 1,
    "imageCategories": [],
    "scrapedAt": "2025-06-22T06:15:11.338Z",
    "googleFoodUrl": null,
    "hotelAds": [],
    "openingHours": [
      {
        "day": "Monday",
        "hours": "9 AM to 5 PM"
      },
      {
        "day": "Tuesday",
        "hours": "9 AM to 5 PM"
      },
      {
        "day": "Wednesday",
        "hours": "9 AM to 5 PM"
      },
      {
        "day": "Thursday",
        "hours": "9 AM to 5 PM"
      },
      {
        "day": "Friday",
        "hours": "9 AM to 5 PM"
      },
      {
        "day": "Saturday",
        "hours": "Closed"
      },
      {
        "day": "Sunday",
        "hours": "Closed"
      }
    ],
    "peopleAlsoSearch": [],
    "placesTags": [],
    "reviewsTags": [],
    "additionalInfo": {
      "From the business": [
        {
          "Small business": true
        }
      ],
      "Service options": [
        {
          "Delivery": true
        },
        {
          "In-store pickup": true
        },
        {
          "Same-day delivery": true
        }
      ],
      "Accessibility": [
        {
          "Wheelchair accessible entrance": true
        },
        {
          "Wheelchair accessible parking lot": true
        }
      ],
      "Planning": [
        {
          "Quick visit": true
        }
      ],
      "Payments": [
        {
          "Credit cards": true
        },
        {
          "Debit cards": true
        },
        {
          "NFC mobile payments": true
        },
        {
          "Credit cards": true
        }
      ]
    },
    "gasPrices": [],
    "url": "https://www.google.com/maps/search/?api=1&query=Nalle%20Pharmacy%20Inc.&query_place_id=ChIJ13ufDvGfVogRxtEaDztNtV0",
    "searchPageUrl": "https://www.google.com/maps/search/independent%20pharmacy%20Charlotte%20NC/@19.84741553460614,-156.2513937052025,11z?hl=en",
    "searchString": "independent pharmacy Charlotte NC",
    "language": "en",
    "rank": 8,
    "isAdvertisement": false,
    "imageUrl": "https://lh3.googleusercontent.com/gps-cs-s/AC9h4npj9jSWtIfKUFKG2dhaPjEQYs-I4kJS_B5fGWOqZTp47gYPZfiydoFetgtlib2mRGGXWOp1S_266Ls0SPfD5oJIac1NK5ITbghMjYShob32crEs2s8oUbtjm2lr6Xur1HS_6YLHYA=w408-h514-k-no",
    "kgmid": "/g/1tf_j3d2"
  },
  {
    "title": "Carolina Compounding & Nutritional Pharmacy",
    "price": null,
    "categoryName": "Pharmacy",
    "address": "7825 Ballantyne Commons Pkwy #230, Charlotte, NC 28277",
    "neighborhood": "Provincetowne",
    "street": "7825 Ballantyne Commons Pkwy #230",
    "city": "Charlotte",
    "postalCode": "28277",
    "state": "North Carolina",
    "countryCode": "US",
    "website": "http://www.ccnprx.com/",
    "phone": "(704) 540-4330",
    "phoneUnformatted": "+17045404330",
    "claimThisBusiness": false,
    "location": {
      "lat": 35.0576458,
      "lng": -80.8118612
    },
    "totalScore": 4.9,
    "permanentlyClosed": false,
    "temporarilyClosed": false,
    "placeId": "ChIJGWuZ7cOCVogRnyZb9V5CzaY",
    "categories": [
      "Pharmacy"
    ],
    "fid": "0x885682c3ed996b19:0xa6cd425ef55b269f",
    "cid": "12019335956132472479",
    "reviewsCount": 370,
    "imagesCount": 3,
    "imageCategories": [],
    "scrapedAt": "2025-06-22T06:15:11.338Z",
    "googleFoodUrl": null,
    "hotelAds": [],
    "openingHours": [
      {
        "day": "Monday",
        "hours": "9 AM to 5 PM"
      },
      {
        "day": "Tuesday",
        "hours": "9 AM to 5 PM"
      },
      {
        "day": "Wednesday",
        "hours": "9 AM to 5 PM"
      },
      {
        "day": "Thursday",
        "hours": "9 AM to 5 PM"
      },
      {
        "day": "Friday",
        "hours": "9 AM to 5 PM"
      },
      {
        "day": "Saturday",
        "hours": "Closed"
      },
      {
        "day": "Sunday",
        "hours": "Closed"
      }
    ],
    "peopleAlsoSearch": [],
    "placesTags": [],
    "reviewsTags": [],
    "additionalInfo": {
      "From the business": [
        {
          "Small business": true
        }
      ],
      "Service options": [
        {
          "Delivery": true
        },
        {
          "In-store pickup": true
        }
      ],
      "Accessibility": [
        {
          "Wheelchair accessible entrance": true
        },
        {
          "Wheelchair accessible parking lot": true
        }
      ],
      "Payments": [
        {
          "Credit cards": true
        },
        {
          "Debit cards": true
        },
        {
          "Credit cards": true
        }
      ]
    },
    "gasPrices": [],
    "url": "https://www.google.com/maps/search/?api=1&query=Carolina%20Compounding%20%26%20Nutritional%20Pharmacy&query_place_id=ChIJGWuZ7cOCVogRnyZb9V5CzaY",
    "searchPageUrl": "https://www.google.com/maps/search/independent%20pharmacy%20Charlotte%20NC/@19.84741553460614,-156.2513937052025,11z?hl=en",
    "searchString": "independent pharmacy Charlotte NC",
    "language": "en",
    "rank": 9,
    "isAdvertisement": false,
    "imageUrl": "https://lh3.googleusercontent.com/gps-cs-s/AC9h4nrH3UUk2Ryn_R-AORQTuC6518cdqq_6h7kGKvCGcifodMyov3BF59kxxqnZmKNo0uMbc0VI56nD78-CnDBVRhB1gKCxR8OCxjNvL7Tw-BD0enieIl2F7E6qaBl5l4rAG_Ahqe8f7w=w408-h544-k-no",
    "kgmid": "/g/1tfcjgmh"
  },
  {
    "title": "South End Pharmacy",
    "price": null,
    "categoryName": "Pharmacy",
    "address": "1401 Albright Rd, Rock Hill, SC 29730",
    "neighborhood": null,
    "street": "1401 Albright Rd",
    "city": "Rock Hill",
    "postalCode": "29730",
    "state": "South Carolina",
    "countryCode": "US",
    "website": "http://www.southendpharmacy.com/",
    "phone": "(803) 366-3784",
    "phoneUnformatted": "+18033663784",
    "claimThisBusiness": false,
    "location": {
      "lat": 34.9006838,
      "lng": -81.0287892
    },
    "totalScore": 4.6,
    "permanentlyClosed": false,
    "temporarilyClosed": false,
    "placeId": "ChIJoTVcjjSIVogRMdA8IeZu7ws",
    "categories": [
      "Pharmacy"
    ],
    "fid": "0x885688348e5c35a1:0xbef6ee6213cd031",
    "cid": "860027988530221105",
    "reviewsCount": 47,
    "imagesCount": 17,
    "imageCategories": [],
    "scrapedAt": "2025-06-22T06:15:11.339Z",
    "googleFoodUrl": null,
    "hotelAds": [],
    "openingHours": [
      {
        "day": "Monday",
        "hours": "9 AM to 5 PM"
      },
      {
        "day": "Tuesday",
        "hours": "9 AM to 5 PM"
      },
      {
        "day": "Wednesday",
        "hours": "9 AM to 5 PM"
      },
      {
        "day": "Thursday",
        "hours": "9 AM to 5 PM"
      },
      {
        "day": "Friday",
        "hours": "9 AM to 5 PM"
      },
      {
        "day": "Saturday",
        "hours": "Closed"
      },
      {
        "day": "Sunday",
        "hours": "Closed"
      }
    ],
    "peopleAlsoSearch": [],
    "placesTags": [],
    "reviewsTags": [],
    "additionalInfo": {
      "From the business": [
        {
          "Small business": true
        }
      ],
      "Service options": [
        {
          "Curbside pickup": true
        },
        {
          "Delivery": true
        },
        {
          "Drive-through": true
        },
        {
          "In-store pickup": true
        },
        {
          "In-store shopping": true
        },
        {
          "Same-day delivery": true
        }
      ],
      "Accessibility": [
        {
          "Wheelchair accessible entrance": true
        },
        {
          "Wheelchair accessible parking lot": true
        }
      ],
      "Planning": [
        {
          "Quick visit": true
        }
      ],
      "Payments": [
        {
          "Credit cards": true
        },
        {
          "Debit cards": true
        },
        {
          "NFC mobile payments": true
        },
        {
          "Credit cards": true
        }
      ]
    },
    "gasPrices": [],
    "url": "https://www.google.com/maps/search/?api=1&query=South%20End%20Pharmacy&query_place_id=ChIJoTVcjjSIVogRMdA8IeZu7ws",
    "searchPageUrl": "https://www.google.com/maps/search/independent%20pharmacy%20Charlotte%20NC/@19.84741553460614,-156.2513937052025,11z?hl=en",
    "searchString": "independent pharmacy Charlotte NC",
    "language": "en",
    "rank": 10,
    "isAdvertisement": false,
    "imageUrl": "https://lh3.googleusercontent.com/p/AF1QipM7slyGwD0-HLBk_Wy83xvmuLaIlipVZlmVq9ig=w408-h272-k-no",
    "kgmid": "/g/12lkchqvs"
  },
  {
    "title": "Walker's Drug Store",
    "price": null,
    "categoryName": "Pharmacy",
    "address": "4390 Colwick Rd, Charlotte, NC 28211",
    "neighborhood": "Cotswold",
    "street": "4390 Colwick Rd",
    "city": "Charlotte",
    "postalCode": "28211",
    "state": "North Carolina",
    "countryCode": "US",
    "website": "https://carolinapharmacy.com/",
    "phone": "(704) 364-3444",
    "phoneUnformatted": "+17043643444",
    "claimThisBusiness": false,
    "location": {
      "lat": 35.177104,
      "lng": -80.798331
    },
    "totalScore": 4.9,
    "permanentlyClosed": false,
    "temporarilyClosed": false,
    "placeId": "ChIJffN_V2MgVIgRWEi1aw-hW2E",
    "categories": [
      "Pharmacy",
      "Diagnostic center",
      "Drug store",
      "Medical spa",
      "Vitamin & supplements store"
    ],
    "fid": "0x88542063577ff37d:0x615ba10f6bb54858",
    "cid": "7015377932163303512",
    "reviewsCount": 220,
    "imagesCount": 28,
    "imageCategories": [],
    "scrapedAt": "2025-06-22T06:15:11.339Z",
    "googleFoodUrl": null,
    "hotelAds": [],
    "openingHours": [
      {
        "day": "Monday",
        "hours": "9 AM to 6 PM"
      },
      {
        "day": "Tuesday",
        "hours": "9 AM to 6 PM"
      },
      {
        "day": "Wednesday",
        "hours": "9 AM to 6 PM"
      },
      {
        "day": "Thursday",
        "hours": "9 AM to 6 PM"
      },
      {
        "day": "Friday",
        "hours": "9 AM to 6 PM"
      },
      {
        "day": "Saturday",
        "hours": "9 AM to 1 PM"
      },
      {
        "day": "Sunday",
        "hours": "Closed"
      }
    ],
    "peopleAlsoSearch": [],
    "placesTags": [],
    "reviewsTags": [],
    "additionalInfo": {
      "Service options": [
        {
          "Curbside pickup": true
        },
        {
          "Delivery": true
        },
        {
          "In-store pickup": true
        },
        {
          "In-store shopping": true
        },
        {
          "Onsite services": true
        }
      ],
      "Accessibility": [
        {
          "Wheelchair accessible entrance": true
        },
        {
          "Wheelchair accessible parking lot": true
        }
      ],
      "Planning": [
        {
          "Appointment required": true
        },
        {
          "Quick visit": true
        }
      ],
      "Payments": [
        {
          "Credit cards": true
        },
        {
          "Debit cards": true
        },
        {
          "NFC mobile payments": true
        },
        {
          "Credit cards": true
        }
      ]
    },
    "gasPrices": [],
    "url": "https://www.google.com/maps/search/?api=1&query=Walker's%20Drug%20Store&query_place_id=ChIJffN_V2MgVIgRWEi1aw-hW2E",
    "searchPageUrl": "https://www.google.com/maps/search/independent%20pharmacy%20Charlotte%20NC/@19.84741553460614,-156.2513937052025,11z?hl=en",
    "searchString": "independent pharmacy Charlotte NC",
    "language": "en",
    "rank": 11,
    "isAdvertisement": false,
    "imageUrl": "https://lh3.googleusercontent.com/p/AF1QipPG3h9ohkS2dZ132sz7COYkX1I_rE5llVUjclUi=w408-h272-k-no",
    "kgmid": "/g/1tm0chxr"
  },
  {
    "title": "Randolph Medical Pharmacy",
    "price": null,
    "categoryName": "Pharmacy",
    "address": "3541 Randolph Rd, Charlotte, NC 28211",
    "neighborhood": "Wendover - Sedgewood",
    "street": "3541 Randolph Rd",
    "city": "Charlotte",
    "postalCode": "28211",
    "state": "North Carolina",
    "countryCode": "US",
    "website": "http://www.rmprx.com/",
    "phone": "(704) 365-0707",
    "phoneUnformatted": "+17043650707",
    "claimThisBusiness": false,
    "location": {
      "lat": 35.1891036,
      "lng": -80.809597
    },
    "totalScore": 4.8,
    "permanentlyClosed": false,
    "temporarilyClosed": false,
    "placeId": "ChIJ498I_nUgVIgRw7Kc2m4UjyQ",
    "categories": [
      "Pharmacy"
    ],
    "fid": "0x88542075fe08dfe3:0x248f146eda9cb2c3",
    "cid": "2634346773381690051",
    "reviewsCount": 75,
    "imagesCount": 3,
    "imageCategories": [],
    "scrapedAt": "2025-06-22T06:15:11.339Z",
    "googleFoodUrl": null,
    "hotelAds": [],
    "openingHours": [
      {
        "day": "Monday",
        "hours": "9 AM to 6 PM"
      },
      {
        "day": "Tuesday",
        "hours": "9 AM to 6 PM"
      },
      {
        "day": "Wednesday",
        "hours": "9 AM to 6 PM"
      },
      {
        "day": "Thursday",
        "hours": "9 AM to 6 PM"
      },
      {
        "day": "Friday",
        "hours": "9 AM to 5 PM"
      },
      {
        "day": "Saturday",
        "hours": "Closed"
      },
      {
        "day": "Sunday",
        "hours": "Closed"
      }
    ],
    "peopleAlsoSearch": [],
    "placesTags": [],
    "reviewsTags": [],
    "additionalInfo": {
      "From the business": [
        {
          "Small business": true
        }
      ],
      "Service options": [
        {
          "Delivery": true
        },
        {
          "In-store pickup": true
        }
      ],
      "Accessibility": [
        {
          "Wheelchair accessible entrance": true
        },
        {
          "Wheelchair accessible parking lot": true
        }
      ],
      "Payments": [
        {
          "Credit cards": true
        },
        {
          "Debit cards": true
        },
        {
          "NFC mobile payments": true
        },
        {
          "Credit cards": true
        }
      ]
    },
    "gasPrices": [],
    "url": "https://www.google.com/maps/search/?api=1&query=Randolph%20Medical%20Pharmacy&query_place_id=ChIJ498I_nUgVIgRw7Kc2m4UjyQ",
    "searchPageUrl": "https://www.google.com/maps/search/independent%20pharmacy%20Charlotte%20NC/@19.84741553460614,-156.2513937052025,11z?hl=en",
    "searchString": "independent pharmacy Charlotte NC",
    "language": "en",
    "rank": 12,
    "isAdvertisement": false,
    "imageUrl": "https://lh3.googleusercontent.com/p/AF1QipO4EwklbiOyCc6JpcdhOyEFiZLYo2TytLb1n3po=w408-h250-k-no",
    "kgmid": "/g/12hl94p38"
  },
  {
    "title": "Le's Pharmacy",
    "price": null,
    "categoryName": "Pharmacy",
    "address": "1600 Purser Dr, Charlotte, NC 28215",
    "neighborhood": "Shannon Park",
    "street": "1600 Purser Dr",
    "city": "Charlotte",
    "postalCode": "28215",
    "state": "North Carolina",
    "countryCode": "US",
    "phone": "(980) 207-3267",
    "phoneUnformatted": "+19802073267",
    "claimThisBusiness": false,
    "location": {
      "lat": 35.2424724,
      "lng": -80.7795123
    },
    "totalScore": 4.3,
    "permanentlyClosed": false,
    "temporarilyClosed": false,
    "placeId": "ChIJJVJoVScgVIgRWZ91Q7Qn4A4",
    "categories": [
      "Pharmacy"
    ],
    "fid": "0x8854202755685225:0xee027b443759f59",
    "cid": "1071900366493556569",
    "reviewsCount": 6,
    "imagesCount": 4,
    "imageCategories": [],
    "scrapedAt": "2025-06-22T06:15:11.339Z",
    "googleFoodUrl": null,
    "hotelAds": [],
    "openingHours": [
      {
        "day": "Monday",
        "hours": "9 AM to 6 PM"
      },
      {
        "day": "Tuesday",
        "hours": "9 AM to 6 PM"
      },
      {
        "day": "Wednesday",
        "hours": "9 AM to 6 PM"
      },
      {
        "day": "Thursday",
        "hours": "9 AM to 6 PM"
      },
      {
        "day": "Friday",
        "hours": "9 AM to 6 PM"
      },
      {
        "day": "Saturday",
        "hours": "9 AM to 2 PM"
      },
      {
        "day": "Sunday",
        "hours": "Closed"
      }
    ],
    "peopleAlsoSearch": [],
    "placesTags": [],
    "reviewsTags": [],
    "additionalInfo": {
      "From the business": [
        {
          "Small business": true
        }
      ],
      "Accessibility": [
        {
          "Wheelchair accessible entrance": true
        },
        {
          "Wheelchair accessible parking lot": true
        }
      ],
      "Planning": [
        {
          "Appointment required": true
        },
        {
          "Quick visit": true
        }
      ],
      "Payments": [
        {
          "Debit cards": true
        },
        {
          "Credit cards": true
        }
      ]
    },
    "gasPrices": [],
    "url": "https://www.google.com/maps/search/?api=1&query=Le's%20Pharmacy&query_place_id=ChIJJVJoVScgVIgRWZ91Q7Qn4A4",
    "searchPageUrl": "https://www.google.com/maps/search/independent%20pharmacy%20Charlotte%20NC/@19.84741553460614,-156.2513937052025,11z?hl=en",
    "searchString": "independent pharmacy Charlotte NC",
    "language": "en",
    "rank": 13,
    "isAdvertisement": false,
    "imageUrl": "https://lh3.googleusercontent.com/gps-cs-s/AC9h4noYDMkOD7Z47P1ssqorOhDRyFrE4LJZ6QRYejLYf25jdq-KKEmSmxhNaOcB7cQI8oA8slLUio4jhAdMQJyW2j2Tjbs_gRAYRFEUHFBpLRvd4XnS6wyH5fDlGtNNb9UC0QJrvXJS=w408-h544-k-no",
    "kgmid": "/g/1vgw9b36"
  },
  {
    "title": "David's Pharmacy",
    "price": null,
    "categoryName": "Pharmacy",
    "address": "1816 E Arbors Dr, Charlotte, NC 28262",
    "neighborhood": "Mallard Creek - Withrow Downs",
    "street": "1816 E Arbors Dr",
    "city": "Charlotte",
    "postalCode": "28262",
    "state": "North Carolina",
    "countryCode": "US",
    "website": "http://www.davidpharmacy.com/",
    "phone": "(980) 296-3784",
    "phoneUnformatted": "+19802963784",
    "claimThisBusiness": false,
    "location": {
      "lat": 35.336633,
      "lng": -80.7543493
    },
    "totalScore": 4.6,
    "permanentlyClosed": false,
    "temporarilyClosed": false,
    "placeId": "ChIJ5f11A3gdVIgRP8SZ6h20Ct0",
    "categories": [
      "Pharmacy",
      "Laboratory"
    ],
    "fid": "0x88541d780375fde5:0xdd0ab41dea99c43f",
    "cid": "15927741072732177471",
    "reviewsCount": 110,
    "imagesCount": 25,
    "imageCategories": [],
    "scrapedAt": "2025-06-22T06:15:11.339Z",
    "googleFoodUrl": null,
    "hotelAds": [],
    "openingHours": [
      {
        "day": "Monday",
        "hours": "10 AM to 6 PM"
      },
      {
        "day": "Tuesday",
        "hours": "10 AM to 6 PM"
      },
      {
        "day": "Wednesday",
        "hours": "10 AM to 6 PM"
      },
      {
        "day": "Thursday",
        "hours": "10 AM to 6 PM"
      },
      {
        "day": "Friday",
        "hours": "10 AM to 6 PM"
      },
      {
        "day": "Saturday",
        "hours": "10 AM to 1 PM"
      },
      {
        "day": "Sunday",
        "hours": "Closed"
      }
    ],
    "peopleAlsoSearch": [],
    "placesTags": [],
    "reviewsTags": [],
    "additionalInfo": {
      "From the business": [
        {
          "Small business": true
        }
      ],
      "Service options": [
        {
          "Delivery": true
        },
        {
          "In-store shopping": true
        },
        {
          "Onsite services": true
        },
        {
          "Same-day delivery": true
        }
      ],
      "Accessibility": [
        {
          "Wheelchair accessible entrance": true
        },
        {
          "Wheelchair accessible parking lot": true
        }
      ],
      "Payments": [
        {
          "Credit cards": true
        },
        {
          "Debit cards": true
        },
        {
          "NFC mobile payments": true
        },
        {
          "Credit cards": true
        }
      ]
    },
    "gasPrices": [],
    "url": "https://www.google.com/maps/search/?api=1&query=David's%20Pharmacy&query_place_id=ChIJ5f11A3gdVIgRP8SZ6h20Ct0",
    "searchPageUrl": "https://www.google.com/maps/search/independent%20pharmacy%20Charlotte%20NC/@19.84741553460614,-156.2513937052025,11z?hl=en",
    "searchString": "independent pharmacy Charlotte NC",
    "language": "en",
    "rank": 14,
    "isAdvertisement": false,
    "imageUrl": "https://lh3.googleusercontent.com/gps-cs-s/AC9h4nr-f-KJZp-2b1VweANKx7Kj_CVDK1rccB0rTU629h2IDweSiRrDMiptYk9mNNqBcTzJy4K90ebQABcdIkmNIKHGUjucMeDbFAdbC5gjpGHYcEoVZHJ72hXWBJyLD_83xlsSbkcmOQ=w408-h306-k-no",
    "kgmid": "/g/11j3z90rcf"
  },
  {
    "title": "Cannon Pharmacy (South Park)",
    "price": null,
    "categoryName": "Pharmacy",
    "address": "4501 Cameron Valley Pkwy #125, Charlotte, NC 28211",
    "neighborhood": "Foxcroft",
    "street": "4501 Cameron Valley Pkwy #125",
    "city": "Charlotte",
    "postalCode": "28211",
    "state": "North Carolina",
    "countryCode": "US",
    "website": "https://cannonpharmacysouthpark.com/",
    "phone": "(704) 367-7440",
    "phoneUnformatted": "+17043677440",
    "claimThisBusiness": false,
    "location": {
      "lat": 35.148193,
      "lng": -80.82419
    },
    "totalScore": 4.5,
    "permanentlyClosed": false,
    "temporarilyClosed": false,
    "placeId": "ChIJ53Bo4RaeVogR-dB-bGBIUd0",
    "categories": [
      "Pharmacy"
    ],
    "fid": "0x88569e16e16870e7:0xdd5148606c7ed0f9",
    "cid": "15947607334469947641",
    "reviewsCount": 28,
    "imagesCount": 137,
    "imageCategories": [],
    "scrapedAt": "2025-06-22T06:15:11.339Z",
    "googleFoodUrl": null,
    "hotelAds": [],
    "openingHours": [
      {
        "day": "Monday",
        "hours": "8:30 AM to 5:30 PM"
      },
      {
        "day": "Tuesday",
        "hours": "8:30 AM to 5:30 PM"
      },
      {
        "day": "Wednesday",
        "hours": "8:30 AM to 5:30 PM"
      },
      {
        "day": "Thursday",
        "hours": "8:30 AM to 5:30 PM"
      },
      {
        "day": "Friday",
        "hours": "8:30 AM to 5:30 PM"
      },
      {
        "day": "Saturday",
        "hours": "9 AM to 1 PM"
      },
      {
        "day": "Sunday",
        "hours": "Closed"
      }
    ],
    "peopleAlsoSearch": [],
    "placesTags": [],
    "reviewsTags": [],
    "additionalInfo": {
      "Service options": [
        {
          "Delivery": true
        },
        {
          "In-store pickup": true
        },
        {
          "In-store shopping": true
        },
        {
          "Onsite services": true
        }
      ],
      "Accessibility": [
        {
          "Wheelchair accessible entrance": true
        },
        {
          "Wheelchair accessible parking lot": true
        }
      ],
      "Payments": [
        {
          "Checks": true
        },
        {
          "Credit cards": true
        },
        {
          "Debit cards": true
        },
        {
          "NFC mobile payments": true
        },
        {
          "Credit cards": true
        }
      ]
    },
    "gasPrices": [],
    "url": "https://www.google.com/maps/search/?api=1&query=Cannon%20Pharmacy%20(South%20Park)&query_place_id=ChIJ53Bo4RaeVogR-dB-bGBIUd0",
    "searchPageUrl": "https://www.google.com/maps/search/independent%20pharmacy%20Charlotte%20NC/@19.84741553460614,-156.2513937052025,11z?hl=en",
    "searchString": "independent pharmacy Charlotte NC",
    "language": "en",
    "rank": 15,
    "isAdvertisement": false,
    "imageUrl": "https://lh3.googleusercontent.com/p/AF1QipNWHiXkM7MfqY9DNxI0GUF_KGEdvK2DUAz5m7dt=w408-h408-k-no",
    "kgmid": "/g/1263t69mc"
  },
  {
    "title": "Avant Pharmacy and Wellness Center",
    "price": null,
    "categoryName": "Pharmacy",
    "address": "9835 Monroe Rd Ste B, Charlotte, NC 28270",
    "neighborhood": "East Forest",
    "street": "9835 Monroe Rd Ste B",
    "city": "Charlotte",
    "postalCode": "28270",
    "state": "North Carolina",
    "countryCode": "US",
    "website": "http://www.avantpharmacy.com/",
    "phone": "(704) 537-0909",
    "phoneUnformatted": "+17045370909",
    "claimThisBusiness": false,
    "location": {
      "lat": 35.1379531,
      "lng": -80.737936
    },
    "totalScore": 4.9,
    "permanentlyClosed": false,
    "temporarilyClosed": false,
    "placeId": "ChIJ90_MkXMhVIgR-OGlN-wRczM",
    "categories": [
      "Pharmacy",
      "Wellness center"
    ],
    "fid": "0x8854217391cc4ff7:0x337311ec37a5e1f8",
    "cid": "3707326624499622392",
    "reviewsCount": 191,
    "imagesCount": 17,
    "imageCategories": [],
    "scrapedAt": "2025-06-22T06:15:11.339Z",
    "googleFoodUrl": null,
    "hotelAds": [],
    "openingHours": [
      {
        "day": "Monday",
        "hours": "9 AM to 6 PM"
      },
      {
        "day": "Tuesday",
        "hours": "9 AM to 6 PM"
      },
      {
        "day": "Wednesday",
        "hours": "9 AM to 6 PM"
      },
      {
        "day": "Thursday",
        "hours": "9 AM to 6 PM"
      },
      {
        "day": "Friday",
        "hours": "9 AM to 6 PM"
      },
      {
        "day": "Saturday",
        "hours": "Closed"
      },
      {
        "day": "Sunday",
        "hours": "Closed"
      }
    ],
    "peopleAlsoSearch": [],
    "placesTags": [],
    "reviewsTags": [],
    "additionalInfo": {
      "From the business": [
        {
          "Identifies as women-owned": true
        },
        {
          "Small business": true
        }
      ],
      "Service options": [
        {
          "Delivery": true
        },
        {
          "Drive-through": true
        },
        {
          "In-store pickup": true
        },
        {
          "In-store shopping": true
        },
        {
          "Onsite services": true
        },
        {
          "Same-day delivery": true
        },
        {
          "Arabic": true
        }
      ],
      "Accessibility": [
        {
          "Wheelchair accessible entrance": true
        },
        {
          "Wheelchair accessible parking lot": true
        },
        {
          "Wheelchair accessible restroom": true
        },
        {
          "Wheelchair accessible seating": true
        }
      ],
      "Crowd": [
        {
          "LGBTQ+ friendly": true
        },
        {
          "Transgender safespace": true
        }
      ],
      "Planning": [
        {
          "Quick visit": true
        }
      ],
      "Payments": [
        {
          "Credit cards": true
        },
        {
          "Debit cards": true
        },
        {
          "NFC mobile payments": true
        },
        {
          "Credit cards": true
        }
      ]
    },
    "gasPrices": [],
    "url": "https://www.google.com/maps/search/?api=1&query=Avant%20Pharmacy%20and%20Wellness%20Center&query_place_id=ChIJ90_MkXMhVIgR-OGlN-wRczM",
    "searchPageUrl": "https://www.google.com/maps/search/independent%20pharmacy%20Charlotte%20NC/@19.84741553460614,-156.2513937052025,11z?hl=en",
    "searchString": "independent pharmacy Charlotte NC",
    "language": "en",
    "rank": 16,
    "isAdvertisement": false,
    "imageUrl": "https://lh3.googleusercontent.com/p/AF1QipMo9ucEmICoyLvXndJVHVWDS2i6z4aelXuLJtU9=w408-h305-k-no",
    "kgmid": "/g/1vnrlqqx"
  },
  {
    "title": "Rx Care Pharmacy",
    "price": null,
    "categoryName": "Pharmacy",
    "address": "6018 The Plaza, Charlotte, NC 28215",
    "neighborhood": "Shannon Park",
    "street": "6018 The Plaza",
    "city": "Charlotte",
    "postalCode": "28215",
    "state": "North Carolina",
    "countryCode": "US",
    "phone": "(704) 531-5232",
    "phoneUnformatted": "+17045315232",
    "claimThisBusiness": false,
    "location": {
      "lat": 35.2481176,
      "lng": -80.7537239
    },
    "totalScore": 4.2,
    "permanentlyClosed": false,
    "temporarilyClosed": false,
    "placeId": "ChIJq6pOOxsfVIgR-xgV0HpjABQ",
    "categories": [
      "Pharmacy"
    ],
    "fid": "0x88541f1b3b4eaaab:0x1400637ad01518fb",
    "cid": "1441261259886762235",
    "reviewsCount": 11,
    "imagesCount": 2,
    "imageCategories": [],
    "scrapedAt": "2025-06-22T06:15:11.339Z",
    "googleFoodUrl": null,
    "hotelAds": [],
    "openingHours": [],
    "peopleAlsoSearch": [],
    "placesTags": [],
    "reviewsTags": [],
    "additionalInfo": {
      "Service options": [
        {
          "Delivery": true
        },
        {
          "Same-day delivery": true
        }
      ],
      "Accessibility": [
        {
          "Wheelchair accessible entrance": true
        },
        {
          "Wheelchair accessible parking lot": true
        }
      ],
      "Payments": [
        {
          "Credit cards": true
        }
      ]
    },
    "gasPrices": [],
    "url": "https://www.google.com/maps/search/?api=1&query=Rx%20Care%20Pharmacy&query_place_id=ChIJq6pOOxsfVIgR-xgV0HpjABQ",
    "searchPageUrl": "https://www.google.com/maps/search/independent%20pharmacy%20Charlotte%20NC/@19.84741553460614,-156.2513937052025,11z?hl=en",
    "searchString": "independent pharmacy Charlotte NC",
    "language": "en",
    "rank": 17,
    "isAdvertisement": false,
    "imageUrl": "https://lh3.googleusercontent.com/p/AF1QipPJ8peh27KvGrttS-ljhSUCbQUgYFCdrlH03N2y=w427-h240-k-no",
    "kgmid": "/g/11t5_lxsfn"
  },
  {
    "title": "Apotheco Pharmacy Charlotte",
    "price": null,
    "categoryName": "Pharmacy",
    "address": "230 E W.T. Harris Blvd B5, Charlotte, NC 28262",
    "neighborhood": "University City South",
    "street": "230 E W.T. Harris Blvd B5",
    "city": "Charlotte",
    "postalCode": "28262",
    "state": "North Carolina",
    "countryCode": "US",
    "website": "https://www.apothecopharmacy.com/location/apotheco-pharmacy-charlotte/",
    "phone": "(704) 703-1441",
    "phoneUnformatted": "+17047031441",
    "claimThisBusiness": false,
    "location": {
      "lat": 35.3039325,
      "lng": -80.7495164
    },
    "totalScore": 4.8,
    "permanentlyClosed": false,
    "temporarilyClosed": false,
    "placeId": "ChIJM2iSZ38fVIgRZVWBjkpmtUQ",
    "categories": [
      "Pharmacy",
      "Dermatologist"
    ],
    "fid": "0x88541f7f67926833:0x44b5664a8e815565",
    "cid": "4950975835768182117",
    "reviewsCount": 658,
    "imagesCount": 7,
    "imageCategories": [],
    "scrapedAt": "2025-06-22T06:15:11.339Z",
    "googleFoodUrl": null,
    "hotelAds": [],
    "openingHours": [
      {
        "day": "Monday",
        "hours": "9 AM to 6 PM"
      },
      {
        "day": "Tuesday",
        "hours": "9 AM to 6 PM"
      },
      {
        "day": "Wednesday",
        "hours": "9 AM to 6 PM"
      },
      {
        "day": "Thursday",
        "hours": "9 AM to 6 PM"
      },
      {
        "day": "Friday",
        "hours": "9 AM to 6 PM"
      },
      {
        "day": "Saturday",
        "hours": "Closed"
      },
      {
        "day": "Sunday",
        "hours": "Closed"
      }
    ],
    "peopleAlsoSearch": [],
    "placesTags": [],
    "reviewsTags": [],
    "additionalInfo": {
      "Service options": [
        {
          "Delivery": true
        },
        {
          "In-store pickup": true
        },
        {
          "In-store shopping": true
        },
        {
          "Onsite services": true
        }
      ],
      "Accessibility": [
        {
          "Wheelchair accessible entrance": true
        },
        {
          "Wheelchair accessible parking lot": true
        }
      ],
      "Payments": [
        {
          "Credit cards": true
        },
        {
          "Debit cards": true
        },
        {
          "NFC mobile payments": true
        },
        {
          "Credit cards": true
        }
      ]
    },
    "gasPrices": [],
    "url": "https://www.google.com/maps/search/?api=1&query=Apotheco%20Pharmacy%20Charlotte&query_place_id=ChIJM2iSZ38fVIgRZVWBjkpmtUQ",
    "searchPageUrl": "https://www.google.com/maps/search/independent%20pharmacy%20Charlotte%20NC/@19.84741553460614,-156.2513937052025,11z?hl=en",
    "searchString": "independent pharmacy Charlotte NC",
    "language": "en",
    "rank": 18,
    "isAdvertisement": false,
    "imageUrl": "https://lh3.googleusercontent.com/p/AF1QipNYRkaNJcS95RO91ZiqZexvGS1lEQpdGpLRb_EY=w408-h544-k-no",
    "kgmid": "/g/11qg9d5k8j"
  },
  {
    "title": "Synchrony Pharmacy - Charlotte",
    "price": null,
    "categoryName": "Pharmacy",
    "address": "9009 Perimeter Woods Dr, Charlotte, NC 28216",
    "neighborhood": "Wedgewood",
    "street": "9009 Perimeter Woods Dr",
    "city": "Charlotte",
    "postalCode": "28216",
    "state": "North Carolina",
    "countryCode": "US",
    "website": "https://www.synchronyhs.com/pharmacy/?utm_source=google&utm_medium=organic&utm_campaign=gbpcharlotte",
    "phone": "(866) 579-3181",
    "phoneUnformatted": "+18665793181",
    "claimThisBusiness": false,
    "location": {
      "lat": 35.343063,
      "lng": -80.8511703
    },
    "totalScore": 3,
    "permanentlyClosed": false,
    "temporarilyClosed": false,
    "placeId": "ChIJd6FpJUunVogRDvyNW7uV8fY",
    "categories": [
      "Pharmacy"
    ],
    "fid": "0x8856a74b2569a177:0xf6f195bb5b8dfc0e",
    "cid": "17794168234644995086",
    "reviewsCount": 7,
    "imagesCount": 1,
    "imageCategories": [],
    "scrapedAt": "2025-06-22T06:15:11.339Z",
    "googleFoodUrl": null,
    "hotelAds": [],
    "openingHours": [],
    "peopleAlsoSearch": [],
    "placesTags": [],
    "reviewsTags": [],
    "additionalInfo": {
      "Service options": [
        {
          "Delivery": true
        }
      ],
      "Accessibility": [
        {
          "Wheelchair accessible entrance": true
        },
        {
          "Wheelchair accessible parking lot": true
        }
      ],
      "Payments": [
        {
          "Credit cards": true
        }
      ]
    },
    "gasPrices": [],
    "url": "https://www.google.com/maps/search/?api=1&query=Synchrony%20Pharmacy%20-%20Charlotte&query_place_id=ChIJd6FpJUunVogRDvyNW7uV8fY",
    "searchPageUrl": "https://www.google.com/maps/search/independent%20pharmacy%20Charlotte%20NC/@19.84741553460614,-156.2513937052025,11z?hl=en",
    "searchString": "independent pharmacy Charlotte NC",
    "language": "en",
    "rank": 19,
    "isAdvertisement": false,
    "imageUrl": "https://streetviewpixels-pa.googleapis.com/v1/thumbnail?panoid=S-NxhpJGDGdR7e3gX7jXVg&cb_client=search.gws-prod.gps&w=408&h=240&yaw=227.8959&pitch=0&thumbfov=100",
    "kgmid": "/g/11l32jjqt1"
  },
  {
    "title": "CareFirst Specialty Pharmacy",
    "price": null,
    "categoryName": "Pharmacy",
    "address": "11100 S Tryon St, Charlotte, NC 28273",
    "neighborhood": "Brown Road",
    "street": "11100 S Tryon St",
    "city": "Charlotte",
    "postalCode": "28273",
    "state": "North Carolina",
    "countryCode": "US",
    "website": "http://www.carefirstspecialtyrx.com/",
    "phone": "(704) 504-8646",
    "phoneUnformatted": "+17045048646",
    "claimThisBusiness": false,
    "location": {
      "lat": 35.117229,
      "lng": -80.9610471
    },
    "totalScore": 4.5,
    "permanentlyClosed": false,
    "temporarilyClosed": false,
    "placeId": "ChIJVVVVVSWaVogRmVG1qIVwWUY",
    "categories": [
      "Pharmacy"
    ],
    "fid": "0x88569a2555555555:0x46597085a8b55199",
    "cid": "5069206574945620377",
    "reviewsCount": 19,
    "imagesCount": 9,
    "imageCategories": [],
    "scrapedAt": "2025-06-22T06:15:11.339Z",
    "googleFoodUrl": null,
    "hotelAds": [],
    "openingHours": [
      {
        "day": "Monday",
        "hours": "9 AM to 6 PM"
      },
      {
        "day": "Tuesday",
        "hours": "9 AM to 6 PM"
      },
      {
        "day": "Wednesday",
        "hours": "9 AM to 6 PM"
      },
      {
        "day": "Thursday",
        "hours": "9 AM to 6 PM"
      },
      {
        "day": "Friday",
        "hours": "9 AM to 6 PM"
      },
      {
        "day": "Saturday",
        "hours": "10 AM to 2 PM"
      },
      {
        "day": "Sunday",
        "hours": "Closed"
      }
    ],
    "additionalOpeningHours": {
      "Drive through": [
        {
          "day": "Monday",
          "hours": "9 AM–6 PM"
        },
        {
          "day": "Tuesday",
          "hours": "9 AM–6 PM"
        },
        {
          "day": "Wednesday",
          "hours": "9 AM–6 PM"
        },
        {
          "day": "Thursday",
          "hours": "9 AM–6 PM"
        },
        {
          "day": "Friday",
          "hours": "9 AM–6 PM"
        },
        {
          "day": "Saturday",
          "hours": "10 AM–2 PM"
        },
        {
          "day": "Sunday",
          "hours": "Closed"
        }
      ]
    },
    "peopleAlsoSearch": [],
    "placesTags": [],
    "reviewsTags": [],
    "additionalInfo": {
      "From the business": [
        {
          "Identifies as Asian-owned": true
        },
        {
          "Small business": true
        }
      ],
      "Service options": [
        {
          "Delivery": true
        },
        {
          "Drive-through": true
        },
        {
          "In-store pickup": true
        },
        {
          "In-store shopping": true
        },
        {
          "Same-day delivery": true
        }
      ],
      "Accessibility": [
        {
          "Wheelchair accessible entrance": true
        },
        {
          "Wheelchair accessible parking lot": true
        },
        {
          "Wheelchair accessible seating": true
        },
        {
          "Wheelchair accessible restroom": false
        }
      ],
      "Crowd": [
        {
          "LGBTQ+ friendly": true
        },
        {
          "Transgender safespace": true
        }
      ],
      "Payments": [
        {
          "Credit cards": true
        },
        {
          "Debit cards": true
        },
        {
          "NFC mobile payments": true
        },
        {
          "Credit cards": true
        }
      ]
    },
    "gasPrices": [],
    "url": "https://www.google.com/maps/search/?api=1&query=CareFirst%20Specialty%20Pharmacy&query_place_id=ChIJVVVVVSWaVogRmVG1qIVwWUY",
    "searchPageUrl": "https://www.google.com/maps/search/independent%20pharmacy%20Charlotte%20NC/@19.84741553460614,-156.2513937052025,11z?hl=en",
    "searchString": "independent pharmacy Charlotte NC",
    "language": "en",
    "rank": 20,
    "isAdvertisement": false,
    "imageUrl": "https://lh3.googleusercontent.com/p/AF1QipNNjGgxSWVfpfeJ-YYUqDCXmKC0frfHVfvShLco=w427-h240-k-no",
    "kgmid": "/g/1tdy0lmg"
  }
]