[
  {
    "title": "City Drug Fort Collins",
    "price": null,
    "categoryName": "Pharmacy",
    "address": "209 N College Ave, Fort Collins, CO 80524",
    "neighborhood": null,
    "street": "209 N College Ave",
    "city": "Fort Collins",
    "postalCode": "80524",
    "state": "Colorado",
    "countryCode": "US",
    "website": "http://www.citydrugfortcollins.com/",
    "phone": "(970) 482-1234",
    "phoneUnformatted": "+19704821234",
    "claimThisBusiness": false,
    "location": {
      "lat": 40.5893752,
      "lng": -105.0773138
    },
    "totalScore": 4,
    "permanentlyClosed": false,
    "temporarilyClosed": false,
    "placeId": "ChIJ9wrqM_VKaYcRarELCpYUfHk",
    "categories": [
      "Pharmacy",
      "Chocolate shop",
      "Gift shop",
      "Medical supply store"
    ],
    "fid": "0x87694af533ea0af7:0x797c14960a0bb16a",
    "cid": "8753894410347589994",
    "reviewsCount": 100,
    "imagesCount": 43,
    "imageCategories": [],
    "scrapedAt": "2025-06-22T04:19:14.106Z",
    "googleFoodUrl": null,
    "hotelAds": [],
    "openingHours": [
      {
        "day": "Monday",
        "hours": "9 AM to 6 PM"
      },
      {
        "day": "Tuesday",
        "hours": "9 AM to 6 PM"
      },
      {
        "day": "Wednesday",
        "hours": "9 AM to 6 PM"
      },
      {
        "day": "Thursday",
        "hours": "9 AM to 6 PM"
      },
      {
        "day": "Friday",
        "hours": "9 AM to 6 PM"
      },
      {
        "day": "Saturday",
        "hours": "10 AM to 5 PM"
      },
      {
        "day": "Sunday",
        "hours": "12 to 3 PM"
      }
    ],
    "peopleAlsoSearch": [],
    "placesTags": [],
    "reviewsTags": [],
    "additionalInfo": {
      "From the business": [
        {
          "Small business": true
        }
      ],
      "Service options": [
        {
          "Delivery": true
        },
        {
          "In-store pickup": true
        },
        {
          "Onsite services": true
        }
      ],
      "Accessibility": [
        {
          "Wheelchair accessible entrance": true
        },
        {
          "Wheelchair accessible parking lot": true
        }
      ],
      "Planning": [
        {
          "Quick visit": true
        }
      ],
      "Payments": [
        {
          "Credit cards": true
        },
        {
          "Debit cards": true
        },
        {
          "NFC mobile payments": true
        },
        {
          "Credit cards": true
        }
      ]
    },
    "gasPrices": [],
    "url": "https://www.google.com/maps/search/?api=1&query=City%20Drug%20Fort%20Collins&query_place_id=ChIJ9wrqM_VKaYcRarELCpYUfHk",
    "searchPageUrl": "https://www.google.com/maps/search/independent%20pharmacy%20Fort%20Collins%20CO/@57.40072944694004,-151.95971198567602,9z?hl=en",
    "searchString": "independent pharmacy Fort Collins CO",
    "language": "en",
    "rank": 1,
    "isAdvertisement": false,
    "imageUrl": "https://lh3.googleusercontent.com/gps-cs-s/AC9h4npcYOKIYdc2ye0LVND9dRec7xOv0r4KnsvEvbhI5cyjsVrk4YsVnj8l_bN_DEK9AWrC0JrqJItcWDyNenlx0v41NXfSk7UGShxTspITNzAAiQ-cWUHQ3T-tqfOH5hllPy0RgWXk=w408-h276-k-no",
    "kgmid": "/g/1vl9rzrh"
  },
  {
    "title": "Good Day Pharmacy",
    "price": null,
    "categoryName": "Pharmacy",
    "address": "2001 S Shields St D101, Fort Collins, CO 80526",
    "neighborhood": "Prospect/Shields",
    "street": "2001 S Shields St D101",
    "city": "Fort Collins",
    "postalCode": "80526",
    "state": "Colorado",
    "countryCode": "US",
    "website": "http://www.gooddaypharmacy.com/",
    "phone": "(970) 224-1212",
    "phoneUnformatted": "+19702241212",
    "claimThisBusiness": false,
    "location": {
      "lat": 40.561304,
      "lng": -105.096445
    },
    "totalScore": 3.9,
    "permanentlyClosed": false,
    "temporarilyClosed": false,
    "placeId": "ChIJUT-CILpLaYcR_GZRoe09j5o",
    "categories": [
      "Pharmacy",
      "Medical supply store"
    ],
    "fid": "0x87694bba20823f51:0x9a8f3deda15166fc",
    "cid": "11137188494333535996",
    "reviewsCount": 69,
    "imagesCount": 21,
    "imageCategories": [],
    "scrapedAt": "2025-06-22T04:19:14.108Z",
    "googleFoodUrl": null,
    "hotelAds": [],
    "openingHours": [
      {
        "day": "Monday",
        "hours": "9 AM to 5:30 PM"
      },
      {
        "day": "Tuesday",
        "hours": "9 AM to 5:30 PM"
      },
      {
        "day": "Wednesday",
        "hours": "9 AM to 5:30 PM"
      },
      {
        "day": "Thursday",
        "hours": "9 AM to 5:30 PM"
      },
      {
        "day": "Friday",
        "hours": "9 AM to 5:30 PM"
      },
      {
        "day": "Saturday",
        "hours": "Closed"
      },
      {
        "day": "Sunday",
        "hours": "Closed"
      }
    ],
    "peopleAlsoSearch": [],
    "placesTags": [],
    "reviewsTags": [],
    "additionalInfo": {
      "Service options": [
        {
          "Delivery": true
        },
        {
          "In-store pickup": true
        },
        {
          "Same-day delivery": true
        }
      ],
      "Accessibility": [
        {
          "Wheelchair accessible entrance": true
        },
        {
          "Wheelchair accessible parking lot": true
        }
      ],
      "Planning": [
        {
          "Quick visit": true
        }
      ],
      "Payments": [
        {
          "Debit cards": true
        },
        {
          "NFC mobile payments": true
        }
      ]
    },
    "gasPrices": [],
    "url": "https://www.google.com/maps/search/?api=1&query=Good%20Day%20Pharmacy&query_place_id=ChIJUT-CILpLaYcR_GZRoe09j5o",
    "searchPageUrl": "https://www.google.com/maps/search/independent%20pharmacy%20Fort%20Collins%20CO/@57.40072944694004,-151.95971198567602,9z?hl=en",
    "searchString": "independent pharmacy Fort Collins CO",
    "language": "en",
    "rank": 2,
    "isAdvertisement": false,
    "imageUrl": "https://lh3.googleusercontent.com/gps-cs-s/AC9h4npvclvyFSrSnWTkn5UNQuyhA8HSUynLQM8WdgAPg4aDtvso1dWwtG7sbr0WwBJlBRuke7e4oLS1PEKwHPS7mPIHEE1c7dIsIybNARztPgvoFHk7EFKJBONdSbZPVrm1biwEFkVN=w408-h306-k-no",
    "kgmid": "/g/1tf7bl48"
  },
  {
    "title": "Centre Pharmacy Inc",
    "price": null,
    "categoryName": "Pharmacy",
    "address": "915 Centre Ave #4, Fort Collins, CO 80526",
    "neighborhood": null,
    "street": "915 Centre Ave #4",
    "city": "Fort Collins",
    "postalCode": "80526",
    "state": "Colorado",
    "countryCode": "US",
    "website": "https://www.columbinehealth.com/centrepharmacy",
    "phone": "(970) 221-0190",
    "phoneUnformatted": "+19702210190",
    "claimThisBusiness": true,
    "location": {
      "lat": 40.5551657,
      "lng": -105.0940783
    },
    "totalScore": 4.2,
    "permanentlyClosed": false,
    "temporarilyClosed": false,
    "placeId": "ChIJieCOf7BLaYcRGX5PqI3skW0",
    "categories": [
      "Pharmacy"
    ],
    "fid": "0x87694bb07f8ee089:0x6d91ec8da84f7e19",
    "cid": "7895351714915515929",
    "reviewsCount": 5,
    "imagesCount": 1,
    "imageCategories": [],
    "scrapedAt": "2025-06-22T04:19:14.108Z",
    "googleFoodUrl": null,
    "hotelAds": [],
    "openingHours": [
      {
        "day": "Monday",
        "hours": "9 AM to 5 PM"
      },
      {
        "day": "Tuesday",
        "hours": "9 AM to 5 PM"
      },
      {
        "day": "Wednesday",
        "hours": "9 AM to 5 PM"
      },
      {
        "day": "Thursday",
        "hours": "9 AM to 5 PM"
      },
      {
        "day": "Friday",
        "hours": "9 AM to 5 PM"
      },
      {
        "day": "Saturday",
        "hours": "Closed"
      },
      {
        "day": "Sunday",
        "hours": "Closed"
      }
    ],
    "peopleAlsoSearch": [],
    "placesTags": [],
    "reviewsTags": [],
    "additionalInfo": {
      "Service options": [
        {
          "Delivery": true
        },
        {
          "In-store pickup": true
        }
      ],
      "Accessibility": [
        {
          "Wheelchair accessible entrance": true
        },
        {
          "Wheelchair accessible parking lot": true
        }
      ],
      "Planning": [
        {
          "Quick visit": true
        }
      ],
      "Payments": [
        {
          "Credit cards": true
        },
        {
          "Debit cards": true
        },
        {
          "NFC mobile payments": true
        },
        {
          "Credit cards": true
        }
      ]
    },
    "gasPrices": [],
    "url": "https://www.google.com/maps/search/?api=1&query=Centre%20Pharmacy%20Inc&query_place_id=ChIJieCOf7BLaYcRGX5PqI3skW0",
    "searchPageUrl": "https://www.google.com/maps/search/independent%20pharmacy%20Fort%20Collins%20CO/@57.40072944694004,-151.95971198567602,9z?hl=en",
    "searchString": "independent pharmacy Fort Collins CO",
    "language": "en",
    "rank": 3,
    "isAdvertisement": false,
    "imageUrl": "https://streetviewpixels-pa.googleapis.com/v1/thumbnail?panoid=VfZmZknMDjwbwA7oOf8GOQ&cb_client=search.gws-prod.gps&w=408&h=240&yaw=312.0706&pitch=0&thumbfov=100",
    "kgmid": "/g/1vn_zfrc"
  },
  {
    "title": "Good Day Pharmacy",
    "price": null,
    "categoryName": "Pharmacy",
    "address": "2601 S Lemay Ave Unit 42, Fort Collins, CO 80525",
    "neighborhood": "Scotch Pines",
    "street": "2601 S Lemay Ave Unit 42",
    "city": "Fort Collins",
    "postalCode": "80525",
    "state": "Colorado",
    "countryCode": "US",
    "website": "http://www.gooddaypharmacy.com/",
    "phone": "(970) 225-1234",
    "phoneUnformatted": "+19702251234",
    "claimThisBusiness": false,
    "location": {
      "lat": 40.550727,
      "lng": -105.059178
    },
    "totalScore": 3.6,
    "permanentlyClosed": false,
    "temporarilyClosed": false,
    "placeId": "ChIJh7kp8hRLaYcROMTBYz6lDyw",
    "categories": [
      "Pharmacy"
    ],
    "fid": "0x87694b14f229b987:0x2c0fa53e63c1c438",
    "cid": "3174937949699687480",
    "reviewsCount": 70,
    "imagesCount": 2,
    "imageCategories": [],
    "scrapedAt": "2025-06-22T04:19:14.108Z",
    "googleFoodUrl": null,
    "hotelAds": [],
    "openingHours": [
      {
        "day": "Monday",
        "hours": "9 AM to 6 PM"
      },
      {
        "day": "Tuesday",
        "hours": "9 AM to 6 PM"
      },
      {
        "day": "Wednesday",
        "hours": "9 AM to 6 PM"
      },
      {
        "day": "Thursday",
        "hours": "9 AM to 6 PM"
      },
      {
        "day": "Friday",
        "hours": "9 AM to 6 PM"
      },
      {
        "day": "Saturday",
        "hours": "9 AM to 1 PM"
      },
      {
        "day": "Sunday",
        "hours": "Closed"
      }
    ],
    "peopleAlsoSearch": [],
    "placesTags": [],
    "reviewsTags": [],
    "additionalInfo": {
      "Service options": [
        {
          "Delivery": true
        },
        {
          "In-store pickup": true
        },
        {
          "Same-day delivery": true
        }
      ],
      "Accessibility": [
        {
          "Wheelchair accessible parking lot": true
        }
      ],
      "Payments": [
        {
          "Debit cards": true
        },
        {
          "NFC mobile payments": true
        },
        {
          "Credit cards": true
        }
      ]
    },
    "gasPrices": [],
    "url": "https://www.google.com/maps/search/?api=1&query=Good%20Day%20Pharmacy&query_place_id=ChIJh7kp8hRLaYcROMTBYz6lDyw",
    "searchPageUrl": "https://www.google.com/maps/search/independent%20pharmacy%20Fort%20Collins%20CO/@57.40072944694004,-151.95971198567602,9z?hl=en",
    "searchString": "independent pharmacy Fort Collins CO",
    "language": "en",
    "rank": 4,
    "isAdvertisement": false,
    "imageUrl": "https://lh3.googleusercontent.com/p/AF1QipP08QRyQjTSWN37QbiQ0wx0xb6A25oOW3Bg4SvQ=w491-h240-k-no",
    "kgmid": "/g/1txy2v25"
  },
  {
    "title": "UCHealth Pharmacy - Harmony Campus",
    "price": null,
    "categoryName": "Pharmacy",
    "address": "4630 Snow Mesa Dr, Fort Collins, CO 80528",
    "neighborhood": null,
    "street": "4630 Snow Mesa Dr",
    "city": "Fort Collins",
    "postalCode": "80528",
    "state": "Colorado",
    "countryCode": "US",
    "website": "https://www.uchealth.org/locations/uchealth-pharmacy-harmony-campus/",
    "phone": "(970) 237-8140",
    "phoneUnformatted": "+19702378140",
    "claimThisBusiness": false,
    "location": {
      "lat": 40.5225754,
      "lng": -105.0307378
    },
    "totalScore": 4.4,
    "permanentlyClosed": false,
    "temporarilyClosed": false,
    "placeId": "ChIJ64g-ak2zbocRNTqE1iOGBhs",
    "categories": [
      "Pharmacy"
    ],
    "fid": "0x876eb34d6a3e88eb:0x1b068623d6843a35",
    "cid": "1947391377365285429",
    "reviewsCount": 68,
    "imagesCount": 1,
    "imageCategories": [],
    "scrapedAt": "2025-06-22T04:20:17.257Z",
    "googleFoodUrl": null,
    "hotelAds": [],
    "openingHours": [
      {
        "day": "Monday",
        "hours": "Open 24 hours"
      },
      {
        "day": "Tuesday",
        "hours": "Open 24 hours"
      },
      {
        "day": "Wednesday",
        "hours": "Open 24 hours"
      },
      {
        "day": "Thursday",
        "hours": "Open 24 hours"
      },
      {
        "day": "Friday",
        "hours": "Open 24 hours"
      },
      {
        "day": "Saturday",
        "hours": "Open 24 hours"
      },
      {
        "day": "Sunday",
        "hours": "Open 24 hours"
      }
    ],
    "peopleAlsoSearch": [],
    "placesTags": [],
    "reviewsTags": [],
    "additionalInfo": {
      "Service options": [
        {
          "Delivery": true
        },
        {
          "In-store pickup": true
        },
        {
          "In-store shopping": true
        }
      ],
      "Accessibility": [
        {
          "Wheelchair accessible entrance": true
        },
        {
          "Wheelchair accessible parking lot": true
        }
      ],
      "Amenities": [
        {
          "Wi-Fi": true
        },
        {
          "Free Wi-Fi": true
        }
      ],
      "Crowd": [
        {
          "LGBTQ+ friendly": true
        },
        {
          "Transgender safespace": true
        }
      ],
      "Payments": [
        {
          "Credit cards": true
        },
        {
          "Debit cards": true
        }
      ]
    },
    "gasPrices": [],
    "url": "https://www.google.com/maps/search/?api=1&query=UCHealth%20Pharmacy%20-%20Harmony%20Campus&query_place_id=ChIJ64g-ak2zbocRNTqE1iOGBhs",
    "searchPageUrl": "https://www.google.com/maps/search/independent%20pharmacy%20Fort%20Collins%20CO/@24.505556248210443,-82.60002624785565,12z?hl=en",
    "searchString": "independent pharmacy Fort Collins CO",
    "language": "en",
    "rank": 4,
    "isAdvertisement": false,
    "imageUrl": "https://streetviewpixels-pa.googleapis.com/v1/thumbnail?panoid=TUX4pWO4H54WktOkOp5Azw&cb_client=search.gws-prod.gps&w=408&h=240&yaw=14.252226&pitch=0&thumbfov=100",
    "kgmid": "/g/11dymnk2jz"
  },
  {
    "title": "Genoa Healthcare",
    "price": null,
    "categoryName": "Pharmacy",
    "address": "700 Centre Ave P, Fort Collins, CO 80526",
    "neighborhood": null,
    "street": "700 Centre Ave P",
    "city": "Fort Collins",
    "postalCode": "80526",
    "state": "Colorado",
    "countryCode": "US",
    "website": "https://www.genoahealthcare.com/",
    "phone": "(970) 372-4680",
    "phoneUnformatted": "+19703724680",
    "claimThisBusiness": false,
    "location": {
      "lat": 40.5567454,
      "lng": -105.0896832
    },
    "totalScore": 4,
    "permanentlyClosed": false,
    "temporarilyClosed": false,
    "placeId": "ChIJOX37l7pLaYcRLC8hNRi1Jdg",
    "categories": [
      "Pharmacy"
    ],
    "fid": "0x87694bba97fb7d39:0xd825b51835212f2c",
    "cid": "15575054001905938220",
    "reviewsCount": 12,
    "imagesCount": 1,
    "imageCategories": [],
    "scrapedAt": "2025-06-22T04:20:17.257Z",
    "googleFoodUrl": null,
    "hotelAds": [],
    "openingHours": [
      {
        "day": "Monday",
        "hours": "8:30 AM to 5 PM"
      },
      {
        "day": "Tuesday",
        "hours": "8:30 AM to 5 PM"
      },
      {
        "day": "Wednesday",
        "hours": "8:30 AM to 5 PM"
      },
      {
        "day": "Thursday",
        "hours": "8:30 AM to 5 PM"
      },
      {
        "day": "Friday",
        "hours": "8:30 AM to 5 PM"
      },
      {
        "day": "Saturday",
        "hours": "Closed"
      },
      {
        "day": "Sunday",
        "hours": "Closed"
      }
    ],
    "peopleAlsoSearch": [],
    "placesTags": [],
    "reviewsTags": [],
    "additionalInfo": {
      "Service options": [
        {
          "Delivery": true
        }
      ],
      "Accessibility": [
        {
          "Wheelchair accessible entrance": true
        },
        {
          "Wheelchair accessible parking lot": true
        }
      ],
      "Payments": [
        {
          "Credit cards": true
        }
      ]
    },
    "gasPrices": [],
    "url": "https://www.google.com/maps/search/?api=1&query=Genoa%20Healthcare&query_place_id=ChIJOX37l7pLaYcRLC8hNRi1Jdg",
    "searchPageUrl": "https://www.google.com/maps/search/independent%20pharmacy%20Fort%20Collins%20CO/@24.505556248210443,-82.60002624785565,12z?hl=en",
    "searchString": "independent pharmacy Fort Collins CO",
    "language": "en",
    "rank": 6,
    "isAdvertisement": false,
    "imageUrl": "https://streetviewpixels-pa.googleapis.com/v1/thumbnail?panoid=9J-ulO88uNAmvHMbF2mtPQ&cb_client=search.gws-prod.gps&w=408&h=240&yaw=298.32507&pitch=0&thumbfov=100",
    "kgmid": "/g/11fj467d6q"
  },
  {
    "title": "Walgreens Pharmacy",
    "description": "Department of the Walgreens chain providing prescription medications & other health-related items.",
    "price": "$$",
    "categoryName": "Pharmacy",
    "address": "4502 S College Ave, Fort Collins, CO 80525",
    "neighborhood": null,
    "street": "4502 S College Ave",
    "city": "Fort Collins",
    "postalCode": "80525",
    "state": "Colorado",
    "countryCode": "US",
    "website": "https://www.walgreens.com/locator/walgreens-4502+s+college+ave-fort+collins-co-80525/id=6844",
    "phone": "(970) 377-0300",
    "phoneUnformatted": "+19703770300",
    "claimThisBusiness": false,
    "location": {
      "lat": 40.5245944,
      "lng": -105.0764973
    },
    "totalScore": 2,
    "permanentlyClosed": false,
    "temporarilyClosed": false,
    "placeId": "ChIJv2Jo_YBMaYcRMdpmmrznVyI",
    "categories": [
      "Pharmacy"
    ],
    "fid": "0x87694c80fd6862bf:0x2257e7bc9a66da31",
    "cid": "2474701317493676593",
    "reviewsCount": 30,
    "imagesCount": 3,
    "imageCategories": [],
    "scrapedAt": "2025-06-22T04:20:17.257Z",
    "googleFoodUrl": null,
    "hotelAds": [],
    "openingHours": [
      {
        "day": "Monday",
        "hours": "9 AM to 1:30 PM, 2 to 7 PM"
      },
      {
        "day": "Tuesday",
        "hours": "9 AM to 1:30 PM, 2 to 7 PM"
      },
      {
        "day": "Wednesday",
        "hours": "9 AM to 1:30 PM, 2 to 7 PM"
      },
      {
        "day": "Thursday",
        "hours": "9 AM to 1:30 PM, 2 to 7 PM"
      },
      {
        "day": "Friday",
        "hours": "9 AM to 1:30 PM, 2 to 7 PM"
      },
      {
        "day": "Saturday",
        "hours": "9 AM to 1:30 PM, 2 to 6 PM"
      },
      {
        "day": "Sunday",
        "hours": "Closed"
      }
    ],
    "additionalOpeningHours": {
      "Drive through": [
        {
          "day": "Monday",
          "hours": "9 AM–1:30 PM"
        },
        {
          "day": "Tuesday",
          "hours": "9 AM–1:30 PM"
        },
        {
          "day": "Wednesday",
          "hours": "9 AM–1:30 PM"
        },
        {
          "day": "Thursday",
          "hours": "9 AM–1:30 PM"
        },
        {
          "day": "Friday",
          "hours": "9 AM–1:30 PM"
        },
        {
          "day": "Saturday",
          "hours": "9 AM–1:30 PM"
        },
        {
          "day": "Sunday",
          "hours": "Closed"
        }
      ]
    },
    "peopleAlsoSearch": [],
    "placesTags": [],
    "reviewsTags": [],
    "additionalInfo": {
      "Service options": [
        {
          "Delivery": true
        },
        {
          "Drive-through": true
        },
        {
          "In-store pickup": true
        },
        {
          "Onsite services": true
        }
      ],
      "Accessibility": [
        {
          "Wheelchair accessible entrance": true
        },
        {
          "Wheelchair accessible parking lot": true
        }
      ],
      "Offerings": [
        {
          "Naloxone": true
        },
        {
          "Passport photos": true
        }
      ],
      "Planning": [
        {
          "Quick visit": true
        }
      ],
      "Payments": [
        {
          "Credit cards": true
        },
        {
          "Debit cards": true
        }
      ]
    },
    "gasPrices": [],
    "url": "https://www.google.com/maps/search/?api=1&query=Walgreens%20Pharmacy&query_place_id=ChIJv2Jo_YBMaYcRMdpmmrznVyI",
    "searchPageUrl": "https://www.google.com/maps/search/independent%20pharmacy%20Fort%20Collins%20CO/@24.505556248210443,-82.60002624785565,12z?hl=en",
    "searchString": "independent pharmacy Fort Collins CO",
    "language": "en",
    "rank": 7,
    "isAdvertisement": false,
    "imageUrl": "https://lh3.googleusercontent.com/p/AF1QipPFIwsgeUg31OD4s3sr4z5ewgsj31FmfoyLlVRx=w525-h240-k-no",
    "kgmid": "/g/11cn94tsm1"
  },
  {
    "title": "CVS Pharmacy",
    "price": null,
    "categoryName": "Pharmacy",
    "address": "2936 Council Tree Ave, Fort Collins, CO 80525",
    "neighborhood": null,
    "street": "2936 Council Tree Ave",
    "city": "Fort Collins",
    "postalCode": "80525",
    "state": "Colorado",
    "countryCode": "US",
    "website": "https://www.cvs.com/store-locator/fort-collins-co-pharmacies/2936-council-tree-ave-fort-collins-co-80525/storeid=17464?WT.mc_id=LS_GOOGLE_RX_17464",
    "phone": "(970) 530-3121",
    "phoneUnformatted": "+19705303121",
    "claimThisBusiness": false,
    "location": {
      "lat": 40.5275456,
      "lng": -105.0225019
    },
    "totalScore": 2.4,
    "permanentlyClosed": false,
    "temporarilyClosed": false,
    "placeId": "ChIJCwwKWVCzbocRLsrSObeiVtI",
    "categories": [
      "Pharmacy"
    ],
    "fid": "0x876eb350590a0c0b:0xd256a2b739d2ca2e",
    "cid": "15156480503794813486",
    "reviewsCount": 84,
    "imagesCount": 8,
    "imageCategories": [],
    "scrapedAt": "2025-06-22T04:20:17.258Z",
    "googleFoodUrl": null,
    "hotelAds": [],
    "openingHours": [
      {
        "day": "Monday",
        "hours": "9 AM to 1:30 PM, 2 to 8 PM"
      },
      {
        "day": "Tuesday",
        "hours": "9 AM to 1:30 PM, 2 to 8 PM"
      },
      {
        "day": "Wednesday",
        "hours": "9 AM to 1:30 PM, 2 to 8 PM"
      },
      {
        "day": "Thursday",
        "hours": "9 AM to 1:30 PM, 2 to 8 PM"
      },
      {
        "day": "Friday",
        "hours": "9 AM to 1:30 PM, 2 to 8 PM"
      },
      {
        "day": "Saturday",
        "hours": "9 AM to 1:30 PM, 2 to 6 PM"
      },
      {
        "day": "Sunday",
        "hours": "10 AM to 1:30 PM, 2 to 6 PM"
      }
    ],
    "peopleAlsoSearch": [],
    "placesTags": [],
    "reviewsTags": [],
    "additionalInfo": {
      "Service options": [
        {
          "Delivery": true
        },
        {
          "In-store shopping": true
        },
        {
          "Onsite services": true
        }
      ],
      "Accessibility": [
        {
          "Wheelchair accessible entrance": true
        },
        {
          "Wheelchair accessible parking lot": true
        }
      ],
      "Offerings": [
        {
          "Naloxone": true
        }
      ],
      "Amenities": [
        {
          "Wi-Fi": true
        }
      ],
      "Crowd": [
        {
          "LGBTQ+ friendly": true
        },
        {
          "Transgender safespace": true
        }
      ],
      "Planning": [
        {
          "Quick visit": true
        }
      ],
      "Payments": [
        {
          "Credit cards": true
        },
        {
          "Debit cards": true
        },
        {
          "Credit cards": true
        }
      ]
    },
    "gasPrices": [],
    "url": "https://www.google.com/maps/search/?api=1&query=CVS%20Pharmacy&query_place_id=ChIJCwwKWVCzbocRLsrSObeiVtI",
    "searchPageUrl": "https://www.google.com/maps/search/independent%20pharmacy%20Fort%20Collins%20CO/@24.505556248210443,-82.60002624785565,12z?hl=en",
    "searchString": "independent pharmacy Fort Collins CO",
    "language": "en",
    "rank": 8,
    "isAdvertisement": false,
    "imageUrl": "https://lh3.googleusercontent.com/p/AF1QipOod05vt-diBBjQrtotho7bJ_xmKl_FkdhRps4x=w408-h272-k-no",
    "kgmid": "/g/1tgx72q9"
  },
  {
    "title": "Pharmacy | Kaiser Permanente Fort Collins Medical Office",
    "price": null,
    "categoryName": "Pharmacy",
    "address": "2950 E Harmony Rd #1, Fort Collins, CO 80528",
    "neighborhood": null,
    "street": "2950 E Harmony Rd #1",
    "city": "Fort Collins",
    "postalCode": "80528",
    "state": "Colorado",
    "countryCode": "US",
    "website": "https://healthy.kaiserpermanente.org/colorado-denver-boulder-mountain-northern/facilities/Fort-Collins-Medical-Offices-300538?utm_source=GMB_listing",
    "phone": "(970) 207-7133",
    "phoneUnformatted": "+19702077133",
    "claimThisBusiness": false,
    "location": {
      "lat": 40.5244307,
      "lng": -105.0222448
    },
    "totalScore": 4.3,
    "permanentlyClosed": false,
    "temporarilyClosed": false,
    "placeId": "ChIJB1haOW-zbocRxJJI_HnWFSs",
    "categories": [
      "Pharmacy"
    ],
    "fid": "0x876eb36f395a5807:0x2b15d679fc4892c4",
    "cid": "3104623337553826500",
    "reviewsCount": 16,
    "imagesCount": 1,
    "imageCategories": [],
    "scrapedAt": "2025-06-22T04:20:17.258Z",
    "googleFoodUrl": null,
    "hotelAds": [],
    "openingHours": [
      {
        "day": "Monday",
        "hours": "7:30 AM to 6:30 PM"
      },
      {
        "day": "Tuesday",
        "hours": "7:30 AM to 6:30 PM"
      },
      {
        "day": "Wednesday",
        "hours": "7:30 AM to 6:30 PM"
      },
      {
        "day": "Thursday",
        "hours": "7:30 AM to 6:30 PM"
      },
      {
        "day": "Friday",
        "hours": "7:30 AM to 6:30 PM"
      },
      {
        "day": "Saturday",
        "hours": "9 AM to 12 PM, 1 to 5 PM"
      },
      {
        "day": "Sunday",
        "hours": "Closed"
      }
    ],
    "peopleAlsoSearch": [],
    "placesTags": [],
    "reviewsTags": [],
    "additionalInfo": {
      "Service options": [
        {
          "Delivery": true
        },
        {
          "In-store pickup": true
        }
      ],
      "Accessibility": [
        {
          "Wheelchair accessible entrance": true
        },
        {
          "Wheelchair accessible parking lot": true
        }
      ],
      "Payments": [
        {
          "Credit cards": true
        }
      ]
    },
    "gasPrices": [],
    "url": "https://www.google.com/maps/search/?api=1&query=Pharmacy%20%7C%20Kaiser%20Permanente%20Fort%20Collins%20Medical%20Office&query_place_id=ChIJB1haOW-zbocRxJJI_HnWFSs",
    "searchPageUrl": "https://www.google.com/maps/search/independent%20pharmacy%20Fort%20Collins%20CO/@24.505556248210443,-82.60002624785565,12z?hl=en",
    "searchString": "independent pharmacy Fort Collins CO",
    "language": "en",
    "rank": 9,
    "isAdvertisement": false,
    "imageUrl": "https://streetviewpixels-pa.googleapis.com/v1/thumbnail?panoid=bZSQ1bAUQVVZ7QndyVjr5A&cb_client=search.gws-prod.gps&w=408&h=240&yaw=323.45013&pitch=0&thumbfov=100",
    "kgmid": "/g/11hy_zb5nl"
  },
  {
    "title": "King Soopers Pharmacy",
    "price": null,
    "categoryName": "Pharmacy",
    "address": "2535 S College Ave, Fort Collins, CO 80525",
    "neighborhood": null,
    "street": "2535 S College Ave",
    "city": "Fort Collins",
    "postalCode": "80525",
    "state": "Colorado",
    "countryCode": "US",
    "website": "https://www.kingsoopers.com/rx/pharmacy/details/620/00018?cid=loc_62000018P_gmb",
    "phone": "(970) 482-8855",
    "phoneUnformatted": "+19704828855",
    "claimThisBusiness": false,
    "location": {
      "lat": 40.554117,
      "lng": -105.0789845
    },
    "totalScore": 3.3,
    "permanentlyClosed": false,
    "temporarilyClosed": false,
    "placeId": "ChIJwzMydghLaYcRFYEPlI9B8ws",
    "categories": [
      "Pharmacy",
      "Drug store",
      "Health counselor",
      "Home health care service"
    ],
    "fid": "0x87694b08763233c3:0xbf3418f940f8115",
    "cid": "861104038678069525",
    "reviewsCount": 41,
    "imagesCount": 11,
    "imageCategories": [],
    "scrapedAt": "2025-06-22T04:20:17.258Z",
    "googleFoodUrl": null,
    "hotelAds": [],
    "openingHours": [
      {
        "day": "Monday",
        "hours": "9 AM to 1 PM, 1:30 to 8 PM"
      },
      {
        "day": "Tuesday",
        "hours": "9 AM to 1 PM, 1:30 to 8 PM"
      },
      {
        "day": "Wednesday",
        "hours": "9 AM to 1 PM, 1:30 to 8 PM"
      },
      {
        "day": "Thursday",
        "hours": "9 AM to 1 PM, 1:30 to 8 PM"
      },
      {
        "day": "Friday",
        "hours": "9 AM to 1 PM, 1:30 to 8 PM"
      },
      {
        "day": "Saturday",
        "hours": "9 AM to 1 PM, 1:30 to 6 PM"
      },
      {
        "day": "Sunday",
        "hours": "10 AM to 1 PM, 1:30 to 5 PM"
      }
    ],
    "peopleAlsoSearch": [],
    "placesTags": [],
    "reviewsTags": [],
    "additionalInfo": {
      "Service options": [
        {
          "Curbside pickup": true
        },
        {
          "Delivery": true
        },
        {
          "In-store pickup": true
        },
        {
          "In-store shopping": true
        },
        {
          "Same-day delivery": true
        }
      ],
      "Accessibility": [
        {
          "Wheelchair accessible entrance": true
        },
        {
          "Wheelchair accessible parking lot": true
        },
        {
          "Wheelchair accessible restroom": true
        },
        {
          "Wheelchair accessible seating": true
        }
      ],
      "Offerings": [
        {
          "Passport photos": true
        }
      ],
      "Crowd": [
        {
          "LGBTQ+ friendly": true
        },
        {
          "Transgender safespace": true
        }
      ],
      "Planning": [
        {
          "Quick visit": true
        }
      ],
      "Payments": [
        {
          "Checks": true
        },
        {
          "Credit cards": true
        },
        {
          "Debit cards": true
        },
        {
          "NFC mobile payments": true
        },
        {
          "Credit cards": true
        }
      ]
    },
    "gasPrices": [],
    "url": "https://www.google.com/maps/search/?api=1&query=King%20Soopers%20Pharmacy&query_place_id=ChIJwzMydghLaYcRFYEPlI9B8ws",
    "searchPageUrl": "https://www.google.com/maps/search/independent%20pharmacy%20Fort%20Collins%20CO/@24.505556248210443,-82.60002624785565,12z?hl=en",
    "searchString": "independent pharmacy Fort Collins CO",
    "language": "en",
    "rank": 10,
    "isAdvertisement": false,
    "imageUrl": "https://lh3.googleusercontent.com/p/AF1QipMf8hzuWtxVnGIk4YH6s4jMHVjoDhm4S8flf8w0=w426-h240-k-no",
    "kgmid": "/g/1yfjjdr6c"
  }
]