[
  {
    "title": "Broken Arrow Family Drug North",
    "price": null,
    "categoryName": "Pharmacy",
    "address": "1030 E Lansing St, Broken Arrow, OK 74012",
    "neighborhood": "Broken Arrow Hills",
    "street": "1030 E Lansing St",
    "city": "Broken Arrow",
    "postalCode": "74012",
    "state": "Oklahoma",
    "countryCode": "US",
    "website": "http://www.bafamilydrug.com/",
    "phone": "(918) 251-3784",
    "phoneUnformatted": "+19182513784",
    "claimThisBusiness": false,
    "location": {
      "lat": 36.0636869,
      "lng": -95.7786866
    },
    "totalScore": 4.6,
    "permanentlyClosed": false,
    "temporarilyClosed": false,
    "placeId": "ChIJ9Y7eI7SLtocRmACDeJ-Q3XM",
    "categories": [
      "Pharmacy"
    ],
    "fid": "0x87b68bb423de8ef5:0x73dd909f78830098",
    "cid": "8348988298810818712",
    "reviewsCount": 74,
    "imagesCount": 8,
    "imageCategories": [],
    "scrapedAt": "2025-06-22T09:20:54.448Z",
    "googleFoodUrl": null,
    "hotelAds": [],
    "openingHours": [
      {
        "day": "Monday",
        "hours": "9 AM to 7 PM"
      },
      {
        "day": "Tuesday",
        "hours": "9 AM to 7 PM"
      },
      {
        "day": "Wednesday",
        "hours": "9 AM to 7 PM"
      },
      {
        "day": "Thursday",
        "hours": "9 AM to 7 PM"
      },
      {
        "day": "Friday",
        "hours": "9 AM to 7 PM"
      },
      {
        "day": "Saturday",
        "hours": "9 AM to 2 PM"
      },
      {
        "day": "Sunday",
        "hours": "Closed"
      }
    ],
    "peopleAlsoSearch": [],
    "placesTags": [],
    "reviewsTags": [],
    "additionalInfo": {
      "From the business": [
        {
          "Small business": true
        }
      ],
      "Service options": [
        {
          "Curbside pickup": true
        },
        {
          "Delivery": true
        },
        {
          "In-store pickup": true
        },
        {
          "In-store shopping": true
        },
        {
          "Onsite services": true
        }
      ],
      "Accessibility": [
        {
          "Wheelchair accessible entrance": true
        },
        {
          "Wheelchair accessible parking lot": true
        }
      ],
      "Planning": [
        {
          "Quick visit": true
        }
      ],
      "Payments": [
        {
          "Credit cards": true
        },
        {
          "Debit cards": true
        },
        {
          "NFC mobile payments": true
        },
        {
          "Credit cards": true
        }
      ]
    },
    "gasPrices": [],
    "url": "https://www.google.com/maps/search/?api=1&query=Broken%20Arrow%20Family%20Drug%20North&query_place_id=ChIJ9Y7eI7SLtocRmACDeJ-Q3XM",
    "searchPageUrl": "https://www.google.com/maps/search/independent%20pharmacy%20Broken%20Arrow%20OK/@63.240391500735214,-171.58644731733034,11z?hl=en",
    "searchString": "independent pharmacy Broken Arrow OK",
    "language": "en",
    "rank": 1,
    "isAdvertisement": false,
    "imageUrl": "https://lh3.googleusercontent.com/p/AF1QipPjqx1-jlLMSpiiRvJIMGp4r80sDK_ReG_moH6W=w408-h306-k-no",
    "kgmid": "/g/12613yqgg"
  },
  {
    "title": "Broken Arrow Family Drug",
    "price": null,
    "categoryName": "Pharmacy",
    "address": "3359 S Elm Pl, Broken Arrow, OK 74012",
    "neighborhood": null,
    "street": "3359 S Elm Pl",
    "city": "Broken Arrow",
    "postalCode": "74012",
    "state": "Oklahoma",
    "countryCode": "US",
    "website": "http://www.bafamilydrug.com/",
    "phone": "(918) 451-3784",
    "phoneUnformatted": "+19184513784",
    "claimThisBusiness": false,
    "location": {
      "lat": 36.0177599,
      "lng": -95.7955149
    },
    "totalScore": 4.3,
    "permanentlyClosed": false,
    "temporarilyClosed": false,
    "placeId": "ChIJBy15qkGJtocR1eSBMAsGaIE",
    "categories": [
      "Pharmacy",
      "Medical equipment supplier"
    ],
    "fid": "0x87b68941aa792d07:0x8168060b3081e4d5",
    "cid": "9324709673598837973",
    "reviewsCount": 57,
    "imagesCount": 7,
    "imageCategories": [],
    "scrapedAt": "2025-06-22T09:20:54.450Z",
    "googleFoodUrl": null,
    "hotelAds": [],
    "openingHours": [
      {
        "day": "Monday",
        "hours": "9 AM to 6 PM"
      },
      {
        "day": "Tuesday",
        "hours": "9 AM to 6 PM"
      },
      {
        "day": "Wednesday",
        "hours": "9 AM to 6 PM"
      },
      {
        "day": "Thursday",
        "hours": "9 AM to 6 PM"
      },
      {
        "day": "Friday",
        "hours": "9 AM to 6 PM"
      },
      {
        "day": "Saturday",
        "hours": "9 AM to 12 PM"
      },
      {
        "day": "Sunday",
        "hours": "Closed"
      }
    ],
    "peopleAlsoSearch": [],
    "placesTags": [],
    "reviewsTags": [],
    "additionalInfo": {
      "From the business": [
        {
          "Small business": true
        }
      ],
      "Service options": [
        {
          "Delivery": true
        },
        {
          "Drive-through": true
        },
        {
          "In-store pickup": true
        }
      ],
      "Accessibility": [
        {
          "Wheelchair accessible entrance": true
        },
        {
          "Wheelchair accessible parking lot": true
        }
      ],
      "Planning": [
        {
          "Quick visit": true
        }
      ],
      "Payments": [
        {
          "Checks": true
        },
        {
          "Credit cards": true
        },
        {
          "Debit cards": true
        },
        {
          "NFC mobile payments": true
        },
        {
          "Credit cards": true
        }
      ]
    },
    "gasPrices": [],
    "url": "https://www.google.com/maps/search/?api=1&query=Broken%20Arrow%20Family%20Drug&query_place_id=ChIJBy15qkGJtocR1eSBMAsGaIE",
    "searchPageUrl": "https://www.google.com/maps/search/independent%20pharmacy%20Broken%20Arrow%20OK/@63.240391500735214,-171.58644731733034,11z?hl=en",
    "searchString": "independent pharmacy Broken Arrow OK",
    "language": "en",
    "rank": 2,
    "isAdvertisement": false,
    "imageUrl": "https://lh3.googleusercontent.com/p/AF1QipPzKzGoa9VihoHqeGiQA0Qu5XRdTDs9_f1qVyvH=w408-h306-k-no",
    "kgmid": "/g/1tcy9dqr"
  },
  {
    "title": "GenScripts Pharmacy Broken Arrow",
    "price": null,
    "categoryName": "Pharmacy",
    "address": "4666 W Houston St, Broken Arrow, OK 74012",
    "neighborhood": null,
    "street": "4666 W Houston St",
    "city": "Broken Arrow",
    "postalCode": "74012",
    "state": "Oklahoma",
    "countryCode": "US",
    "website": "https://www.genscripts.com/",
    "phone": "(918) 615-3354",
    "phoneUnformatted": "+19186153354",
    "claimThisBusiness": false,
    "location": {
      "lat": 36.0469599,
      "lng": -95.8479232
    },
    "totalScore": 4.9,
    "permanentlyClosed": false,
    "temporarilyClosed": false,
    "placeId": "ChIJIT7vSDCMtocR2RjmpzDfCC8",
    "categories": [
      "Pharmacy",
      "Drug store",
      "Medical equipment supplier",
      "Medical supply store",
      "Veterinary pharmacy"
    ],
    "fid": "0x87b68c3048ef3e21:0x2f08df30a7e618d9",
    "cid": "3389204119664597209",
    "reviewsCount": 207,
    "imagesCount": 8,
    "imageCategories": [],
    "scrapedAt": "2025-06-22T09:20:54.451Z",
    "googleFoodUrl": null,
    "hotelAds": [],
    "openingHours": [
      {
        "day": "Monday",
        "hours": "9 AM to 6 PM"
      },
      {
        "day": "Tuesday",
        "hours": "9 AM to 6 PM"
      },
      {
        "day": "Wednesday",
        "hours": "9 AM to 6 PM"
      },
      {
        "day": "Thursday",
        "hours": "9 AM to 6 PM"
      },
      {
        "day": "Friday",
        "hours": "9 AM to 6 PM"
      },
      {
        "day": "Saturday",
        "hours": "Closed"
      },
      {
        "day": "Sunday",
        "hours": "Closed"
      }
    ],
    "peopleAlsoSearch": [],
    "placesTags": [],
    "reviewsTags": [],
    "additionalInfo": {
      "From the business": [
        {
          "Small business": true
        }
      ],
      "Service options": [
        {
          "Curbside pickup": true
        },
        {
          "Delivery": true
        },
        {
          "Drive-through": true
        },
        {
          "In-store pickup": true
        },
        {
          "In-store shopping": true
        },
        {
          "Same-day delivery": true
        }
      ],
      "Accessibility": [
        {
          "Wheelchair accessible entrance": true
        },
        {
          "Wheelchair accessible parking lot": true
        },
        {
          "Wheelchair accessible seating": true
        }
      ],
      "Planning": [
        {
          "Quick visit": true
        }
      ],
      "Payments": [
        {
          "Credit cards": true
        },
        {
          "Debit cards": true
        },
        {
          "NFC mobile payments": true
        }
      ]
    },
    "gasPrices": [],
    "url": "https://www.google.com/maps/search/?api=1&query=GenScripts%20Pharmacy%20Broken%20Arrow&query_place_id=ChIJIT7vSDCMtocR2RjmpzDfCC8",
    "searchPageUrl": "https://www.google.com/maps/search/independent%20pharmacy%20Broken%20Arrow%20OK/@63.240391500735214,-171.58644731733034,11z?hl=en",
    "searchString": "independent pharmacy Broken Arrow OK",
    "language": "en",
    "rank": 3,
    "isAdvertisement": false,
    "imageUrl": "https://lh3.googleusercontent.com/p/AF1QipOmMLhxdbu9LI3v0MGp5IA4OaDBgxsxkSlCD35c=w408-h271-k-no",
    "kgmid": "/g/1tq6d_m0"
  },
  {
    "title": "NextGenRx | Broken Arrow Pharmacy",
    "price": null,
    "categoryName": "Pharmacy",
    "address": "811 W New Orleans St Ste 101, Broken Arrow, OK 74011",
    "neighborhood": null,
    "street": "811 W New Orleans St Ste 101",
    "city": "Broken Arrow",
    "postalCode": "74011",
    "state": "Oklahoma",
    "countryCode": "US",
    "website": "https://mynextgenrx.com/",
    "phone": "(918) 578-0031",
    "phoneUnformatted": "+19185780031",
    "claimThisBusiness": false,
    "location": {
      "lat": 36.0170135,
      "lng": -95.8005028
    },
    "totalScore": 4.9,
    "permanentlyClosed": false,
    "temporarilyClosed": false,
    "placeId": "ChIJV75g_kaJtocRTHcyoGRy9pM",
    "categories": [
      "Pharmacy",
      "Veterinary pharmacy"
    ],
    "fid": "0x87b68946fe60be57:0x93f67264a032774c",
    "cid": "10661834944356185932",
    "reviewsCount": 503,
    "imagesCount": 143,
    "imageCategories": [],
    "scrapedAt": "2025-06-22T09:20:54.451Z",
    "googleFoodUrl": null,
    "hotelAds": [],
    "openingHours": [
      {
        "day": "Monday",
        "hours": "9 AM to 6 PM"
      },
      {
        "day": "Tuesday",
        "hours": "9 AM to 6 PM"
      },
      {
        "day": "Wednesday",
        "hours": "9 AM to 6 PM"
      },
      {
        "day": "Thursday",
        "hours": "9 AM to 6 PM"
      },
      {
        "day": "Friday",
        "hours": "9 AM to 6 PM"
      },
      {
        "day": "Saturday",
        "hours": "Closed"
      },
      {
        "day": "Sunday",
        "hours": "Closed"
      }
    ],
    "peopleAlsoSearch": [],
    "placesTags": [],
    "reviewsTags": [],
    "additionalInfo": {
      "From the business": [
        {
          "Small business": true
        }
      ],
      "Service options": [
        {
          "Curbside pickup": true
        },
        {
          "Delivery": true
        },
        {
          "Drive-through": true
        },
        {
          "In-store pickup": true
        },
        {
          "In-store shopping": true
        },
        {
          "Same-day delivery": true
        }
      ],
      "Accessibility": [
        {
          "Wheelchair accessible entrance": true
        },
        {
          "Wheelchair accessible parking lot": true
        }
      ],
      "Planning": [
        {
          "Quick visit": true
        }
      ],
      "Payments": [
        {
          "Checks": true
        },
        {
          "Credit cards": true
        },
        {
          "Debit cards": true
        },
        {
          "NFC mobile payments": true
        }
      ]
    },
    "gasPrices": [],
    "url": "https://www.google.com/maps/search/?api=1&query=NextGenRx%20%7C%20Broken%20Arrow%20Pharmacy&query_place_id=ChIJV75g_kaJtocRTHcyoGRy9pM",
    "searchPageUrl": "https://www.google.com/maps/search/independent%20pharmacy%20Broken%20Arrow%20OK/@63.240391500735214,-171.58644731733034,11z?hl=en",
    "searchString": "independent pharmacy Broken Arrow OK",
    "language": "en",
    "rank": 4,
    "isAdvertisement": false,
    "imageUrl": "https://lh3.googleusercontent.com/p/AF1QipMkFL3yCHYTD3VHqj9zeo6R5wZPyxvEO6IauJe3=w408-h612-k-no",
    "kgmid": "/g/11d_zp6n69"
  },
  {
    "title": "Genoa Healthcare",
    "price": null,
    "categoryName": "Pharmacy",
    "address": "8937 S Garnett Rd suite b, Broken Arrow, OK 74012",
    "neighborhood": null,
    "street": "8937 S Garnett Rd suite b",
    "city": "Broken Arrow",
    "postalCode": "74012",
    "state": "Oklahoma",
    "countryCode": "US",
    "website": "http://www.genoahealthcare.com/",
    "phone": "(918) 940-6783",
    "phoneUnformatted": "+19189406783",
    "claimThisBusiness": false,
    "location": {
      "lat": 36.0338518,
      "lng": -95.8504269
    },
    "totalScore": 4.3,
    "permanentlyClosed": false,
    "temporarilyClosed": false,
    "placeId": "ChIJTZsTiP6NtocRLyopm1j9xiE",
    "categories": [
      "Pharmacy"
    ],
    "fid": "0x87b68dfe88139b4d:0x21c6fd589b292a2f",
    "cid": "2433911205642447407",
    "reviewsCount": 10,
    "imagesCount": null,
    "imageCategories": [],
    "scrapedAt": "2025-06-22T09:20:54.451Z",
    "googleFoodUrl": null,
    "hotelAds": [],
    "openingHours": [
      {
        "day": "Monday",
        "hours": "8 AM to 12:30 PM, 1 to 5 PM"
      },
      {
        "day": "Tuesday",
        "hours": "8 AM to 12:30 PM, 1 to 5 PM"
      },
      {
        "day": "Wednesday",
        "hours": "8 AM to 12:30 PM, 1 to 5 PM"
      },
      {
        "day": "Thursday",
        "hours": "8 AM to 12:30 PM, 1 to 5 PM"
      },
      {
        "day": "Friday",
        "hours": "8 AM to 12 PM"
      },
      {
        "day": "Saturday",
        "hours": "Closed"
      },
      {
        "day": "Sunday",
        "hours": "Closed"
      }
    ],
    "peopleAlsoSearch": [],
    "placesTags": [],
    "reviewsTags": [],
    "additionalInfo": {
      "Accessibility": [
        {
          "Wheelchair accessible entrance": true
        },
        {
          "Wheelchair accessible parking lot": true
        }
      ]
    },
    "gasPrices": [],
    "url": "https://www.google.com/maps/search/?api=1&query=Genoa%20Healthcare&query_place_id=ChIJTZsTiP6NtocRLyopm1j9xiE",
    "searchPageUrl": "https://www.google.com/maps/search/independent%20pharmacy%20Broken%20Arrow%20OK/@63.240391500735214,-171.58644731733034,11z?hl=en",
    "searchString": "independent pharmacy Broken Arrow OK",
    "language": "en",
    "rank": 5,
    "isAdvertisement": false,
    "kgmid": "/g/11fd67c9fx"
  },
  {
    "title": "Reasor's Pharmacy",
    "price": null,
    "categoryName": "Pharmacy",
    "address": "1100 E Kenosha St, Broken Arrow, OK 74012",
    "neighborhood": "Broken Arrow Hills",
    "street": "1100 E Kenosha St",
    "city": "Broken Arrow",
    "postalCode": "74012",
    "state": "Oklahoma",
    "countryCode": "US",
    "website": "http://www.reasors.com/",
    "phone": "(918) 251-1295",
    "phoneUnformatted": "+19182511295",
    "claimThisBusiness": true,
    "location": {
      "lat": 36.0621119,
      "lng": -95.7778085
    },
    "totalScore": 4.7,
    "permanentlyClosed": false,
    "temporarilyClosed": false,
    "placeId": "ChIJnQY2KrSLtocRE0Iy5BNEcHU",
    "categories": [
      "Pharmacy"
    ],
    "fid": "0x87b68bb42a36069d:0x75704413e4324213",
    "cid": "8462338552052728339",
    "reviewsCount": 17,
    "imagesCount": 1,
    "imageCategories": [],
    "scrapedAt": "2025-06-22T09:20:54.451Z",
    "googleFoodUrl": null,
    "hotelAds": [],
    "openingHours": [
      {
        "day": "Monday",
        "hours": "9 AM to 7 PM"
      },
      {
        "day": "Tuesday",
        "hours": "9 AM to 7 PM"
      },
      {
        "day": "Wednesday",
        "hours": "9 AM to 7 PM"
      },
      {
        "day": "Thursday",
        "hours": "9 AM to 7 PM"
      },
      {
        "day": "Friday",
        "hours": "9 AM to 7 PM"
      },
      {
        "day": "Saturday",
        "hours": "9 AM to 5 PM"
      },
      {
        "day": "Sunday",
        "hours": "Closed"
      }
    ],
    "peopleAlsoSearch": [],
    "placesTags": [],
    "reviewsTags": [],
    "additionalInfo": {
      "Service options": [
        {
          "Drive-through": true
        },
        {
          "In-store pickup": true
        }
      ],
      "Accessibility": [
        {
          "Wheelchair accessible entrance": true
        },
        {
          "Wheelchair accessible parking lot": true
        }
      ],
      "Planning": [
        {
          "Quick visit": true
        }
      ],
      "Payments": [
        {
          "Credit cards": true
        },
        {
          "SNAP/EBT": true
        }
      ]
    },
    "gasPrices": [],
    "url": "https://www.google.com/maps/search/?api=1&query=Reasor's%20Pharmacy&query_place_id=ChIJnQY2KrSLtocRE0Iy5BNEcHU",
    "searchPageUrl": "https://www.google.com/maps/search/independent%20pharmacy%20Broken%20Arrow%20OK/@63.240391500735214,-171.58644731733034,11z?hl=en",
    "searchString": "independent pharmacy Broken Arrow OK",
    "language": "en",
    "rank": 6,
    "isAdvertisement": false,
    "imageUrl": "https://streetviewpixels-pa.googleapis.com/v1/thumbnail?panoid=GMQBPn24nGI7gJWalbj4ZA&cb_client=search.gws-prod.gps&w=408&h=240&yaw=308.74243&pitch=0&thumbfov=100",
    "kgmid": "/g/12611m7nj"
  },
  {
    "title": "CareFirst Pharmacy - Tulsa",
    "price": null,
    "categoryName": "Pharmacy",
    "address": "6214 S Sheridan Rd, Tulsa, OK 74133",
    "neighborhood": null,
    "street": "6214 S Sheridan Rd",
    "city": "Tulsa",
    "postalCode": "74133",
    "state": "Oklahoma",
    "countryCode": "US",
    "website": "https://www.carefirstpharmacy.com/",
    "phone": "(918) 940-6767",
    "phoneUnformatted": "+19189406767",
    "claimThisBusiness": false,
    "location": {
      "lat": 36.0737669,
      "lng": -95.9048014
    },
    "totalScore": 4.5,
    "permanentlyClosed": false,
    "temporarilyClosed": false,
    "placeId": "ChIJezbG-32StocRSGh38We5Ot0",
    "categories": [
      "Pharmacy",
      "Drug store",
      "Medical supply store",
      "Pharmaceutical lab"
    ],
    "fid": "0x87b6927dfbc6367b:0xdd3ab967f1776848",
    "cid": "15941257687115196488",
    "reviewsCount": 197,
    "imagesCount": 12,
    "imageCategories": [],
    "scrapedAt": "2025-06-22T09:20:54.451Z",
    "googleFoodUrl": null,
    "hotelAds": [],
    "openingHours": [
      {
        "day": "Monday",
        "hours": "9 AM to 6 PM"
      },
      {
        "day": "Tuesday",
        "hours": "9 AM to 6 PM"
      },
      {
        "day": "Wednesday",
        "hours": "9 AM to 6 PM"
      },
      {
        "day": "Thursday",
        "hours": "9 AM to 6 PM"
      },
      {
        "day": "Friday",
        "hours": "9 AM to 6 PM"
      },
      {
        "day": "Saturday",
        "hours": "Closed"
      },
      {
        "day": "Sunday",
        "hours": "Closed"
      }
    ],
    "peopleAlsoSearch": [],
    "placesTags": [],
    "reviewsTags": [],
    "additionalInfo": {
      "From the business": [
        {
          "Small business": true
        }
      ],
      "Service options": [
        {
          "Delivery": true
        },
        {
          "Drive-through": true
        },
        {
          "In-store pickup": true
        },
        {
          "Onsite services": true
        },
        {
          "Same-day delivery": true
        }
      ],
      "Accessibility": [
        {
          "Wheelchair accessible entrance": true
        },
        {
          "Wheelchair accessible parking lot": true
        }
      ],
      "Planning": [
        {
          "Quick visit": true
        }
      ],
      "Payments": [
        {
          "Credit cards": true
        },
        {
          "Debit cards": true
        },
        {
          "NFC mobile payments": true
        },
        {
          "Credit cards": true
        }
      ]
    },
    "gasPrices": [],
    "url": "https://www.google.com/maps/search/?api=1&query=CareFirst%20Pharmacy%20-%20Tulsa&query_place_id=ChIJezbG-32StocRSGh38We5Ot0",
    "searchPageUrl": "https://www.google.com/maps/search/independent%20pharmacy%20Broken%20Arrow%20OK/@63.240391500735214,-171.58644731733034,11z?hl=en",
    "searchString": "independent pharmacy Broken Arrow OK",
    "language": "en",
    "rank": 7,
    "isAdvertisement": false,
    "imageUrl": "https://lh3.googleusercontent.com/gps-cs-s/AC9h4nrZpb2pGb5EWWyDN8gZIDHigY6851b44DxtiMP-MpqN9nM4o2DZ-j5qH_tK6LtStFwc0kvSHaiTLk3sPM8Nf9vZVjg66qQINB5S65jmDAiIZmqGsESrFMTiCFm7JJEEvQqsBYY-=w408-h544-k-no",
    "kgmid": "/g/12q4x0vz2"
  },
  {
    "title": "Todd E. Pendergraft, DPH",
    "price": null,
    "categoryName": "Pharmacy",
    "address": "3359 S Elm Pl, Broken Arrow, OK 74012",
    "neighborhood": null,
    "street": "3359 S Elm Pl",
    "city": "Broken Arrow",
    "postalCode": "74012",
    "state": "Oklahoma",
    "countryCode": "US",
    "phone": "(918) 451-3784",
    "phoneUnformatted": "+19184513784",
    "claimThisBusiness": true,
    "location": {
      "lat": 36.0177764,
      "lng": -95.7954451
    },
    "permanentlyClosed": false,
    "temporarilyClosed": false,
    "placeId": "ChIJA411I0GJtocRFhu0ckD3acA",
    "categories": [
      "Pharmacy"
    ],
    "fid": "0x87b6894123758d03:0xc069f74072b41b16",
    "cid": "13864884784011156246",
    "reviewsCount": 0,
    "imagesCount": 1,
    "imageCategories": [],
    "scrapedAt": "2025-06-22T09:20:54.452Z",
    "googleFoodUrl": null,
    "hotelAds": [],
    "openingHours": [],
    "peopleAlsoSearch": [],
    "placesTags": [],
    "reviewsTags": [],
    "additionalInfo": {
      "Accessibility": [
        {
          "Wheelchair accessible entrance": true
        },
        {
          "Wheelchair accessible parking lot": true
        }
      ],
      "Planning": [
        {
          "Quick visit": true
        }
      ],
      "Payments": [
        {
          "Credit cards": true
        }
      ]
    },
    "gasPrices": [],
    "url": "https://www.google.com/maps/search/?api=1&query=Todd%20E.%20Pendergraft%2C%20DPH&query_place_id=ChIJA411I0GJtocRFhu0ckD3acA",
    "searchPageUrl": "https://www.google.com/maps/search/independent%20pharmacy%20Broken%20Arrow%20OK/@63.240391500735214,-171.58644731733034,11z?hl=en",
    "searchString": "independent pharmacy Broken Arrow OK",
    "language": "en",
    "rank": 8,
    "isAdvertisement": false,
    "imageUrl": "https://streetviewpixels-pa.googleapis.com/v1/thumbnail?panoid=TJK4Ns7Q9Tt-8WcCSMqlCw&cb_client=search.gws-prod.gps&w=408&h=240&yaw=22.4522&pitch=0&thumbfov=100",
    "kgmid": "/g/1tdyg45w"
  },
  {
    "title": "Prescription's Compounding & Pharmacy",
    "price": null,
    "categoryName": "Pharmacy",
    "address": "511 S Aspen Ave, Broken Arrow, OK 74012",
    "neighborhood": null,
    "street": "511 S Aspen Ave",
    "city": "Broken Arrow",
    "postalCode": "74012",
    "state": "Oklahoma",
    "countryCode": "US",
    "phone": "(918) 251-6655",
    "phoneUnformatted": "+19182516655",
    "claimThisBusiness": true,
    "location": {
      "lat": 36.049737,
      "lng": -95.8146727
    },
    "totalScore": 4.4,
    "permanentlyClosed": true,
    "temporarilyClosed": false,
    "placeId": "ChIJR3b8wAeMtocRa4A41xA3c6M",
    "categories": [
      "Pharmacy",
      "Medical clinic",
      "Weight loss service"
    ],
    "fid": "0x87b68c07c0fc7647:0xa3733710d738806b",
    "cid": "11777817995973787755",
    "reviewsCount": 11,
    "imagesCount": 1,
    "imageCategories": [],
    "scrapedAt": "2025-06-22T09:20:54.452Z",
    "googleFoodUrl": null,
    "hotelAds": [],
    "openingHours": [],
    "peopleAlsoSearch": [],
    "placesTags": [],
    "reviewsTags": [],
    "additionalInfo": {
      "Accessibility": [
        {
          "Wheelchair accessible entrance": true
        }
      ],
      "Payments": [
        {
          "Credit cards": true
        },
        {
          "Debit cards": true
        }
      ]
    },
    "gasPrices": [],
    "url": "https://www.google.com/maps/search/?api=1&query=Prescription's%20Compounding%20%26%20Pharmacy&query_place_id=ChIJR3b8wAeMtocRa4A41xA3c6M",
    "searchPageUrl": "https://www.google.com/maps/search/independent%20pharmacy%20Broken%20Arrow%20OK/@63.240391500735214,-171.58644731733034,11z?hl=en",
    "searchString": "independent pharmacy Broken Arrow OK",
    "language": "en",
    "rank": 9,
    "isAdvertisement": false,
    "imageUrl": "https://streetviewpixels-pa.googleapis.com/v1/thumbnail?panoid=yZrMb2UqIIldaOIfrY1iyg&cb_client=search.gws-prod.gps&w=408&h=240&yaw=91.68136&pitch=0&thumbfov=100",
    "kgmid": "/g/12lk_v5y1"
  },
  {
    "title": "CVS Pharmacy",
    "price": null,
    "categoryName": "Pharmacy",
    "address": "1853 S Aspen Ave, Broken Arrow, OK 74012, United States",
    "neighborhood": null,
    "street": "1853 S Aspen Ave",
    "city": "Broken Arrow",
    "postalCode": "74012",
    "state": "Oklahoma",
    "countryCode": "US",
    "website": "https://www.cvs.com/store-locator/broken-arrow-ok-pharmacies/1853-s-aspen-ave-broken-arrow-ok-74012/storeid=4896?WT.mc_id=LS_GOOGLE_RX_4896",
    "phone": "+1 918-251-9615",
    "phoneUnformatted": "+19182519615",
    "claimThisBusiness": false,
    "location": {
      "lat": 36.0325711,
      "lng": -95.8146764
    },
    "totalScore": 4.2,
    "permanentlyClosed": false,
    "temporarilyClosed": false,
    "placeId": "ChIJn7dkKauOtocRt1eD92aP2_s",
    "categories": [
      "Pharmacy"
    ],
    "fid": "0x87b68eab2964b79f:0xfbdb8f66f78357b7",
    "cid": "18148256795821561783",
    "reviewsCount": 14,
    "imagesCount": 8,
    "imageCategories": [],
    "scrapedAt": "2025-06-22T09:21:00.794Z",
    "googleFoodUrl": null,
    "hotelAds": [],
    "openingHours": [
      {
        "day": "Monday",
        "hours": "9 AM to 1:30 PM, 2 to 7 PM"
      },
      {
        "day": "Tuesday",
        "hours": "9 AM to 1:30 PM, 2 to 7 PM"
      },
      {
        "day": "Wednesday",
        "hours": "9 AM to 1:30 PM, 2 to 7 PM"
      },
      {
        "day": "Thursday",
        "hours": "9 AM to 1:30 PM, 2 to 7 PM"
      },
      {
        "day": "Friday",
        "hours": "9 AM to 1:30 PM, 2 to 7 PM"
      },
      {
        "day": "Saturday",
        "hours": "10 AM to 1:30 PM, 2 to 6 PM"
      },
      {
        "day": "Sunday",
        "hours": "11 AM to 1:30 PM, 2 to 5 PM"
      }
    ],
    "peopleAlsoSearch": [],
    "placesTags": [],
    "reviewsTags": [],
    "additionalInfo": {
      "Service options": [
        {
          "Delivery": true
        },
        {
          "Drive-through": true
        },
        {
          "In-store shopping": true
        },
        {
          "On-site services": true
        }
      ],
      "Accessibility": [
        {
          "Wheelchair-accessible car park": true
        },
        {
          "Wheelchair-accessible entrance": true
        }
      ],
      "Offerings": [
        {
          "Naloxone": true
        },
        {
          "Passport photos": true
        }
      ],
      "Crowd": [
        {
          "LGBTQ+ friendly": true
        },
        {
          "Transgender safe space": true
        }
      ],
      "Planning": [
        {
          "Quick visit": true
        }
      ],
      "Payments": [
        {
          "Credit cards": true
        },
        {
          "Debit cards": true
        },
        {
          "NFC mobile payments": true
        },
        {
          "SNAP/EBT": true
        },
        {
          "Credit cards": true
        }
      ]
    },
    "gasPrices": [],
    "url": "https://www.google.com/maps/search/?api=1&query=CVS%20Pharmacy&query_place_id=ChIJn7dkKauOtocRt1eD92aP2_s",
    "searchPageUrl": "https://www.google.com/maps/search/independent%20pharmacy%20Broken%20Arrow%20OK/@71.29595084097066,-160.01530488540766,9z?hl=en",
    "searchString": "independent pharmacy Broken Arrow OK",
    "language": "en",
    "rank": 6,
    "isAdvertisement": false,
    "imageUrl": "https://lh3.googleusercontent.com/p/AF1QipNPgWnJs9lxGln7Gh9UhtLB2Qe8nGA-Kh4lo47Q=w408-h272-k-no",
    "kgmid": "/g/11c45_tc7c"
  },
  {
    "title": "CVS Pharmacy",
    "price": null,
    "categoryName": "Pharmacy",
    "address": "2351 N 9th St, Broken Arrow, OK 74012, United States",
    "neighborhood": "Broken Arrow Hills",
    "street": "2351 N 9th St",
    "city": "Broken Arrow",
    "postalCode": "74012",
    "state": "Oklahoma",
    "countryCode": "US",
    "website": "https://www.cvs.com/store-locator/broken-arrow-ok-pharmacies/2351-n-9th-st-broken-arrow-ok-74012/storeid=8279?WT.mc_id=LS_GOOGLE_RX_8279",
    "phone": "+1 918-355-1293",
    "phoneUnformatted": "+19183551293",
    "claimThisBusiness": false,
    "location": {
      "lat": 36.0748702,
      "lng": -95.7787116
    },
    "totalScore": 4.2,
    "permanentlyClosed": false,
    "temporarilyClosed": false,
    "placeId": "ChIJL6aEya6LtocRhqdyyDzF-H0",
    "categories": [
      "Pharmacy"
    ],
    "fid": "0x87b68baec984a62f:0x7df8c53cc872a786",
    "cid": "9077221913816901510",
    "reviewsCount": 47,
    "imagesCount": 15,
    "imageCategories": [],
    "scrapedAt": "2025-06-22T09:21:00.794Z",
    "googleFoodUrl": null,
    "hotelAds": [],
    "openingHours": [
      {
        "day": "Monday",
        "hours": "9 AM to 1:30 PM, 2 to 7 PM"
      },
      {
        "day": "Tuesday",
        "hours": "9 AM to 1:30 PM, 2 to 7 PM"
      },
      {
        "day": "Wednesday",
        "hours": "9 AM to 1:30 PM, 2 to 7 PM"
      },
      {
        "day": "Thursday",
        "hours": "9 AM to 1:30 PM, 2 to 7 PM"
      },
      {
        "day": "Friday",
        "hours": "9 AM to 1:30 PM, 2 to 7 PM"
      },
      {
        "day": "Saturday",
        "hours": "9 AM to 1:30 PM, 2 to 6 PM"
      },
      {
        "day": "Sunday",
        "hours": "10 AM to 1:30 PM, 2 to 6 PM"
      }
    ],
    "peopleAlsoSearch": [],
    "placesTags": [],
    "reviewsTags": [],
    "additionalInfo": {
      "Service options": [
        {
          "Delivery": true
        },
        {
          "Drive-through": true
        },
        {
          "In-store shopping": true
        }
      ],
      "Accessibility": [
        {
          "Wheelchair-accessible car park": true
        },
        {
          "Wheelchair-accessible entrance": true
        }
      ],
      "Offerings": [
        {
          "Medication disposal": true
        },
        {
          "Naloxone": true
        },
        {
          "Passport photos": true
        }
      ],
      "Crowd": [
        {
          "LGBTQ+ friendly": true
        },
        {
          "Transgender safe space": true
        }
      ],
      "Planning": [
        {
          "Quick visit": true
        }
      ],
      "Payments": [
        {
          "Credit cards": true
        },
        {
          "Debit cards": true
        },
        {
          "NFC mobile payments": true
        },
        {
          "SNAP/EBT": true
        },
        {
          "Credit cards": true
        }
      ]
    },
    "gasPrices": [],
    "url": "https://www.google.com/maps/search/?api=1&query=CVS%20Pharmacy&query_place_id=ChIJL6aEya6LtocRhqdyyDzF-H0",
    "searchPageUrl": "https://www.google.com/maps/search/independent%20pharmacy%20Broken%20Arrow%20OK/@71.29595084097066,-160.01530488540766,9z?hl=en",
    "searchString": "independent pharmacy Broken Arrow OK",
    "language": "en",
    "rank": 7,
    "isAdvertisement": false,
    "imageUrl": "https://lh3.googleusercontent.com/p/AF1QipPCxzhPnHhPe0T4FjmGpdcKq9StT6xZK2kQ3ri6=w408-h272-k-no",
    "kgmid": "/g/11c462qbk6"
  },
  {
    "title": "Walgreens Pharmacy",
    "description": "Department of the Walgreens chain providing prescription medications & other health-related items.",
    "price": "₹₹",
    "categoryName": "Pharmacy",
    "address": "950 E Kenosha St, Broken Arrow, OK 74012, United States",
    "neighborhood": "Broken Arrow Hills",
    "street": "950 E Kenosha St",
    "city": "Broken Arrow",
    "postalCode": "74012",
    "state": "Oklahoma",
    "countryCode": "US",
    "website": "https://www.walgreens.com/locator/walgreens-950+e+kenosha+st-broken+arrow-ok-74012/id=7821",
    "phone": "+1 918-251-3996",
    "phoneUnformatted": "+19182513996",
    "claimThisBusiness": false,
    "location": {
      "lat": 36.0615499,
      "lng": -95.7801136
    },
    "totalScore": 2.7,
    "permanentlyClosed": false,
    "temporarilyClosed": false,
    "placeId": "ChIJLQcGqreLtocRnO0XmL74W9w",
    "categories": [
      "Pharmacy"
    ],
    "fid": "0x87b68bb7aa06072d:0xdc5bf8be9817ed9c",
    "cid": "15878558408703995292",
    "reviewsCount": 49,
    "imagesCount": 6,
    "imageCategories": [],
    "scrapedAt": "2025-06-22T09:21:03.561Z",
    "googleFoodUrl": null,
    "hotelAds": [],
    "openingHours": [
      {
        "day": "Monday",
        "hours": "8 AM to 1:30 PM, 2 to 10 PM"
      },
      {
        "day": "Tuesday",
        "hours": "8 AM to 1:30 PM, 2 to 10 PM"
      },
      {
        "day": "Wednesday",
        "hours": "8 AM to 1:30 PM, 2 to 10 PM"
      },
      {
        "day": "Thursday",
        "hours": "8 AM to 1:30 PM, 2 to 10 PM"
      },
      {
        "day": "Friday",
        "hours": "8 AM to 1:30 PM, 2 to 10 PM"
      },
      {
        "day": "Saturday",
        "hours": "9 AM to 1:30 PM, 2 to 6 PM"
      },
      {
        "day": "Sunday",
        "hours": "10 AM to 1:30 PM, 2 to 6 PM"
      }
    ],
    "additionalOpeningHours": {
      "Drive-through": [
        {
          "day": "Monday",
          "hours": "8 am–1:30 pm"
        },
        {
          "day": "Tuesday",
          "hours": "8 am–1:30 pm"
        },
        {
          "day": "Wednesday",
          "hours": "8 am–1:30 pm"
        },
        {
          "day": "Thursday",
          "hours": "8 am–1:30 pm"
        },
        {
          "day": "Friday",
          "hours": "8 am–1:30 pm"
        },
        {
          "day": "Saturday",
          "hours": "9 am–1:30 pm"
        },
        {
          "day": "Sunday",
          "hours": "10 am–1:30 pm"
        }
      ]
    },
    "peopleAlsoSearch": [],
    "placesTags": [],
    "reviewsTags": [],
    "additionalInfo": {
      "Service options": [
        {
          "Kerbside pickup": true
        },
        {
          "Drive-through": true
        },
        {
          "In-store pick-up": true
        }
      ],
      "Accessibility": [
        {
          "Wheelchair-accessible car park": true
        },
        {
          "Wheelchair-accessible entrance": true
        }
      ],
      "Offerings": [
        {
          "Medication disposal": true
        },
        {
          "Naloxone": true
        }
      ],
      "Planning": [
        {
          "Quick visit": true
        }
      ],
      "Payments": [
        {
          "Credit cards": true
        },
        {
          "Debit cards": true
        }
      ]
    },
    "gasPrices": [],
    "url": "https://www.google.com/maps/search/?api=1&query=Walgreens%20Pharmacy&query_place_id=ChIJLQcGqreLtocRnO0XmL74W9w",
    "searchPageUrl": "https://www.google.com/maps/search/independent%20pharmacy%20Broken%20Arrow%20OK/@23.24965929716541,-161.9899563586394,13z?hl=en",
    "searchString": "independent pharmacy Broken Arrow OK",
    "language": "en",
    "rank": 10,
    "isAdvertisement": false,
    "imageUrl": "https://lh3.googleusercontent.com/gps-cs-s/AC9h4npCYJJh94IMS5XxeW-nWFEpQtG7aAZ6ViJC1FBt3s3aqYH4HVZdcQwnZu5gOGSzoZGVSOfAjIYDjCUgcdVqXteTIRO20gw0GYl1aHfXPgHZc6g7KzjBBptguvYNV4z4_lscpJMg=w426-h240-k-no",
    "kgmid": "/g/11cn93pl49"
  },
  {
    "title": "CVS Pharmacy",
    "price": null,
    "categoryName": "Pharmacy",
    "address": "751 W Tucson St #121ST, Broken Arrow, OK 74011, United States",
    "neighborhood": null,
    "street": "751 W Tucson St #121ST",
    "city": "Broken Arrow",
    "postalCode": "74011",
    "state": "Oklahoma",
    "countryCode": "US",
    "website": "https://www.cvs.com/store-locator/broken-arrow-ok-pharmacies/751-w-tucson-st-121st-broken-arrow-ok-74011/storeid=1145?WT.mc_id=LS_GOOGLE_RX_1145",
    "phone": "+1 918-455-0089",
    "phoneUnformatted": "+19184550089",
    "claimThisBusiness": false,
    "location": {
      "lat": 35.9876388,
      "lng": -95.7980889
    },
    "totalScore": 4,
    "permanentlyClosed": false,
    "temporarilyClosed": false,
    "placeId": "ChIJj9opqt6ItocRAHCPFN-leNE",
    "categories": [
      "Pharmacy"
    ],
    "fid": "0x87b688deaa29da8f:0xd178a5df148f7000",
    "cid": "15093996528673452032",
    "reviewsCount": 13,
    "imagesCount": 10,
    "imageCategories": [],
    "scrapedAt": "2025-06-22T09:21:03.561Z",
    "googleFoodUrl": null,
    "hotelAds": [],
    "openingHours": [
      {
        "day": "Monday",
        "hours": "9 AM to 1:30 PM, 2 to 7 PM"
      },
      {
        "day": "Tuesday",
        "hours": "9 AM to 1:30 PM, 2 to 7 PM"
      },
      {
        "day": "Wednesday",
        "hours": "9 AM to 1:30 PM, 2 to 7 PM"
      },
      {
        "day": "Thursday",
        "hours": "9 AM to 1:30 PM, 2 to 7 PM"
      },
      {
        "day": "Friday",
        "hours": "9 AM to 1:30 PM, 2 to 7 PM"
      },
      {
        "day": "Saturday",
        "hours": "10 AM to 1:30 PM, 2 to 6 PM"
      },
      {
        "day": "Sunday",
        "hours": "11 AM to 1:30 PM, 2 to 5 PM"
      }
    ],
    "peopleAlsoSearch": [],
    "placesTags": [],
    "reviewsTags": [],
    "additionalInfo": {
      "Service options": [
        {
          "Delivery": true
        },
        {
          "Drive-through": true
        },
        {
          "In-store shopping": true
        },
        {
          "On-site services": true
        }
      ],
      "Accessibility": [
        {
          "Wheelchair-accessible car park": true
        },
        {
          "Wheelchair-accessible entrance": true
        }
      ],
      "Offerings": [
        {
          "Naloxone": true
        },
        {
          "Passport photos": true
        }
      ],
      "Crowd": [
        {
          "LGBTQ+ friendly": true
        },
        {
          "Transgender safe space": true
        }
      ],
      "Planning": [
        {
          "Quick visit": true
        }
      ],
      "Payments": [
        {
          "Credit cards": true
        },
        {
          "Debit cards": true
        },
        {
          "NFC mobile payments": true
        },
        {
          "SNAP/EBT": true
        },
        {
          "Credit cards": true
        }
      ]
    },
    "gasPrices": [],
    "url": "https://www.google.com/maps/search/?api=1&query=CVS%20Pharmacy&query_place_id=ChIJj9opqt6ItocRAHCPFN-leNE",
    "searchPageUrl": "https://www.google.com/maps/search/independent%20pharmacy%20Broken%20Arrow%20OK/@23.24965929716541,-161.9899563586394,13z?hl=en",
    "searchString": "independent pharmacy Broken Arrow OK",
    "language": "en",
    "rank": 11,
    "isAdvertisement": false,
    "imageUrl": "https://lh3.googleusercontent.com/p/AF1QipPo6AX2RsJig8aYX5Pwlf4WQjqy9vEIjwOUhrlx=w408-h272-k-no",
    "kgmid": "/g/11c45_tc7m"
  },
  {
    "title": "Walgreens Pharmacy",
    "description": "Department of the Walgreens chain providing prescription medications & other health-related items.",
    "price": "₹₹",
    "categoryName": "Pharmacy",
    "address": "4704 S Elm Pl, Broken Arrow, OK 74011, United States",
    "neighborhood": null,
    "street": "4704 S Elm Pl",
    "city": "Broken Arrow",
    "postalCode": "74011",
    "state": "Oklahoma",
    "countryCode": "US",
    "website": "https://www.walgreens.com/locator/walgreens-4704+s+elm+pl-broken+arrow-ok-74011/id=3534",
    "phone": "+1 918-455-8308",
    "phoneUnformatted": "+19184558308",
    "claimThisBusiness": false,
    "location": {
      "lat": 36.0033586,
      "lng": -95.7980561
    },
    "totalScore": 4.1,
    "permanentlyClosed": false,
    "temporarilyClosed": false,
    "placeId": "ChIJR1g-USOJtocR6yOU_ZePlPc",
    "categories": [
      "Pharmacy"
    ],
    "fid": "0x87b68923513e5847:0xf7948f97fd9423eb",
    "cid": "17840041906878555115",
    "reviewsCount": 24,
    "imagesCount": 3,
    "imageCategories": [],
    "scrapedAt": "2025-06-22T09:21:03.561Z",
    "googleFoodUrl": null,
    "hotelAds": [],
    "openingHours": [
      {
        "day": "Monday",
        "hours": "9 AM to 1:30 PM, 2 to 9 PM"
      },
      {
        "day": "Tuesday",
        "hours": "9 AM to 1:30 PM, 2 to 9 PM"
      },
      {
        "day": "Wednesday",
        "hours": "9 AM to 1:30 PM, 2 to 9 PM"
      },
      {
        "day": "Thursday",
        "hours": "9 AM to 1:30 PM, 2 to 9 PM"
      },
      {
        "day": "Friday",
        "hours": "9 AM to 1:30 PM, 2 to 9 PM"
      },
      {
        "day": "Saturday",
        "hours": "9 AM to 1:30 PM, 2 to 6 PM"
      },
      {
        "day": "Sunday",
        "hours": "10 AM to 1:30 PM, 2 to 6 PM"
      }
    ],
    "additionalOpeningHours": {
      "Drive-through": [
        {
          "day": "Monday",
          "hours": "9 am–1:30 pm"
        },
        {
          "day": "Tuesday",
          "hours": "9 am–1:30 pm"
        },
        {
          "day": "Wednesday",
          "hours": "9 am–1:30 pm"
        },
        {
          "day": "Thursday",
          "hours": "9 am–1:30 pm"
        },
        {
          "day": "Friday",
          "hours": "9 am–1:30 pm"
        },
        {
          "day": "Saturday",
          "hours": "9 am–1:30 pm"
        },
        {
          "day": "Sunday",
          "hours": "10 am–1:30 pm"
        }
      ]
    },
    "peopleAlsoSearch": [],
    "placesTags": [],
    "reviewsTags": [],
    "additionalInfo": {
      "Service options": [
        {
          "Drive-through": true
        },
        {
          "In-store pick-up": true
        }
      ],
      "Accessibility": [
        {
          "Wheelchair-accessible car park": true
        },
        {
          "Wheelchair-accessible entrance": true
        }
      ],
      "Offerings": [
        {
          "Naloxone": true
        },
        {
          "Passport photos": true
        }
      ],
      "Planning": [
        {
          "Quick visit": true
        }
      ],
      "Payments": [
        {
          "Cheques": true
        },
        {
          "Credit cards": true
        },
        {
          "Debit cards": true
        }
      ]
    },
    "gasPrices": [],
    "url": "https://www.google.com/maps/search/?api=1&query=Walgreens%20Pharmacy&query_place_id=ChIJR1g-USOJtocR6yOU_ZePlPc",
    "searchPageUrl": "https://www.google.com/maps/search/independent%20pharmacy%20Broken%20Arrow%20OK/@23.24965929716541,-161.9899563586394,13z?hl=en",
    "searchString": "independent pharmacy Broken Arrow OK",
    "language": "en",
    "rank": 12,
    "isAdvertisement": false,
    "imageUrl": "https://lh3.googleusercontent.com/p/AF1QipP9z736XfgUBNcdO65fSdTBeJk-QlUgJ-qSW2PK=w525-h240-k-no",
    "kgmid": "/g/11cn96d22r"
  },
  {
    "title": "CVS Pharmacy",
    "description": "Drugstore chain selling a variety of beauty & health products, plus some grocery & household items.",
    "price": null,
    "categoryName": "Pharmacy",
    "address": "1150 E Hillside Dr, Broken Arrow, OK 74012, United States",
    "neighborhood": "Broken Arrow Hills",
    "street": "1150 E Hillside Dr",
    "city": "Broken Arrow",
    "postalCode": "74012",
    "state": "Oklahoma",
    "countryCode": "US",
    "website": "https://www.cvs.com/store-locator/broken-arrow-ok-pharmacies/1150-e-hillside-dr-broken-arrow-ok-74012/storeid=17479?WT.mc_id=LS_GOOGLE_RX_17479",
    "phone": "+1 918-615-1901",
    "phoneUnformatted": "+19186151901",
    "claimThisBusiness": false,
    "location": {
      "lat": 36.0670278,
      "lng": -95.7765664
    },
    "totalScore": 4.1,
    "permanentlyClosed": false,
    "temporarilyClosed": false,
    "placeId": "ChIJjSo4zLOLtocRFKWDIq7UnqY",
    "categories": [
      "Pharmacy"
    ],
    "fid": "0x87b68bb3cc382a8d:0xa69ed4ae2283a514",
    "cid": "12006267500984771860",
    "reviewsCount": 25,
    "imagesCount": 7,
    "imageCategories": [],
    "scrapedAt": "2025-06-22T09:21:03.561Z",
    "googleFoodUrl": null,
    "hotelAds": [],
    "openingHours": [
      {
        "day": "Monday",
        "hours": "10 AM to 1:30 PM, 2 to 7 PM"
      },
      {
        "day": "Tuesday",
        "hours": "10 AM to 1:30 PM, 2 to 7 PM"
      },
      {
        "day": "Wednesday",
        "hours": "10 AM to 1:30 PM, 2 to 7 PM"
      },
      {
        "day": "Thursday",
        "hours": "10 AM to 1:30 PM, 2 to 7 PM"
      },
      {
        "day": "Friday",
        "hours": "10 AM to 1:30 PM, 2 to 7 PM"
      },
      {
        "day": "Saturday",
        "hours": "11 AM to 1:30 PM, 2 to 5 PM"
      },
      {
        "day": "Sunday",
        "hours": "12 to 5 PM"
      }
    ],
    "peopleAlsoSearch": [],
    "placesTags": [],
    "reviewsTags": [],
    "additionalInfo": {
      "Service options": [
        {
          "Delivery": true
        },
        {
          "In-store shopping": true
        },
        {
          "On-site services": true
        }
      ],
      "Accessibility": [
        {
          "Wheelchair-accessible car park": true
        },
        {
          "Wheelchair-accessible entrance": true
        }
      ],
      "Offerings": [
        {
          "Naloxone": true
        }
      ],
      "Crowd": [
        {
          "LGBTQ+ friendly": true
        },
        {
          "Transgender safe space": true
        }
      ],
      "Planning": [
        {
          "Quick visit": true
        }
      ],
      "Payments": [
        {
          "Credit cards": true
        },
        {
          "Debit cards": true
        },
        {
          "Credit cards": true
        }
      ]
    },
    "gasPrices": [],
    "url": "https://www.google.com/maps/search/?api=1&query=CVS%20Pharmacy&query_place_id=ChIJjSo4zLOLtocRFKWDIq7UnqY",
    "searchPageUrl": "https://www.google.com/maps/search/independent%20pharmacy%20Broken%20Arrow%20OK/@23.24965929716541,-161.9899563586394,13z?hl=en",
    "searchString": "independent pharmacy Broken Arrow OK",
    "language": "en",
    "rank": 13,
    "isAdvertisement": false,
    "imageUrl": "https://lh3.googleusercontent.com/p/AF1QipNO06-WM10B2KmkVLMIJkpXnqX5Vw0moOq1JLKV=w408-h272-k-no",
    "kgmid": "/g/1tlw9lbp"
  },
  {
    "title": "Walgreens Pharmacy",
    "description": "Department of the Walgreens chain providing prescription medications & other health-related items.",
    "price": "₹₹",
    "categoryName": "Pharmacy",
    "address": "4901 W Kenosha St, Broken Arrow, OK 74012, United States",
    "neighborhood": null,
    "street": "4901 W Kenosha St",
    "city": "Broken Arrow",
    "postalCode": "74012",
    "state": "Oklahoma",
    "countryCode": "US",
    "website": "https://www.walgreens.com/locator/walgreens-4901+w+kenosha+st-broken+arrow-ok-74012/id=6551",
    "phone": "+1 918-249-0214",
    "phoneUnformatted": "+19182490214",
    "claimThisBusiness": false,
    "location": {
      "lat": 36.0602545,
      "lng": -95.8502392
    },
    "totalScore": 3.3,
    "permanentlyClosed": false,
    "temporarilyClosed": false,
    "placeId": "ChIJj0lUT0mMtocRIqnJc0pluiM",
    "categories": [
      "Pharmacy"
    ],
    "fid": "0x87b68c494f54498f:0x23ba654a73c9a922",
    "cid": "2574481507440240930",
    "reviewsCount": 26,
    "imagesCount": 3,
    "imageCategories": [],
    "scrapedAt": "2025-06-22T09:21:03.561Z",
    "googleFoodUrl": null,
    "hotelAds": [],
    "openingHours": [
      {
        "day": "Monday",
        "hours": "9 AM to 1:30 PM, 2 to 9 PM"
      },
      {
        "day": "Tuesday",
        "hours": "9 AM to 1:30 PM, 2 to 9 PM"
      },
      {
        "day": "Wednesday",
        "hours": "9 AM to 1:30 PM, 2 to 9 PM"
      },
      {
        "day": "Thursday",
        "hours": "9 AM to 1:30 PM, 2 to 9 PM"
      },
      {
        "day": "Friday",
        "hours": "9 AM to 1:30 PM, 2 to 9 PM"
      },
      {
        "day": "Saturday",
        "hours": "9 AM to 1:30 PM, 2 to 6 PM"
      },
      {
        "day": "Sunday",
        "hours": "10 AM to 1:30 PM, 2 to 6 PM"
      }
    ],
    "additionalOpeningHours": {
      "Drive-through": [
        {
          "day": "Monday",
          "hours": "9 am–1:30 pm"
        },
        {
          "day": "Tuesday",
          "hours": "9 am–1:30 pm"
        },
        {
          "day": "Wednesday",
          "hours": "9 am–1:30 pm"
        },
        {
          "day": "Thursday",
          "hours": "9 am–1:30 pm"
        },
        {
          "day": "Friday",
          "hours": "9 am–1:30 pm"
        },
        {
          "day": "Saturday",
          "hours": "9 am–1:30 pm"
        },
        {
          "day": "Sunday",
          "hours": "10 am–1:30 pm"
        }
      ]
    },
    "peopleAlsoSearch": [],
    "placesTags": [],
    "reviewsTags": [],
    "additionalInfo": {
      "Service options": [
        {
          "Kerbside pickup": true
        },
        {
          "Drive-through": true
        },
        {
          "In-store pick-up": true
        }
      ],
      "Accessibility": [
        {
          "Wheelchair-accessible car park": true
        },
        {
          "Wheelchair-accessible entrance": true
        }
      ],
      "Offerings": [
        {
          "Naloxone": true
        }
      ],
      "Planning": [
        {
          "Quick visit": true
        }
      ],
      "Payments": [
        {
          "Credit cards": true
        },
        {
          "Debit cards": true
        }
      ]
    },
    "gasPrices": [],
    "url": "https://www.google.com/maps/search/?api=1&query=Walgreens%20Pharmacy&query_place_id=ChIJj0lUT0mMtocRIqnJc0pluiM",
    "searchPageUrl": "https://www.google.com/maps/search/independent%20pharmacy%20Broken%20Arrow%20OK/@23.24965929716541,-161.9899563586394,13z?hl=en",
    "searchString": "independent pharmacy Broken Arrow OK",
    "language": "en",
    "rank": 15,
    "isAdvertisement": false,
    "imageUrl": "https://lh3.googleusercontent.com/p/AF1QipMgSh6VHnWHyLYZtvzLJWPAKl80jr5hMPvz0PpP=w525-h240-k-no",
    "kgmid": "/g/11cn95jr67"
  },
  {
    "title": "NextGenRx",
    "price": null,
    "categoryName": "Pharmacy",
    "address": "4132 E 51st St, Tulsa, OK 74135, United States",
    "neighborhood": null,
    "street": "4132 E 51st St",
    "city": "Tulsa",
    "postalCode": "74135",
    "state": "Oklahoma",
    "countryCode": "US",
    "website": "http://www.mynextgenrx.com/",
    "phone": "+1 918-578-0031",
    "phoneUnformatted": "+19185780031",
    "claimThisBusiness": false,
    "location": {
      "lat": 36.0894782,
      "lng": -95.9299098
    },
    "totalScore": 4.9,
    "permanentlyClosed": false,
    "temporarilyClosed": false,
    "placeId": "ChIJbfHh8KSTtocRmqTevYfqj64",
    "categories": [
      "Pharmacy"
    ],
    "fid": "0x87b693a4f0e1f16d:0xae8fea87bddea49a",
    "cid": "12578530152996054170",
    "reviewsCount": 172,
    "imagesCount": 3,
    "imageCategories": [],
    "scrapedAt": "2025-06-22T09:21:03.561Z",
    "googleFoodUrl": null,
    "hotelAds": [],
    "openingHours": [
      {
        "day": "Monday",
        "hours": "9 AM to 6 PM"
      },
      {
        "day": "Tuesday",
        "hours": "9 AM to 6 PM"
      },
      {
        "day": "Wednesday",
        "hours": "9 AM to 6 PM"
      },
      {
        "day": "Thursday",
        "hours": "9 AM to 6 PM"
      },
      {
        "day": "Friday",
        "hours": "9 AM to 6 PM"
      },
      {
        "day": "Saturday",
        "hours": "Closed"
      },
      {
        "day": "Sunday",
        "hours": "Closed"
      }
    ],
    "peopleAlsoSearch": [],
    "placesTags": [],
    "reviewsTags": [],
    "additionalInfo": {
      "From the business": [
        {
          "Small Business": true
        }
      ],
      "Service options": [
        {
          "Delivery": true
        },
        {
          "Drive-through": true
        },
        {
          "In-store pick-up": true
        }
      ],
      "Accessibility": [
        {
          "Wheelchair-accessible car park": true
        },
        {
          "Wheelchair-accessible entrance": true
        }
      ],
      "Planning": [
        {
          "Quick visit": true
        }
      ],
      "Payments": [
        {
          "Credit cards": true
        },
        {
          "Debit cards": true
        },
        {
          "NFC mobile payments": true
        },
        {
          "Credit cards": true
        }
      ]
    },
    "gasPrices": [],
    "url": "https://www.google.com/maps/search/?api=1&query=NextGenRx&query_place_id=ChIJbfHh8KSTtocRmqTevYfqj64",
    "searchPageUrl": "https://www.google.com/maps/search/independent%20pharmacy%20Broken%20Arrow%20OK/@23.24965929716541,-161.9899563586394,13z?hl=en",
    "searchString": "independent pharmacy Broken Arrow OK",
    "language": "en",
    "rank": 16,
    "isAdvertisement": false,
    "imageUrl": "https://lh3.googleusercontent.com/p/AF1QipP86uvdpzo8X7yaoa2gYqDaIlMdobsrILG5eiUk=w592-h240-k-no",
    "kgmid": "/g/11s1zqz1mr"
  },
  {
    "title": "Rowland Pharmacy",
    "price": null,
    "categoryName": "Pharmacy",
    "address": "802 W Main St Suite 103, Jenks, OK 74037, United States",
    "neighborhood": null,
    "street": "802 W Main St Suite 103",
    "city": "Jenks",
    "postalCode": "74037",
    "state": "Oklahoma",
    "countryCode": "US",
    "website": "https://www.rowlandpharmacyonline.com/",
    "phone": "+1 918-236-4668",
    "phoneUnformatted": "+19182364668",
    "claimThisBusiness": false,
    "location": {
      "lat": 36.0231148,
      "lng": -95.979354
    },
    "totalScore": 4.9,
    "permanentlyClosed": false,
    "temporarilyClosed": false,
    "placeId": "ChIJ82HGFb7stocR3EaSnjToczc",
    "categories": [
      "Pharmacy"
    ],
    "fid": "0x87b6ecbe15c661f3:0x3773e8349e9246dc",
    "cid": "3995792607104091868",
    "reviewsCount": 36,
    "imagesCount": 12,
    "imageCategories": [],
    "scrapedAt": "2025-06-22T09:21:03.561Z",
    "googleFoodUrl": null,
    "hotelAds": [],
    "openingHours": [
      {
        "day": "Monday",
        "hours": "8:30 AM to 6 PM"
      },
      {
        "day": "Tuesday",
        "hours": "8:30 AM to 6 PM"
      },
      {
        "day": "Wednesday",
        "hours": "8:30 AM to 6 PM"
      },
      {
        "day": "Thursday",
        "hours": "8:30 AM to 6 PM"
      },
      {
        "day": "Friday",
        "hours": "8:30 AM to 6 PM"
      },
      {
        "day": "Saturday",
        "hours": "9 AM to 1 PM"
      },
      {
        "day": "Sunday",
        "hours": "Closed"
      }
    ],
    "peopleAlsoSearch": [],
    "placesTags": [],
    "reviewsTags": [],
    "additionalInfo": {
      "From the business": [
        {
          "Small Business": true
        }
      ],
      "Service options": [
        {
          "Delivery": true
        },
        {
          "In-store pick-up": true
        },
        {
          "Same-day delivery": true
        }
      ],
      "Accessibility": [
        {
          "Wheelchair-accessible car park": true
        },
        {
          "Wheelchair-accessible entrance": true
        }
      ],
      "Planning": [
        {
          "Quick visit": true
        }
      ],
      "Payments": [
        {
          "Credit cards": true
        },
        {
          "Debit cards": true
        },
        {
          "NFC mobile payments": true
        },
        {
          "Credit cards": true
        }
      ]
    },
    "gasPrices": [],
    "url": "https://www.google.com/maps/search/?api=1&query=Rowland%20Pharmacy&query_place_id=ChIJ82HGFb7stocR3EaSnjToczc",
    "searchPageUrl": "https://www.google.com/maps/search/independent%20pharmacy%20Broken%20Arrow%20OK/@23.24965929716541,-161.9899563586394,13z?hl=en",
    "searchString": "independent pharmacy Broken Arrow OK",
    "language": "en",
    "rank": 17,
    "isAdvertisement": false,
    "imageUrl": "https://lh3.googleusercontent.com/p/AF1QipOeXIf5GdbwuwvkA2_WupK8tFUybhV0QqUy1hAs=w408-h271-k-no",
    "kgmid": "/g/1tf16d15"
  },
  {
    "title": "Walgreens Pharmacy",
    "description": "Department of the Walgreens chain providing prescription medications & other health-related items.",
    "price": "₹₹",
    "categoryName": "Pharmacy",
    "address": "3751 N Aspen Ave, Broken Arrow, OK 74012, United States",
    "neighborhood": null,
    "street": "3751 N Aspen Ave",
    "city": "Broken Arrow",
    "postalCode": "74012",
    "state": "Oklahoma",
    "countryCode": "US",
    "website": "https://www.walgreens.com/locator/walgreens-3751+n+aspen+ave-broken+arrow-ok-74012/id=12160",
    "phone": "+1 918-355-2317",
    "phoneUnformatted": "+19183552317",
    "claimThisBusiness": false,
    "location": {
      "lat": 36.0892637,
      "lng": -95.8143905
    },
    "totalScore": 3.1,
    "permanentlyClosed": false,
    "temporarilyClosed": false,
    "placeId": "ChIJhRxsqYKMtocRdK-x30_dbVQ",
    "categories": [
      "Pharmacy"
    ],
    "fid": "0x87b68c82a96c1c85:0x546ddd4fdfb1af74",
    "cid": "6083762006772526964",
    "reviewsCount": 22,
    "imagesCount": 4,
    "imageCategories": [],
    "scrapedAt": "2025-06-22T09:21:03.561Z",
    "googleFoodUrl": null,
    "hotelAds": [],
    "openingHours": [
      {
        "day": "Monday",
        "hours": "9 AM to 1:30 PM, 2 to 8 PM"
      },
      {
        "day": "Tuesday",
        "hours": "9 AM to 1:30 PM, 2 to 8 PM"
      },
      {
        "day": "Wednesday",
        "hours": "9 AM to 1:30 PM, 2 to 8 PM"
      },
      {
        "day": "Thursday",
        "hours": "9 AM to 1:30 PM, 2 to 8 PM"
      },
      {
        "day": "Friday",
        "hours": "9 AM to 1:30 PM, 2 to 8 PM"
      },
      {
        "day": "Saturday",
        "hours": "10 AM to 1:30 PM, 2 to 6 PM"
      },
      {
        "day": "Sunday",
        "hours": "10 AM to 1:30 PM, 2 to 6 PM"
      }
    ],
    "additionalOpeningHours": {
      "Drive-through": [
        {
          "day": "Monday",
          "hours": "9 am–1:30 pm"
        },
        {
          "day": "Tuesday",
          "hours": "9 am–1:30 pm"
        },
        {
          "day": "Wednesday",
          "hours": "9 am–1:30 pm"
        },
        {
          "day": "Thursday",
          "hours": "9 am–1:30 pm"
        },
        {
          "day": "Friday",
          "hours": "9 am–1:30 pm"
        },
        {
          "day": "Saturday",
          "hours": "10 am–1:30 pm"
        },
        {
          "day": "Sunday",
          "hours": "10 am–1:30 pm"
        }
      ]
    },
    "peopleAlsoSearch": [],
    "placesTags": [],
    "reviewsTags": [],
    "additionalInfo": {
      "Service options": [
        {
          "Drive-through": true
        },
        {
          "In-store pick-up": true
        },
        {
          "On-site services": true
        }
      ],
      "Accessibility": [
        {
          "Wheelchair-accessible car park": true
        },
        {
          "Wheelchair-accessible entrance": true
        }
      ],
      "Offerings": [
        {
          "Naloxone": true
        },
        {
          "Passport photos": true
        }
      ],
      "Planning": [
        {
          "Quick visit": true
        }
      ],
      "Payments": [
        {
          "Credit cards": true
        },
        {
          "Debit cards": true
        }
      ]
    },
    "gasPrices": [],
    "url": "https://www.google.com/maps/search/?api=1&query=Walgreens%20Pharmacy&query_place_id=ChIJhRxsqYKMtocRdK-x30_dbVQ",
    "searchPageUrl": "https://www.google.com/maps/search/independent%20pharmacy%20Broken%20Arrow%20OK/@23.24965929716541,-161.9899563586394,13z?hl=en",
    "searchString": "independent pharmacy Broken Arrow OK",
    "language": "en",
    "rank": 18,
    "isAdvertisement": false,
    "imageUrl": "https://lh3.googleusercontent.com/p/AF1QipOaKWzmjyH6_PsqG1tBo4ZwhA5HU7JixwTJ1er0=w525-h240-k-no",
    "kgmid": "/g/11cn94j4yz"
  },
  {
    "title": "Walgreens",
    "description": "Drugstore chain with health & beauty aids, prescriptions & photo services, plus mini-mart basics.",
    "price": "$$",
    "categoryName": "Drug store",
    "address": "950 E Kenosha St, Broken Arrow, OK 74012",
    "neighborhood": "Broken Arrow Hills",
    "street": "950 E Kenosha St",
    "city": "Broken Arrow",
    "postalCode": "74012",
    "state": "Oklahoma",
    "countryCode": "US",
    "website": "https://www.walgreens.com/locator/walgreens-950+e+kenosha+st-broken+arrow-ok-74012/id=7821",
    "phone": "(918) 251-3996",
    "phoneUnformatted": "+19182513996",
    "claimThisBusiness": false,
    "location": {
      "lat": 36.0616078,
      "lng": -95.7802687
    },
    "locatedIn": "Walgreens Pharmacy",
    "totalScore": 2,
    "permanentlyClosed": false,
    "temporarilyClosed": false,
    "placeId": "ChIJhelsqreLtocR7lyqMN0Vy_k",
    "categories": [
      "Drug store",
      "Beauty supply store",
      "Convenience store",
      "Cosmetics store",
      "Greeting card shop",
      "Perfume store",
      "Stationery store"
    ],
    "fid": "0x87b68bb7aa6ce985:0xf9cb15dd30aa5cee",
    "cid": "17999504375464746222",
    "reviewsCount": 234,
    "imagesCount": 14,
    "imageCategories": [],
    "scrapedAt": "2025-06-22T09:21:05.833Z",
    "googleFoodUrl": null,
    "hotelAds": [],
    "openingHours": [
      {
        "day": "Monday",
        "hours": "Open 24 hours"
      },
      {
        "day": "Tuesday",
        "hours": "Open 24 hours"
      },
      {
        "day": "Wednesday",
        "hours": "Open 24 hours"
      },
      {
        "day": "Thursday",
        "hours": "Open 24 hours"
      },
      {
        "day": "Friday",
        "hours": "Open 24 hours"
      },
      {
        "day": "Saturday",
        "hours": "Open 24 hours"
      },
      {
        "day": "Sunday",
        "hours": "Open 24 hours"
      }
    ],
    "additionalOpeningHours": {
      "Walgreens Pharmacy": [
        {
          "day": "Monday",
          "hours": "8 AM–1:30 PM"
        },
        {
          "day": "Tuesday",
          "hours": "8 AM–1:30 PM"
        },
        {
          "day": "Wednesday",
          "hours": "8 AM–1:30 PM"
        },
        {
          "day": "Thursday",
          "hours": "8 AM–1:30 PM"
        },
        {
          "day": "Friday",
          "hours": "8 AM–1:30 PM"
        },
        {
          "day": "Saturday",
          "hours": "9 AM–1:30 PM"
        },
        {
          "day": "Sunday",
          "hours": "10 AM–1:30 PM"
        }
      ],
      "Walgreens Photo": [
        {
          "day": "Monday",
          "hours": "Open 24 hours"
        },
        {
          "day": "Tuesday",
          "hours": "Open 24 hours"
        },
        {
          "day": "Wednesday",
          "hours": "Open 24 hours"
        },
        {
          "day": "Thursday",
          "hours": "Open 24 hours"
        },
        {
          "day": "Friday",
          "hours": "Open 24 hours"
        },
        {
          "day": "Saturday",
          "hours": "Open 24 hours"
        },
        {
          "day": "Sunday",
          "hours": "Open 24 hours"
        }
      ],
      "Pickup": [
        {
          "day": "Monday",
          "hours": "Open 24 hours"
        },
        {
          "day": "Tuesday",
          "hours": "Open 24 hours"
        },
        {
          "day": "Wednesday",
          "hours": "Open 24 hours"
        },
        {
          "day": "Thursday",
          "hours": "Open 24 hours"
        },
        {
          "day": "Friday",
          "hours": "Open 24 hours"
        },
        {
          "day": "Saturday",
          "hours": "Open 24 hours"
        },
        {
          "day": "Sunday",
          "hours": "Open 24 hours"
        }
      ]
    },
    "peopleAlsoSearch": [],
    "placesTags": [],
    "reviewsTags": [],
    "additionalInfo": {
      "Service options": [
        {
          "Curbside pickup": true
        },
        {
          "Delivery": true
        },
        {
          "Drive-through": true
        },
        {
          "In-store pickup": true
        },
        {
          "Onsite services": true
        }
      ],
      "Accessibility": [
        {
          "Wheelchair accessible entrance": true
        },
        {
          "Wheelchair accessible parking lot": true
        }
      ],
      "Offerings": [
        {
          "Passport photos": true
        }
      ],
      "Planning": [
        {
          "Quick visit": true
        }
      ],
      "Payments": [
        {
          "Credit cards": true
        },
        {
          "Debit cards": true
        },
        {
          "NFC mobile payments": true
        },
        {
          "SNAP/EBT": true
        },
        {
          "Credit cards": true
        }
      ]
    },
    "gasPrices": [],
    "url": "https://www.google.com/maps/search/?api=1&query=Walgreens&query_place_id=ChIJhelsqreLtocR7lyqMN0Vy_k",
    "searchPageUrl": "https://www.google.com/maps/search/independent%20pharmacy%20Broken%20Arrow%20OK/@45.410355141996405,-92.81852365721616,8z?hl=en",
    "searchString": "independent pharmacy Broken Arrow OK",
    "language": "en",
    "rank": 9,
    "isAdvertisement": false,
    "imageUrl": "https://lh3.googleusercontent.com/gps-cs-s/AC9h4nqMGnPPlz57bhLNgtxbvlc5xfLFHgIgoC_aH5O09EpG4TdBkSz8px9HyUOMqcUfhZA7UZPpqyv5jenAtci5fx2CutnzxPyzo5txowy2BaGEqNUNruBI5opRfjKMeHvEJGFpUIza=w408-h725-k-no",
    "kgmid": "/g/1tv3p5tj"
  }
]