[
  {
    "title": "Montana Apothecary & Co Pharmacy | Great Falls, MT",
    "price": null,
    "categoryName": "Pharmacy",
    "address": "1921 11th Ave S, Great Falls, MT 59405",
    "neighborhood": null,
    "street": "1921 11th Ave S",
    "city": "Great Falls",
    "postalCode": "59405",
    "state": "Montana",
    "countryCode": "US",
    "website": "https://mtcompounding.com/",
    "phone": "(406) 952-0376",
    "phoneUnformatted": "+14069520376",
    "claimThisBusiness": false,
    "location": {
      "lat": 47.4933743,
      "lng": -111.2733075
    },
    "totalScore": 4.6,
    "permanentlyClosed": false,
    "temporarilyClosed": false,
    "placeId": "ChIJFQYj5QU3QlMRk1goOHcW1iw",
    "categories": [
      "Pharmacy",
      "Health consultant",
      "Pharmaceutical lab",
      "Veterinary pharmacy"
    ],
    "fid": "0x53423705e5230615:0x2cd6167738285893",
    "cid": "3230794483983997075",
    "reviewsCount": 105,
    "imagesCount": 42,
    "imageCategories": [],
    "scrapedAt": "2025-06-22T08:25:11.733Z",
    "googleFoodUrl": null,
    "hotelAds": [],
    "openingHours": [
      {
        "day": "Monday",
        "hours": "9 AM to 6 PM"
      },
      {
        "day": "Tuesday",
        "hours": "9 AM to 6 PM"
      },
      {
        "day": "Wednesday",
        "hours": "9 AM to 6 PM"
      },
      {
        "day": "Thursday",
        "hours": "9 AM to 6 PM"
      },
      {
        "day": "Friday",
        "hours": "9 AM to 6 PM"
      },
      {
        "day": "Saturday",
        "hours": "9 AM to 4 PM"
      },
      {
        "day": "Sunday",
        "hours": "Closed"
      }
    ],
    "additionalOpeningHours": {
      "Pickup": [
        {
          "day": "Monday",
          "hours": "9 AM–5 PM"
        },
        {
          "day": "Tuesday",
          "hours": "9 AM–5 PM"
        },
        {
          "day": "Wednesday",
          "hours": "9 AM–5 PM"
        },
        {
          "day": "Thursday",
          "hours": "9 AM–5 PM"
        },
        {
          "day": "Friday",
          "hours": "9 AM–5 PM"
        },
        {
          "day": "Saturday",
          "hours": "Closed"
        },
        {
          "day": "Sunday",
          "hours": "Closed"
        }
      ]
    },
    "peopleAlsoSearch": [],
    "placesTags": [],
    "reviewsTags": [],
    "additionalInfo": {
      "From the business": [
        {
          "Identifies as women-owned": true
        },
        {
          "Small business": true
        }
      ],
      "Service options": [
        {
          "Delivery": true
        },
        {
          "In-store pickup": true
        },
        {
          "In-store shopping": true
        },
        {
          "Onsite services": true
        }
      ],
      "Accessibility": [
        {
          "Wheelchair accessible entrance": true
        },
        {
          "Wheelchair accessible parking lot": true
        }
      ],
      "Crowd": [
        {
          "LGBTQ+ friendly": true
        },
        {
          "Transgender safespace": true
        }
      ],
      "Payments": [
        {
          "Credit cards": true
        },
        {
          "Debit cards": true
        },
        {
          "NFC mobile payments": true
        },
        {
          "Credit cards": true
        }
      ]
    },
    "gasPrices": [],
    "url": "https://www.google.com/maps/search/?api=1&query=Montana%20Apothecary%20%26%20Co%20Pharmacy%20%7C%20Great%20Falls%2C%20MT&query_place_id=ChIJFQYj5QU3QlMRk1goOHcW1iw",
    "searchPageUrl": "https://www.google.com/maps/search/independent%20pharmacy%20Great%20Falls%20MT/@64.34834014395538,-160.01530488540766,9z?hl=en",
    "searchString": "independent pharmacy Great Falls MT",
    "language": "en",
    "rank": 1,
    "isAdvertisement": false,
    "imageUrl": "https://lh3.googleusercontent.com/p/AF1QipOe5-mWBBVM-J2icNnnM2KVr5fobfE0tgAptBJq=w408-h272-k-no",
    "kgmid": "/g/11q94f8y6n"
  },
  {
    "title": "Plaza United Pharmacy",
    "price": null,
    "categoryName": "Pharmacy",
    "address": "2800 11th Ave S, Great Falls, MT 59405",
    "neighborhood": null,
    "street": "2800 11th Ave S",
    "city": "Great Falls",
    "postalCode": "59405",
    "state": "Montana",
    "countryCode": "US",
    "phone": "(406) 727-0070",
    "phoneUnformatted": "+14067270070",
    "claimThisBusiness": false,
    "location": {
      "lat": 47.4921955,
      "lng": -111.2584384
    },
    "totalScore": 5,
    "permanentlyClosed": false,
    "temporarilyClosed": false,
    "placeId": "ChIJedm-E6k3QlMRfgsnDtW9pHk",
    "categories": [
      "Pharmacy"
    ],
    "fid": "0x534237a913bed979:0x79a4bdd50e270b7e",
    "cid": "8765339497532951422",
    "reviewsCount": 11,
    "imagesCount": 2,
    "imageCategories": [],
    "scrapedAt": "2025-06-22T08:25:11.735Z",
    "googleFoodUrl": null,
    "hotelAds": [],
    "openingHours": [
      {
        "day": "Monday",
        "hours": "8 AM to 6 PM"
      },
      {
        "day": "Tuesday",
        "hours": "8 AM to 6 PM"
      },
      {
        "day": "Wednesday",
        "hours": "8 AM to 6 PM"
      },
      {
        "day": "Thursday",
        "hours": "8 AM to 6 PM"
      },
      {
        "day": "Friday",
        "hours": "8 AM to 6 PM"
      },
      {
        "day": "Saturday",
        "hours": "Closed"
      },
      {
        "day": "Sunday",
        "hours": "Closed"
      }
    ],
    "peopleAlsoSearch": [],
    "placesTags": [],
    "reviewsTags": [],
    "additionalInfo": {
      "From the business": [
        {
          "Small business": true
        }
      ],
      "Accessibility": [
        {
          "Wheelchair accessible entrance": true
        },
        {
          "Wheelchair accessible parking lot": true
        }
      ],
      "Offerings": [
        {
          "Medication disposal": true
        }
      ],
      "Planning": [
        {
          "Quick visit": true
        }
      ],
      "Payments": [
        {
          "Credit cards": true
        }
      ]
    },
    "gasPrices": [],
    "url": "https://www.google.com/maps/search/?api=1&query=Plaza%20United%20Pharmacy&query_place_id=ChIJedm-E6k3QlMRfgsnDtW9pHk",
    "searchPageUrl": "https://www.google.com/maps/search/independent%20pharmacy%20Great%20Falls%20MT/@64.34834014395538,-160.01530488540766,9z?hl=en",
    "searchString": "independent pharmacy Great Falls MT",
    "language": "en",
    "rank": 2,
    "isAdvertisement": false,
    "imageUrl": "https://lh3.googleusercontent.com/p/AF1QipMfkZCjPoHbd5KP3i-YChJWl0SsiD8g3BDj1Pw7=w408-h301-k-no",
    "kgmid": "/g/1tf6rg4r"
  },
  {
    "title": "Alluvion Health Pharmacy",
    "price": null,
    "categoryName": "Pharmacy",
    "address": "105 6th St N, Great Falls, MT 59401",
    "neighborhood": null,
    "street": "105 6th St N",
    "city": "Great Falls",
    "postalCode": "59401",
    "state": "Montana",
    "countryCode": "US",
    "website": "https://www.alluvionhealth.org/services/pharmacy/",
    "phone": "(406) 791-7903",
    "phoneUnformatted": "+14067917903",
    "claimThisBusiness": false,
    "location": {
      "lat": 47.5068426,
      "lng": -111.2968424
    },
    "totalScore": 4.4,
    "permanentlyClosed": false,
    "temporarilyClosed": false,
    "placeId": "ChIJcb4unOk3QlMRZjsAcb1e7M0",
    "categories": [
      "Pharmacy"
    ],
    "fid": "0x534237e99c2ebe71:0xcdec5ebd71003b66",
    "cid": "14838339040016612198",
    "reviewsCount": 14,
    "imagesCount": 3,
    "imageCategories": [],
    "scrapedAt": "2025-06-22T08:25:11.735Z",
    "googleFoodUrl": null,
    "hotelAds": [],
    "openingHours": [
      {
        "day": "Monday",
        "hours": "7:30 AM to 6 PM"
      },
      {
        "day": "Tuesday",
        "hours": "7:30 AM to 6 PM"
      },
      {
        "day": "Wednesday",
        "hours": "7:30 AM to 6 PM"
      },
      {
        "day": "Thursday",
        "hours": "7:30 AM to 6 PM"
      },
      {
        "day": "Friday",
        "hours": "7:30 AM to 6 PM"
      },
      {
        "day": "Saturday",
        "hours": "Closed"
      },
      {
        "day": "Sunday",
        "hours": "Closed"
      }
    ],
    "peopleAlsoSearch": [],
    "placesTags": [],
    "reviewsTags": [],
    "additionalInfo": {
      "Accessibility": [
        {
          "Wheelchair accessible entrance": true
        },
        {
          "Wheelchair accessible parking lot": true
        }
      ],
      "Payments": [
        {
          "Credit cards": true
        }
      ]
    },
    "gasPrices": [],
    "url": "https://www.google.com/maps/search/?api=1&query=Alluvion%20Health%20Pharmacy&query_place_id=ChIJcb4unOk3QlMRZjsAcb1e7M0",
    "searchPageUrl": "https://www.google.com/maps/search/independent%20pharmacy%20Great%20Falls%20MT/@64.34834014395538,-160.01530488540766,9z?hl=en",
    "searchString": "independent pharmacy Great Falls MT",
    "language": "en",
    "rank": 3,
    "isAdvertisement": false,
    "imageUrl": "https://lh3.googleusercontent.com/p/AF1QipNPKG-8ZnwZUDbjbRetpCxXyownw9Wbjb5IxkKD=w408-h306-k-no",
    "kgmid": "/g/11s6j3v8cb"
  },
  {
    "title": "PharMerica – Montana",
    "price": null,
    "categoryName": "Pharmacy",
    "address": "625 Central Ave W, Great Falls, MT 59404",
    "neighborhood": null,
    "street": "625 Central Ave W",
    "city": "Great Falls",
    "postalCode": "59404",
    "state": "Montana",
    "countryCode": "US",
    "website": "http://www.pharmerica.com/",
    "phone": "(800) 757-3713",
    "phoneUnformatted": "+18007573713",
    "claimThisBusiness": false,
    "location": {
      "lat": 47.5080654,
      "lng": -111.3229632
    },
    "permanentlyClosed": false,
    "temporarilyClosed": false,
    "placeId": "ChIJz9REl_43QlMRIx4uTWUAPus",
    "categories": [
      "Pharmacy"
    ],
    "fid": "0x534237fe9744d4cf:0xeb3e00654d2e1e23",
    "cid": "16950986482555690531",
    "reviewsCount": 0,
    "imagesCount": 1,
    "imageCategories": [],
    "scrapedAt": "2025-06-22T08:25:11.735Z",
    "googleFoodUrl": null,
    "hotelAds": [],
    "openingHours": [
      {
        "day": "Monday",
        "hours": "Open 24 hours"
      },
      {
        "day": "Tuesday",
        "hours": "Open 24 hours"
      },
      {
        "day": "Wednesday",
        "hours": "Open 24 hours"
      },
      {
        "day": "Thursday",
        "hours": "Open 24 hours"
      },
      {
        "day": "Friday",
        "hours": "Open 24 hours"
      },
      {
        "day": "Saturday",
        "hours": "Open 24 hours"
      },
      {
        "day": "Sunday",
        "hours": "Open 24 hours"
      }
    ],
    "peopleAlsoSearch": [],
    "placesTags": [],
    "reviewsTags": [],
    "additionalInfo": {
      "Accessibility": [
        {
          "Wheelchair accessible entrance": true
        },
        {
          "Wheelchair accessible parking lot": true
        }
      ],
      "Payments": [
        {
          "Credit cards": true
        }
      ]
    },
    "gasPrices": [],
    "url": "https://www.google.com/maps/search/?api=1&query=PharMerica%20%E2%80%93%20Montana&query_place_id=ChIJz9REl_43QlMRIx4uTWUAPus",
    "searchPageUrl": "https://www.google.com/maps/search/independent%20pharmacy%20Great%20Falls%20MT/@64.34834014395538,-160.01530488540766,9z?hl=en",
    "searchString": "independent pharmacy Great Falls MT",
    "language": "en",
    "rank": 4,
    "isAdvertisement": false,
    "imageUrl": "https://streetviewpixels-pa.googleapis.com/v1/thumbnail?panoid=tyJrAkDHTxv45nIQ8fNmqA&cb_client=search.gws-prod.gps&w=408&h=240&yaw=2.2148497&pitch=0&thumbfov=100",
    "kgmid": "/g/1tf47tpk"
  },
  {
    "title": "Public Drug Co.",
    "price": null,
    "categoryName": "Pharmacy",
    "address": "324 Central Ave, Great Falls, MT 59401",
    "neighborhood": null,
    "street": "324 Central Ave",
    "city": "Great Falls",
    "postalCode": "59401",
    "state": "Montana",
    "countryCode": "US",
    "website": "http://www.publicdrug.com/",
    "phone": "(406) 453-1497",
    "phoneUnformatted": "+14064531497",
    "claimThisBusiness": true,
    "location": {
      "lat": 47.5051111,
      "lng": -111.3010677
    },
    "totalScore": 4.5,
    "permanentlyClosed": false,
    "temporarilyClosed": false,
    "placeId": "ChIJ6VC6Oe03QlMRReGzAoCNI7w",
    "categories": [
      "Pharmacy"
    ],
    "fid": "0x534237ed39ba50e9:0xbc238d8002b3e145",
    "cid": "13556834884255998277",
    "reviewsCount": 165,
    "imagesCount": 5,
    "imageCategories": [],
    "scrapedAt": "2025-06-22T08:25:17.373Z",
    "googleFoodUrl": null,
    "hotelAds": [],
    "openingHours": [
      {
        "day": "Monday",
        "hours": "9 AM to 6 PM"
      },
      {
        "day": "Tuesday",
        "hours": "9 AM to 6 PM"
      },
      {
        "day": "Wednesday",
        "hours": "9 AM to 6 PM"
      },
      {
        "day": "Thursday",
        "hours": "9 AM to 6 PM"
      },
      {
        "day": "Friday",
        "hours": "9 AM to 6 PM"
      },
      {
        "day": "Saturday",
        "hours": "9 AM to 1 PM"
      },
      {
        "day": "Sunday",
        "hours": "Closed"
      }
    ],
    "peopleAlsoSearch": [],
    "placesTags": [],
    "reviewsTags": [],
    "additionalInfo": {
      "Service options": [
        {
          "Delivery": true
        },
        {
          "In-store pickup": true
        },
        {
          "Same-day delivery": true
        }
      ],
      "Accessibility": [
        {
          "Wheelchair accessible entrance": true
        },
        {
          "Wheelchair accessible parking lot": true
        }
      ],
      "Planning": [
        {
          "Quick visit": true
        }
      ],
      "Payments": [
        {
          "Credit cards": true
        },
        {
          "Debit cards": true
        },
        {
          "NFC mobile payments": true
        },
        {
          "Credit cards": true
        }
      ]
    },
    "gasPrices": [],
    "url": "https://www.google.com/maps/search/?api=1&query=Public%20Drug%20Co.&query_place_id=ChIJ6VC6Oe03QlMRReGzAoCNI7w",
    "searchPageUrl": "https://www.google.com/maps/search/independent%20pharmacy%20Great%20Falls%20MT/@1.0135200413244752,-176.48042014151343,13z?hl=en",
    "searchString": "independent pharmacy Great Falls MT",
    "language": "en",
    "rank": 4,
    "isAdvertisement": false,
    "imageUrl": "https://lh3.googleusercontent.com/gps-cs-s/AC9h4nrHxZQqoLT2UA2K6-NvOxEL9oySOPHU5ELiJYby1JidelbNAY5Zlhpi_NyE_yHjscsLuhWBzwFXL5mpntFJs-hVEHFGPYdlzneSOAsLt14duz3khZ3ExAH3CtrpTngNVeC4R4jy=w408-h291-k-no",
    "kgmid": "/g/1tkc6bmr"
  },
  {
    "title": "Smith's Pharmacy",
    "price": null,
    "categoryName": "Pharmacy",
    "address": "1601 Market Pl Dr, Great Falls, MT 59404",
    "neighborhood": null,
    "street": "1601 Market Pl Dr",
    "city": "Great Falls",
    "postalCode": "59404",
    "state": "Montana",
    "countryCode": "US",
    "website": "https://www.smithsfoodanddrug.com/rx/pharmacy/details/706/00166?cid=loc_70600166P_gmb",
    "phone": "(406) 771-0475",
    "phoneUnformatted": "+14067710475",
    "claimThisBusiness": false,
    "location": {
      "lat": 47.4847292,
      "lng": -111.3410793
    },
    "totalScore": 4.1,
    "permanentlyClosed": false,
    "temporarilyClosed": false,
    "placeId": "ChIJbyGMx0BIQlMRmecdfI1XIAE",
    "categories": [
      "Pharmacy",
      "Drug store",
      "Health counselor",
      "Home health care service"
    ],
    "fid": "0x53424840c78c216f:0x120578d7c1de799",
    "cid": "81161058477008793",
    "reviewsCount": 15,
    "imagesCount": 10,
    "imageCategories": [],
    "scrapedAt": "2025-06-22T08:25:17.373Z",
    "googleFoodUrl": null,
    "hotelAds": [],
    "openingHours": [
      {
        "day": "Monday",
        "hours": "9 AM to 1 PM, 1:30 to 6 PM"
      },
      {
        "day": "Tuesday",
        "hours": "9 AM to 1 PM, 1:30 to 6 PM"
      },
      {
        "day": "Wednesday",
        "hours": "9 AM to 1 PM, 1:30 to 6 PM"
      },
      {
        "day": "Thursday",
        "hours": "9 AM to 1 PM, 1:30 to 6 PM"
      },
      {
        "day": "Friday",
        "hours": "9 AM to 1 PM, 1:30 to 6 PM"
      },
      {
        "day": "Saturday",
        "hours": "9 AM to 1 PM, 1:30 to 6 PM"
      },
      {
        "day": "Sunday",
        "hours": "10 AM to 1 PM, 1:30 to 4 PM"
      }
    ],
    "peopleAlsoSearch": [],
    "placesTags": [],
    "reviewsTags": [],
    "additionalInfo": {
      "Service options": [
        {
          "Curbside pickup": true
        },
        {
          "Delivery": true
        },
        {
          "In-store pickup": true
        },
        {
          "In-store shopping": true
        },
        {
          "Same-day delivery": true
        }
      ],
      "Accessibility": [
        {
          "Wheelchair accessible entrance": true
        },
        {
          "Wheelchair accessible parking lot": true
        },
        {
          "Wheelchair accessible restroom": true
        },
        {
          "Wheelchair accessible seating": true
        }
      ],
      "Offerings": [
        {
          "Passport photos": true
        }
      ],
      "Crowd": [
        {
          "LGBTQ+ friendly": true
        },
        {
          "Transgender safespace": true
        }
      ],
      "Planning": [
        {
          "Quick visit": true
        }
      ],
      "Payments": [
        {
          "Checks": true
        },
        {
          "Credit cards": true
        },
        {
          "Debit cards": true
        },
        {
          "NFC mobile payments": true
        },
        {
          "Credit cards": true
        }
      ]
    },
    "gasPrices": [],
    "url": "https://www.google.com/maps/search/?api=1&query=Smith's%20Pharmacy&query_place_id=ChIJbyGMx0BIQlMRmecdfI1XIAE",
    "searchPageUrl": "https://www.google.com/maps/search/independent%20pharmacy%20Great%20Falls%20MT/@1.0135200413244752,-176.48042014151343,13z?hl=en",
    "searchString": "independent pharmacy Great Falls MT",
    "language": "en",
    "rank": 5,
    "isAdvertisement": false,
    "imageUrl": "https://lh3.googleusercontent.com/p/AF1QipOoTO2xLXqymFHOeRNhx3KmUGdtND3XbIyX09Zi=w426-h240-k-no",
    "kgmid": "/g/1yfh_j2f0"
  },
  {
    "title": "PharMerica- Great Falls, MT (Formerly Big Sky Managed Care)",
    "price": null,
    "categoryName": "Pharmacy",
    "address": "625 Central Ave W, Great Falls, MT 59404",
    "neighborhood": null,
    "street": "625 Central Ave W",
    "city": "Great Falls",
    "postalCode": "59404",
    "state": "Montana",
    "countryCode": "US",
    "website": "https://pharmerica.com/subsidiaries/big-sky/",
    "phone": "(406) 315-1989",
    "phoneUnformatted": "+14063151989",
    "claimThisBusiness": false,
    "location": {
      "lat": 47.5080654,
      "lng": -111.3229632
    },
    "totalScore": 4,
    "permanentlyClosed": false,
    "temporarilyClosed": false,
    "placeId": "ChIJ1TZO14Q3QlMRmR9cy1xayBw",
    "categories": [
      "Pharmacy"
    ],
    "fid": "0x53423784d74e36d5:0x1cc85a5ccb5c1f99",
    "cid": "2074006982999416729",
    "reviewsCount": 20,
    "imagesCount": 2,
    "imageCategories": [],
    "scrapedAt": "2025-06-22T08:25:17.373Z",
    "googleFoodUrl": null,
    "hotelAds": [],
    "openingHours": [
      {
        "day": "Monday",
        "hours": "9 AM to 6 PM"
      },
      {
        "day": "Tuesday",
        "hours": "9 AM to 6 PM"
      },
      {
        "day": "Wednesday",
        "hours": "9 AM to 6 PM"
      },
      {
        "day": "Thursday",
        "hours": "9 AM to 6 PM"
      },
      {
        "day": "Friday",
        "hours": "9 AM to 6 PM"
      },
      {
        "day": "Saturday",
        "hours": "Closed"
      },
      {
        "day": "Sunday",
        "hours": "Closed"
      }
    ],
    "peopleAlsoSearch": [],
    "placesTags": [],
    "reviewsTags": [],
    "additionalInfo": {
      "From the business": [
        {
          "Small business": true
        }
      ],
      "Service options": [
        {
          "Delivery": true
        }
      ],
      "Accessibility": [
        {
          "Wheelchair accessible entrance": true
        },
        {
          "Wheelchair accessible parking lot": true
        }
      ],
      "Payments": [
        {
          "Credit cards": true
        },
        {
          "Debit cards": true
        },
        {
          "NFC mobile payments": true
        },
        {
          "Credit cards": true
        }
      ]
    },
    "gasPrices": [],
    "url": "https://www.google.com/maps/search/?api=1&query=PharMerica-%20Great%20Falls%2C%20MT%20(Formerly%20Big%20Sky%20Managed%20Care)&query_place_id=ChIJ1TZO14Q3QlMRmR9cy1xayBw",
    "searchPageUrl": "https://www.google.com/maps/search/independent%20pharmacy%20Great%20Falls%20MT/@1.0135200413244752,-176.48042014151343,13z?hl=en",
    "searchString": "independent pharmacy Great Falls MT",
    "language": "en",
    "rank": 6,
    "isAdvertisement": false,
    "imageUrl": "https://lh3.googleusercontent.com/p/AF1QipMpKVdBXQMDLNzqnoGlxlzLeDskkN4TJV-NTDo=w450-h240-k-no",
    "kgmid": "/g/11h54wndhj"
  },
  {
    "title": "CVS Pharmacy",
    "price": null,
    "categoryName": "Pharmacy",
    "address": "2001 10th Ave S, Great Falls, MT 59405, United States",
    "neighborhood": null,
    "street": "2001 10th Ave S",
    "city": "Great Falls",
    "postalCode": "59405",
    "state": "Montana",
    "countryCode": "US",
    "website": "https://www.cvs.com/store-locator/great-falls-mt-pharmacies/2001-10th-avenue-south-great-falls-mt-59405/storeid=8624?WT.mc_id=LS_GOOGLE_RX_8624",
    "phone": "+1 406-453-1318",
    "phoneUnformatted": "+14064531318",
    "claimThisBusiness": false,
    "location": {
      "lat": 47.494803,
      "lng": -111.2722894
    },
    "totalScore": 4,
    "permanentlyClosed": false,
    "temporarilyClosed": false,
    "placeId": "ChIJ3-KWM7s3QlMRIjijJwhI9vE",
    "categories": [
      "Pharmacy"
    ],
    "fid": "0x534237bb3396e2df:0xf1f6480827a33822",
    "cid": "17435202207273400354",
    "reviewsCount": 30,
    "imagesCount": 10,
    "imageCategories": [],
    "scrapedAt": "2025-06-22T08:25:26.322Z",
    "googleFoodUrl": null,
    "hotelAds": [],
    "openingHours": [
      {
        "day": "Monday",
        "hours": "9 AM to 1:30 PM, 2 to 7 PM"
      },
      {
        "day": "Tuesday",
        "hours": "9 AM to 1:30 PM, 2 to 7 PM"
      },
      {
        "day": "Wednesday",
        "hours": "9 AM to 1:30 PM, 2 to 7 PM"
      },
      {
        "day": "Thursday",
        "hours": "9 AM to 1:30 PM, 2 to 7 PM"
      },
      {
        "day": "Friday",
        "hours": "9 AM to 1:30 PM, 2 to 7 PM"
      },
      {
        "day": "Saturday",
        "hours": "9 AM to 1:30 PM, 2 to 6 PM"
      },
      {
        "day": "Sunday",
        "hours": "10 AM to 1:30 PM, 2 to 6 PM"
      }
    ],
    "peopleAlsoSearch": [],
    "placesTags": [],
    "reviewsTags": [],
    "additionalInfo": {
      "Service options": [
        {
          "Delivery": true
        },
        {
          "Drive-through": true
        },
        {
          "In-store shopping": true
        }
      ],
      "Accessibility": [
        {
          "Wheelchair-accessible car park": true
        },
        {
          "Wheelchair-accessible entrance": true
        }
      ],
      "Offerings": [
        {
          "Medication disposal": true
        },
        {
          "Naloxone": true
        },
        {
          "Passport photos": true
        }
      ],
      "Crowd": [
        {
          "LGBTQ+ friendly": true
        },
        {
          "Transgender safe space": true
        }
      ],
      "Planning": [
        {
          "Quick visit": true
        }
      ],
      "Payments": [
        {
          "Credit cards": true
        },
        {
          "Debit cards": true
        },
        {
          "NFC mobile payments": true
        },
        {
          "SNAP/EBT": true
        },
        {
          "Credit cards": true
        }
      ]
    },
    "gasPrices": [],
    "url": "https://www.google.com/maps/search/?api=1&query=CVS%20Pharmacy&query_place_id=ChIJ3-KWM7s3QlMRIjijJwhI9vE",
    "searchPageUrl": "https://www.google.com/maps/search/independent%20pharmacy%20Great%20Falls%20MT/@28.23564,-177.64283584778357,12z?hl=en",
    "searchString": "independent pharmacy Great Falls MT",
    "language": "en",
    "rank": 5,
    "isAdvertisement": false,
    "imageUrl": "https://lh3.googleusercontent.com/p/AF1QipP5rNBIoelD_l3TnAriXALKY4nAr50O8vZrZkF1=w408-h272-k-no",
    "kgmid": "/g/11c462tv85"
  },
  {
    "title": "Walgreens Pharmacy",
    "description": "Department of the Walgreens chain providing prescription medications & other health-related items.",
    "price": "$$",
    "categoryName": "Pharmacy",
    "address": "1213 3rd St NW, Great Falls, MT 59404",
    "neighborhood": null,
    "street": "1213 3rd St NW",
    "city": "Great Falls",
    "postalCode": "59404",
    "state": "Montana",
    "countryCode": "US",
    "website": "https://www.walgreens.com/locator/walgreens-1213+3rd+st+nw-great+falls-mt-59404/id=10859",
    "phone": "(406) 761-0214",
    "phoneUnformatted": "+14067610214",
    "claimThisBusiness": false,
    "location": {
      "lat": 47.5188093,
      "lng": -111.3093406
    },
    "totalScore": 3.9,
    "permanentlyClosed": false,
    "temporarilyClosed": false,
    "placeId": "ChIJy76FGB84QlMRog5kWmoU50w",
    "categories": [
      "Pharmacy"
    ],
    "fid": "0x5342381f1885becb:0x4ce7146a5a640ea2",
    "cid": "5541420313518280354",
    "reviewsCount": 15,
    "imagesCount": 4,
    "imageCategories": [],
    "scrapedAt": "2025-06-22T08:26:13.475Z",
    "googleFoodUrl": null,
    "hotelAds": [],
    "openingHours": [
      {
        "day": "Monday",
        "hours": "9 AM to 1:30 PM, 2 to 8 PM"
      },
      {
        "day": "Tuesday",
        "hours": "9 AM to 1:30 PM, 2 to 8 PM"
      },
      {
        "day": "Wednesday",
        "hours": "9 AM to 1:30 PM, 2 to 8 PM"
      },
      {
        "day": "Thursday",
        "hours": "9 AM to 1:30 PM, 2 to 8 PM"
      },
      {
        "day": "Friday",
        "hours": "9 AM to 1:30 PM, 2 to 8 PM"
      },
      {
        "day": "Saturday",
        "hours": "10 AM to 1:30 PM, 2 to 6 PM"
      },
      {
        "day": "Sunday",
        "hours": "Closed"
      }
    ],
    "additionalOpeningHours": {
      "Drive through": [
        {
          "day": "Monday",
          "hours": "9 AM–1:30 PM"
        },
        {
          "day": "Tuesday",
          "hours": "9 AM–1:30 PM"
        },
        {
          "day": "Wednesday",
          "hours": "9 AM–1:30 PM"
        },
        {
          "day": "Thursday",
          "hours": "9 AM–1:30 PM"
        },
        {
          "day": "Friday",
          "hours": "9 AM–1:30 PM"
        },
        {
          "day": "Saturday",
          "hours": "10 AM–1:30 PM"
        },
        {
          "day": "Sunday",
          "hours": "Closed"
        }
      ]
    },
    "peopleAlsoSearch": [],
    "placesTags": [],
    "reviewsTags": [],
    "additionalInfo": {
      "Service options": [
        {
          "Drive-through": true
        },
        {
          "In-store pickup": true
        },
        {
          "Onsite services": true
        }
      ],
      "Accessibility": [
        {
          "Wheelchair accessible entrance": true
        },
        {
          "Wheelchair accessible parking lot": true
        }
      ],
      "Offerings": [
        {
          "Naloxone": true
        }
      ],
      "Planning": [
        {
          "Quick visit": true
        }
      ],
      "Payments": [
        {
          "Checks": true
        },
        {
          "Credit cards": true
        },
        {
          "Debit cards": true
        }
      ]
    },
    "gasPrices": [],
    "url": "https://www.google.com/maps/search/?api=1&query=Walgreens%20Pharmacy&query_place_id=ChIJy76FGB84QlMRog5kWmoU50w",
    "searchPageUrl": "https://www.google.com/maps/search/independent%20pharmacy%20Great%20Falls%20MT/@39.68245004733214,-118.1483311994871,8z?hl=en",
    "searchString": "independent pharmacy Great Falls MT",
    "language": "en",
    "rank": 9,
    "isAdvertisement": false,
    "imageUrl": "https://lh3.googleusercontent.com/gps-cs-s/AC9h4nrnEj_rsIEX-r1oWJOC9L-Gi-fIVEWRb7B0-jb3h2ddzg6VNl_9OOSqKdnhnT8-PkbMX01nCf-NNpKBJ8kzSlZLj8FUxKXJ5l-bC46p2dBBSyoY5OPVBJH4WETlBO6eZegZH64A=w408-h306-k-no",
    "kgmid": "/g/11cn93lgxz"
  },
  {
    "title": "Albertsons Pharmacy",
    "price": "€€",
    "categoryName": "Pharmacy",
    "address": "1414 3rd St NW, Great Falls, MT 59404, United States",
    "neighborhood": null,
    "street": "1414 3rd St NW",
    "city": "Great Falls",
    "postalCode": "59404",
    "state": "Montana",
    "countryCode": "US",
    "website": "https://local.pharmacy.albertsons.com/mt/great-falls/1414-3rd-st-nw.html",
    "phone": "+1 406-761-8420",
    "phoneUnformatted": "+14067618420",
    "claimThisBusiness": false,
    "location": {
      "lat": 47.5201414,
      "lng": -111.3113063
    },
    "totalScore": 3.9,
    "permanentlyClosed": false,
    "temporarilyClosed": false,
    "placeId": "ChIJVS-aMx84QlMRNub3X1m83yQ",
    "categories": [
      "Pharmacy",
      "Drug store",
      "Vitamin & supplements store"
    ],
    "fid": "0x5342381f339a2f55:0x24dfbc595ff7e636",
    "cid": "2657049397220075062",
    "reviewsCount": 30,
    "imagesCount": 4,
    "imageCategories": [],
    "scrapedAt": "2025-06-22T08:26:18.755Z",
    "googleFoodUrl": null,
    "hotelAds": [],
    "openingHours": [
      {
        "day": "Monday",
        "hours": "8 AM to 8 PM"
      },
      {
        "day": "Tuesday",
        "hours": "8 AM to 8 PM"
      },
      {
        "day": "Wednesday",
        "hours": "8 AM to 8 PM"
      },
      {
        "day": "Thursday",
        "hours": "8 AM to 8 PM"
      },
      {
        "day": "Friday",
        "hours": "8 AM to 8 PM"
      },
      {
        "day": "Saturday",
        "hours": "9 AM to 6 PM"
      },
      {
        "day": "Sunday",
        "hours": "10 AM to 4 PM"
      }
    ],
    "peopleAlsoSearch": [],
    "placesTags": [],
    "reviewsTags": [],
    "additionalInfo": {
      "Service options": [
        {
          "Delivery": true
        },
        {
          "Drive-through": true
        },
        {
          "In-store pick-up": true
        },
        {
          "In-store shopping": true
        },
        {
          "Same-day delivery": true
        }
      ],
      "Accessibility": [
        {
          "Wheelchair-accessible car park": true
        },
        {
          "Wheelchair-accessible entrance": true
        }
      ],
      "Crowd": [
        {
          "LGBTQ+ friendly": true
        }
      ],
      "Planning": [
        {
          "Appointment required": true
        },
        {
          "Quick visit": true
        }
      ],
      "Payments": [
        {
          "Cheques": true
        },
        {
          "Debit cards": true
        },
        {
          "Credit cards": true
        }
      ]
    },
    "gasPrices": [],
    "url": "https://www.google.com/maps/search/?api=1&query=Albertsons%20Pharmacy&query_place_id=ChIJVS-aMx84QlMRNub3X1m83yQ",
    "searchPageUrl": "https://www.google.com/maps/search/independent%20pharmacy%20Great%20Falls%20MT/@42.54640259466427,-121.31455714227097,8z?hl=en",
    "searchString": "independent pharmacy Great Falls MT",
    "language": "en",
    "rank": 9,
    "isAdvertisement": false,
    "imageUrl": "https://lh3.googleusercontent.com/p/AF1QipPszU0ngorA7-y9l9W892AywPpmhjsKT8MtM7fL=w427-h240-k-no",
    "kgmid": "/g/1tnmrc_0"
  },
  {
    "title": "Albertsons Pharmacy",
    "price": "€€",
    "categoryName": "Pharmacy",
    "address": "2250 10th Ave S, Great Falls, MT 59405, United States",
    "neighborhood": null,
    "street": "2250 10th Ave S",
    "city": "Great Falls",
    "postalCode": "59405",
    "state": "Montana",
    "countryCode": "US",
    "website": "https://local.pharmacy.albertsons.com/mt/great-falls/2250-10th-ave-s.html",
    "phone": "+1 406-727-9880",
    "phoneUnformatted": "+14067279880",
    "claimThisBusiness": false,
    "location": {
      "lat": 47.4930644,
      "lng": -111.2694267
    },
    "totalScore": 3.7,
    "permanentlyClosed": false,
    "temporarilyClosed": false,
    "placeId": "ChIJpeuyGaU3QlMRSYJ9C_j4iK8",
    "categories": [
      "Pharmacy",
      "Drug store",
      "Vitamin & supplements store"
    ],
    "fid": "0x534237a519b2eba5:0xaf88f8f80b7d8249",
    "cid": "12648633297698390601",
    "reviewsCount": 32,
    "imagesCount": 5,
    "imageCategories": [],
    "scrapedAt": "2025-06-22T08:26:18.755Z",
    "googleFoodUrl": null,
    "hotelAds": [],
    "openingHours": [
      {
        "day": "Monday",
        "hours": "8 AM to 8 PM"
      },
      {
        "day": "Tuesday",
        "hours": "8 AM to 8 PM"
      },
      {
        "day": "Wednesday",
        "hours": "8 AM to 8 PM"
      },
      {
        "day": "Thursday",
        "hours": "8 AM to 8 PM"
      },
      {
        "day": "Friday",
        "hours": "8 AM to 8 PM"
      },
      {
        "day": "Saturday",
        "hours": "9 AM to 6 PM"
      },
      {
        "day": "Sunday",
        "hours": "10 AM to 4 PM"
      }
    ],
    "peopleAlsoSearch": [],
    "placesTags": [],
    "reviewsTags": [],
    "additionalInfo": {
      "Service options": [
        {
          "Delivery": true
        },
        {
          "In-store pick-up": true
        },
        {
          "In-store shopping": true
        },
        {
          "Same-day delivery": true
        }
      ],
      "Accessibility": [
        {
          "Wheelchair-accessible car park": true
        },
        {
          "Wheelchair-accessible entrance": true
        }
      ],
      "Crowd": [
        {
          "LGBTQ+ friendly": true
        }
      ],
      "Planning": [
        {
          "Appointment required": true
        },
        {
          "Quick visit": true
        }
      ],
      "Payments": [
        {
          "Cheques": true
        },
        {
          "Debit cards": true
        },
        {
          "Credit cards": true
        }
      ]
    },
    "gasPrices": [],
    "url": "https://www.google.com/maps/search/?api=1&query=Albertsons%20Pharmacy&query_place_id=ChIJpeuyGaU3QlMRSYJ9C_j4iK8",
    "searchPageUrl": "https://www.google.com/maps/search/independent%20pharmacy%20Great%20Falls%20MT/@42.54640259466427,-121.31455714227097,8z?hl=en",
    "searchString": "independent pharmacy Great Falls MT",
    "language": "en",
    "rank": 10,
    "isAdvertisement": false,
    "imageUrl": "https://lh3.googleusercontent.com/p/AF1QipM-4_BUMDMiyPEcPnVosSHImm9ADPk-EAloHQc8=w427-h240-k-no",
    "kgmid": "/g/1vm7b3hp"
  },
  {
    "title": "Walgreens",
    "description": "Drugstore chain with health & beauty aids, prescriptions & photo services, plus mini-mart basics.",
    "price": "$$",
    "categoryName": "Drug store",
    "address": "550 S Main St, Cottonwood, AZ 86326",
    "neighborhood": null,
    "street": "550 S Main St",
    "city": "Cottonwood",
    "postalCode": "86326",
    "state": "Arizona",
    "countryCode": "US",
    "website": "https://www.walgreens.com/locator/walgreens-550+s+main+st-cottonwood-az-86326/id=5567",
    "phone": "(928) 649-3850",
    "phoneUnformatted": "+19286493850",
    "claimThisBusiness": false,
    "location": {
      "lat": 34.7291777,
      "lng": -112.0098779
    },
    "locatedIn": "Walgreens Pharmacy",
    "totalScore": 2.9,
    "permanentlyClosed": false,
    "temporarilyClosed": false,
    "placeId": "ChIJOXZjTIYPLYcRzBjHiPhO4Jw",
    "categories": [
      "Drug store",
      "Beauty supply store",
      "Convenience store",
      "Cosmetics store",
      "Greeting card shop",
      "Perfume store",
      "Stationery store"
    ],
    "fid": "0x872d0f864c637639:0x9ce04ef888c718cc",
    "cid": "11304121894053550284",
    "reviewsCount": 86,
    "reviewsDistribution": {
      "oneStar": 38,
      "twoStar": 6,
      "threeStar": 4,
      "fourStar": 6,
      "fiveStar": 32
    },
    "imagesCount": 7,
    "imageCategories": [],
    "scrapedAt": "2025-06-22T08:26:20.632Z",
    "googleFoodUrl": null,
    "hotelAds": [],
    "openingHours": [
      {
        "day": "Monday",
        "hours": "7 AM to 10 PM"
      },
      {
        "day": "Tuesday",
        "hours": "7 AM to 10 PM"
      },
      {
        "day": "Wednesday",
        "hours": "7 AM to 10 PM"
      },
      {
        "day": "Thursday",
        "hours": "7 AM to 10 PM"
      },
      {
        "day": "Friday",
        "hours": "7 AM to 10 PM"
      },
      {
        "day": "Saturday",
        "hours": "7 AM to 10 PM"
      },
      {
        "day": "Sunday",
        "hours": "7 AM to 10 PM"
      }
    ],
    "additionalOpeningHours": {
      "Walgreens Pharmacy": [
        {
          "day": "Monday",
          "hours": "9 AM–1:30 PM"
        },
        {
          "day": "Tuesday",
          "hours": "9 AM–1:30 PM"
        },
        {
          "day": "Wednesday",
          "hours": "9 AM–1:30 PM"
        },
        {
          "day": "Thursday",
          "hours": "9 AM–1:30 PM"
        },
        {
          "day": "Friday",
          "hours": "9 AM–1:30 PM"
        },
        {
          "day": "Saturday",
          "hours": "9 AM–1:30 PM"
        },
        {
          "day": "Sunday",
          "hours": "10 AM–1:30 PM"
        }
      ],
      "Walgreens Photo": [
        {
          "day": "Monday",
          "hours": "7 AM–10 PM"
        },
        {
          "day": "Tuesday",
          "hours": "7 AM–10 PM"
        },
        {
          "day": "Wednesday",
          "hours": "7 AM–10 PM"
        },
        {
          "day": "Thursday",
          "hours": "7 AM–10 PM"
        },
        {
          "day": "Friday",
          "hours": "7 AM–10 PM"
        },
        {
          "day": "Saturday",
          "hours": "7 AM–10 PM"
        },
        {
          "day": "Sunday",
          "hours": "7 AM–10 PM"
        }
      ],
      "Pickup": [
        {
          "day": "Monday",
          "hours": "7 AM–10 PM"
        },
        {
          "day": "Tuesday",
          "hours": "7 AM–10 PM"
        },
        {
          "day": "Wednesday",
          "hours": "7 AM–10 PM"
        },
        {
          "day": "Thursday",
          "hours": "7 AM–10 PM"
        },
        {
          "day": "Friday",
          "hours": "7 AM–10 PM"
        },
        {
          "day": "Saturday",
          "hours": "7 AM–10 PM"
        },
        {
          "day": "Sunday",
          "hours": "7 AM–10 PM"
        }
      ]
    },
    "peopleAlsoSearch": [],
    "placesTags": [],
    "reviewsTags": [],
    "additionalInfo": {
      "Service options": [
        {
          "Curbside pickup": true
        },
        {
          "Delivery": true
        },
        {
          "Drive-through": true
        },
        {
          "In-store pickup": true
        },
        {
          "Onsite services": true
        }
      ],
      "Accessibility": [
        {
          "Wheelchair accessible entrance": true
        },
        {
          "Wheelchair accessible parking lot": true
        }
      ],
      "Offerings": [
        {
          "Passport photos": true
        }
      ],
      "Planning": [
        {
          "Quick visit": true
        }
      ],
      "Payments": [
        {
          "Checks": true
        },
        {
          "Credit cards": true
        },
        {
          "Debit cards": true
        },
        {
          "NFC mobile payments": true
        },
        {
          "SNAP/EBT": true
        },
        {
          "Credit cards": true
        }
      ]
    },
    "gasPrices": [],
    "url": "https://www.google.com/maps/search/?api=1&query=Walgreens&query_place_id=ChIJOXZjTIYPLYcRzBjHiPhO4Jw",
    "searchPageUrl": "https://www.google.com/maps/search/independent%20pharmacy%20Great%20Falls%20MT/@33.954544952667874,-108.6496533711355,8z?hl=en",
    "searchString": "independent pharmacy Great Falls MT",
    "language": "en",
    "rank": 21,
    "isAdvertisement": false,
    "imageUrl": "https://lh3.googleusercontent.com/gps-cs-s/AC9h4nr0dHJp2A28rulBfMUZi_zEGz_4mC5nF7fdWw2Xiba92LTtNoK6AaM2VkNjFeDFKGHTsbdvr4vdykHnfWF9hA4M-LjY0b1aaR3TacXgh0I6cMkKDRFmujSpxqbH5U9rXfo45xZ-=w408-h544-k-no",
    "kgmid": "/g/1tgwn4y7"
  },
  {
    "title": "Taylor Drug",
    "price": null,
    "categoryName": "Pharmacy",
    "address": "76 N 1100 E, American Fork, UT 84003",
    "neighborhood": null,
    "street": "76 N 1100 E",
    "city": "American Fork",
    "postalCode": "84003",
    "state": "Utah",
    "countryCode": "US",
    "website": "http://www.taylordrugstore.com/",
    "phone": "(801) 756-4021",
    "phoneUnformatted": "+18017564021",
    "claimThisBusiness": false,
    "location": {
      "lat": 40.3780843,
      "lng": -111.7686288
    },
    "totalScore": 4.1,
    "permanentlyClosed": false,
    "temporarilyClosed": false,
    "placeId": "ChIJ_9ojllGBTYcRQQ7e2tGEsUQ",
    "categories": [
      "Pharmacy"
    ],
    "fid": "0x874d81519623daff:0x44b184d1dade0e41",
    "cid": "4949883502311902785",
    "reviewsCount": 185,
    "imagesCount": 30,
    "imageCategories": [],
    "scrapedAt": "2025-06-22T08:26:25.472Z",
    "googleFoodUrl": null,
    "hotelAds": [],
    "openingHours": [
      {
        "day": "Monday",
        "hours": "9 AM to 9 PM"
      },
      {
        "day": "Tuesday",
        "hours": "9 AM to 9 PM"
      },
      {
        "day": "Wednesday",
        "hours": "9 AM to 9 PM"
      },
      {
        "day": "Thursday",
        "hours": "9 AM to 9 PM"
      },
      {
        "day": "Friday",
        "hours": "9 AM to 9 PM"
      },
      {
        "day": "Saturday",
        "hours": "9 AM to 7 PM"
      },
      {
        "day": "Sunday",
        "hours": "4 to 8 PM"
      }
    ],
    "peopleAlsoSearch": [],
    "placesTags": [],
    "reviewsTags": [],
    "additionalInfo": {
      "From the business": [
        {
          "Small business": true
        }
      ],
      "Service options": [
        {
          "Delivery": true
        },
        {
          "Drive-through": true
        },
        {
          "In-store pickup": true
        },
        {
          "In-store shopping": true
        },
        {
          "Onsite services": true
        },
        {
          "Same-day delivery": true
        },
        {
          "English": true
        }
      ],
      "Accessibility": [
        {
          "Wheelchair accessible entrance": true
        },
        {
          "Wheelchair accessible parking lot": true
        }
      ],
      "Planning": [
        {
          "Quick visit": true
        }
      ],
      "Payments": [
        {
          "Checks": true
        },
        {
          "Credit cards": true
        },
        {
          "Debit cards": true
        },
        {
          "NFC mobile payments": true
        },
        {
          "Credit cards": true
        }
      ]
    },
    "gasPrices": [],
    "url": "https://www.google.com/maps/search/?api=1&query=Taylor%20Drug&query_place_id=ChIJ_9ojllGBTYcRQQ7e2tGEsUQ",
    "searchPageUrl": "https://www.google.com/maps/search/independent%20pharmacy%20Great%20Falls%20MT/@39.68245004733214,-111.81587931391937,8z?hl=en",
    "searchString": "independent pharmacy Great Falls MT",
    "language": "en",
    "rank": 2,
    "isAdvertisement": false,
    "imageUrl": "https://lh3.googleusercontent.com/gps-cs-s/AC9h4npLLu4UfC-TWS98w1d5efhjk_xVh4iwz8070c2ciCsrEDpri90aR71aZiX4FYxFGTcz_STimaJIaceSq5pH2nRSI-WacEEk3k3pxAZqhVwKdhaOrFLqMAsm_TSexvQeVAEmC57dTg=w408-h306-k-no",
    "kgmid": "/g/1xgzc7sh"
  },
  {
    "title": "Walgreens",
    "description": "Drugstore chain with health & beauty aids, prescriptions & photo services, plus mini-mart basics.",
    "price": "$$",
    "categoryName": "Drug store",
    "address": "2090 E 9400 S, Sandy, UT 84093",
    "neighborhood": null,
    "street": "2090 E 9400 S",
    "city": "Sandy",
    "postalCode": "84093",
    "state": "Utah",
    "countryCode": "US",
    "website": "https://www.walgreens.com/locator/walgreens-2090+e+9400+s-sandy-ut-84093/id=9464",
    "phone": "(801) 308-1007",
    "phoneUnformatted": "+18013081007",
    "claimThisBusiness": false,
    "location": {
      "lat": 40.5798262,
      "lng": -111.8320133
    },
    "locatedIn": "Walgreens Pharmacy",
    "totalScore": 2.8,
    "permanentlyClosed": false,
    "temporarilyClosed": false,
    "placeId": "ChIJQdXhEDh9UocRS-5RcHip9JE",
    "categories": [
      "Drug store",
      "Beauty supply store",
      "Convenience store",
      "Cosmetics store",
      "Greeting card shop",
      "Perfume store",
      "Stationery store"
    ],
    "fid": "0x87527d3810e1d541:0x91f4a9787051ee4b",
    "cid": "10517217364562538059",
    "reviewsCount": 97,
    "imagesCount": 10,
    "imageCategories": [],
    "scrapedAt": "2025-06-22T08:26:25.473Z",
    "googleFoodUrl": null,
    "hotelAds": [],
    "openingHours": [
      {
        "day": "Monday",
        "hours": "7 AM to 10 PM"
      },
      {
        "day": "Tuesday",
        "hours": "7 AM to 10 PM"
      },
      {
        "day": "Wednesday",
        "hours": "7 AM to 10 PM"
      },
      {
        "day": "Thursday",
        "hours": "7 AM to 10 PM"
      },
      {
        "day": "Friday",
        "hours": "7 AM to 10 PM"
      },
      {
        "day": "Saturday",
        "hours": "7 AM to 10 PM"
      },
      {
        "day": "Sunday",
        "hours": "7 AM to 10 PM"
      }
    ],
    "additionalOpeningHours": {
      "Walgreens Pharmacy": [
        {
          "day": "Monday",
          "hours": "8 AM–1:30 PM"
        },
        {
          "day": "Tuesday",
          "hours": "8 AM–1:30 PM"
        },
        {
          "day": "Wednesday",
          "hours": "8 AM–1:30 PM"
        },
        {
          "day": "Thursday",
          "hours": "8 AM–1:30 PM"
        },
        {
          "day": "Friday",
          "hours": "8 AM–1:30 PM"
        },
        {
          "day": "Saturday",
          "hours": "9 AM–1:30 PM"
        },
        {
          "day": "Sunday",
          "hours": "9 AM–1:30 PM"
        }
      ],
      "Walgreens Photo": [
        {
          "day": "Monday",
          "hours": "7 AM–10 PM"
        },
        {
          "day": "Tuesday",
          "hours": "7 AM–10 PM"
        },
        {
          "day": "Wednesday",
          "hours": "7 AM–10 PM"
        },
        {
          "day": "Thursday",
          "hours": "7 AM–10 PM"
        },
        {
          "day": "Friday",
          "hours": "7 AM–10 PM"
        },
        {
          "day": "Saturday",
          "hours": "7 AM–10 PM"
        },
        {
          "day": "Sunday",
          "hours": "7 AM–10 PM"
        }
      ],
      "Pickup": [
        {
          "day": "Monday",
          "hours": "7 AM–10 PM"
        },
        {
          "day": "Tuesday",
          "hours": "7 AM–10 PM"
        },
        {
          "day": "Wednesday",
          "hours": "7 AM–10 PM"
        },
        {
          "day": "Thursday",
          "hours": "7 AM–10 PM"
        },
        {
          "day": "Friday",
          "hours": "7 AM–10 PM"
        },
        {
          "day": "Saturday",
          "hours": "7 AM–10 PM"
        },
        {
          "day": "Sunday",
          "hours": "7 AM–10 PM"
        }
      ]
    },
    "peopleAlsoSearch": [],
    "placesTags": [],
    "reviewsTags": [],
    "additionalInfo": {
      "Service options": [
        {
          "Curbside pickup": true
        },
        {
          "Delivery": true
        },
        {
          "Drive-through": true
        },
        {
          "In-store pickup": true
        },
        {
          "Onsite services": true
        },
        {
          "Same-day delivery": false
        }
      ],
      "Accessibility": [
        {
          "Wheelchair accessible entrance": true
        },
        {
          "Wheelchair accessible parking lot": true
        }
      ],
      "Offerings": [
        {
          "Passport photos": true
        }
      ],
      "Planning": [
        {
          "Quick visit": true
        }
      ],
      "Payments": [
        {
          "Checks": true
        },
        {
          "Credit cards": true
        },
        {
          "Debit cards": true
        },
        {
          "NFC mobile payments": true
        },
        {
          "SNAP/EBT": true
        },
        {
          "Credit cards": true
        }
      ]
    },
    "gasPrices": [],
    "url": "https://www.google.com/maps/search/?api=1&query=Walgreens&query_place_id=ChIJQdXhEDh9UocRS-5RcHip9JE",
    "searchPageUrl": "https://www.google.com/maps/search/independent%20pharmacy%20Great%20Falls%20MT/@39.68245004733214,-111.81587931391937,8z?hl=en",
    "searchString": "independent pharmacy Great Falls MT",
    "language": "en",
    "rank": 9,
    "isAdvertisement": false,
    "imageUrl": "https://lh3.googleusercontent.com/gps-cs-s/AC9h4npXC8XWe7GNz1Po35WyNqf4of-d-6Mn03uNeY5Xr-SPwfUlVjg0M56btEVkJnzvSiOqbjXZDRFUokpBxFQc2ok8TK0HQgrF6tle4d7lSTtogaRomGwwgWs4evKyxYzWP70n2lBv=w426-h240-k-no",
    "kgmid": "/g/1tyzzgjj"
  },
  {
    "title": "Bloomfield Drug Store",
    "price": null,
    "categoryName": "Pharmacy",
    "address": "4727 Liberty Ave, Pittsburgh, PA 15224",
    "neighborhood": "Bloomfield",
    "street": "4727 Liberty Ave",
    "city": "Pittsburgh",
    "postalCode": "15224",
    "state": "Pennsylvania",
    "countryCode": "US",
    "website": "http://www.bloomfielddrugstore.com/",
    "phone": "(412) 682-4909",
    "phoneUnformatted": "+14126824909",
    "claimThisBusiness": false,
    "location": {
      "lat": 40.46179,
      "lng": -79.9489428
    },
    "totalScore": 4.5,
    "permanentlyClosed": false,
    "temporarilyClosed": false,
    "placeId": "ChIJN8sfFEfyNIgRjylMDpeH9-U",
    "categories": [
      "Pharmacy"
    ],
    "fid": "0x8834f247141fcb37:0xe5f787970e4c298f",
    "cid": "16570862436782713231",
    "reviewsCount": 57,
    "imagesCount": 46,
    "imageCategories": [],
    "scrapedAt": "2025-06-22T08:26:27.607Z",
    "googleFoodUrl": null,
    "hotelAds": [],
    "openingHours": [
      {
        "day": "Monday",
        "hours": "9:30 AM to 6 PM"
      },
      {
        "day": "Tuesday",
        "hours": "9:30 AM to 6 PM"
      },
      {
        "day": "Wednesday",
        "hours": "9:30 AM to 6 PM"
      },
      {
        "day": "Thursday",
        "hours": "9:30 AM to 6 PM"
      },
      {
        "day": "Friday",
        "hours": "9:30 AM to 6 PM"
      },
      {
        "day": "Saturday",
        "hours": "9:30 AM to 2 PM"
      },
      {
        "day": "Sunday",
        "hours": "Closed"
      }
    ],
    "peopleAlsoSearch": [],
    "placesTags": [],
    "reviewsTags": [],
    "additionalInfo": {
      "From the business": [
        {
          "Small business": true
        }
      ],
      "Service options": [
        {
          "Delivery": true
        },
        {
          "In-store pickup": true
        },
        {
          "Onsite services": true
        },
        {
          "Same-day delivery": true
        }
      ],
      "Accessibility": [
        {
          "Wheelchair accessible entrance": true
        },
        {
          "Wheelchair accessible parking lot": true
        }
      ],
      "Planning": [
        {
          "Quick visit": true
        }
      ],
      "Payments": [
        {
          "Credit cards": true
        },
        {
          "Debit cards": true
        },
        {
          "NFC mobile payments": true
        },
        {
          "Credit cards": true
        }
      ]
    },
    "gasPrices": [],
    "url": "https://www.google.com/maps/search/?api=1&query=Bloomfield%20Drug%20Store&query_place_id=ChIJN8sfFEfyNIgRjylMDpeH9-U",
    "searchPageUrl": "https://www.google.com/maps/search/independent%20pharmacy%20Great%20Falls%20MT/@39.68245004733214,-80.15361988608069,8z?hl=en",
    "searchString": "independent pharmacy Great Falls MT",
    "language": "en",
    "rank": 2,
    "isAdvertisement": false,
    "imageUrl": "https://lh3.googleusercontent.com/gps-cs-s/AC9h4nrkmyvU9g_zG8EbYymg205K9kQ_hNQGjdAfrvS6K0hEFo33gNAcKiKdha-_U9HkrP-ShG8ghMU2U3ZdeTIPxFE6w1c_XhGw_LX-Gi2v6WHeZ7rC37zOcMoPGCpyJUDX3Y4TPh6HZA=w408-h306-k-no",
    "kgmid": "/g/1vtqwrsf"
  },
  {
    "title": "Walgreens",
    "description": "Drugstore chain with health & beauty aids, prescriptions & photo services, plus mini-mart basics.",
    "price": "$$",
    "categoryName": "Drug store",
    "address": "905 Yellowstone Ave, Pocatello, ID 83201",
    "neighborhood": null,
    "street": "905 Yellowstone Ave",
    "city": "Pocatello",
    "postalCode": "83201",
    "state": "Idaho",
    "countryCode": "US",
    "website": "https://www.walgreens.com/locator/walgreens-905+yellowstone+ave-pocatello-id-83201/id=6380",
    "phone": "(208) 233-2382",
    "phoneUnformatted": "+12082332382",
    "claimThisBusiness": false,
    "location": {
      "lat": 42.8917498,
      "lng": -112.4523479
    },
    "locatedIn": "Walgreens Pharmacy",
    "totalScore": 2.5,
    "permanentlyClosed": false,
    "temporarilyClosed": false,
    "placeId": "ChIJD9wbQ1hPVVMRCg6O03DHkkU",
    "categories": [
      "Drug store",
      "Beauty supply store",
      "Convenience store",
      "Cosmetics store",
      "Greeting card shop",
      "Perfume store",
      "Stationery store"
    ],
    "fid": "0x53554f58431bdc0f:0x4592c770d38e0e0a",
    "cid": "5013288622616350218",
    "reviewsCount": 122,
    "reviewsDistribution": {
      "oneStar": 59,
      "twoStar": 10,
      "threeStar": 8,
      "fourStar": 18,
      "fiveStar": 27
    },
    "imagesCount": 18,
    "imageCategories": [],
    "scrapedAt": "2025-06-22T08:26:33.205Z",
    "googleFoodUrl": null,
    "hotelAds": [],
    "openingHours": [
      {
        "day": "Monday",
        "hours": "7 AM to 12 AM"
      },
      {
        "day": "Tuesday",
        "hours": "7 AM to 12 AM"
      },
      {
        "day": "Wednesday",
        "hours": "7 AM to 12 AM"
      },
      {
        "day": "Thursday",
        "hours": "7 AM to 12 AM"
      },
      {
        "day": "Friday",
        "hours": "7 AM to 12 AM"
      },
      {
        "day": "Saturday",
        "hours": "7 AM to 12 AM"
      },
      {
        "day": "Sunday",
        "hours": "7 AM to 12 AM"
      }
    ],
    "additionalOpeningHours": {
      "Walgreens Pharmacy": [
        {
          "day": "Monday",
          "hours": "9 AM–1:30 PM"
        },
        {
          "day": "Tuesday",
          "hours": "9 AM–1:30 PM"
        },
        {
          "day": "Wednesday",
          "hours": "9 AM–1:30 PM"
        },
        {
          "day": "Thursday",
          "hours": "9 AM–1:30 PM"
        },
        {
          "day": "Friday",
          "hours": "9 AM–1:30 PM"
        },
        {
          "day": "Saturday",
          "hours": "9 AM–1:30 PM"
        },
        {
          "day": "Sunday",
          "hours": "10 AM–1:30 PM"
        }
      ],
      "Walgreens Photo": [
        {
          "day": "Monday",
          "hours": "7 AM–12 AM"
        },
        {
          "day": "Tuesday",
          "hours": "7 AM–12 AM"
        },
        {
          "day": "Wednesday",
          "hours": "7 AM–12 AM"
        },
        {
          "day": "Thursday",
          "hours": "7 AM–12 AM"
        },
        {
          "day": "Friday",
          "hours": "7 AM–12 AM"
        },
        {
          "day": "Saturday",
          "hours": "7 AM–12 AM"
        },
        {
          "day": "Sunday",
          "hours": "7 AM–12 AM"
        }
      ],
      "Pickup": [
        {
          "day": "Monday",
          "hours": "7 AM–12 AM"
        },
        {
          "day": "Tuesday",
          "hours": "7 AM–12 AM"
        },
        {
          "day": "Wednesday",
          "hours": "7 AM–12 AM"
        },
        {
          "day": "Thursday",
          "hours": "7 AM–12 AM"
        },
        {
          "day": "Friday",
          "hours": "7 AM–12 AM"
        },
        {
          "day": "Saturday",
          "hours": "7 AM–12 AM"
        },
        {
          "day": "Sunday",
          "hours": "7 AM–12 AM"
        }
      ]
    },
    "peopleAlsoSearch": [],
    "placesTags": [],
    "reviewsTags": [],
    "additionalInfo": {
      "Service options": [
        {
          "Curbside pickup": true
        },
        {
          "Delivery": true
        },
        {
          "Drive-through": true
        },
        {
          "In-store pickup": true
        },
        {
          "Onsite services": true
        },
        {
          "Same-day delivery": false
        }
      ],
      "Accessibility": [
        {
          "Wheelchair accessible entrance": true
        },
        {
          "Wheelchair accessible parking lot": true
        }
      ],
      "Planning": [
        {
          "Appointment required": true
        },
        {
          "Quick visit": true
        }
      ],
      "Payments": [
        {
          "Checks": true
        },
        {
          "Credit cards": true
        },
        {
          "Debit cards": true
        },
        {
          "NFC mobile payments": true
        },
        {
          "SNAP/EBT": true
        },
        {
          "Credit cards": true
        }
      ]
    },
    "gasPrices": [],
    "url": "https://www.google.com/maps/search/?api=1&query=Walgreens&query_place_id=ChIJD9wbQ1hPVVMRCg6O03DHkkU",
    "searchPageUrl": "https://www.google.com/maps/search/independent%20pharmacy%20Great%20Falls%20MT/@42.54640259466427,-111.81587931391937,8z?hl=en",
    "searchString": "independent pharmacy Great Falls MT",
    "language": "en",
    "rank": 21,
    "isAdvertisement": false,
    "imageUrl": "https://lh3.googleusercontent.com/gps-cs-s/AC9h4nq2i4fFD_AUbK4KXWdOvtb17D8Ap1MO-zCJWqqx4Z92RccYvjGC7za9-qLwM8ni4E2zQ7X_1Zs3immsSUfJw97x8K51kz3O4Qt7KSRNZ2MOnaTqX_NPDUaUQpGhx0BJTz_Zxbaezg=w408-h723-k-no",
    "kgmid": "/g/1tghp7ss"
  },
  {
    "title": "Crestwood Pharmacy",
    "price": null,
    "categoryName": "Pharmacy",
    "address": "10 S Mountain Blvd, Mountain Top, PA 18707",
    "neighborhood": null,
    "street": "10 S Mountain Blvd",
    "city": "Mountain Top",
    "postalCode": "18707",
    "state": "Pennsylvania",
    "countryCode": "US",
    "website": "http://crestwoodpharmacypa.com/",
    "phone": "(570) 474-5859",
    "phoneUnformatted": "+15704745859",
    "claimThisBusiness": false,
    "location": {
      "lat": 41.1613818,
      "lng": -75.8859725
    },
    "totalScore": 4.4,
    "permanentlyClosed": false,
    "temporarilyClosed": false,
    "placeId": "ChIJCwVse5sFxYkRtuLePEsYSGY",
    "categories": [
      "Pharmacy"
    ],
    "fid": "0x89c5059b7b6c050b:0x6648184b3cdee2b6",
    "cid": "7370167501614670518",
    "reviewsCount": 31,
    "imagesCount": 3,
    "imageCategories": [],
    "scrapedAt": "2025-06-22T08:26:39.038Z",
    "googleFoodUrl": null,
    "hotelAds": [],
    "openingHours": [
      {
        "day": "Monday",
        "hours": "9 AM to 7 PM"
      },
      {
        "day": "Tuesday",
        "hours": "9 AM to 7 PM"
      },
      {
        "day": "Wednesday",
        "hours": "9 AM to 7 PM"
      },
      {
        "day": "Thursday",
        "hours": "9 AM to 7 PM"
      },
      {
        "day": "Friday",
        "hours": "9 AM to 7 PM"
      },
      {
        "day": "Saturday",
        "hours": "9 AM to 2 PM"
      },
      {
        "day": "Sunday",
        "hours": "Closed"
      }
    ],
    "peopleAlsoSearch": [],
    "placesTags": [],
    "reviewsTags": [],
    "additionalInfo": {
      "From the business": [
        {
          "Small business": true
        }
      ],
      "Service options": [
        {
          "In-store pickup": true
        }
      ],
      "Accessibility": [
        {
          "Wheelchair accessible entrance": true
        },
        {
          "Wheelchair accessible parking lot": true
        }
      ],
      "Planning": [
        {
          "Quick visit": true
        }
      ],
      "Payments": [
        {
          "Credit cards": true
        },
        {
          "Debit cards": true
        },
        {
          "NFC mobile payments": true
        },
        {
          "Credit cards": true
        }
      ]
    },
    "gasPrices": [],
    "url": "https://www.google.com/maps/search/?api=1&query=Crestwood%20Pharmacy&query_place_id=ChIJCwVse5sFxYkRtuLePEsYSGY",
    "searchPageUrl": "https://www.google.com/maps/search/independent%20pharmacy%20Great%20Falls%20MT/@42.54640259466427,-76.98739394329682,8z?hl=en",
    "searchString": "independent pharmacy Great Falls MT",
    "language": "en",
    "rank": 2,
    "isAdvertisement": false,
    "imageUrl": "https://lh3.googleusercontent.com/p/AF1QipMa2VOj0jjvHSUMZdOmkn4Y5B_D7AW-Zq-zlm7z=w426-h240-k-no",
    "kgmid": "/g/1tj4cfbl"
  }
]