[
  {
    "title": "Soo's West End Pharmacy",
    "price": null,
    "categoryName": "Pharmacy",
    "address": "619 W Nettleton Ave, Jonesboro, AR 72401",
    "neighborhood": null,
    "street": "619 W Nettleton Ave",
    "city": "Jonesboro",
    "postalCode": "72401",
    "state": "Arkansas",
    "countryCode": "US",
    "website": "https://www.facebook.com/profile.php?id=100085470492488",
    "phone": "(870) 932-4742",
    "phoneUnformatted": "+18709324742",
    "claimThisBusiness": true,
    "location": {
      "lat": 35.8285391,
      "lng": -90.7120968
    },
    "totalScore": 4.8,
    "permanentlyClosed": false,
    "temporarilyClosed": false,
    "placeId": "ChIJdb0WCSsp1IcR-amXzyj-IUk",
    "categories": [
      "Pharmacy",
      "Drug store"
    ],
    "fid": "0x87d4292b0916bd75:0x4921fe28cf97a9f9",
    "cid": "5269772490235161081",
    "reviewsCount": 24,
    "imagesCount": 1,
    "imageCategories": [],
    "scrapedAt": "2025-06-22T07:19:56.599Z",
    "googleFoodUrl": null,
    "hotelAds": [],
    "openingHours": [
      {
        "day": "Monday",
        "hours": "9 AM to 5:30 PM"
      },
      {
        "day": "Tuesday",
        "hours": "9 AM to 5:30 PM"
      },
      {
        "day": "Wednesday",
        "hours": "9 AM to 5:30 PM"
      },
      {
        "day": "Thursday",
        "hours": "9 AM to 5:30 PM"
      },
      {
        "day": "Friday",
        "hours": "9 AM to 5:30 PM"
      },
      {
        "day": "Saturday",
        "hours": "Closed"
      },
      {
        "day": "Sunday",
        "hours": "Closed"
      }
    ],
    "peopleAlsoSearch": [],
    "placesTags": [],
    "reviewsTags": [],
    "additionalInfo": {
      "Service options": [
        {
          "Delivery": true
        },
        {
          "Drive-through": true
        },
        {
          "In-store pickup": true
        },
        {
          "Same-day delivery": true
        }
      ],
      "Accessibility": [
        {
          "Wheelchair accessible entrance": true
        },
        {
          "Wheelchair accessible parking lot": true
        }
      ],
      "Planning": [
        {
          "Quick visit": true
        }
      ],
      "Payments": [
        {
          "Checks": true
        },
        {
          "Credit cards": true
        },
        {
          "Debit cards": true
        },
        {
          "NFC mobile payments": true
        },
        {
          "Credit cards": true
        }
      ]
    },
    "gasPrices": [],
    "url": "https://www.google.com/maps/search/?api=1&query=Soo's%20West%20End%20Pharmacy&query_place_id=ChIJdb0WCSsp1IcR-amXzyj-IUk",
    "searchPageUrl": "https://www.google.com/maps/search/independent%20pharmacy%20Jonesboro%20AR/@68.51690656216455,-147.35651604297223,9z?hl=en",
    "searchString": "independent pharmacy Jonesboro AR",
    "language": "en",
    "rank": 1,
    "isAdvertisement": false,
    "imageUrl": "https://streetviewpixels-pa.googleapis.com/v1/thumbnail?panoid=FcS-2GBJdveYIaiUKuXisg&cb_client=search.gws-prod.gps&w=408&h=240&yaw=202.82329&pitch=0&thumbfov=100",
    "kgmid": "/g/1q5bnqvm_"
  },
  {
    "title": "Hilltop Family Pharmacy",
    "price": null,
    "categoryName": "Pharmacy",
    "address": "1706 Visions Ave, Jonesboro, AR 72405",
    "neighborhood": null,
    "street": "1706 Visions Ave",
    "city": "Jonesboro",
    "postalCode": "72405",
    "state": "Arkansas",
    "countryCode": "US",
    "website": "http://www.hilltoprx.com/",
    "phone": "(870) 336-8310",
    "phoneUnformatted": "+18703368310",
    "claimThisBusiness": false,
    "location": {
      "lat": 35.8601827,
      "lng": -90.6534273
    },
    "totalScore": 4.9,
    "permanentlyClosed": false,
    "temporarilyClosed": false,
    "placeId": "ChIJ520a6Lkr1IcRKvRYgamTyWU",
    "categories": [
      "Pharmacy"
    ],
    "fid": "0x87d42bb9e81a6de7:0x65c993a98158f42a",
    "cid": "7334555824378410026",
    "reviewsCount": 34,
    "imagesCount": 33,
    "imageCategories": [],
    "scrapedAt": "2025-06-22T07:19:56.600Z",
    "googleFoodUrl": null,
    "hotelAds": [],
    "openingHours": [
      {
        "day": "Monday",
        "hours": "9 AM to 6:30 PM"
      },
      {
        "day": "Tuesday",
        "hours": "9 AM to 6:30 PM"
      },
      {
        "day": "Wednesday",
        "hours": "9 AM to 6:30 PM"
      },
      {
        "day": "Thursday",
        "hours": "9 AM to 6:30 PM"
      },
      {
        "day": "Friday",
        "hours": "9 AM to 6:30 PM"
      },
      {
        "day": "Saturday",
        "hours": "9 AM to 1 PM"
      },
      {
        "day": "Sunday",
        "hours": "Closed"
      }
    ],
    "peopleAlsoSearch": [],
    "placesTags": [],
    "reviewsTags": [],
    "additionalInfo": {
      "From the business": [
        {
          "Small business": true
        }
      ],
      "Service options": [
        {
          "Curbside pickup": true
        },
        {
          "Delivery": true
        },
        {
          "Drive-through": true
        },
        {
          "In-store pickup": true
        },
        {
          "In-store shopping": true
        },
        {
          "Onsite services": true
        }
      ],
      "Accessibility": [
        {
          "Wheelchair accessible entrance": true
        },
        {
          "Wheelchair accessible parking lot": true
        }
      ],
      "Planning": [
        {
          "Quick visit": true
        }
      ],
      "Payments": [
        {
          "Checks": true
        },
        {
          "Credit cards": true
        },
        {
          "Debit cards": true
        },
        {
          "NFC mobile payments": true
        },
        {
          "Credit cards": true
        }
      ],
      "Parking": [
        {
          "Free parking lot": true
        },
        {
          "On-site parking": true
        }
      ]
    },
    "gasPrices": [],
    "url": "https://www.google.com/maps/search/?api=1&query=Hilltop%20Family%20Pharmacy&query_place_id=ChIJ520a6Lkr1IcRKvRYgamTyWU",
    "searchPageUrl": "https://www.google.com/maps/search/independent%20pharmacy%20Jonesboro%20AR/@68.51690656216455,-147.35651604297223,9z?hl=en",
    "searchString": "independent pharmacy Jonesboro AR",
    "language": "en",
    "rank": 2,
    "isAdvertisement": false,
    "imageUrl": "https://lh3.googleusercontent.com/gps-cs-s/AC9h4nqkM0S6WdVQsOIMpyID5vR_bafxA076759vSFHbd38Fpvhi0fFPhv6mJG7X96o2pO4azUQe-QqtLBkgHAv1bk4RPywZgk6W2tO0nxi7QF2xmw9Cg0sWSwcFh6zHdnbC2S3MD8K8=w408-h306-k-no",
    "kgmid": "/g/113h7wh89"
  },
  {
    "title": "Shinabery's Community Pharmacy",
    "price": null,
    "categoryName": "Pharmacy",
    "address": "1432 E Washington Ave, Jonesboro, AR 72401",
    "neighborhood": null,
    "street": "1432 E Washington Ave",
    "city": "Jonesboro",
    "postalCode": "72401",
    "state": "Arkansas",
    "countryCode": "US",
    "phone": "(870) 933-6369",
    "phoneUnformatted": "+18709336369",
    "claimThisBusiness": true,
    "location": {
      "lat": 35.8384994,
      "lng": -90.6879196
    },
    "totalScore": 4.9,
    "permanentlyClosed": false,
    "temporarilyClosed": false,
    "placeId": "ChIJbxTFHVAp1IcRsmwUfHlGNZ4",
    "categories": [
      "Pharmacy"
    ],
    "fid": "0x87d429501dc5146f:0x9e3546797c146cb2",
    "cid": "11400095519344979122",
    "reviewsCount": 19,
    "imagesCount": 1,
    "imageCategories": [],
    "scrapedAt": "2025-06-22T07:19:56.600Z",
    "googleFoodUrl": null,
    "hotelAds": [],
    "openingHours": [
      {
        "day": "Monday",
        "hours": "8:30 AM to 5 PM"
      },
      {
        "day": "Tuesday",
        "hours": "8:30 AM to 5 PM"
      },
      {
        "day": "Wednesday",
        "hours": "8:30 AM to 5 PM"
      },
      {
        "day": "Thursday",
        "hours": "8:30 AM to 5 PM"
      },
      {
        "day": "Friday",
        "hours": "8:30 AM to 5 PM"
      },
      {
        "day": "Saturday",
        "hours": "Closed"
      },
      {
        "day": "Sunday",
        "hours": "Closed"
      }
    ],
    "peopleAlsoSearch": [],
    "placesTags": [],
    "reviewsTags": [],
    "additionalInfo": {
      "Accessibility": [
        {
          "Wheelchair accessible entrance": true
        },
        {
          "Wheelchair accessible parking lot": true
        }
      ],
      "Payments": [
        {
          "Debit cards": true
        },
        {
          "Credit cards": true
        }
      ]
    },
    "gasPrices": [],
    "url": "https://www.google.com/maps/search/?api=1&query=Shinabery's%20Community%20Pharmacy&query_place_id=ChIJbxTFHVAp1IcRsmwUfHlGNZ4",
    "searchPageUrl": "https://www.google.com/maps/search/independent%20pharmacy%20Jonesboro%20AR/@68.51690656216455,-147.35651604297223,9z?hl=en",
    "searchString": "independent pharmacy Jonesboro AR",
    "language": "en",
    "rank": 3,
    "isAdvertisement": false,
    "imageUrl": "https://streetviewpixels-pa.googleapis.com/v1/thumbnail?panoid=w74Mk9jh07QQjcdUIdXdUQ&cb_client=search.gws-prod.gps&w=408&h=240&yaw=23.428928&pitch=0&thumbfov=100",
    "kgmid": "/g/1tdyrb1w"
  },
  {
    "title": "Parker Road Specialty Pharmacy",
    "price": null,
    "categoryName": "Pharmacy",
    "address": "1109 W Parker Rd, Jonesboro, AR 72404",
    "neighborhood": null,
    "street": "1109 W Parker Rd",
    "city": "Jonesboro",
    "postalCode": "72404",
    "state": "Arkansas",
    "countryCode": "US",
    "website": "https://www.parkerroadspecialtyrx.com/",
    "phone": "(870) 935-6400",
    "phoneUnformatted": "+18709356400",
    "claimThisBusiness": false,
    "location": {
      "lat": 35.8066615,
      "lng": -90.720794
    },
    "totalScore": 4.6,
    "permanentlyClosed": false,
    "temporarilyClosed": false,
    "placeId": "ChIJ6XkXfb4u1IcRrYpExwgnrzI",
    "categories": [
      "Pharmacy"
    ],
    "fid": "0x87d42ebe7d1779e9:0x32af2708c7448aad",
    "cid": "3652180741477141165",
    "reviewsCount": 52,
    "imagesCount": 76,
    "imageCategories": [],
    "scrapedAt": "2025-06-22T07:19:58.568Z",
    "googleFoodUrl": null,
    "hotelAds": [],
    "openingHours": [
      {
        "day": "Monday",
        "hours": "9 AM to 6 PM"
      },
      {
        "day": "Tuesday",
        "hours": "9 AM to 6 PM"
      },
      {
        "day": "Wednesday",
        "hours": "9 AM to 6 PM"
      },
      {
        "day": "Thursday",
        "hours": "9 AM to 6 PM"
      },
      {
        "day": "Friday",
        "hours": "9 AM to 6 PM"
      },
      {
        "day": "Saturday",
        "hours": "9 AM to 1 PM"
      },
      {
        "day": "Sunday",
        "hours": "Closed"
      }
    ],
    "peopleAlsoSearch": [],
    "placesTags": [],
    "reviewsTags": [],
    "additionalInfo": {
      "From the business": [
        {
          "Small business": true
        }
      ],
      "Service options": [
        {
          "Delivery": true
        },
        {
          "Drive-through": true
        },
        {
          "In-store pickup": true
        },
        {
          "Onsite services": true
        },
        {
          "Same-day delivery": true
        }
      ],
      "Accessibility": [
        {
          "Wheelchair accessible entrance": true
        },
        {
          "Wheelchair accessible parking lot": true
        }
      ],
      "Planning": [
        {
          "Quick visit": true
        }
      ],
      "Payments": [
        {
          "Checks": true
        },
        {
          "Credit cards": true
        },
        {
          "Debit cards": true
        },
        {
          "NFC mobile payments": true
        },
        {
          "Credit cards": true
        }
      ]
    },
    "gasPrices": [],
    "url": "https://www.google.com/maps/search/?api=1&query=Parker%20Road%20Specialty%20Pharmacy&query_place_id=ChIJ6XkXfb4u1IcRrYpExwgnrzI",
    "searchPageUrl": "https://www.google.com/maps/search/independent%20pharmacy%20Jonesboro%20AR/@42.54640259466427,-83.31984582886456,8z?hl=en",
    "searchString": "independent pharmacy Jonesboro AR",
    "language": "en",
    "rank": 2,
    "isAdvertisement": false,
    "imageUrl": "https://lh3.googleusercontent.com/gps-cs-s/AC9h4nppx34ovFcdFXMn5MdkeLvSiwuKIRmPJL7k08lzxL7th8-avweMEiuuPnbJEhAZ7_hcwqVmjeWlpeIlVsYL0lqCVsJtoNqTRYM1FigIKShAxLOtTSy2YmEEw_P-e4i3wBoH6QMwJQ=w408-h544-k-no",
    "kgmid": "/g/1tgpnknh"
  },
  {
    "title": "Walgreens Pharmacy",
    "description": "Department of the Walgreens chain providing prescription medications & other health-related items.",
    "price": "$$",
    "categoryName": "Pharmacy",
    "address": "108 E Highland Dr, Jonesboro, AR 72401",
    "neighborhood": null,
    "street": "108 E Highland Dr",
    "city": "Jonesboro",
    "postalCode": "72401",
    "state": "Arkansas",
    "countryCode": "US",
    "website": "https://www.walgreens.com/locator/walgreens-108+e+highland+dr-jonesboro-ar-72401/id=6765",
    "phone": "(870) 802-3749",
    "phoneUnformatted": "+18708023749",
    "claimThisBusiness": false,
    "location": {
      "lat": 35.8218085,
      "lng": -90.70502
    },
    "totalScore": 4.2,
    "permanentlyClosed": false,
    "temporarilyClosed": false,
    "placeId": "ChIJV-rR7M0u1IcRzwVdGQqxmRM",
    "categories": [
      "Pharmacy"
    ],
    "fid": "0x87d42ecdecd1ea57:0x1399b10a195d05cf",
    "cid": "1412354615090677199",
    "reviewsCount": 45,
    "imagesCount": 3,
    "imageCategories": [],
    "scrapedAt": "2025-06-22T07:19:58.569Z",
    "googleFoodUrl": null,
    "hotelAds": [],
    "openingHours": [
      {
        "day": "Monday",
        "hours": "2 AM to 1:30 AM"
      },
      {
        "day": "Tuesday",
        "hours": "2 AM to 1:30 AM"
      },
      {
        "day": "Wednesday",
        "hours": "2 AM to 1:30 AM"
      },
      {
        "day": "Thursday",
        "hours": "2 AM to 1:30 AM"
      },
      {
        "day": "Friday",
        "hours": "2 AM to 1:30 AM"
      },
      {
        "day": "Saturday",
        "hours": "2 AM to 1:30 AM"
      },
      {
        "day": "Sunday",
        "hours": "2 AM to 1:30 AM"
      }
    ],
    "additionalOpeningHours": {
      "Drive through": [
        {
          "day": "Monday",
          "hours": "2 AM–1:30 AM"
        },
        {
          "day": "Tuesday",
          "hours": "2 AM–1:30 AM"
        },
        {
          "day": "Wednesday",
          "hours": "2 AM–1:30 AM"
        },
        {
          "day": "Thursday",
          "hours": "2 AM–1:30 AM"
        },
        {
          "day": "Friday",
          "hours": "2 AM–1:30 AM"
        },
        {
          "day": "Saturday",
          "hours": "2 AM–1:30 AM"
        },
        {
          "day": "Sunday",
          "hours": "2 AM–1:30 AM"
        }
      ]
    },
    "peopleAlsoSearch": [],
    "placesTags": [],
    "reviewsTags": [],
    "additionalInfo": {
      "Service options": [
        {
          "Drive-through": true
        },
        {
          "In-store pickup": true
        }
      ],
      "Accessibility": [
        {
          "Wheelchair accessible entrance": true
        },
        {
          "Wheelchair accessible parking lot": true
        }
      ],
      "Offerings": [
        {
          "Medication disposal": true
        },
        {
          "Naloxone": true
        }
      ],
      "Planning": [
        {
          "Quick visit": true
        }
      ],
      "Payments": [
        {
          "Checks": true
        },
        {
          "Credit cards": true
        },
        {
          "Debit cards": true
        }
      ]
    },
    "gasPrices": [],
    "url": "https://www.google.com/maps/search/?api=1&query=Walgreens%20Pharmacy&query_place_id=ChIJV-rR7M0u1IcRzwVdGQqxmRM",
    "searchPageUrl": "https://www.google.com/maps/search/independent%20pharmacy%20Jonesboro%20AR/@42.54640259466427,-83.31984582886456,8z?hl=en",
    "searchString": "independent pharmacy Jonesboro AR",
    "language": "en",
    "rank": 4,
    "isAdvertisement": false,
    "imageUrl": "https://lh3.googleusercontent.com/p/AF1QipMP6CBE-t3GVjOQVLU-zZuTE4iDLAITVP6_XD4H=w525-h240-k-no",
    "kgmid": "/g/11cn949vgg"
  },
  {
    "title": "Gibson's Pharmacy of Jonesboro",
    "price": null,
    "categoryName": "Pharmacy",
    "address": "403 E Matthews Ave, Jonesboro, AR 72401",
    "neighborhood": null,
    "street": "403 E Matthews Ave",
    "city": "Jonesboro",
    "postalCode": "72401",
    "state": "Arkansas",
    "countryCode": "US",
    "website": "http://gibsons-of-jonesboro.jany.io/",
    "phone": "(870) 972-9125",
    "phoneUnformatted": "+18709729125",
    "claimThisBusiness": true,
    "location": {
      "lat": 35.8355135,
      "lng": -90.7017163
    },
    "totalScore": 4.6,
    "permanentlyClosed": false,
    "temporarilyClosed": false,
    "placeId": "ChIJF2MauTAp1IcRoWHW_ePNm80",
    "categories": [
      "Pharmacy"
    ],
    "fid": "0x87d42930b91a6317:0xcd9bcde3fdd661a1",
    "cid": "14815661778265334177",
    "reviewsCount": 43,
    "imagesCount": 18,
    "imageCategories": [],
    "scrapedAt": "2025-06-22T07:19:58.569Z",
    "googleFoodUrl": null,
    "hotelAds": [],
    "openingHours": [
      {
        "day": "Monday",
        "hours": "8 AM to 6 PM"
      },
      {
        "day": "Tuesday",
        "hours": "8 AM to 6 PM"
      },
      {
        "day": "Wednesday",
        "hours": "8 AM to 6 PM"
      },
      {
        "day": "Thursday",
        "hours": "8 AM to 6 PM"
      },
      {
        "day": "Friday",
        "hours": "8 AM to 6 PM"
      },
      {
        "day": "Saturday",
        "hours": "9 AM to 12 PM"
      },
      {
        "day": "Sunday",
        "hours": "Closed"
      }
    ],
    "peopleAlsoSearch": [],
    "placesTags": [],
    "reviewsTags": [],
    "additionalInfo": {
      "Service options": [
        {
          "Delivery": true
        },
        {
          "Drive-through": true
        },
        {
          "Same-day delivery": true
        }
      ],
      "Accessibility": [
        {
          "Wheelchair accessible entrance": true
        },
        {
          "Wheelchair accessible parking lot": true
        }
      ],
      "Planning": [
        {
          "Quick visit": true
        }
      ],
      "Payments": [
        {
          "Credit cards": true
        },
        {
          "Debit cards": true
        },
        {
          "NFC mobile payments": true
        },
        {
          "Credit cards": true
        }
      ]
    },
    "gasPrices": [],
    "url": "https://www.google.com/maps/search/?api=1&query=Gibson's%20Pharmacy%20of%20Jonesboro&query_place_id=ChIJF2MauTAp1IcRoWHW_ePNm80",
    "searchPageUrl": "https://www.google.com/maps/search/independent%20pharmacy%20Jonesboro%20AR/@42.54640259466427,-83.31984582886456,8z?hl=en",
    "searchString": "independent pharmacy Jonesboro AR",
    "language": "en",
    "rank": 6,
    "isAdvertisement": false,
    "imageUrl": "https://lh3.googleusercontent.com/gps-cs-s/AC9h4npEEpm2-3O9-1xJWITmuphMdLun3bbZhN-R4LYuBZE2lp8YrOakiDEZNLFkLgrwFfkwxPT-kyhI5BnE1pYjGMegvNdbChZvDZ4tXEVjr0tDmJg2J5DvQEV8fyuRCeK7eTCFVxg=w408-h270-k-no",
    "kgmid": "/g/1tc_966z"
  },
  {
    "title": "The Medicine Shoppe Pharmacy",
    "price": null,
    "categoryName": "Pharmacy",
    "address": "325 Southwest Dr A, Jonesboro, AR 72401",
    "neighborhood": null,
    "street": "325 Southwest Dr A",
    "city": "Jonesboro",
    "postalCode": "72401",
    "state": "Arkansas",
    "countryCode": "US",
    "website": "http://jonesboro.medicineshoppe.com/",
    "phone": "(870) 935-1340",
    "phoneUnformatted": "+18709351340",
    "claimThisBusiness": false,
    "location": {
      "lat": 35.8181142,
      "lng": -90.7079916
    },
    "locatedIn": "G & M Pharmacy Inc",
    "totalScore": 5,
    "permanentlyClosed": false,
    "temporarilyClosed": false,
    "placeId": "ChIJvUg1BNEu1IcRUnBPmd1_LPc",
    "categories": [
      "Pharmacy",
      "Sports memorabilia store"
    ],
    "fid": "0x87d42ed1043548bd:0xf72c7fdd994f7052",
    "cid": "17810751216080089170",
    "reviewsCount": 138,
    "imagesCount": 18,
    "imageCategories": [],
    "scrapedAt": "2025-06-22T07:19:58.569Z",
    "googleFoodUrl": null,
    "hotelAds": [],
    "openingHours": [
      {
        "day": "Monday",
        "hours": "9 AM to 5:30 PM"
      },
      {
        "day": "Tuesday",
        "hours": "9 AM to 5:30 PM"
      },
      {
        "day": "Wednesday",
        "hours": "9 AM to 5:30 PM"
      },
      {
        "day": "Thursday",
        "hours": "9 AM to 5:30 PM"
      },
      {
        "day": "Friday",
        "hours": "9 AM to 5:30 PM"
      },
      {
        "day": "Saturday",
        "hours": "9 AM to 12 PM"
      },
      {
        "day": "Sunday",
        "hours": "Closed"
      }
    ],
    "additionalOpeningHours": {
      "G & M Pharmacy Inc": [
        {
          "day": "Monday",
          "hours": "9 AM–5:30 PM"
        },
        {
          "day": "Tuesday",
          "hours": "9 AM–5:30 PM"
        },
        {
          "day": "Wednesday",
          "hours": "9 AM–5:30 PM"
        },
        {
          "day": "Thursday",
          "hours": "9 AM–5:30 PM"
        },
        {
          "day": "Friday",
          "hours": "9 AM–5:30 PM"
        },
        {
          "day": "Saturday",
          "hours": "9 AM–12 PM"
        },
        {
          "day": "Sunday",
          "hours": "Closed"
        }
      ]
    },
    "peopleAlsoSearch": [],
    "placesTags": [],
    "reviewsTags": [],
    "additionalInfo": {
      "From the business": [
        {
          "Small business": true
        }
      ],
      "Service options": [
        {
          "Curbside pickup": true
        },
        {
          "Delivery": true
        },
        {
          "Drive-through": true
        },
        {
          "In-store pickup": true
        },
        {
          "In-store shopping": true
        },
        {
          "Onsite services": true
        },
        {
          "Same-day delivery": true
        }
      ],
      "Accessibility": [
        {
          "Wheelchair accessible entrance": true
        },
        {
          "Wheelchair accessible parking lot": true
        }
      ],
      "Amenities": [
        {
          "Wi-Fi": true
        },
        {
          "Free Wi-Fi": true
        }
      ],
      "Planning": [
        {
          "Quick visit": true
        }
      ],
      "Payments": [
        {
          "Checks": true
        },
        {
          "Credit cards": true
        },
        {
          "Debit cards": true
        },
        {
          "NFC mobile payments": true
        },
        {
          "Credit cards": true
        }
      ],
      "Parking": [
        {
          "Free parking lot": true
        },
        {
          "On-site parking": true
        }
      ]
    },
    "gasPrices": [],
    "url": "https://www.google.com/maps/search/?api=1&query=The%20Medicine%20Shoppe%20Pharmacy&query_place_id=ChIJvUg1BNEu1IcRUnBPmd1_LPc",
    "searchPageUrl": "https://www.google.com/maps/search/independent%20pharmacy%20Jonesboro%20AR/@42.54640259466427,-83.31984582886456,8z?hl=en",
    "searchString": "independent pharmacy Jonesboro AR",
    "language": "en",
    "rank": 7,
    "isAdvertisement": false,
    "imageUrl": "https://lh3.googleusercontent.com/p/AF1QipOKJBWDt9SUCji2yt9ihq4CmEQzPs_-wH4bO6ww=w408-h272-k-no",
    "kgmid": "/g/1tlbk2sm"
  },
  {
    "title": "Stone's Pharmacy",
    "price": null,
    "categoryName": "Pharmacy",
    "address": "417 E Matthews Ave, Jonesboro, AR 72401",
    "neighborhood": null,
    "street": "417 E Matthews Ave",
    "city": "Jonesboro",
    "postalCode": "72401",
    "state": "Arkansas",
    "countryCode": "US",
    "website": "https://www.stonespharmacyar.com/",
    "phone": "(870) 935-5538",
    "phoneUnformatted": "+18709355538",
    "claimThisBusiness": false,
    "location": {
      "lat": 35.8355406,
      "lng": -90.700761
    },
    "totalScore": 5,
    "permanentlyClosed": false,
    "temporarilyClosed": false,
    "placeId": "ChIJf7mmuTAp1IcRa1j7oJ703Lw",
    "categories": [
      "Pharmacy",
      "Drug store"
    ],
    "fid": "0x87d42930b9a6b97f:0xbcdcf49ea0fb586b",
    "cid": "13609021136149633131",
    "reviewsCount": 18,
    "imagesCount": 2,
    "imageCategories": [],
    "scrapedAt": "2025-06-22T07:19:58.569Z",
    "googleFoodUrl": null,
    "hotelAds": [],
    "openingHours": [
      {
        "day": "Monday",
        "hours": "8:30 AM to 6 PM"
      },
      {
        "day": "Tuesday",
        "hours": "8:30 AM to 6 PM"
      },
      {
        "day": "Wednesday",
        "hours": "8:30 AM to 6 PM"
      },
      {
        "day": "Thursday",
        "hours": "8:30 AM to 6 PM"
      },
      {
        "day": "Friday",
        "hours": "8:30 AM to 6 PM"
      },
      {
        "day": "Saturday",
        "hours": "9 AM to 12 PM"
      },
      {
        "day": "Sunday",
        "hours": "Closed"
      }
    ],
    "peopleAlsoSearch": [],
    "placesTags": [],
    "reviewsTags": [],
    "additionalInfo": {
      "From the business": [
        {
          "Small business": true
        }
      ],
      "Service options": [
        {
          "Curbside pickup": true
        },
        {
          "Delivery": true
        },
        {
          "Onsite services": true
        },
        {
          "Same-day delivery": true
        }
      ],
      "Accessibility": [
        {
          "Wheelchair accessible entrance": true
        },
        {
          "Wheelchair accessible parking lot": true
        }
      ],
      "Planning": [
        {
          "Quick visit": true
        }
      ],
      "Payments": [
        {
          "Checks": true
        },
        {
          "Credit cards": true
        },
        {
          "Debit cards": true
        },
        {
          "NFC mobile payments": true
        },
        {
          "Credit cards": true
        }
      ]
    },
    "gasPrices": [],
    "url": "https://www.google.com/maps/search/?api=1&query=Stone's%20Pharmacy&query_place_id=ChIJf7mmuTAp1IcRa1j7oJ703Lw",
    "searchPageUrl": "https://www.google.com/maps/search/independent%20pharmacy%20Jonesboro%20AR/@42.54640259466427,-83.31984582886456,8z?hl=en",
    "searchString": "independent pharmacy Jonesboro AR",
    "language": "en",
    "rank": 8,
    "isAdvertisement": false,
    "imageUrl": "https://lh3.googleusercontent.com/gps-cs-s/AC9h4nqv3Dqzp1TDpm4KCe4eXJ-PuNzEJAv78tF-cQ4S08sd8mvSpGeOAsmVu_iVyWZ-ufjxP06hae45WU0eqXe_JPDCt8Cb8vU8A7wD-NnkoMaJrzSCbnUy2SeQFEj2r-ViRtMwJcN3=w408-h725-k-no",
    "kgmid": "/g/1tf2srtb"
  },
  {
    "title": "Garner Family Pharmacy",
    "price": null,
    "categoryName": "Pharmacy",
    "address": "765 E Matthews Ave, Jonesboro, AR 72401",
    "neighborhood": null,
    "street": "765 E Matthews Ave",
    "city": "Jonesboro",
    "postalCode": "72401",
    "state": "Arkansas",
    "countryCode": "US",
    "website": "https://garnerfamilyrx.com/",
    "phone": "(870) 558-5488",
    "phoneUnformatted": "+18705585488",
    "claimThisBusiness": false,
    "location": {
      "lat": 35.8354241,
      "lng": -90.696378
    },
    "totalScore": 5,
    "permanentlyClosed": false,
    "temporarilyClosed": false,
    "placeId": "ChIJwR2xWG4p1IcR3PlwMuJvo24",
    "categories": [
      "Pharmacy",
      "Boutique",
      "Drug store"
    ],
    "fid": "0x87d4296e58b11dc1:0x6ea36fe23270f9dc",
    "cid": "7972338782675466716",
    "reviewsCount": 43,
    "imagesCount": 41,
    "imageCategories": [],
    "scrapedAt": "2025-06-22T07:19:58.570Z",
    "googleFoodUrl": null,
    "hotelAds": [],
    "openingHours": [
      {
        "day": "Monday",
        "hours": "8 AM to 6 PM"
      },
      {
        "day": "Tuesday",
        "hours": "8 AM to 6 PM"
      },
      {
        "day": "Wednesday",
        "hours": "8 AM to 6 PM"
      },
      {
        "day": "Thursday",
        "hours": "8 AM to 6 PM"
      },
      {
        "day": "Friday",
        "hours": "8 AM to 6 PM"
      },
      {
        "day": "Saturday",
        "hours": "9 AM to 2 PM"
      },
      {
        "day": "Sunday",
        "hours": "Closed"
      }
    ],
    "peopleAlsoSearch": [],
    "placesTags": [],
    "reviewsTags": [],
    "additionalInfo": {
      "From the business": [
        {
          "Small business": true
        }
      ],
      "Service options": [
        {
          "Delivery": true
        },
        {
          "Drive-through": true
        },
        {
          "In-store pickup": true
        },
        {
          "In-store shopping": true
        },
        {
          "Onsite services": true
        },
        {
          "Same-day delivery": true
        }
      ],
      "Accessibility": [
        {
          "Wheelchair accessible entrance": true
        },
        {
          "Wheelchair accessible parking lot": true
        }
      ],
      "Planning": [
        {
          "Quick visit": true
        }
      ],
      "Payments": [
        {
          "Credit cards": true
        },
        {
          "Debit cards": true
        },
        {
          "NFC mobile payments": true
        },
        {
          "Credit cards": true
        }
      ]
    },
    "gasPrices": [],
    "url": "https://www.google.com/maps/search/?api=1&query=Garner%20Family%20Pharmacy&query_place_id=ChIJwR2xWG4p1IcR3PlwMuJvo24",
    "searchPageUrl": "https://www.google.com/maps/search/independent%20pharmacy%20Jonesboro%20AR/@42.54640259466427,-83.31984582886456,8z?hl=en",
    "searchString": "independent pharmacy Jonesboro AR",
    "language": "en",
    "rank": 9,
    "isAdvertisement": false,
    "imageUrl": "https://lh3.googleusercontent.com/p/AF1QipPY5Yf2vdN79PSq9hwBA-jYd-iMSmPvbpObgoRO=w408-h306-k-no",
    "kgmid": "/g/11rc8yncvx"
  },
  {
    "title": "Southern Pharmacy",
    "price": null,
    "categoryName": "Pharmacy",
    "address": "3005 Apache Dr, Jonesboro, AR 72401",
    "neighborhood": null,
    "street": "3005 Apache Dr",
    "city": "Jonesboro",
    "postalCode": "72401",
    "state": "Arkansas",
    "countryCode": "US",
    "website": "http://www.southernpharmacy.net/",
    "phone": "(870) 972-1751",
    "phoneUnformatted": "+18709721751",
    "claimThisBusiness": false,
    "location": {
      "lat": 35.8086218,
      "lng": -90.6681605
    },
    "totalScore": 4.9,
    "permanentlyClosed": false,
    "temporarilyClosed": false,
    "placeId": "ChIJZ2xJjBks1IcRo2gVAMKrRt8",
    "categories": [
      "Pharmacy",
      "Medical supply store",
      "Weight loss service"
    ],
    "fid": "0x87d42c198c496c67:0xdf46abc2001568a3",
    "cid": "16088735568541083811",
    "reviewsCount": 209,
    "imagesCount": 48,
    "imageCategories": [],
    "scrapedAt": "2025-06-22T07:19:58.570Z",
    "googleFoodUrl": null,
    "hotelAds": [],
    "openingHours": [
      {
        "day": "Monday",
        "hours": "8:30 AM to 5:30 PM"
      },
      {
        "day": "Tuesday",
        "hours": "8:30 AM to 5:30 PM"
      },
      {
        "day": "Wednesday",
        "hours": "8:30 AM to 5:30 PM"
      },
      {
        "day": "Thursday",
        "hours": "8:30 AM to 5:30 PM"
      },
      {
        "day": "Friday",
        "hours": "8:30 AM to 5:30 PM"
      },
      {
        "day": "Saturday",
        "hours": "8:30 AM to 12 PM"
      },
      {
        "day": "Sunday",
        "hours": "Closed"
      }
    ],
    "peopleAlsoSearch": [],
    "placesTags": [],
    "reviewsTags": [],
    "additionalInfo": {
      "From the business": [
        {
          "Small business": true
        }
      ],
      "Service options": [
        {
          "Curbside pickup": true
        },
        {
          "Delivery": true
        },
        {
          "Drive-through": true
        },
        {
          "In-store pickup": true
        },
        {
          "In-store shopping": true
        },
        {
          "Same-day delivery": true
        }
      ],
      "Accessibility": [
        {
          "Wheelchair accessible entrance": true
        },
        {
          "Wheelchair accessible parking lot": true
        }
      ],
      "Amenities": [
        {
          "Wi-Fi": true
        },
        {
          "Free Wi-Fi": true
        }
      ],
      "Planning": [
        {
          "Quick visit": true
        }
      ],
      "Payments": [
        {
          "Credit cards": true
        },
        {
          "Debit cards": true
        },
        {
          "NFC mobile payments": true
        },
        {
          "Credit cards": true
        }
      ]
    },
    "gasPrices": [],
    "url": "https://www.google.com/maps/search/?api=1&query=Southern%20Pharmacy&query_place_id=ChIJZ2xJjBks1IcRo2gVAMKrRt8",
    "searchPageUrl": "https://www.google.com/maps/search/independent%20pharmacy%20Jonesboro%20AR/@42.54640259466427,-83.31984582886456,8z?hl=en",
    "searchString": "independent pharmacy Jonesboro AR",
    "language": "en",
    "rank": 10,
    "isAdvertisement": false,
    "imageUrl": "https://lh3.googleusercontent.com/p/AF1QipNrgcU0ceOKqS0NT63Y5i-M67MHlqikwaahmc6D=w408-h612-k-no",
    "kgmid": "/g/1vzg2sdr"
  },
  {
    "title": "Super V Drug Store",
    "price": null,
    "categoryName": "Pharmacy",
    "address": "1000 E Matthews Ave A, Jonesboro, AR 72401",
    "neighborhood": null,
    "street": "1000 E Matthews Ave A",
    "city": "Jonesboro",
    "postalCode": "72401",
    "state": "Arkansas",
    "countryCode": "US",
    "website": "https://www.supervdrugsrx.com/?utm_source=google&utm_medium=wix_google_business_profile&utm_campaign=2651543048681464166",
    "phone": "(870) 972-6470",
    "phoneUnformatted": "+18709726470",
    "claimThisBusiness": false,
    "location": {
      "lat": 35.836072,
      "lng": -90.694877
    },
    "totalScore": 4.8,
    "permanentlyClosed": false,
    "temporarilyClosed": false,
    "placeId": "ChIJPVnmFEgp1IcRii_lOSGleQ8",
    "categories": [
      "Pharmacy"
    ],
    "fid": "0x87d4294814e6593d:0xf79a52139e52f8a",
    "cid": "1115103944874733450",
    "reviewsCount": 36,
    "imagesCount": 2,
    "imageCategories": [],
    "scrapedAt": "2025-06-22T07:19:58.570Z",
    "googleFoodUrl": null,
    "hotelAds": [],
    "openingHours": [
      {
        "day": "Monday",
        "hours": "8 AM to 5:30 PM"
      },
      {
        "day": "Tuesday",
        "hours": "8 AM to 5:30 PM"
      },
      {
        "day": "Wednesday",
        "hours": "8 AM to 5:30 PM"
      },
      {
        "day": "Thursday",
        "hours": "8 AM to 5:30 PM"
      },
      {
        "day": "Friday",
        "hours": "8 AM to 5:30 PM"
      },
      {
        "day": "Saturday",
        "hours": "8 AM to 12:30 PM"
      },
      {
        "day": "Sunday",
        "hours": "Closed"
      }
    ],
    "peopleAlsoSearch": [],
    "placesTags": [],
    "reviewsTags": [],
    "additionalInfo": {
      "From the business": [
        {
          "Small business": true
        }
      ],
      "Service options": [
        {
          "Curbside pickup": true
        },
        {
          "Delivery": true
        },
        {
          "Drive-through": true
        },
        {
          "In-store shopping": true
        },
        {
          "Onsite services": true
        },
        {
          "Same-day delivery": true
        },
        {
          "English": true
        }
      ],
      "Accessibility": [
        {
          "Wheelchair accessible entrance": true
        },
        {
          "Wheelchair accessible parking lot": true
        }
      ],
      "Planning": [
        {
          "Quick visit": true
        }
      ],
      "Payments": [
        {
          "Credit cards": true
        },
        {
          "Debit cards": true
        },
        {
          "NFC mobile payments": true
        },
        {
          "Credit cards": true
        }
      ]
    },
    "gasPrices": [],
    "url": "https://www.google.com/maps/search/?api=1&query=Super%20V%20Drug%20Store&query_place_id=ChIJPVnmFEgp1IcRii_lOSGleQ8",
    "searchPageUrl": "https://www.google.com/maps/search/independent%20pharmacy%20Jonesboro%20AR/@42.54640259466427,-83.31984582886456,8z?hl=en",
    "searchString": "independent pharmacy Jonesboro AR",
    "language": "en",
    "rank": 11,
    "isAdvertisement": false,
    "imageUrl": "https://lh3.googleusercontent.com/p/AF1QipM7eQMFDgadTZWX1ntrEy84rGFEgsiW_Ag-q0RX=w408-h252-k-no",
    "kgmid": "/g/1tf_nvfv"
  },
  {
    "title": "ARcare Jonesboro Pharmacy",
    "price": null,
    "categoryName": "Pharmacy",
    "address": "1810 E Highland Dr Suite D, Jonesboro, AR 72401",
    "neighborhood": null,
    "street": "1810 E Highland Dr Suite D",
    "city": "Jonesboro",
    "postalCode": "72401",
    "state": "Arkansas",
    "countryCode": "US",
    "website": "https://www.arcare.net/blog/locations/individual/jonesboro-pharmacy/",
    "phone": "(870) 641-4354",
    "phoneUnformatted": "+18706414354",
    "claimThisBusiness": false,
    "location": {
      "lat": 35.8216229,
      "lng": -90.6847179
    },
    "totalScore": 5,
    "permanentlyClosed": false,
    "temporarilyClosed": false,
    "placeId": "ChIJl7wnJPsv1IcR_ec5EHRFVVk",
    "categories": [
      "Pharmacy"
    ],
    "fid": "0x87d42ffb2427bc97:0x595545741039e7fd",
    "cid": "6437127607186745341",
    "reviewsCount": 2,
    "imagesCount": 14,
    "imageCategories": [],
    "scrapedAt": "2025-06-22T07:19:58.570Z",
    "googleFoodUrl": null,
    "hotelAds": [],
    "openingHours": [
      {
        "day": "Monday",
        "hours": "9 AM to 6 PM"
      },
      {
        "day": "Tuesday",
        "hours": "9 AM to 6 PM"
      },
      {
        "day": "Wednesday",
        "hours": "9 AM to 6 PM"
      },
      {
        "day": "Thursday",
        "hours": "9 AM to 6 PM"
      },
      {
        "day": "Friday",
        "hours": "9 AM to 6 PM"
      },
      {
        "day": "Saturday",
        "hours": "Closed"
      },
      {
        "day": "Sunday",
        "hours": "Closed"
      }
    ],
    "peopleAlsoSearch": [],
    "placesTags": [],
    "reviewsTags": [],
    "additionalInfo": {
      "Accessibility": [
        {
          "Wheelchair accessible entrance": true
        },
        {
          "Wheelchair accessible parking lot": true
        }
      ],
      "Payments": [
        {
          "Credit cards": true
        },
        {
          "Debit cards": true
        },
        {
          "NFC mobile payments": true
        },
        {
          "Credit cards": true
        }
      ]
    },
    "gasPrices": [],
    "url": "https://www.google.com/maps/search/?api=1&query=ARcare%20Jonesboro%20Pharmacy&query_place_id=ChIJl7wnJPsv1IcR_ec5EHRFVVk",
    "searchPageUrl": "https://www.google.com/maps/search/independent%20pharmacy%20Jonesboro%20AR/@42.54640259466427,-83.31984582886456,8z?hl=en",
    "searchString": "independent pharmacy Jonesboro AR",
    "language": "en",
    "rank": 12,
    "isAdvertisement": false,
    "imageUrl": "https://lh3.googleusercontent.com/gps-cs-s/AC9h4nqwnytHFKxf9d2S07jZHkdNUCzc8boIe4UnIUazDLfvBBvNDwEIzTjhl-CwRMFP0zHA3WvjNfJL177gbQyXjc19FTgizuR_DPYmqSAsbJ4PKgAByPvEV7SlLyYt7VgDsXScybeQrg=w408-h494-k-no",
    "kgmid": "/g/11vh_sxbsb"
  },
  {
    "title": "Woodsprings Pharmacy",
    "price": null,
    "categoryName": "Pharmacy",
    "address": "1807 Woodsprings Rd, Jonesboro, AR 72401",
    "neighborhood": null,
    "street": "1807 Woodsprings Rd",
    "city": "Jonesboro",
    "postalCode": "72401",
    "state": "Arkansas",
    "countryCode": "US",
    "website": "https://www.mygnp.com/pharmacies/woodsprings-pharmacy-jonesboro-ar-72401/?utm_source=google&utm_medium=local&utm_campaign=localmaps&utm_content=410732",
    "phone": "(870) 972-8310",
    "phoneUnformatted": "+18709728310",
    "claimThisBusiness": false,
    "location": {
      "lat": 35.818782,
      "lng": -90.728079
    },
    "totalScore": 4.8,
    "permanentlyClosed": false,
    "temporarilyClosed": false,
    "placeId": "ChIJzzR8FDEv1IcRShVKcxhAzhU",
    "categories": [
      "Pharmacy",
      "Drug store",
      "Medical supply store"
    ],
    "fid": "0x87d42f31147c34cf:0x15ce4018734a154a",
    "cid": "1571263793756509514",
    "reviewsCount": 61,
    "imagesCount": 14,
    "imageCategories": [],
    "scrapedAt": "2025-06-22T07:19:58.570Z",
    "googleFoodUrl": null,
    "hotelAds": [],
    "openingHours": [
      {
        "day": "Monday",
        "hours": "8:30 AM to 6 PM"
      },
      {
        "day": "Tuesday",
        "hours": "8:30 AM to 6 PM"
      },
      {
        "day": "Wednesday",
        "hours": "8:30 AM to 6 PM"
      },
      {
        "day": "Thursday",
        "hours": "8:30 AM to 6 PM"
      },
      {
        "day": "Friday",
        "hours": "8:30 AM to 6 PM"
      },
      {
        "day": "Saturday",
        "hours": "9 AM to 2 PM"
      },
      {
        "day": "Sunday",
        "hours": "Closed"
      }
    ],
    "peopleAlsoSearch": [],
    "placesTags": [],
    "reviewsTags": [],
    "additionalInfo": {
      "Service options": [
        {
          "Curbside pickup": true
        },
        {
          "Delivery": true
        },
        {
          "Drive-through": true
        },
        {
          "In-store pickup": true
        },
        {
          "In-store shopping": true
        },
        {
          "Onsite services": true
        },
        {
          "Same-day delivery": true
        },
        {
          "Vietnamese": true
        }
      ],
      "Accessibility": [
        {
          "Wheelchair accessible entrance": true
        },
        {
          "Wheelchair accessible parking lot": true
        },
        {
          "Wheelchair accessible restroom": true
        }
      ],
      "Planning": [
        {
          "Quick visit": true
        }
      ],
      "Payments": [
        {
          "Checks": true
        },
        {
          "Credit cards": true
        },
        {
          "Debit cards": true
        },
        {
          "NFC mobile payments": true
        },
        {
          "Credit cards": true
        }
      ]
    },
    "gasPrices": [],
    "url": "https://www.google.com/maps/search/?api=1&query=Woodsprings%20Pharmacy&query_place_id=ChIJzzR8FDEv1IcRShVKcxhAzhU",
    "searchPageUrl": "https://www.google.com/maps/search/independent%20pharmacy%20Jonesboro%20AR/@42.54640259466427,-83.31984582886456,8z?hl=en",
    "searchString": "independent pharmacy Jonesboro AR",
    "language": "en",
    "rank": 13,
    "isAdvertisement": false,
    "imageUrl": "https://lh3.googleusercontent.com/gps-cs-s/AC9h4nqoIMaWFlLOxh6gnR_C9BXMOC3ZOrt_BBXx8wifI9vlGRyE5TMV_4G2E-OuOd4y8boTCfUsPTRM-d6-0_yx-CIQaBrHnDsQZWKDUQgVoVkETVu18ZyLOnbjGEhehzkZdikVhkip=w408-h306-k-no",
    "kgmid": "/g/1tk6qvzy"
  },
  {
    "title": "Soo's Drug Store",
    "price": null,
    "categoryName": "Pharmacy",
    "address": "2822 E Nettleton Ave, Jonesboro, AR 72401",
    "neighborhood": null,
    "street": "2822 E Nettleton Ave",
    "city": "Jonesboro",
    "postalCode": "72401",
    "state": "Arkansas",
    "countryCode": "US",
    "website": "https://stores.healthmart.com/soosdrugstore/stores.aspx",
    "phone": "(870) 932-6930",
    "phoneUnformatted": "+18709326930",
    "claimThisBusiness": false,
    "location": {
      "lat": 35.8287092,
      "lng": -90.6705513
    },
    "totalScore": 4.7,
    "permanentlyClosed": false,
    "temporarilyClosed": false,
    "placeId": "ChIJSUUnV_gr1IcRE6I2dPajeuw",
    "categories": [
      "Pharmacy"
    ],
    "fid": "0x87d42bf857274549:0xec7aa3f67436a213",
    "cid": "17040112419016712723",
    "reviewsCount": 30,
    "imagesCount": 6,
    "imageCategories": [],
    "scrapedAt": "2025-06-22T07:19:58.570Z",
    "googleFoodUrl": null,
    "hotelAds": [],
    "openingHours": [
      {
        "day": "Monday",
        "hours": "8:30 AM to 6 PM"
      },
      {
        "day": "Tuesday",
        "hours": "8:30 AM to 6 PM"
      },
      {
        "day": "Wednesday",
        "hours": "8:30 AM to 6 PM"
      },
      {
        "day": "Thursday",
        "hours": "8:30 AM to 6 PM"
      },
      {
        "day": "Friday",
        "hours": "8:30 AM to 6 PM"
      },
      {
        "day": "Saturday",
        "hours": "9 AM to 1 PM"
      },
      {
        "day": "Sunday",
        "hours": "Closed"
      }
    ],
    "peopleAlsoSearch": [],
    "placesTags": [],
    "reviewsTags": [],
    "additionalInfo": {
      "From the business": [
        {
          "Small business": true
        }
      ],
      "Service options": [
        {
          "Delivery": true
        },
        {
          "Drive-through": true
        },
        {
          "In-store pickup": true
        },
        {
          "Same-day delivery": true
        }
      ],
      "Accessibility": [
        {
          "Wheelchair accessible entrance": true
        },
        {
          "Wheelchair accessible parking lot": true
        }
      ],
      "Amenities": [
        {
          "Wi-Fi": true
        },
        {
          "Free Wi-Fi": true
        }
      ],
      "Planning": [
        {
          "Quick visit": true
        }
      ],
      "Payments": [
        {
          "Credit cards": true
        },
        {
          "Debit cards": true
        },
        {
          "NFC mobile payments": true
        },
        {
          "Credit cards": true
        }
      ]
    },
    "gasPrices": [],
    "url": "https://www.google.com/maps/search/?api=1&query=Soo's%20Drug%20Store&query_place_id=ChIJSUUnV_gr1IcRE6I2dPajeuw",
    "searchPageUrl": "https://www.google.com/maps/search/independent%20pharmacy%20Jonesboro%20AR/@42.54640259466427,-83.31984582886456,8z?hl=en",
    "searchString": "independent pharmacy Jonesboro AR",
    "language": "en",
    "rank": 14,
    "isAdvertisement": false,
    "imageUrl": "https://lh3.googleusercontent.com/gps-cs-s/AC9h4nqbLXErrTN0wAnWd4mZ6Ru0mkY7lQ_zAOfKKTmqf131Ko7bYg00FvhuPPsGSIL5jY00Gib4fe5bn9I6w7rpb54DoxQOtHLcmu6V0iQ9lJO_auWDzNKrO0T5r6LEUN25XoWz1pyKOQ=w408-h306-k-no",
    "kgmid": "/g/1td8znns"
  },
  {
    "title": "Camp's Medical Pharmacy",
    "price": null,
    "categoryName": "Pharmacy",
    "address": "4109 E Johnson Ave ste a, Jonesboro, AR 72401, United States",
    "neighborhood": null,
    "street": "4109 E Johnson Ave ste a",
    "city": "Jonesboro",
    "postalCode": "72401",
    "state": "Arkansas",
    "countryCode": "US",
    "website": "https://www.cmrx1.com/",
    "phone": "+1 870-910-5550",
    "phoneUnformatted": "+18709105550",
    "claimThisBusiness": false,
    "location": {
      "lat": 35.8607995,
      "lng": -90.6486653
    },
    "totalScore": 4.7,
    "permanentlyClosed": false,
    "temporarilyClosed": false,
    "placeId": "ChIJh1PuWzAp1IcRqMckWfn4dW4",
    "categories": [
      "Pharmacy",
      "Drug store"
    ],
    "fid": "0x87d429305bee5387:0x6e75f8f95924c7a8",
    "cid": "7959541666273347496",
    "reviewsCount": 26,
    "imagesCount": 7,
    "imageCategories": [],
    "scrapedAt": "2025-06-22T07:20:04.862Z",
    "googleFoodUrl": null,
    "hotelAds": [],
    "openingHours": [
      {
        "day": "Monday",
        "hours": "9 AM to 6 PM"
      },
      {
        "day": "Tuesday",
        "hours": "9 AM to 6 PM"
      },
      {
        "day": "Wednesday",
        "hours": "9 AM to 6 PM"
      },
      {
        "day": "Thursday",
        "hours": "9 AM to 6 PM"
      },
      {
        "day": "Friday",
        "hours": "9 AM to 6 PM"
      },
      {
        "day": "Saturday",
        "hours": "9 AM to 12 PM"
      },
      {
        "day": "Sunday",
        "hours": "Closed"
      }
    ],
    "peopleAlsoSearch": [],
    "placesTags": [],
    "reviewsTags": [],
    "additionalInfo": {
      "Service options": [
        {
          "Kerbside pickup": true
        },
        {
          "Delivery": true
        },
        {
          "Drive-through": true
        },
        {
          "In-store pick-up": true
        },
        {
          "In-store shopping": true
        },
        {
          "On-site services": true
        },
        {
          "Same-day delivery": true
        }
      ],
      "Accessibility": [
        {
          "Wheelchair-accessible car park": true
        },
        {
          "Wheelchair-accessible entrance": true
        }
      ],
      "Planning": [
        {
          "Quick visit": true
        }
      ],
      "Payments": [
        {
          "Cheques": true
        },
        {
          "Credit cards": true
        },
        {
          "Debit cards": true
        },
        {
          "NFC mobile payments": true
        },
        {
          "Credit cards": true
        }
      ]
    },
    "gasPrices": [],
    "url": "https://www.google.com/maps/search/?api=1&query=Camp's%20Medical%20Pharmacy&query_place_id=ChIJh1PuWzAp1IcRqMckWfn4dW4",
    "searchPageUrl": "https://www.google.com/maps/search/independent%20pharmacy%20Jonesboro%20AR/@51.81411644999999,-176.78238856555046,11z?hl=en",
    "searchString": "independent pharmacy Jonesboro AR",
    "language": "en",
    "rank": 14,
    "isAdvertisement": false,
    "imageUrl": "https://lh3.googleusercontent.com/gps-cs-s/AC9h4noO_Kii4JS-JkIOc6LTPqdxj-RjAPPXAUsyZmqWe-oe1GUvqVSPZO99aZqT7rUCmajHZiOx7OGDEPFGbEF6KaF684WZRjVSrCVT1P1Ay_96xyuYkDoeF78-uS42bwLig4dwZHeg2A=w408-h306-k-no",
    "kgmid": "/g/1tk23gm2"
  },
  {
    "title": "G & M Pharmacy Inc",
    "price": null,
    "categoryName": "Pharmacy",
    "address": "325A Southwest Dr, Jonesboro, AR 72401",
    "neighborhood": null,
    "street": "325A Southwest Dr",
    "city": "Jonesboro",
    "postalCode": "72401",
    "state": "Arkansas",
    "countryCode": "US",
    "phone": "(870) 935-1340",
    "phoneUnformatted": "+18709351340",
    "claimThisBusiness": true,
    "location": {
      "lat": 35.8180033,
      "lng": -90.7079453
    },
    "permanentlyClosed": false,
    "temporarilyClosed": false,
    "placeId": "ChIJ-701BNEu1IcRRvPz_BOIU4s",
    "categories": [
      "Pharmacy"
    ],
    "fid": "0x87d42ed10435bdfb:0x8b538813fcf3f346",
    "cid": "10039517613768569670",
    "reviewsCount": 0,
    "imagesCount": 1,
    "imageCategories": [],
    "scrapedAt": "2025-06-22T07:20:21.277Z",
    "googleFoodUrl": null,
    "hotelAds": [],
    "openingHours": [
      {
        "day": "Monday",
        "hours": "9 AM to 5:30 PM"
      },
      {
        "day": "Tuesday",
        "hours": "9 AM to 5:30 PM"
      },
      {
        "day": "Wednesday",
        "hours": "9 AM to 5:30 PM"
      },
      {
        "day": "Thursday",
        "hours": "9 AM to 5:30 PM"
      },
      {
        "day": "Friday",
        "hours": "9 AM to 5:30 PM"
      },
      {
        "day": "Saturday",
        "hours": "9 AM to 12 PM"
      },
      {
        "day": "Sunday",
        "hours": "Closed"
      }
    ],
    "peopleAlsoSearch": [],
    "placesTags": [],
    "reviewsTags": [],
    "additionalInfo": {
      "Accessibility": [
        {
          "Wheelchair accessible entrance": true
        },
        {
          "Wheelchair accessible parking lot": true
        }
      ]
    },
    "gasPrices": [],
    "url": "https://www.google.com/maps/search/?api=1&query=G%20%26%20M%20Pharmacy%20Inc&query_place_id=ChIJ-701BNEu1IcRRvPz_BOIU4s",
    "searchPageUrl": "https://www.google.com/maps/search/independent%20pharmacy%20Jonesboro%20AR/@61.56929586514925,-163.4677018424355,9z?hl=en",
    "searchString": "independent pharmacy Jonesboro AR",
    "language": "en",
    "rank": 12,
    "isAdvertisement": false,
    "imageUrl": "https://streetviewpixels-pa.googleapis.com/v1/thumbnail?panoid=vaQ2T_8hEehNoPiZLjl64w&cb_client=search.gws-prod.gps&w=408&h=240&yaw=118.991806&pitch=0&thumbfov=100",
    "kgmid": "/g/1thw_zx3"
  },
  {
    "title": "Red River Infusion Pharmacy of Jonesboro",
    "price": null,
    "categoryName": "Pharmacy",
    "address": "2908 S Caraway Rd, Jonesboro, AR 72401",
    "neighborhood": null,
    "street": "2908 S Caraway Rd",
    "city": "Jonesboro",
    "postalCode": "72401",
    "state": "Arkansas",
    "countryCode": "US",
    "website": "https://www.redriverrx.com/",
    "phone": "(870) 938-0156",
    "phoneUnformatted": "+18709380156",
    "claimThisBusiness": false,
    "location": {
      "lat": 35.8110097,
      "lng": -90.6766043
    },
    "permanentlyClosed": false,
    "temporarilyClosed": false,
    "placeId": "ChIJLehx7Hst1IcRsJKCSdDA0V0",
    "categories": [
      "Pharmacy"
    ],
    "fid": "0x87d42d7bec71e82d:0x5dd1c0d0498292b0",
    "cid": "6760396516478849712",
    "reviewsCount": 0,
    "imagesCount": 1,
    "imageCategories": [],
    "scrapedAt": "2025-06-22T07:20:21.277Z",
    "googleFoodUrl": null,
    "hotelAds": [],
    "openingHours": [
      {
        "day": "Monday",
        "hours": "8 AM to 5 PM"
      },
      {
        "day": "Tuesday",
        "hours": "8 AM to 5 PM"
      },
      {
        "day": "Wednesday",
        "hours": "8 AM to 5 PM"
      },
      {
        "day": "Thursday",
        "hours": "8 AM to 5 PM"
      },
      {
        "day": "Friday",
        "hours": "8 AM to 5 PM"
      },
      {
        "day": "Saturday",
        "hours": "Closed"
      },
      {
        "day": "Sunday",
        "hours": "Closed"
      }
    ],
    "peopleAlsoSearch": [],
    "placesTags": [],
    "reviewsTags": [],
    "additionalInfo": {
      "Accessibility": [
        {
          "Wheelchair accessible entrance": true
        },
        {
          "Wheelchair accessible parking lot": true
        }
      ]
    },
    "gasPrices": [],
    "url": "https://www.google.com/maps/search/?api=1&query=Red%20River%20Infusion%20Pharmacy%20of%20Jonesboro&query_place_id=ChIJLehx7Hst1IcRsJKCSdDA0V0",
    "searchPageUrl": "https://www.google.com/maps/search/independent%20pharmacy%20Jonesboro%20AR/@61.56929586514925,-163.4677018424355,9z?hl=en",
    "searchString": "independent pharmacy Jonesboro AR",
    "language": "en",
    "rank": 13,
    "isAdvertisement": false,
    "imageUrl": "https://lh3.googleusercontent.com/p/AF1QipM7tnphgZave5hSb8IMV7Xe64fFL1BvrwdsTgEf=w659-h240-k-no",
    "kgmid": "/g/11x86vycw0"
  },
  {
    "title": "CVS",
    "description": "Drugstore chain selling a variety of beauty & health products, plus some grocery & household items.",
    "price": null,
    "categoryName": "Drug store",
    "address": "110 Southwest Dr, Jonesboro, AR 72401",
    "neighborhood": null,
    "street": "110 Southwest Dr",
    "city": "Jonesboro",
    "postalCode": "72401",
    "state": "Arkansas",
    "countryCode": "US",
    "website": "https://www.cvs.com/store-locator/jonesboro-ar-pharmacies/110-southwest-dr-jonesboro-ar-72401/storeid=10666?WT.mc_id=LS_GOOGLE_FS_10666",
    "phone": "(870) 268-1743",
    "phoneUnformatted": "+18702681743",
    "claimThisBusiness": false,
    "location": {
      "lat": 35.8210176,
      "lng": -90.7066266
    },
    "locatedIn": "CVS Pharmacy",
    "totalScore": 3.4,
    "permanentlyClosed": false,
    "temporarilyClosed": false,
    "placeId": "ChIJB7VsHNIu1IcRos5CsSqUJpQ",
    "categories": [
      "Drug store",
      "Beauty supply store",
      "Convenience store",
      "Cosmetics store",
      "Greeting card shop",
      "Perfume store",
      "Stationery store",
      "Vitamin & supplements store"
    ],
    "fid": "0x87d42ed21c6cb507:0x9426942ab142cea2",
    "cid": "10675382877811822242",
    "reviewsCount": 81,
    "imagesCount": 25,
    "imageCategories": [],
    "scrapedAt": "2025-06-22T07:20:21.277Z",
    "googleFoodUrl": null,
    "hotelAds": [],
    "openingHours": [
      {
        "day": "Monday",
        "hours": "Open 24 hours"
      },
      {
        "day": "Tuesday",
        "hours": "Open 24 hours"
      },
      {
        "day": "Wednesday",
        "hours": "Open 24 hours"
      },
      {
        "day": "Thursday",
        "hours": "Open 24 hours"
      },
      {
        "day": "Friday",
        "hours": "Open 24 hours"
      },
      {
        "day": "Saturday",
        "hours": "Open 24 hours"
      },
      {
        "day": "Sunday",
        "hours": "Open 24 hours"
      }
    ],
    "additionalOpeningHours": {
      "CVS Pharmacy": [
        {
          "day": "Monday",
          "hours": "8 AM–1:30 PM"
        },
        {
          "day": "Tuesday",
          "hours": "8 AM–1:30 PM"
        },
        {
          "day": "Wednesday",
          "hours": "8 AM–1:30 PM"
        },
        {
          "day": "Thursday",
          "hours": "8 AM–1:30 PM"
        },
        {
          "day": "Friday",
          "hours": "8 AM–1:30 PM"
        },
        {
          "day": "Saturday",
          "hours": "9 AM–1:30 PM"
        },
        {
          "day": "Sunday",
          "hours": "9 AM–1:30 PM"
        }
      ],
      "CVS Photo": [
        {
          "day": "Monday",
          "hours": "Open 24 hours"
        },
        {
          "day": "Tuesday",
          "hours": "Open 24 hours"
        },
        {
          "day": "Wednesday",
          "hours": "Open 24 hours"
        },
        {
          "day": "Thursday",
          "hours": "Open 24 hours"
        },
        {
          "day": "Friday",
          "hours": "Open 24 hours"
        },
        {
          "day": "Saturday",
          "hours": "Open 24 hours"
        },
        {
          "day": "Sunday",
          "hours": "Open 24 hours"
        }
      ],
      "LibertyX Bitcoin ATM": [
        {
          "day": "Monday",
          "hours": "8 AM–10 PM"
        },
        {
          "day": "Tuesday",
          "hours": "8 AM–10 PM"
        },
        {
          "day": "Wednesday",
          "hours": "8 AM–10 PM"
        },
        {
          "day": "Thursday",
          "hours": "8 AM–10 PM"
        },
        {
          "day": "Friday",
          "hours": "8 AM–10 PM"
        },
        {
          "day": "Saturday",
          "hours": "8 AM–10 PM"
        },
        {
          "day": "Sunday",
          "hours": "8 AM–10 PM"
        }
      ]
    },
    "peopleAlsoSearch": [],
    "placesTags": [],
    "reviewsTags": [],
    "additionalInfo": {
      "Service options": [
        {
          "Delivery": true
        },
        {
          "Drive-through": true
        },
        {
          "In-store pickup": true
        },
        {
          "In-store shopping": true
        },
        {
          "Onsite services": true
        },
        {
          "Same-day delivery": false
        }
      ],
      "Accessibility": [
        {
          "Wheelchair accessible entrance": true
        },
        {
          "Wheelchair accessible parking lot": true
        }
      ],
      "Offerings": [
        {
          "Passport photos": true
        }
      ],
      "Crowd": [
        {
          "LGBTQ+ friendly": true
        },
        {
          "Transgender safespace": true
        }
      ],
      "Planning": [
        {
          "Quick visit": true
        }
      ],
      "Payments": [
        {
          "Credit cards": true
        },
        {
          "Debit cards": true
        },
        {
          "Credit cards": true
        }
      ]
    },
    "gasPrices": [],
    "url": "https://www.google.com/maps/search/?api=1&query=CVS&query_place_id=ChIJB7VsHNIu1IcRos5CsSqUJpQ",
    "searchPageUrl": "https://www.google.com/maps/search/independent%20pharmacy%20Jonesboro%20AR/@61.56929586514925,-163.4677018424355,9z?hl=en",
    "searchString": "independent pharmacy Jonesboro AR",
    "language": "en",
    "rank": 14,
    "isAdvertisement": false,
    "imageUrl": "https://lh3.googleusercontent.com/gps-cs-s/AC9h4nqb1sRVHjCCM1BQK3YEGn0eBnu_sckfnLiA8kQ_A4Vw8EuGzEnAUw23FD8ERk2M8qVOam0dlZ5xl1vOOzQEx0Ay526ZS_lCmQOeMY0X9Jh3o_HIm8FDotf2rJ0ljrSCEapzBVPW-g=w408-h306-k-no",
    "kgmid": "/g/11cs4gnf6d"
  },
  {
    "title": "Vince A. Bari, PD",
    "price": null,
    "categoryName": "Pharmacy",
    "address": "1807 Woodsprings Rd, Jonesboro, AR 72401",
    "neighborhood": null,
    "street": "1807 Woodsprings Rd",
    "city": "Jonesboro",
    "postalCode": "72401",
    "state": "Arkansas",
    "countryCode": "US",
    "phone": "(870) 972-8310",
    "phoneUnformatted": "+18709728310",
    "claimThisBusiness": true,
    "location": {
      "lat": 35.8187701,
      "lng": -90.7280757
    },
    "permanentlyClosed": false,
    "temporarilyClosed": false,
    "placeId": "ChIJzzR8FDEv1IcRb7OKVDIAlb4",
    "categories": [
      "Pharmacy"
    ],
    "fid": "0x87d42f31147c34cf:0xbe950032548ab36f",
    "cid": "13732882854902936431",
    "reviewsCount": 0,
    "imagesCount": 1,
    "imageCategories": [],
    "scrapedAt": "2025-06-22T07:20:21.278Z",
    "googleFoodUrl": null,
    "hotelAds": [],
    "openingHours": [
      {
        "day": "Monday",
        "hours": "8:30 AM to 6 PM"
      },
      {
        "day": "Tuesday",
        "hours": "8:30 AM to 6 PM"
      },
      {
        "day": "Wednesday",
        "hours": "8:30 AM to 6 PM"
      },
      {
        "day": "Thursday",
        "hours": "8:30 AM to 6 PM"
      },
      {
        "day": "Friday",
        "hours": "8:30 AM to 6 PM"
      },
      {
        "day": "Saturday",
        "hours": "9 AM to 2 PM"
      },
      {
        "day": "Sunday",
        "hours": "Closed"
      }
    ],
    "peopleAlsoSearch": [],
    "placesTags": [],
    "reviewsTags": [],
    "additionalInfo": {
      "Accessibility": [
        {
          "Wheelchair accessible entrance": true
        },
        {
          "Wheelchair accessible parking lot": true
        }
      ],
      "Payments": [
        {
          "Credit cards": true
        }
      ]
    },
    "gasPrices": [],
    "url": "https://www.google.com/maps/search/?api=1&query=Vince%20A.%20Bari%2C%20PD&query_place_id=ChIJzzR8FDEv1IcRb7OKVDIAlb4",
    "searchPageUrl": "https://www.google.com/maps/search/independent%20pharmacy%20Jonesboro%20AR/@61.56929586514925,-163.4677018424355,9z?hl=en",
    "searchString": "independent pharmacy Jonesboro AR",
    "language": "en",
    "rank": 19,
    "isAdvertisement": false,
    "imageUrl": "https://streetviewpixels-pa.googleapis.com/v1/thumbnail?panoid=Rt9YE5VfvK9hf3rEKZkh7Q&cb_client=search.gws-prod.gps&w=408&h=240&yaw=144.62096&pitch=0&thumbfov=100",
    "kgmid": "/g/1tg8k80l"
  }
]