[
  {
    "title": "Morgan Creek Compounding Pharmacy",
    "price": null,
    "categoryName": "Pharmacy",
    "address": "71 25th St W #2, Billings, MT 59102",
    "neighborhood": "West End",
    "street": "71 25th St W #2",
    "city": "Billings",
    "postalCode": "59102",
    "state": "Montana",
    "countryCode": "US",
    "website": "http://morgancreekrx.com/",
    "phone": "(406) 294-6227",
    "phoneUnformatted": "+14062946227",
    "claimThisBusiness": true,
    "location": {
      "lat": 45.7709188,
      "lng": -108.5791031
    },
    "totalScore": 5,
    "permanentlyClosed": false,
    "temporarilyClosed": false,
    "placeId": "ChIJc8jbbdd8SFMRrtFWUR7zs0g",
    "categories": [
      "Pharmacy",
      "Health and beauty"
    ],
    "fid": "0x53487cd76ddbc873:0x48b3f31e5156d1ae",
    "cid": "5238798103101231534",
    "reviewsCount": 2,
    "imagesCount": 1,
    "imageCategories": [],
    "scrapedAt": "2025-06-22T08:22:23.760Z",
    "googleFoodUrl": null,
    "hotelAds": [],
    "openingHours": [
      {
        "day": "Monday",
        "hours": "10 AM to 5 PM"
      },
      {
        "day": "Tuesday",
        "hours": "10 AM to 5 PM"
      },
      {
        "day": "Wednesday",
        "hours": "10 AM to 5 PM"
      },
      {
        "day": "Thursday",
        "hours": "10 AM to 5 PM"
      },
      {
        "day": "Friday",
        "hours": "Closed"
      },
      {
        "day": "Saturday",
        "hours": "Closed"
      },
      {
        "day": "Sunday",
        "hours": "Closed"
      }
    ],
    "peopleAlsoSearch": [],
    "placesTags": [],
    "reviewsTags": [],
    "additionalInfo": {
      "Accessibility": [
        {
          "Wheelchair accessible entrance": true
        },
        {
          "Wheelchair accessible parking lot": true
        }
      ],
      "Payments": [
        {
          "Credit cards": true
        },
        {
          "Debit cards": true
        },
        {
          "NFC mobile payments": true
        },
        {
          "Credit cards": true
        }
      ]
    },
    "gasPrices": [],
    "url": "https://www.google.com/maps/search/?api=1&query=Morgan%20Creek%20Compounding%20Pharmacy&query_place_id=ChIJc8jbbdd8SFMRrtFWUR7zs0g",
    "searchPageUrl": "https://www.google.com/maps/search/independent%20pharmacy%20Billings%20MT/@55.96892542797799,-157.33936736968505,13z?hl=en",
    "searchString": "independent pharmacy Billings MT",
    "language": "en",
    "rank": 1,
    "isAdvertisement": false,
    "imageUrl": "https://streetviewpixels-pa.googleapis.com/v1/thumbnail?panoid=IPoBVfakU5EL3bl30ZOQkQ&cb_client=search.gws-prod.gps&w=408&h=240&yaw=216.2123&pitch=0&thumbfov=100",
    "kgmid": "/g/11g_kt2f1"
  },
  {
    "title": "Downtown Family Pharmacy",
    "price": null,
    "categoryName": "Pharmacy",
    "address": "214 N Broadway, Billings, MT 59101",
    "neighborhood": null,
    "street": "214 N Broadway",
    "city": "Billings",
    "postalCode": "59101",
    "state": "Montana",
    "countryCode": "US",
    "website": "https://www.downtownfamilypharmacy.com/",
    "phone": "(406) 206-2001",
    "phoneUnformatted": "+14062062001",
    "claimThisBusiness": false,
    "location": {
      "lat": 45.7832912,
      "lng": -108.5071443
    },
    "totalScore": 5,
    "permanentlyClosed": false,
    "temporarilyClosed": false,
    "placeId": "ChIJA5kl-d17SFMR2E6Lp3iGjD0",
    "categories": [
      "Pharmacy"
    ],
    "fid": "0x53487bddf9259903:0x3d8c8678a78b4ed8",
    "cid": "4435067585818218200",
    "reviewsCount": 5,
    "imagesCount": 29,
    "imageCategories": [],
    "scrapedAt": "2025-06-22T08:22:23.761Z",
    "googleFoodUrl": null,
    "hotelAds": [],
    "openingHours": [
      {
        "day": "Monday",
        "hours": "9 AM to 5:30 PM"
      },
      {
        "day": "Tuesday",
        "hours": "9 AM to 5:30 PM"
      },
      {
        "day": "Wednesday",
        "hours": "9 AM to 5:30 PM"
      },
      {
        "day": "Thursday",
        "hours": "9 AM to 5:30 PM"
      },
      {
        "day": "Friday",
        "hours": "9 AM to 5:30 PM"
      },
      {
        "day": "Saturday",
        "hours": "Closed"
      },
      {
        "day": "Sunday",
        "hours": "Closed"
      }
    ],
    "peopleAlsoSearch": [],
    "placesTags": [],
    "reviewsTags": [],
    "additionalInfo": {
      "Service options": [
        {
          "In-store shopping": true
        }
      ],
      "Accessibility": [
        {
          "Wheelchair accessible entrance": true
        },
        {
          "Wheelchair accessible parking lot": true
        }
      ],
      "Planning": [
        {
          "Quick visit": true
        }
      ],
      "Payments": [
        {
          "Credit cards": true
        }
      ]
    },
    "gasPrices": [],
    "url": "https://www.google.com/maps/search/?api=1&query=Downtown%20Family%20Pharmacy&query_place_id=ChIJA5kl-d17SFMR2E6Lp3iGjD0",
    "searchPageUrl": "https://www.google.com/maps/search/independent%20pharmacy%20Billings%20MT/@55.96892542797799,-157.33936736968505,13z?hl=en",
    "searchString": "independent pharmacy Billings MT",
    "language": "en",
    "rank": 2,
    "isAdvertisement": false,
    "imageUrl": "https://lh3.googleusercontent.com/p/AF1QipMlo75bAnZRCc-Rtb_4nYVEYH8F9rRt3LiBABr3=w426-h240-k-no",
    "kgmid": "/g/11l6mbz2t4"
  },
  {
    "title": "GetReliefRX",
    "price": null,
    "categoryName": "Pharmacy",
    "address": "149 Shiloh Rd Unit 7, Billings, MT 59106",
    "neighborhood": "West End",
    "street": "149 Shiloh Rd Unit 7",
    "city": "Billings",
    "postalCode": "59106",
    "state": "Montana",
    "countryCode": "US",
    "website": "https://getreliefrx.com/",
    "phone": "(888) 534-5687",
    "phoneUnformatted": "+18885345687",
    "claimThisBusiness": false,
    "location": {
      "lat": 45.7717094,
      "lng": -108.6166
    },
    "totalScore": 4.4,
    "permanentlyClosed": false,
    "temporarilyClosed": false,
    "placeId": "ChIJO6-JD4t9SFMR2jayDYAzhUg",
    "categories": [
      "Pharmacy"
    ],
    "fid": "0x53487d8b0f89af3b:0x488533800db236da",
    "cid": "5225639567711942362",
    "reviewsCount": 7,
    "imagesCount": null,
    "imageCategories": [],
    "scrapedAt": "2025-06-22T08:22:23.761Z",
    "googleFoodUrl": null,
    "hotelAds": [],
    "openingHours": [],
    "peopleAlsoSearch": [],
    "placesTags": [],
    "reviewsTags": [],
    "additionalInfo": {
      "Service options": [
        {
          "Delivery": true
        }
      ],
      "Accessibility": [
        {
          "Wheelchair accessible entrance": true
        },
        {
          "Wheelchair accessible parking lot": true
        }
      ],
      "Payments": [
        {
          "Credit cards": true
        }
      ]
    },
    "gasPrices": [],
    "url": "https://www.google.com/maps/search/?api=1&query=GetReliefRX&query_place_id=ChIJO6-JD4t9SFMR2jayDYAzhUg",
    "searchPageUrl": "https://www.google.com/maps/search/independent%20pharmacy%20Billings%20MT/@55.96892542797799,-157.33936736968505,13z?hl=en",
    "searchString": "independent pharmacy Billings MT",
    "language": "en",
    "rank": 3,
    "isAdvertisement": false,
    "kgmid": "/g/11w2zsw0x7"
  },
  {
    "title": "Billings Pharmacy One",
    "price": null,
    "categoryName": "Pharmacy",
    "address": "2900 12th Ave N # 110W, Billings, MT 59101",
    "neighborhood": null,
    "street": "2900 12th Ave N # 110W",
    "city": "Billings",
    "postalCode": "59101",
    "state": "Montana",
    "countryCode": "US",
    "website": "https://www.billingspharmacy1.com/",
    "phone": "(406) 245-6717",
    "phoneUnformatted": "+14062456717",
    "claimThisBusiness": false,
    "location": {
      "lat": 45.7925721,
      "lng": -108.5182078
    },
    "totalScore": 4.4,
    "permanentlyClosed": false,
    "temporarilyClosed": false,
    "placeId": "ChIJszRiuRV7SFMRHRVDujuqa3Q",
    "categories": [
      "Pharmacy"
    ],
    "fid": "0x53487b15b96234b3:0x746baa3bba43151d",
    "cid": "8388985904412431645",
    "reviewsCount": 15,
    "imagesCount": 6,
    "imageCategories": [],
    "scrapedAt": "2025-06-22T08:22:23.761Z",
    "googleFoodUrl": null,
    "hotelAds": [],
    "openingHours": [
      {
        "day": "Monday",
        "hours": "8:30 AM to 5 PM"
      },
      {
        "day": "Tuesday",
        "hours": "8:30 AM to 5 PM"
      },
      {
        "day": "Wednesday",
        "hours": "8:30 AM to 5 PM"
      },
      {
        "day": "Thursday",
        "hours": "8:30 AM to 5 PM"
      },
      {
        "day": "Friday",
        "hours": "8:30 AM to 5 PM"
      },
      {
        "day": "Saturday",
        "hours": "Closed"
      },
      {
        "day": "Sunday",
        "hours": "Closed"
      }
    ],
    "peopleAlsoSearch": [],
    "placesTags": [],
    "reviewsTags": [],
    "additionalInfo": {
      "From the business": [
        {
          "Small business": true
        }
      ],
      "Service options": [
        {
          "Delivery": true
        },
        {
          "In-store pickup": true
        },
        {
          "Same-day delivery": true
        }
      ],
      "Accessibility": [
        {
          "Wheelchair accessible entrance": true
        },
        {
          "Wheelchair accessible parking lot": true
        }
      ],
      "Offerings": [
        {
          "Medication disposal": true
        }
      ],
      "Payments": [
        {
          "Credit cards": true
        },
        {
          "Debit cards": true
        },
        {
          "NFC mobile payments": true
        },
        {
          "Credit cards": true
        }
      ]
    },
    "gasPrices": [],
    "url": "https://www.google.com/maps/search/?api=1&query=Billings%20Pharmacy%20One&query_place_id=ChIJszRiuRV7SFMRHRVDujuqa3Q",
    "searchPageUrl": "https://www.google.com/maps/search/independent%20pharmacy%20Billings%20MT/@55.96892542797799,-157.33936736968505,13z?hl=en",
    "searchString": "independent pharmacy Billings MT",
    "language": "en",
    "rank": 4,
    "isAdvertisement": false,
    "imageUrl": "https://lh3.googleusercontent.com/p/AF1QipN70EZXJGCfOBKKFyN8DXDyXuRvczladlI5fofP=w408-h272-k-no",
    "kgmid": "/g/1tgfpsxv"
  },
  {
    "title": "Billings Pharmacy One",
    "price": null,
    "categoryName": "Pharmacy",
    "address": "1245 N 29th St, Billings, MT 59101",
    "neighborhood": null,
    "street": "1245 N 29th St",
    "city": "Billings",
    "postalCode": "59101",
    "state": "Montana",
    "countryCode": "US",
    "website": "https://billingspharmacy1.com/",
    "phone": "(406) 245-6717",
    "phoneUnformatted": "+14062456717",
    "claimThisBusiness": false,
    "location": {
      "lat": 45.7945439,
      "lng": -108.5194744
    },
    "totalScore": 4.8,
    "permanentlyClosed": false,
    "temporarilyClosed": false,
    "placeId": "ChIJL8fKq_p7SFMREkNr79B_CM0",
    "categories": [
      "Pharmacy"
    ],
    "fid": "0x53487bfaabcac72f:0xcd087fd0ef6b4312",
    "cid": "14774199112935621394",
    "reviewsCount": 4,
    "imagesCount": 3,
    "imageCategories": [],
    "scrapedAt": "2025-06-22T08:22:23.761Z",
    "googleFoodUrl": null,
    "hotelAds": [],
    "openingHours": [
      {
        "day": "Monday",
        "hours": "8 AM to 5 PM"
      },
      {
        "day": "Tuesday",
        "hours": "8 AM to 5 PM"
      },
      {
        "day": "Wednesday",
        "hours": "8 AM to 5 PM"
      },
      {
        "day": "Thursday",
        "hours": "8 AM to 5 PM"
      },
      {
        "day": "Friday",
        "hours": "8 AM to 5 PM"
      },
      {
        "day": "Saturday",
        "hours": "Closed"
      },
      {
        "day": "Sunday",
        "hours": "Closed"
      }
    ],
    "peopleAlsoSearch": [],
    "placesTags": [],
    "reviewsTags": [],
    "additionalInfo": {
      "From the business": [
        {
          "Small business": true
        }
      ],
      "Accessibility": [
        {
          "Wheelchair accessible entrance": true
        },
        {
          "Wheelchair accessible parking lot": true
        }
      ],
      "Payments": [
        {
          "Credit cards": true
        }
      ]
    },
    "gasPrices": [],
    "url": "https://www.google.com/maps/search/?api=1&query=Billings%20Pharmacy%20One&query_place_id=ChIJL8fKq_p7SFMREkNr79B_CM0",
    "searchPageUrl": "https://www.google.com/maps/search/independent%20pharmacy%20Billings%20MT/@55.96892542797799,-157.33936736968505,13z?hl=en",
    "searchString": "independent pharmacy Billings MT",
    "language": "en",
    "rank": 5,
    "isAdvertisement": false,
    "imageUrl": "https://lh3.googleusercontent.com/p/AF1QipM_hN-8Hadk-MfWT-Q0vjLNO08NdfALvAU6auLq=w434-h240-k-no",
    "kgmid": "/g/11fb0vps5y"
  },
  {
    "title": "RiverStone Health Pharmacy",
    "price": null,
    "categoryName": "Pharmacy",
    "address": "123 S 27th St, Billings, MT 59101",
    "neighborhood": "South Side",
    "street": "123 S 27th St",
    "city": "Billings",
    "postalCode": "59101",
    "state": "Montana",
    "countryCode": "US",
    "website": "https://riverstonehealth.org/clinical-services/pharmacy/",
    "phone": "(406) 247-3330",
    "phoneUnformatted": "+14062473330",
    "claimThisBusiness": false,
    "location": {
      "lat": 45.7798537,
      "lng": -108.5012966
    },
    "totalScore": 4.6,
    "permanentlyClosed": false,
    "temporarilyClosed": false,
    "placeId": "ChIJsSajOyh7SFMR2LMB-ukEe6A",
    "categories": [
      "Pharmacy"
    ],
    "fid": "0x53487b283ba326b1:0xa07b04e9fa01b3d8",
    "cid": "11563841871172187096",
    "reviewsCount": 14,
    "imagesCount": 6,
    "imageCategories": [],
    "scrapedAt": "2025-06-22T08:22:23.761Z",
    "googleFoodUrl": null,
    "hotelAds": [],
    "openingHours": [
      {
        "day": "Monday",
        "hours": "8:30 AM to 5:30 PM"
      },
      {
        "day": "Tuesday",
        "hours": "8:30 AM to 5:30 PM"
      },
      {
        "day": "Wednesday",
        "hours": "8:30 AM to 5:30 PM"
      },
      {
        "day": "Thursday",
        "hours": "8:30 AM to 5:30 PM"
      },
      {
        "day": "Friday",
        "hours": "8:30 AM to 5:30 PM"
      },
      {
        "day": "Saturday",
        "hours": "Closed"
      },
      {
        "day": "Sunday",
        "hours": "Closed"
      }
    ],
    "peopleAlsoSearch": [],
    "placesTags": [],
    "reviewsTags": [],
    "additionalInfo": {
      "Service options": [
        {
          "In-store pickup": true
        }
      ],
      "Accessibility": [
        {
          "Wheelchair accessible entrance": true
        },
        {
          "Wheelchair accessible parking lot": true
        },
        {
          "Wheelchair accessible seating": true
        }
      ],
      "Payments": [
        {
          "Credit cards": true
        }
      ]
    },
    "gasPrices": [],
    "url": "https://www.google.com/maps/search/?api=1&query=RiverStone%20Health%20Pharmacy&query_place_id=ChIJsSajOyh7SFMR2LMB-ukEe6A",
    "searchPageUrl": "https://www.google.com/maps/search/independent%20pharmacy%20Billings%20MT/@55.96892542797799,-157.33936736968505,13z?hl=en",
    "searchString": "independent pharmacy Billings MT",
    "language": "en",
    "rank": 7,
    "isAdvertisement": false,
    "imageUrl": "https://lh3.googleusercontent.com/p/AF1QipPsfZ815TqK90Wk-lKwFYH-HkshLqfel9PP_phS=w408-h262-k-no",
    "kgmid": "/g/11h002ym2g"
  },
  {
    "title": "Specialty Pharmacy",
    "price": null,
    "categoryName": "Pharmacy",
    "address": "1015 Broadwater Ave, Billings, MT 59102",
    "neighborhood": null,
    "street": "1015 Broadwater Ave",
    "city": "Billings",
    "postalCode": "59102",
    "state": "Montana",
    "countryCode": "US",
    "website": "https://www.billingsclinic.com/maps-locations/location-profile/?searchId=df195999-69a2-e911-a81f-000d3a61151d&sort=11&page=4&pageSize=10&id=131&utm_source=YextLocation-BCLSpecialtyPharm-Broadwater&utm_medium=YextLocationURL&utm_campaign=YextLocation",
    "phone": "(406) 435-6393",
    "phoneUnformatted": "+14064356393",
    "claimThisBusiness": false,
    "location": {
      "lat": 45.7772756,
      "lng": -108.5416533
    },
    "totalScore": 5,
    "permanentlyClosed": false,
    "temporarilyClosed": false,
    "placeId": "ChIJyaCYM0R9SFMRwE2_6A5LULM",
    "categories": [
      "Pharmacy"
    ],
    "fid": "0x53487d443398a0c9:0xb3504b0ee8bf4dc0",
    "cid": "12920909858332429760",
    "reviewsCount": 6,
    "imagesCount": 2,
    "imageCategories": [],
    "scrapedAt": "2025-06-22T08:22:23.761Z",
    "googleFoodUrl": null,
    "hotelAds": [],
    "openingHours": [
      {
        "day": "Monday",
        "hours": "8 AM to 5:30 PM"
      },
      {
        "day": "Tuesday",
        "hours": "8 AM to 5:30 PM"
      },
      {
        "day": "Wednesday",
        "hours": "8 AM to 5:30 PM"
      },
      {
        "day": "Thursday",
        "hours": "8 AM to 5:30 PM"
      },
      {
        "day": "Friday",
        "hours": "8 AM to 5:30 PM"
      },
      {
        "day": "Saturday",
        "hours": "Closed"
      },
      {
        "day": "Sunday",
        "hours": "Closed"
      }
    ],
    "peopleAlsoSearch": [],
    "placesTags": [],
    "reviewsTags": [],
    "additionalInfo": {
      "Service options": [
        {
          "Delivery": true
        },
        {
          "In-store shopping": true
        }
      ],
      "Accessibility": [
        {
          "Wheelchair accessible entrance": true
        },
        {
          "Wheelchair accessible parking lot": true
        }
      ],
      "Payments": [
        {
          "Credit cards": true
        }
      ]
    },
    "gasPrices": [],
    "url": "https://www.google.com/maps/search/?api=1&query=Specialty%20Pharmacy&query_place_id=ChIJyaCYM0R9SFMRwE2_6A5LULM",
    "searchPageUrl": "https://www.google.com/maps/search/independent%20pharmacy%20Billings%20MT/@55.96892542797799,-157.33936736968505,13z?hl=en",
    "searchString": "independent pharmacy Billings MT",
    "language": "en",
    "rank": 8,
    "isAdvertisement": false,
    "imageUrl": "https://lh3.googleusercontent.com/gps-cs-s/AC9h4nrr0eYxZ9uImPjVwudnxm3S7fFFoP8UR61uJwnIwFUfd0Zj-PyHFKCNIn14C50PREcd1V13XHIr4133kPNQy8T86tek9JPOSHD-BwYrlC_zS1PDYR_NtQutsGGpz-2Kq20jxpuKWg=w408-h544-k-no",
    "kgmid": "/g/11g4bf0bxc"
  },
  {
    "title": "Billings Clinic Atrium Pharmacy",
    "price": null,
    "categoryName": "Pharmacy",
    "address": "2800 10th Ave N, Billings, MT 59101",
    "neighborhood": null,
    "street": "2800 10th Ave N",
    "city": "Billings",
    "postalCode": "59101",
    "state": "Montana",
    "countryCode": "US",
    "website": "https://www.billingsclinic.com/maps-locations/location-profile/?id=129&utm_source=gmb-providers&utm_campaign=local-listings&utm_medium=129",
    "phone": "(406) 238-2084",
    "phoneUnformatted": "+14062382084",
    "claimThisBusiness": false,
    "location": {
      "lat": 45.7894261,
      "lng": -108.5128922
    },
    "totalScore": 3.7,
    "permanentlyClosed": false,
    "temporarilyClosed": false,
    "placeId": "ChIJG4odfz57SFMRQqkOn_kgQWg",
    "categories": [
      "Pharmacy"
    ],
    "fid": "0x53487b3e7f1d8a1b:0x684120f99f0ea942",
    "cid": "7512321909918181698",
    "reviewsCount": 41,
    "imagesCount": 4,
    "imageCategories": [],
    "scrapedAt": "2025-06-22T08:22:23.761Z",
    "googleFoodUrl": null,
    "hotelAds": [],
    "openingHours": [
      {
        "day": "Monday",
        "hours": "7 AM to 1 AM"
      },
      {
        "day": "Tuesday",
        "hours": "7 AM to 1 AM"
      },
      {
        "day": "Wednesday",
        "hours": "7 AM to 1 AM"
      },
      {
        "day": "Thursday",
        "hours": "7 AM to 1 AM"
      },
      {
        "day": "Friday",
        "hours": "7 AM to 1 AM"
      },
      {
        "day": "Saturday",
        "hours": "7 AM to 1 AM"
      },
      {
        "day": "Sunday",
        "hours": "7 AM to 1 AM"
      }
    ],
    "peopleAlsoSearch": [],
    "placesTags": [],
    "reviewsTags": [],
    "additionalInfo": {
      "Accessibility": [
        {
          "Wheelchair accessible entrance": true
        },
        {
          "Wheelchair accessible parking lot": true
        }
      ],
      "Payments": [
        {
          "Credit cards": true
        }
      ]
    },
    "gasPrices": [],
    "url": "https://www.google.com/maps/search/?api=1&query=Billings%20Clinic%20Atrium%20Pharmacy&query_place_id=ChIJG4odfz57SFMRQqkOn_kgQWg",
    "searchPageUrl": "https://www.google.com/maps/search/independent%20pharmacy%20Billings%20MT/@55.96892542797799,-157.33936736968505,13z?hl=en",
    "searchString": "independent pharmacy Billings MT",
    "language": "en",
    "rank": 9,
    "isAdvertisement": false,
    "imageUrl": "https://lh3.googleusercontent.com/gps-cs-s/AC9h4npFTBl-dXw1ooNcoSkjxXqSFVgvXZ8-pQuf_GFFVvs51Jc1RP29e_TzZe9nH5yIJGFGgaTTa3EaJ62zReJ3DDok4eU0SWspE0Al6hhHg7hnNnkb_wSUroy1peCmSOyOS-4A05qHHQ=w426-h240-k-no",
    "kgmid": "/g/11bt_hfn74"
  },
  {
    "title": "Juro's Pharmacy Health and Wellness",
    "price": null,
    "categoryName": "Pharmacy",
    "address": "2043 Grand Ave, Billings, MT 59102",
    "neighborhood": null,
    "street": "2043 Grand Ave",
    "city": "Billings",
    "postalCode": "59102",
    "state": "Montana",
    "countryCode": "US",
    "website": "http://www.jurospharmacy.com/",
    "phone": "(406) 869-0123",
    "phoneUnformatted": "+14068690123",
    "claimThisBusiness": false,
    "location": {
      "lat": 45.7844139,
      "lng": -108.569177
    },
    "totalScore": 3.1,
    "permanentlyClosed": false,
    "temporarilyClosed": false,
    "placeId": "ChIJdefDvZV8SFMRsxaJZJP5vzQ",
    "categories": [
      "Pharmacy",
      "Health consultant",
      "Medical billing service",
      "Medical equipment supplier",
      "Medical supply store",
      "Oxygen equipment supplier",
      "Veterinary pharmacy",
      "Vitamin & supplements store"
    ],
    "fid": "0x53487c95bdc3e775:0x34bff993648916b3",
    "cid": "3801031021966202547",
    "reviewsCount": 66,
    "imagesCount": 4,
    "imageCategories": [],
    "scrapedAt": "2025-06-22T08:22:23.762Z",
    "googleFoodUrl": null,
    "hotelAds": [],
    "openingHours": [
      {
        "day": "Monday",
        "hours": "9 AM to 6 PM"
      },
      {
        "day": "Tuesday",
        "hours": "9 AM to 6 PM"
      },
      {
        "day": "Wednesday",
        "hours": "9 AM to 6 PM"
      },
      {
        "day": "Thursday",
        "hours": "9 AM to 6 PM"
      },
      {
        "day": "Friday",
        "hours": "9 AM to 6 PM"
      },
      {
        "day": "Saturday",
        "hours": "Closed"
      },
      {
        "day": "Sunday",
        "hours": "Closed"
      }
    ],
    "peopleAlsoSearch": [],
    "placesTags": [],
    "reviewsTags": [],
    "additionalInfo": {
      "Service options": [
        {
          "Delivery": true
        },
        {
          "In-store pickup": true
        },
        {
          "Same-day delivery": true
        }
      ],
      "Accessibility": [
        {
          "Wheelchair accessible entrance": true
        },
        {
          "Wheelchair accessible parking lot": true
        }
      ],
      "Offerings": [
        {
          "Medication disposal": true
        }
      ],
      "Planning": [
        {
          "Quick visit": true
        }
      ],
      "Payments": [
        {
          "Credit cards": true
        }
      ]
    },
    "gasPrices": [],
    "url": "https://www.google.com/maps/search/?api=1&query=Juro's%20Pharmacy%20Health%20and%20Wellness&query_place_id=ChIJdefDvZV8SFMRsxaJZJP5vzQ",
    "searchPageUrl": "https://www.google.com/maps/search/independent%20pharmacy%20Billings%20MT/@55.96892542797799,-157.33936736968505,13z?hl=en",
    "searchString": "independent pharmacy Billings MT",
    "language": "en",
    "rank": 10,
    "isAdvertisement": false,
    "imageUrl": "https://lh3.googleusercontent.com/p/AF1QipOCkt8rn2O0iQf9E3aTpk9EWv6wOZIt5jFpwjg8=w426-h240-k-no",
    "kgmid": "/g/1tfkvznk"
  },
  {
    "title": "Genoa Healthcare",
    "price": null,
    "categoryName": "Pharmacy",
    "address": "3737 Grand Ave Suite 6 Room P, Billings, MT 59102",
    "neighborhood": null,
    "street": "3737 Grand Ave Suite 6 Room P",
    "city": "Billings",
    "postalCode": "59102",
    "state": "Montana",
    "countryCode": "US",
    "website": "http://www.genoahealthcare.com/",
    "phone": "(406) 545-4571",
    "phoneUnformatted": "+14065454571",
    "claimThisBusiness": false,
    "location": {
      "lat": 45.785035,
      "lng": -108.6091341
    },
    "totalScore": 5,
    "permanentlyClosed": false,
    "temporarilyClosed": false,
    "placeId": "ChIJreGOyUJ9SFMRPmI5WG0rOrE",
    "categories": [
      "Pharmacy"
    ],
    "fid": "0x53487d42c98ee1ad:0xb13a2b6d5839623e",
    "cid": "12770567441994048062",
    "reviewsCount": 4,
    "imagesCount": 2,
    "imageCategories": [],
    "scrapedAt": "2025-06-22T08:22:23.762Z",
    "googleFoodUrl": null,
    "hotelAds": [],
    "openingHours": [
      {
        "day": "Monday",
        "hours": "8:30 AM to 5 PM"
      },
      {
        "day": "Tuesday",
        "hours": "8:30 AM to 5 PM"
      },
      {
        "day": "Wednesday",
        "hours": "8:30 AM to 5 PM"
      },
      {
        "day": "Thursday",
        "hours": "8:30 AM to 5 PM"
      },
      {
        "day": "Friday",
        "hours": "8:30 AM to 5 PM"
      },
      {
        "day": "Saturday",
        "hours": "Closed"
      },
      {
        "day": "Sunday",
        "hours": "Closed"
      }
    ],
    "peopleAlsoSearch": [],
    "placesTags": [],
    "reviewsTags": [],
    "additionalInfo": {
      "Accessibility": [
        {
          "Wheelchair accessible entrance": true
        },
        {
          "Wheelchair accessible parking lot": true
        }
      ],
      "Payments": [
        {
          "Credit cards": true
        }
      ]
    },
    "gasPrices": [],
    "url": "https://www.google.com/maps/search/?api=1&query=Genoa%20Healthcare&query_place_id=ChIJreGOyUJ9SFMRPmI5WG0rOrE",
    "searchPageUrl": "https://www.google.com/maps/search/independent%20pharmacy%20Billings%20MT/@55.96892542797799,-157.33936736968505,13z?hl=en",
    "searchString": "independent pharmacy Billings MT",
    "language": "en",
    "rank": 11,
    "isAdvertisement": false,
    "imageUrl": "https://lh3.googleusercontent.com/gps-cs-s/AC9h4np9E293BMKzmYIXjAZp0k5rhDi9c6YSP8VQulWATZS9hix-leUonnzmdjEEjQIvJe9pXnVm_cqD4tezH3LHnRl2DGn3aSuX0jOARYxo8BJ4zCusRs-lX6ibA0ra92_ug3hpmbhF=w408-h544-k-no",
    "kgmid": "/g/11jfsg0yjp"
  },
  {
    "title": "Pharm406",
    "price": null,
    "categoryName": "Pharmacy",
    "address": "1410 38th St W STE A, Billings, MT 59102",
    "neighborhood": null,
    "street": "1410 38th St W STE A",
    "city": "Billings",
    "postalCode": "59102",
    "state": "Montana",
    "countryCode": "US",
    "website": "http://www.pharm406.com/",
    "phone": "(406) 717-6100",
    "phoneUnformatted": "+14067176100",
    "claimThisBusiness": false,
    "location": {
      "lat": 45.7847087,
      "lng": -108.6118433
    },
    "totalScore": 4.1,
    "permanentlyClosed": false,
    "temporarilyClosed": false,
    "placeId": "ChIJX6HInId9SFMRkRk55LZhlKw",
    "categories": [
      "Pharmacy"
    ],
    "fid": "0x53487d879cc8a15f:0xac9461b6e4391991",
    "cid": "12435671909217671569",
    "reviewsCount": 77,
    "imagesCount": 14,
    "imageCategories": [],
    "scrapedAt": "2025-06-22T08:22:23.762Z",
    "googleFoodUrl": null,
    "hotelAds": [],
    "openingHours": [
      {
        "day": "Monday",
        "hours": "9 AM to 7 PM"
      },
      {
        "day": "Tuesday",
        "hours": "9 AM to 7 PM"
      },
      {
        "day": "Wednesday",
        "hours": "9 AM to 7 PM"
      },
      {
        "day": "Thursday",
        "hours": "9 AM to 7 PM"
      },
      {
        "day": "Friday",
        "hours": "9 AM to 7 PM"
      },
      {
        "day": "Saturday",
        "hours": "10 AM to 6 PM"
      },
      {
        "day": "Sunday",
        "hours": "10 AM to 6 PM"
      }
    ],
    "peopleAlsoSearch": [],
    "placesTags": [],
    "reviewsTags": [],
    "additionalInfo": {
      "From the business": [
        {
          "Small business": true
        }
      ],
      "Service options": [
        {
          "Delivery": true
        },
        {
          "Drive-through": true
        },
        {
          "In-store pickup": true
        },
        {
          "Onsite services": true
        },
        {
          "Same-day delivery": true
        }
      ],
      "Accessibility": [
        {
          "Wheelchair accessible entrance": true
        },
        {
          "Wheelchair accessible parking lot": true
        }
      ],
      "Planning": [
        {
          "Quick visit": true
        }
      ],
      "Payments": [
        {
          "Checks": true
        },
        {
          "Credit cards": true
        },
        {
          "Debit cards": true
        },
        {
          "NFC mobile payments": true
        },
        {
          "Credit cards": true
        }
      ]
    },
    "gasPrices": [],
    "url": "https://www.google.com/maps/search/?api=1&query=Pharm406&query_place_id=ChIJX6HInId9SFMRkRk55LZhlKw",
    "searchPageUrl": "https://www.google.com/maps/search/independent%20pharmacy%20Billings%20MT/@55.96892542797799,-157.33936736968505,13z?hl=en",
    "searchString": "independent pharmacy Billings MT",
    "language": "en",
    "rank": 12,
    "isAdvertisement": false,
    "imageUrl": "https://lh3.googleusercontent.com/p/AF1QipNjDr1z0S8FC7xixlM_fhaKmATnGgH5eAUUre83=w408-h306-k-no",
    "kgmid": "/g/11jjk974cq"
  },
  {
    "title": "Omnicare Inc.",
    "price": null,
    "categoryName": "Pharmacy",
    "address": "2747 Enterprise Ave STE 1, Billings, MT 59102",
    "neighborhood": null,
    "street": "2747 Enterprise Ave STE 1",
    "city": "Billings",
    "postalCode": "59102",
    "state": "Montana",
    "countryCode": "US",
    "website": "https://www.omnicare.com/",
    "phone": "(406) 896-3380",
    "phoneUnformatted": "+14068963380",
    "claimThisBusiness": true,
    "location": {
      "lat": 45.7513392,
      "lng": -108.5856391
    },
    "permanentlyClosed": false,
    "temporarilyClosed": false,
    "placeId": "ChIJz3gLWNdiSFMR2TsFblZ2OsU",
    "categories": [
      "Pharmacy"
    ],
    "fid": "0x534862d7580b78cf:0xc53a76566e053bd9",
    "cid": "14211801687706123225",
    "reviewsCount": 0,
    "imagesCount": null,
    "imageCategories": [],
    "scrapedAt": "2025-06-22T08:22:23.762Z",
    "googleFoodUrl": null,
    "hotelAds": [],
    "openingHours": [],
    "peopleAlsoSearch": [],
    "placesTags": [],
    "reviewsTags": [],
    "additionalInfo": {
      "Accessibility": [
        {
          "Wheelchair accessible entrance": true
        },
        {
          "Wheelchair accessible parking lot": true
        }
      ]
    },
    "gasPrices": [],
    "url": "https://www.google.com/maps/search/?api=1&query=Omnicare%20Inc.&query_place_id=ChIJz3gLWNdiSFMR2TsFblZ2OsU",
    "searchPageUrl": "https://www.google.com/maps/search/independent%20pharmacy%20Billings%20MT/@55.96892542797799,-157.33936736968505,13z?hl=en",
    "searchString": "independent pharmacy Billings MT",
    "language": "en",
    "rank": 13,
    "isAdvertisement": false,
    "kgmid": "/g/1thggpsp"
  },
  {
    "title": "Billings Clinic AllCare Pharmacy Solutions",
    "price": null,
    "categoryName": "Pharmacy",
    "address": "1015 Broadwater Ave #201, Billings, MT 59102",
    "neighborhood": null,
    "street": "1015 Broadwater Ave #201",
    "city": "Billings",
    "postalCode": "59102",
    "state": "Montana",
    "countryCode": "US",
    "website": "http://www.billingsclinic.com/allcare",
    "phone": "(406) 435-5970",
    "phoneUnformatted": "+14064355970",
    "claimThisBusiness": true,
    "location": {
      "lat": 45.7774559,
      "lng": -108.5418974
    },
    "permanentlyClosed": false,
    "temporarilyClosed": false,
    "placeId": "ChIJdbIWRwd9SFMRU0BoZ-tfcsA",
    "categories": [
      "Pharmacy"
    ],
    "fid": "0x53487d074716b275:0xc0725feb67684053",
    "cid": "13867251667284017235",
    "reviewsCount": 0,
    "imagesCount": 2,
    "imageCategories": [],
    "scrapedAt": "2025-06-22T08:22:23.762Z",
    "googleFoodUrl": null,
    "hotelAds": [],
    "openingHours": [
      {
        "day": "Monday",
        "hours": "8 AM to 5 PM"
      },
      {
        "day": "Tuesday",
        "hours": "8 AM to 5 PM"
      },
      {
        "day": "Wednesday",
        "hours": "8 AM to 5 PM"
      },
      {
        "day": "Thursday",
        "hours": "8 AM to 5 PM"
      },
      {
        "day": "Friday",
        "hours": "8 AM to 5 PM"
      },
      {
        "day": "Saturday",
        "hours": "Closed"
      },
      {
        "day": "Sunday",
        "hours": "Closed"
      }
    ],
    "peopleAlsoSearch": [],
    "placesTags": [],
    "reviewsTags": [],
    "additionalInfo": {
      "Accessibility": [
        {
          "Wheelchair accessible entrance": true
        },
        {
          "Wheelchair accessible parking lot": true
        }
      ],
      "Payments": [
        {
          "Debit cards": true
        },
        {
          "Credit cards": true
        }
      ]
    },
    "gasPrices": [],
    "url": "https://www.google.com/maps/search/?api=1&query=Billings%20Clinic%20AllCare%20Pharmacy%20Solutions&query_place_id=ChIJdbIWRwd9SFMRU0BoZ-tfcsA",
    "searchPageUrl": "https://www.google.com/maps/search/independent%20pharmacy%20Billings%20MT/@55.96892542797799,-157.33936736968505,13z?hl=en",
    "searchString": "independent pharmacy Billings MT",
    "language": "en",
    "rank": 14,
    "isAdvertisement": false,
    "imageUrl": "https://lh3.googleusercontent.com/gps-cs-s/AC9h4nqwmmSQeZErvIxihDY0IkD0cS8dvsWt-m_HOEKbFbzcO7o2T9vVoMWYIJVV0T_FlsAtRIi7dK1xnxlXOI7NxpBfD4W8y5MzRubCgYUsecMTIY4vd2g7m-ggghDDK6GU9GFJVLBBuw=w408-h544-k-no",
    "kgmid": "/g/11h_4w4gbx"
  },
  {
    "title": "CVS Pharmacy",
    "price": null,
    "categoryName": "Pharmacy",
    "address": "425 Main St, Billings, MT 59105",
    "neighborhood": "Heights",
    "street": "425 Main St",
    "city": "Billings",
    "postalCode": "59105",
    "state": "Montana",
    "countryCode": "US",
    "website": "https://www.cvs.com/store-locator/billings-mt-pharmacies/425-east-main-st-billings-mt-59105/storeid=5302?WT.mc_id=LS_GOOGLE_RX_5302",
    "phone": "(406) 248-4078",
    "phoneUnformatted": "+14062484078",
    "claimThisBusiness": false,
    "location": {
      "lat": 45.8071428,
      "lng": -108.4735714
    },
    "totalScore": 3.7,
    "permanentlyClosed": false,
    "temporarilyClosed": false,
    "placeId": "ChIJC6Tw9JJ6SFMRIeBaRF_WV6k",
    "categories": [
      "Pharmacy"
    ],
    "fid": "0x53487a92f4f0a40b:0xa957d65f445ae021",
    "cid": "12202457420040691745",
    "reviewsCount": 11,
    "imagesCount": 12,
    "imageCategories": [],
    "scrapedAt": "2025-06-22T08:22:23.762Z",
    "googleFoodUrl": null,
    "hotelAds": [],
    "openingHours": [
      {
        "day": "Monday",
        "hours": "9 AM to 1:30 PM, 2 to 7 PM"
      },
      {
        "day": "Tuesday",
        "hours": "9 AM to 1:30 PM, 2 to 7 PM"
      },
      {
        "day": "Wednesday",
        "hours": "9 AM to 1:30 PM, 2 to 7 PM"
      },
      {
        "day": "Thursday",
        "hours": "9 AM to 1:30 PM, 2 to 7 PM"
      },
      {
        "day": "Friday",
        "hours": "9 AM to 1:30 PM, 2 to 7 PM"
      },
      {
        "day": "Saturday",
        "hours": "10 AM to 1:30 PM, 2 to 6 PM"
      },
      {
        "day": "Sunday",
        "hours": "11 AM to 1:30 PM, 2 to 5 PM"
      }
    ],
    "peopleAlsoSearch": [],
    "placesTags": [],
    "reviewsTags": [],
    "additionalInfo": {
      "Service options": [
        {
          "Delivery": true
        },
        {
          "Drive-through": true
        },
        {
          "In-store shopping": true
        }
      ],
      "Accessibility": [
        {
          "Wheelchair accessible entrance": true
        },
        {
          "Wheelchair accessible parking lot": true
        }
      ],
      "Offerings": [
        {
          "Naloxone": true
        },
        {
          "Passport photos": true
        }
      ],
      "Crowd": [
        {
          "LGBTQ+ friendly": true
        },
        {
          "Transgender safespace": true
        }
      ],
      "Planning": [
        {
          "Quick visit": true
        }
      ],
      "Payments": [
        {
          "Credit cards": true
        },
        {
          "Debit cards": true
        },
        {
          "NFC mobile payments": true
        },
        {
          "SNAP/EBT": true
        },
        {
          "Credit cards": true
        }
      ]
    },
    "gasPrices": [],
    "url": "https://www.google.com/maps/search/?api=1&query=CVS%20Pharmacy&query_place_id=ChIJC6Tw9JJ6SFMRIeBaRF_WV6k",
    "searchPageUrl": "https://www.google.com/maps/search/independent%20pharmacy%20Billings%20MT/@55.96892542797799,-157.33936736968505,13z?hl=en",
    "searchString": "independent pharmacy Billings MT",
    "language": "en",
    "rank": 15,
    "isAdvertisement": false,
    "imageUrl": "https://lh3.googleusercontent.com/p/AF1QipN6IHCjhb2T9T3oD1ebPE85jNFWO330X1UBQdfl=w408-h272-k-no",
    "kgmid": "/g/11c475c1dy"
  },
  {
    "title": "CVS Pharmacy",
    "price": null,
    "categoryName": "Pharmacy",
    "address": "1311 Grand Ave, Billings, MT 59102",
    "neighborhood": null,
    "street": "1311 Grand Ave",
    "city": "Billings",
    "postalCode": "59102",
    "state": "Montana",
    "countryCode": "US",
    "website": "https://www.cvs.com/store-locator/billings-mt-pharmacies/1311-grand-ave-billings-mt-59102/storeid=5301?WT.mc_id=LS_GOOGLE_RX_5301",
    "phone": "(406) 259-7034",
    "phoneUnformatted": "+14062597034",
    "claimThisBusiness": false,
    "location": {
      "lat": 45.7848381,
      "lng": -108.549045
    },
    "totalScore": 4.1,
    "permanentlyClosed": false,
    "temporarilyClosed": false,
    "placeId": "ChIJwSDtSaB8SFMRxrUO_Bz_z58",
    "categories": [
      "Pharmacy"
    ],
    "fid": "0x53487ca049ed20c1:0x9fcfff1cfc0eb5c6",
    "cid": "11515703272162637254",
    "reviewsCount": 9,
    "imagesCount": 8,
    "imageCategories": [],
    "scrapedAt": "2025-06-22T08:22:23.762Z",
    "googleFoodUrl": null,
    "hotelAds": [],
    "openingHours": [
      {
        "day": "Monday",
        "hours": "8 AM to 1:30 PM, 2 to 7 PM"
      },
      {
        "day": "Tuesday",
        "hours": "8 AM to 1:30 PM, 2 to 7 PM"
      },
      {
        "day": "Wednesday",
        "hours": "8 AM to 1:30 PM, 2 to 7 PM"
      },
      {
        "day": "Thursday",
        "hours": "8 AM to 1:30 PM, 2 to 7 PM"
      },
      {
        "day": "Friday",
        "hours": "8 AM to 1:30 PM, 2 to 7 PM"
      },
      {
        "day": "Saturday",
        "hours": "10 AM to 1:30 PM, 2 to 6 PM"
      },
      {
        "day": "Sunday",
        "hours": "11 AM to 1:30 PM, 2 to 5 PM"
      }
    ],
    "peopleAlsoSearch": [],
    "placesTags": [],
    "reviewsTags": [],
    "additionalInfo": {
      "Service options": [
        {
          "Delivery": true
        },
        {
          "Drive-through": true
        },
        {
          "In-store shopping": true
        },
        {
          "Onsite services": true
        }
      ],
      "Accessibility": [
        {
          "Wheelchair accessible entrance": true
        },
        {
          "Wheelchair accessible parking lot": true
        }
      ],
      "Offerings": [
        {
          "Medication disposal": true
        },
        {
          "Naloxone": true
        },
        {
          "Passport photos": true
        }
      ],
      "Crowd": [
        {
          "LGBTQ+ friendly": true
        },
        {
          "Transgender safespace": true
        }
      ],
      "Planning": [
        {
          "Quick visit": true
        }
      ],
      "Payments": [
        {
          "Credit cards": true
        },
        {
          "Debit cards": true
        },
        {
          "NFC mobile payments": true
        },
        {
          "SNAP/EBT": true
        },
        {
          "Credit cards": true
        }
      ]
    },
    "gasPrices": [],
    "url": "https://www.google.com/maps/search/?api=1&query=CVS%20Pharmacy&query_place_id=ChIJwSDtSaB8SFMRxrUO_Bz_z58",
    "searchPageUrl": "https://www.google.com/maps/search/independent%20pharmacy%20Billings%20MT/@55.96892542797799,-157.33936736968505,13z?hl=en",
    "searchString": "independent pharmacy Billings MT",
    "language": "en",
    "rank": 16,
    "isAdvertisement": false,
    "imageUrl": "https://lh3.googleusercontent.com/p/AF1QipOf9P0mheXqdptYzr0iT1XtvUE3RKaSPfXV9PHu=w408-h272-k-no",
    "kgmid": "/g/11c4637sh5"
  },
  {
    "title": "CVS Pharmacy",
    "price": null,
    "categoryName": "Pharmacy",
    "address": "2402 Grand Ave, Billings, MT 59102",
    "neighborhood": "West End",
    "street": "2402 Grand Ave",
    "city": "Billings",
    "postalCode": "59102",
    "state": "Montana",
    "countryCode": "US",
    "website": "https://www.cvs.com/store-locator/billings-mt-pharmacies/2402-grand-ave-billings-mt-59102/storeid=8623?WT.mc_id=LS_GOOGLE_RX_8623",
    "phone": "(406) 252-6334",
    "phoneUnformatted": "+14062526334",
    "claimThisBusiness": false,
    "location": {
      "lat": 45.7837152,
      "lng": -108.577419
    },
    "totalScore": 4,
    "permanentlyClosed": false,
    "temporarilyClosed": false,
    "placeId": "ChIJIXxtU-p8SFMR_YO9moT5RJE",
    "categories": [
      "Pharmacy"
    ],
    "fid": "0x53487cea536d7c21:0x9144f9849abd83fd",
    "cid": "10467765781842985981",
    "reviewsCount": 16,
    "imagesCount": 22,
    "imageCategories": [],
    "scrapedAt": "2025-06-22T08:22:23.762Z",
    "googleFoodUrl": null,
    "hotelAds": [],
    "openingHours": [
      {
        "day": "Monday",
        "hours": "9 AM to 1:30 PM, 2 to 6 PM"
      },
      {
        "day": "Tuesday",
        "hours": "9 AM to 1:30 PM, 2 to 6 PM"
      },
      {
        "day": "Wednesday",
        "hours": "9 AM to 1:30 PM, 2 to 6 PM"
      },
      {
        "day": "Thursday",
        "hours": "9 AM to 1:30 PM, 2 to 6 PM"
      },
      {
        "day": "Friday",
        "hours": "9 AM to 1:30 PM, 2 to 6 PM"
      },
      {
        "day": "Saturday",
        "hours": "10 AM to 1:30 PM, 2 to 4 PM"
      },
      {
        "day": "Sunday",
        "hours": "10 AM to 1:30 PM, 2 to 4 PM"
      }
    ],
    "peopleAlsoSearch": [],
    "placesTags": [],
    "reviewsTags": [],
    "additionalInfo": {
      "Service options": [
        {
          "Delivery": true
        },
        {
          "Drive-through": true
        },
        {
          "In-store shopping": true
        }
      ],
      "Accessibility": [
        {
          "Wheelchair accessible entrance": true
        },
        {
          "Wheelchair accessible parking lot": true
        }
      ],
      "Offerings": [
        {
          "Medication disposal": true
        },
        {
          "Naloxone": true
        },
        {
          "Passport photos": true
        }
      ],
      "Crowd": [
        {
          "LGBTQ+ friendly": true
        },
        {
          "Transgender safespace": true
        }
      ],
      "Planning": [
        {
          "Quick visit": true
        }
      ],
      "Payments": [
        {
          "Credit cards": true
        },
        {
          "Debit cards": true
        },
        {
          "NFC mobile payments": true
        },
        {
          "SNAP/EBT": true
        },
        {
          "Credit cards": true
        }
      ]
    },
    "gasPrices": [],
    "url": "https://www.google.com/maps/search/?api=1&query=CVS%20Pharmacy&query_place_id=ChIJIXxtU-p8SFMR_YO9moT5RJE",
    "searchPageUrl": "https://www.google.com/maps/search/independent%20pharmacy%20Billings%20MT/@55.96892542797799,-157.33936736968505,13z?hl=en",
    "searchString": "independent pharmacy Billings MT",
    "language": "en",
    "rank": 17,
    "isAdvertisement": false,
    "imageUrl": "https://lh3.googleusercontent.com/p/AF1QipPUJHS69Rw987RRPqDe1S6UxDinOYmOBeEHr7dU=w408-h272-k-no",
    "kgmid": "/g/11c46b6fkm"
  },
  {
    "title": "Albertsons Pharmacy",
    "price": "$$",
    "categoryName": "Pharmacy",
    "address": "511 Central Ave, Billings, MT 59102",
    "neighborhood": "Central - Terry",
    "street": "511 Central Ave",
    "city": "Billings",
    "postalCode": "59102",
    "state": "Montana",
    "countryCode": "US",
    "website": "https://local.pharmacy.albertsons.com/mt/billings/511-central-ave.html",
    "phone": "(406) 245-4301",
    "phoneUnformatted": "+14062454301",
    "claimThisBusiness": false,
    "location": {
      "lat": 45.7705876,
      "lng": -108.5285282
    },
    "totalScore": 4.1,
    "permanentlyClosed": false,
    "temporarilyClosed": false,
    "placeId": "ChIJMx9BplR7SFMRDxci9iKqKDs",
    "categories": [
      "Pharmacy",
      "Drug store",
      "Vitamin & supplements store"
    ],
    "fid": "0x53487b54a6411f33:0x3b28aa22f622170f",
    "cid": "4262844114441213711",
    "reviewsCount": 32,
    "imagesCount": 13,
    "imageCategories": [],
    "scrapedAt": "2025-06-22T08:22:23.762Z",
    "googleFoodUrl": null,
    "hotelAds": [],
    "openingHours": [
      {
        "day": "Monday",
        "hours": "8 AM to 8 PM"
      },
      {
        "day": "Tuesday",
        "hours": "8 AM to 8 PM"
      },
      {
        "day": "Wednesday",
        "hours": "8 AM to 8 PM"
      },
      {
        "day": "Thursday",
        "hours": "8 AM to 8 PM"
      },
      {
        "day": "Friday",
        "hours": "8 AM to 8 PM"
      },
      {
        "day": "Saturday",
        "hours": "9 AM to 6 PM"
      },
      {
        "day": "Sunday",
        "hours": "10 AM to 4 PM"
      }
    ],
    "peopleAlsoSearch": [],
    "placesTags": [],
    "reviewsTags": [],
    "additionalInfo": {
      "Service options": [
        {
          "Delivery": true
        },
        {
          "Drive-through": true
        },
        {
          "In-store pickup": true
        },
        {
          "In-store shopping": true
        },
        {
          "Same-day delivery": true
        }
      ],
      "Accessibility": [
        {
          "Wheelchair accessible entrance": true
        },
        {
          "Wheelchair accessible parking lot": true
        }
      ],
      "Offerings": [
        {
          "Medication disposal": true
        }
      ],
      "Crowd": [
        {
          "LGBTQ+ friendly": true
        }
      ],
      "Planning": [
        {
          "Appointment required": true
        },
        {
          "Quick visit": true
        }
      ],
      "Payments": [
        {
          "Checks": true
        },
        {
          "Debit cards": true
        },
        {
          "Credit cards": true
        }
      ]
    },
    "gasPrices": [],
    "url": "https://www.google.com/maps/search/?api=1&query=Albertsons%20Pharmacy&query_place_id=ChIJMx9BplR7SFMRDxci9iKqKDs",
    "searchPageUrl": "https://www.google.com/maps/search/independent%20pharmacy%20Billings%20MT/@55.96892542797799,-157.33936736968505,13z?hl=en",
    "searchString": "independent pharmacy Billings MT",
    "language": "en",
    "rank": 18,
    "isAdvertisement": false,
    "imageUrl": "https://lh3.googleusercontent.com/p/AF1QipO2sxf5_MIxc-qZ_zs187x1Yh2uLtR0RMph_iB0=w427-h240-k-no",
    "kgmid": "/g/1tdgzz6b"
  },
  {
    "title": "Walgreens Pharmacy",
    "description": "Department of the Walgreens chain providing prescription medications & other health-related items.",
    "price": "$$",
    "categoryName": "Pharmacy",
    "address": "1330 Grand Ave, Billings, MT 59102",
    "neighborhood": null,
    "street": "1330 Grand Ave",
    "city": "Billings",
    "postalCode": "59102",
    "state": "Montana",
    "countryCode": "US",
    "website": "https://www.walgreens.com/locator/walgreens-1330+grand+ave-billings-mt-59102/id=12155",
    "phone": "(406) 252-0096",
    "phoneUnformatted": "+14062520096",
    "claimThisBusiness": false,
    "location": {
      "lat": 45.7835984,
      "lng": -108.5505277
    },
    "totalScore": 3.3,
    "permanentlyClosed": false,
    "temporarilyClosed": false,
    "placeId": "ChIJC99tn6F8SFMRD0oS_cpXIqg",
    "categories": [
      "Pharmacy"
    ],
    "fid": "0x53487ca19f6ddf0b:0xa82257cafd124a0f",
    "cid": "12115342476920900111",
    "reviewsCount": 8,
    "imagesCount": 3,
    "imageCategories": [],
    "scrapedAt": "2025-06-22T08:22:23.762Z",
    "googleFoodUrl": null,
    "hotelAds": [],
    "openingHours": [
      {
        "day": "Monday",
        "hours": "9 AM to 1:30 PM, 2 to 7 PM"
      },
      {
        "day": "Tuesday",
        "hours": "9 AM to 1:30 PM, 2 to 7 PM"
      },
      {
        "day": "Wednesday",
        "hours": "9 AM to 1:30 PM, 2 to 7 PM"
      },
      {
        "day": "Thursday",
        "hours": "9 AM to 1:30 PM, 2 to 7 PM"
      },
      {
        "day": "Friday",
        "hours": "9 AM to 1:30 PM, 2 to 7 PM"
      },
      {
        "day": "Saturday",
        "hours": "10 AM to 1:30 PM, 2 to 6 PM"
      },
      {
        "day": "Sunday",
        "hours": "Closed"
      }
    ],
    "additionalOpeningHours": {
      "Drive through": [
        {
          "day": "Monday",
          "hours": "9 AM–1:30 PM"
        },
        {
          "day": "Tuesday",
          "hours": "9 AM–1:30 PM"
        },
        {
          "day": "Wednesday",
          "hours": "9 AM–1:30 PM"
        },
        {
          "day": "Thursday",
          "hours": "9 AM–1:30 PM"
        },
        {
          "day": "Friday",
          "hours": "9 AM–1:30 PM"
        },
        {
          "day": "Saturday",
          "hours": "10 AM–1:30 PM"
        },
        {
          "day": "Sunday",
          "hours": "Closed"
        }
      ]
    },
    "peopleAlsoSearch": [],
    "placesTags": [],
    "reviewsTags": [],
    "additionalInfo": {
      "Service options": [
        {
          "Drive-through": true
        },
        {
          "In-store pickup": true
        }
      ],
      "Accessibility": [
        {
          "Wheelchair accessible entrance": true
        },
        {
          "Wheelchair accessible parking lot": true
        }
      ],
      "Offerings": [
        {
          "Naloxone": true
        }
      ],
      "Planning": [
        {
          "Quick visit": true
        }
      ],
      "Payments": [
        {
          "Checks": true
        },
        {
          "Credit cards": true
        },
        {
          "Debit cards": true
        }
      ]
    },
    "gasPrices": [],
    "url": "https://www.google.com/maps/search/?api=1&query=Walgreens%20Pharmacy&query_place_id=ChIJC99tn6F8SFMRD0oS_cpXIqg",
    "searchPageUrl": "https://www.google.com/maps/search/independent%20pharmacy%20Billings%20MT/@55.96892542797799,-157.33936736968505,13z?hl=en",
    "searchString": "independent pharmacy Billings MT",
    "language": "en",
    "rank": 19,
    "isAdvertisement": false,
    "imageUrl": "https://lh3.googleusercontent.com/p/AF1QipNU1TJuhdstLsUtAyo1tdi7wQnJVK4WTZIsixq4=w525-h240-k-no",
    "kgmid": "/g/11cnbm1qsg"
  },
  {
    "title": "Albertsons Pharmacy",
    "price": "$$",
    "categoryName": "Pharmacy",
    "address": "1212 Grand Ave, Billings, MT 59102",
    "neighborhood": null,
    "street": "1212 Grand Ave",
    "city": "Billings",
    "postalCode": "59102",
    "state": "Montana",
    "countryCode": "US",
    "website": "https://local.pharmacy.albertsons.com/mt/billings/1212-grand-ave.html",
    "phone": "(406) 248-5544",
    "phoneUnformatted": "+14062485544",
    "claimThisBusiness": false,
    "location": {
      "lat": 45.782662,
      "lng": -108.5478171
    },
    "totalScore": 3.4,
    "permanentlyClosed": false,
    "temporarilyClosed": false,
    "placeId": "ChIJg0E17qB8SFMRnrtEchr0Yvc",
    "categories": [
      "Pharmacy",
      "Drug store",
      "Vitamin & supplements store"
    ],
    "fid": "0x53487ca0ee354183:0xf762f41a7244bb9e",
    "cid": "17826078669509278622",
    "reviewsCount": 19,
    "imagesCount": 5,
    "imageCategories": [],
    "scrapedAt": "2025-06-22T08:22:23.763Z",
    "googleFoodUrl": null,
    "hotelAds": [],
    "openingHours": [
      {
        "day": "Monday",
        "hours": "8 AM to 8 PM"
      },
      {
        "day": "Tuesday",
        "hours": "8 AM to 8 PM"
      },
      {
        "day": "Wednesday",
        "hours": "8 AM to 8 PM"
      },
      {
        "day": "Thursday",
        "hours": "8 AM to 8 PM"
      },
      {
        "day": "Friday",
        "hours": "8 AM to 8 PM"
      },
      {
        "day": "Saturday",
        "hours": "9 AM to 6 PM"
      },
      {
        "day": "Sunday",
        "hours": "10 AM to 4 PM"
      }
    ],
    "peopleAlsoSearch": [],
    "placesTags": [],
    "reviewsTags": [],
    "additionalInfo": {
      "Service options": [
        {
          "Delivery": true
        },
        {
          "Drive-through": true
        },
        {
          "In-store pickup": true
        },
        {
          "In-store shopping": true
        },
        {
          "Same-day delivery": true
        }
      ],
      "Accessibility": [
        {
          "Wheelchair accessible entrance": true
        },
        {
          "Wheelchair accessible parking lot": true
        }
      ],
      "Crowd": [
        {
          "LGBTQ+ friendly": true
        }
      ],
      "Planning": [
        {
          "Appointment required": true
        },
        {
          "Quick visit": true
        }
      ],
      "Payments": [
        {
          "Checks": true
        },
        {
          "Debit cards": true
        },
        {
          "NFC mobile payments": true
        },
        {
          "Credit cards": true
        }
      ]
    },
    "gasPrices": [],
    "url": "https://www.google.com/maps/search/?api=1&query=Albertsons%20Pharmacy&query_place_id=ChIJg0E17qB8SFMRnrtEchr0Yvc",
    "searchPageUrl": "https://www.google.com/maps/search/independent%20pharmacy%20Billings%20MT/@55.96892542797799,-157.33936736968505,13z?hl=en",
    "searchString": "independent pharmacy Billings MT",
    "language": "en",
    "rank": 20,
    "isAdvertisement": false,
    "imageUrl": "https://lh3.googleusercontent.com/p/AF1QipOXT8OhAX_G-jGyGSe4X80DaQfspI6FHW_dTiQy=w427-h240-k-no",
    "kgmid": "/g/1tx4p0fm"
  }
]