[
  {
    "title": "Line Avenue Compounding Pharmacy",
    "price": null,
    "categoryName": "Pharmacy",
    "address": "1822 Line Ave, Shreveport, LA 71101",
    "neighborhood": "Highland, Stoner Hill",
    "street": "1822 Line Ave",
    "city": "Shreveport",
    "postalCode": "71101",
    "state": "Louisiana",
    "countryCode": "US",
    "website": "http://www.lineavenuepharmacy.com/",
    "phone": "(318) 221-5114",
    "phoneUnformatted": "+13182215114",
    "claimThisBusiness": false,
    "location": {
      "lat": 32.4933914,
      "lng": -93.7464383
    },
    "totalScore": 4.4,
    "permanentlyClosed": false,
    "temporarilyClosed": false,
    "placeId": "ChIJVcIhhE3NNoYRgmP3sttQoNw",
    "categories": [
      "Pharmacy",
      "Homeopath",
      "Veterinary pharmacy"
    ],
    "fid": "0x8636cd4d8421c255:0xdca050dbb2f76382",
    "cid": "15897795589148468098",
    "reviewsCount": 47,
    "imagesCount": 29,
    "imageCategories": [],
    "scrapedAt": "2025-06-22T05:25:12.931Z",
    "googleFoodUrl": null,
    "hotelAds": [],
    "openingHours": [
      {
        "day": "Monday",
        "hours": "8:30 AM to 5:30 PM"
      },
      {
        "day": "Tuesday",
        "hours": "8:30 AM to 5:30 PM"
      },
      {
        "day": "Wednesday",
        "hours": "8:30 AM to 5:30 PM"
      },
      {
        "day": "Thursday",
        "hours": "8:30 AM to 5:30 PM"
      },
      {
        "day": "Friday",
        "hours": "8:30 AM to 5:30 PM"
      },
      {
        "day": "Saturday",
        "hours": "Closed"
      },
      {
        "day": "Sunday",
        "hours": "Closed"
      }
    ],
    "peopleAlsoSearch": [],
    "placesTags": [],
    "reviewsTags": [],
    "additionalInfo": {
      "From the business": [
        {
          "Small business": true
        }
      ],
      "Service options": [
        {
          "Delivery": true
        },
        {
          "In-store pickup": true
        },
        {
          "Same-day delivery": true
        }
      ],
      "Accessibility": [
        {
          "Wheelchair accessible entrance": true
        },
        {
          "Wheelchair accessible parking lot": true
        }
      ],
      "Planning": [
        {
          "Quick visit": true
        }
      ],
      "Payments": [
        {
          "Checks": true
        },
        {
          "Debit cards": true
        },
        {
          "NFC mobile payments": true
        },
        {
          "Credit cards": true
        }
      ]
    },
    "gasPrices": [],
    "url": "https://www.google.com/maps/search/?api=1&query=Line%20Avenue%20Compounding%20Pharmacy&query_place_id=ChIJVcIhhE3NNoYRgmP3sttQoNw",
    "searchPageUrl": "https://www.google.com/maps/search/independent%20pharmacy%20Shreveport%20LA/@57.14606775000001,-170.1791191,12z?hl=en",
    "searchString": "independent pharmacy Shreveport LA",
    "language": "en",
    "rank": 1,
    "isAdvertisement": false,
    "imageUrl": "https://lh3.googleusercontent.com/p/AF1QipMohJ7Bwbr6RAe9AhAgDl4HXhgg8ZVZlsAPoGIR=w516-h240-k-no",
    "kgmid": "/g/1thw72v9"
  },
  {
    "title": "Shreveport Nuclear Pharmacy",
    "price": null,
    "categoryName": "Pharmacy",
    "address": "1822 Line Ave, Shreveport, LA 71101",
    "neighborhood": "Highland, Stoner Hill",
    "street": "1822 Line Ave",
    "city": "Shreveport",
    "postalCode": "71101",
    "state": "Louisiana",
    "countryCode": "US",
    "website": "http://www.custom-pharmacy.com/",
    "phone": "(318) 221-5115",
    "phoneUnformatted": "+13182215115",
    "claimThisBusiness": false,
    "location": {
      "lat": 32.4933303,
      "lng": -93.7464748
    },
    "totalScore": 5,
    "permanentlyClosed": false,
    "temporarilyClosed": false,
    "placeId": "ChIJVcIhhE3NNoYR9E08ibX-BSs",
    "categories": [
      "Pharmacy"
    ],
    "fid": "0x8636cd4d8421c255:0x2b05feb5893c4df4",
    "cid": "3100163974159420916",
    "reviewsCount": 1,
    "imagesCount": 1,
    "imageCategories": [],
    "scrapedAt": "2025-06-22T05:25:12.932Z",
    "googleFoodUrl": null,
    "hotelAds": [],
    "openingHours": [
      {
        "day": "Monday",
        "hours": "7 AM to 3 PM"
      },
      {
        "day": "Tuesday",
        "hours": "7 AM to 3 PM"
      },
      {
        "day": "Wednesday",
        "hours": "7 AM to 3 PM"
      },
      {
        "day": "Thursday",
        "hours": "7 AM to 3 PM"
      },
      {
        "day": "Friday",
        "hours": "7 AM to 3 PM"
      },
      {
        "day": "Saturday",
        "hours": "Closed"
      },
      {
        "day": "Sunday",
        "hours": "Closed"
      }
    ],
    "peopleAlsoSearch": [],
    "placesTags": [],
    "reviewsTags": [],
    "additionalInfo": {
      "Accessibility": [
        {
          "Wheelchair accessible entrance": true
        }
      ],
      "Payments": [
        {
          "Credit cards": true
        }
      ]
    },
    "gasPrices": [],
    "url": "https://www.google.com/maps/search/?api=1&query=Shreveport%20Nuclear%20Pharmacy&query_place_id=ChIJVcIhhE3NNoYR9E08ibX-BSs",
    "searchPageUrl": "https://www.google.com/maps/search/independent%20pharmacy%20Shreveport%20LA/@57.14606775000001,-170.1791191,12z?hl=en",
    "searchString": "independent pharmacy Shreveport LA",
    "language": "en",
    "rank": 2,
    "isAdvertisement": false,
    "imageUrl": "https://streetviewpixels-pa.googleapis.com/v1/thumbnail?panoid=SLSrS8m2s_whPoe31NFz3g&cb_client=search.gws-prod.gps&w=408&h=240&yaw=317.49142&pitch=0&thumbfov=100",
    "kgmid": "/g/1tdw3vrb"
  },
  {
    "title": "Apotheworx",
    "price": null,
    "categoryName": "Pharmacy",
    "address": "429 Crockett St, Shreveport, LA 71101",
    "neighborhood": "Downtown Riverfront",
    "street": "429 Crockett St",
    "city": "Shreveport",
    "postalCode": "71101",
    "state": "Louisiana",
    "countryCode": "US",
    "website": "https://apotheworx.com/",
    "phone": "(318) 863-1800",
    "phoneUnformatted": "+13188631800",
    "claimThisBusiness": false,
    "location": {
      "lat": 32.5111278,
      "lng": -93.747681
    },
    "totalScore": 5,
    "permanentlyClosed": false,
    "temporarilyClosed": false,
    "placeId": "ChIJCTaWBgPNNoYRnu2IdvJg_vo",
    "categories": [
      "Pharmacy"
    ],
    "fid": "0x8636cd0306963609:0xfafe60f27688ed9e",
    "cid": "18085999748053527966",
    "reviewsCount": 7,
    "imagesCount": 13,
    "imageCategories": [],
    "scrapedAt": "2025-06-22T05:25:12.932Z",
    "googleFoodUrl": null,
    "hotelAds": [],
    "openingHours": [
      {
        "day": "Monday",
        "hours": "9 AM to 6 PM"
      },
      {
        "day": "Tuesday",
        "hours": "9 AM to 6 PM"
      },
      {
        "day": "Wednesday",
        "hours": "9 AM to 6 PM"
      },
      {
        "day": "Thursday",
        "hours": "9 AM to 6 PM"
      },
      {
        "day": "Friday",
        "hours": "9 AM to 6 PM"
      },
      {
        "day": "Saturday",
        "hours": "Closed"
      },
      {
        "day": "Sunday",
        "hours": "Closed"
      }
    ],
    "peopleAlsoSearch": [],
    "placesTags": [],
    "reviewsTags": [],
    "additionalInfo": {
      "Service options": [
        {
          "Delivery": true
        }
      ],
      "Accessibility": [
        {
          "Wheelchair accessible entrance": true
        },
        {
          "Wheelchair accessible parking lot": true
        }
      ],
      "Planning": [
        {
          "Quick visit": true
        }
      ],
      "Payments": [
        {
          "Credit cards": true
        }
      ],
      "Parking": [
        {
          "Free parking lot": true
        },
        {
          "Free street parking": true
        },
        {
          "Paid street parking": true
        }
      ]
    },
    "gasPrices": [],
    "url": "https://www.google.com/maps/search/?api=1&query=Apotheworx&query_place_id=ChIJCTaWBgPNNoYRnu2IdvJg_vo",
    "searchPageUrl": "https://www.google.com/maps/search/independent%20pharmacy%20Shreveport%20LA/@57.14606775000001,-170.1791191,12z?hl=en",
    "searchString": "independent pharmacy Shreveport LA",
    "language": "en",
    "rank": 3,
    "isAdvertisement": false,
    "imageUrl": "https://lh3.googleusercontent.com/p/AF1QipM_ViCoZxcKg6vFivzB3Upqn6X0H5jcdIN5mBx9=w408-h306-k-no",
    "kgmid": "/g/11w9kk2393"
  },
  {
    "title": "Medic Pharmacy Inc.",
    "price": null,
    "categoryName": "Pharmacy",
    "address": "1849 Line Ave, Shreveport, LA 71101",
    "neighborhood": "Highland, Stoner Hill",
    "street": "1849 Line Ave",
    "city": "Shreveport",
    "postalCode": "71101",
    "state": "Louisiana",
    "countryCode": "US",
    "website": "http://mymedicrx.com/",
    "phone": "(318) 221-0691",
    "phoneUnformatted": "+13182210691",
    "claimThisBusiness": false,
    "location": {
      "lat": 32.4930818,
      "lng": -93.7457748
    },
    "totalScore": 4.1,
    "permanentlyClosed": false,
    "temporarilyClosed": false,
    "placeId": "ChIJ330DgFLNNoYRhwoVYIJD1bk",
    "categories": [
      "Pharmacy"
    ],
    "fid": "0x8636cd5280037ddf:0xb9d5438260150a87",
    "cid": "13390683294292839047",
    "reviewsCount": 76,
    "imagesCount": 2,
    "imageCategories": [],
    "scrapedAt": "2025-06-22T05:25:12.932Z",
    "googleFoodUrl": null,
    "hotelAds": [],
    "openingHours": [
      {
        "day": "Monday",
        "hours": "9 AM to 6 PM"
      },
      {
        "day": "Tuesday",
        "hours": "9 AM to 6 PM"
      },
      {
        "day": "Wednesday",
        "hours": "9 AM to 6 PM"
      },
      {
        "day": "Thursday",
        "hours": "9 AM to 6 PM"
      },
      {
        "day": "Friday",
        "hours": "9 AM to 6 PM"
      },
      {
        "day": "Saturday",
        "hours": "Closed"
      },
      {
        "day": "Sunday",
        "hours": "Closed"
      }
    ],
    "peopleAlsoSearch": [],
    "placesTags": [],
    "reviewsTags": [],
    "additionalInfo": {
      "From the business": [
        {
          "Small business": true
        }
      ],
      "Service options": [
        {
          "Delivery": true
        },
        {
          "In-store pickup": true
        },
        {
          "Same-day delivery": true
        }
      ],
      "Accessibility": [
        {
          "Wheelchair accessible entrance": true
        },
        {
          "Wheelchair accessible parking lot": true
        }
      ],
      "Planning": [
        {
          "Quick visit": true
        }
      ],
      "Payments": [
        {
          "Credit cards": true
        },
        {
          "Debit cards": true
        },
        {
          "NFC mobile payments": true
        },
        {
          "Credit cards": true
        }
      ]
    },
    "gasPrices": [],
    "url": "https://www.google.com/maps/search/?api=1&query=Medic%20Pharmacy%20Inc.&query_place_id=ChIJ330DgFLNNoYRhwoVYIJD1bk",
    "searchPageUrl": "https://www.google.com/maps/search/independent%20pharmacy%20Shreveport%20LA/@57.14606775000001,-170.1791191,12z?hl=en",
    "searchString": "independent pharmacy Shreveport LA",
    "language": "en",
    "rank": 4,
    "isAdvertisement": false,
    "imageUrl": "https://lh3.googleusercontent.com/gps-cs-s/AC9h4np43KQswrb4ooxmFn9TXZGDqFv2QSmefY_Dtf2I_t2H7H0_UXBbkS8kjHwWOF2W4njIfD79HFgYkZBk7k3goPWGsCuZn7GYZXkhmyKEPytDAC51mwlpKtDlanf09vOMKi3075E5=w408-h492-k-no",
    "kgmid": "/g/1thsg90t"
  },
  {
    "title": "Drug Emporium Pharmacy",
    "price": null,
    "categoryName": "Pharmacy",
    "address": "5819 E Kings Hwy, Shreveport, LA 71105",
    "neighborhood": "Springlake, University Terrace",
    "street": "5819 E Kings Hwy",
    "city": "Shreveport",
    "postalCode": "71105",
    "state": "Louisiana",
    "countryCode": "US",
    "website": "https://www.drugemporiuminc.com/stores/shreveport-la/",
    "phone": "(318) 861-7896",
    "phoneUnformatted": "+13188617896",
    "claimThisBusiness": false,
    "location": {
      "lat": 32.4543591,
      "lng": -93.7078564
    },
    "totalScore": 4.5,
    "permanentlyClosed": false,
    "temporarilyClosed": false,
    "placeId": "ChIJD6PI5vItMYYRBD7eGBzeMhs",
    "categories": [
      "Pharmacy",
      "Cosmetics store",
      "Drug store",
      "Greeting card shop",
      "Health food store"
    ],
    "fid": "0x86312df2e6c8a30f:0x1b32de1c18de3e04",
    "cid": "1959873000117255684",
    "reviewsCount": 203,
    "imagesCount": 16,
    "imageCategories": [],
    "scrapedAt": "2025-06-22T05:25:12.932Z",
    "googleFoodUrl": null,
    "hotelAds": [],
    "openingHours": [
      {
        "day": "Monday",
        "hours": "9 AM to 7 PM"
      },
      {
        "day": "Tuesday",
        "hours": "9 AM to 7 PM"
      },
      {
        "day": "Wednesday",
        "hours": "9 AM to 7 PM"
      },
      {
        "day": "Thursday",
        "hours": "9 AM to 7 PM"
      },
      {
        "day": "Friday",
        "hours": "9 AM to 7 PM"
      },
      {
        "day": "Saturday",
        "hours": "9 AM to 6 PM"
      },
      {
        "day": "Sunday",
        "hours": "10 AM to 6 PM"
      }
    ],
    "peopleAlsoSearch": [],
    "placesTags": [],
    "reviewsTags": [],
    "additionalInfo": {
      "Service options": [
        {
          "Drive-through": true
        },
        {
          "In-store shopping": true
        },
        {
          "Onsite services": true
        }
      ],
      "Accessibility": [
        {
          "Wheelchair accessible entrance": true
        },
        {
          "Wheelchair accessible parking lot": true
        }
      ],
      "Planning": [
        {
          "Quick visit": true
        }
      ],
      "Payments": [
        {
          "Credit cards": true
        }
      ]
    },
    "gasPrices": [],
    "url": "https://www.google.com/maps/search/?api=1&query=Drug%20Emporium%20Pharmacy&query_place_id=ChIJD6PI5vItMYYRBD7eGBzeMhs",
    "searchPageUrl": "https://www.google.com/maps/search/independent%20pharmacy%20Shreveport%20LA/@57.14606775000001,-170.1791191,12z?hl=en",
    "searchString": "independent pharmacy Shreveport LA",
    "language": "en",
    "rank": 5,
    "isAdvertisement": false,
    "imageUrl": "https://lh3.googleusercontent.com/gps-cs-s/AC9h4noGiqjg-jArFyzCl1GVv25rLLNyap7kkJCHOZHOn3AW3ZkTyZfP_a5zuuWWacp58G2PX5IoRVBD48Ba97CNqHbncG11kDCYbnZ-hvPdrmE3cE50IEUXDx82zowkfRj33SM_q7jsFQ=w408-h544-k-no",
    "kgmid": "/g/11j01dhrl1"
  },
  {
    "title": "Boudreaux's Pharmacy",
    "price": null,
    "categoryName": "Pharmacy",
    "address": "2551 Greenwood Rd # 110, Shreveport, LA 71103",
    "neighborhood": "Queensborough",
    "street": "2551 Greenwood Rd # 110",
    "city": "Shreveport",
    "postalCode": "71103",
    "state": "Louisiana",
    "countryCode": "US",
    "website": "http://www.boudreauxscompounding.com/contact",
    "phone": "(318) 631-2005",
    "phoneUnformatted": "+13186312005",
    "claimThisBusiness": true,
    "location": {
      "lat": 32.4835718,
      "lng": -93.7782559
    },
    "totalScore": 4,
    "permanentlyClosed": false,
    "temporarilyClosed": false,
    "placeId": "ChIJFRfoN3zNNoYRl7_86n4N1vY",
    "categories": [
      "Pharmacy"
    ],
    "fid": "0x8636cd7c37e81715:0xf6d60d7eeafcbf97",
    "cid": "17786418617105825687",
    "reviewsCount": 73,
    "imagesCount": 5,
    "imageCategories": [],
    "scrapedAt": "2025-06-22T05:25:12.932Z",
    "googleFoodUrl": null,
    "hotelAds": [],
    "openingHours": [
      {
        "day": "Monday",
        "hours": "8:30 AM to 5:30 PM"
      },
      {
        "day": "Tuesday",
        "hours": "8:30 AM to 5:30 PM"
      },
      {
        "day": "Wednesday",
        "hours": "8:30 AM to 5:30 PM"
      },
      {
        "day": "Thursday",
        "hours": "8:30 AM to 5:30 PM"
      },
      {
        "day": "Friday",
        "hours": "8:30 AM to 5:30 PM"
      },
      {
        "day": "Saturday",
        "hours": "Closed"
      },
      {
        "day": "Sunday",
        "hours": "Closed"
      }
    ],
    "peopleAlsoSearch": [],
    "placesTags": [],
    "reviewsTags": [],
    "additionalInfo": {
      "Service options": [
        {
          "Delivery": true
        },
        {
          "In-store pickup": true
        },
        {
          "Same-day delivery": true
        }
      ],
      "Accessibility": [
        {
          "Wheelchair accessible entrance": true
        },
        {
          "Wheelchair accessible parking lot": true
        }
      ],
      "Offerings": [
        {
          "Medication disposal": true
        }
      ],
      "Payments": [
        {
          "Credit cards": true
        }
      ]
    },
    "gasPrices": [],
    "url": "https://www.google.com/maps/search/?api=1&query=Boudreaux's%20Pharmacy&query_place_id=ChIJFRfoN3zNNoYRl7_86n4N1vY",
    "searchPageUrl": "https://www.google.com/maps/search/independent%20pharmacy%20Shreveport%20LA/@57.14606775000001,-170.1791191,12z?hl=en",
    "searchString": "independent pharmacy Shreveport LA",
    "language": "en",
    "rank": 6,
    "isAdvertisement": false,
    "imageUrl": "https://lh3.googleusercontent.com/gps-cs-s/AC9h4nqEkqWqGJFeSRt70-WLtMuR45yVS4Bct_7R_oVpmdbfgsgz0b9xJjTRWdq2F8QiHt1DTEPyS7HYFRNy3jBHBG14jvZ_JDLd1OcW0_lhP4AnsgCHXpIGjnGixqbBD3HHaGDMRnlm=w426-h240-k-no",
    "kgmid": "/g/1tjl68n4"
  },
  {
    "title": "PMO Pharmacy",
    "price": null,
    "categoryName": "Pharmacy",
    "address": "2255 Woodward Ave, Shreveport, LA 71103",
    "neighborhood": "Queensborough",
    "street": "2255 Woodward Ave",
    "city": "Shreveport",
    "postalCode": "71103",
    "state": "Louisiana",
    "countryCode": "US",
    "website": "http://www.pmorx.com/",
    "phone": "(318) 429-0161",
    "phoneUnformatted": "+13184290161",
    "claimThisBusiness": true,
    "location": {
      "lat": 32.4898195,
      "lng": -93.7709643
    },
    "totalScore": 5,
    "permanentlyClosed": false,
    "temporarilyClosed": false,
    "placeId": "ChIJGx4QB2XNNoYRcgHWVsIDkmw",
    "categories": [
      "Pharmacy"
    ],
    "fid": "0x8636cd6507101e1b:0x6c9203c256d60172",
    "cid": "7823319635911377266",
    "reviewsCount": 7,
    "imagesCount": null,
    "imageCategories": [],
    "scrapedAt": "2025-06-22T05:25:12.933Z",
    "googleFoodUrl": null,
    "hotelAds": [],
    "openingHours": [
      {
        "day": "Monday",
        "hours": "8 AM to 5 PM"
      },
      {
        "day": "Tuesday",
        "hours": "8 AM to 5 PM"
      },
      {
        "day": "Wednesday",
        "hours": "8 AM to 5 PM"
      },
      {
        "day": "Thursday",
        "hours": "8 AM to 5 PM"
      },
      {
        "day": "Friday",
        "hours": "8 AM to 5 PM"
      },
      {
        "day": "Saturday",
        "hours": "Closed"
      },
      {
        "day": "Sunday",
        "hours": "Closed"
      }
    ],
    "peopleAlsoSearch": [],
    "placesTags": [],
    "reviewsTags": [],
    "additionalInfo": {
      "Accessibility": [
        {
          "Wheelchair accessible entrance": true
        },
        {
          "Wheelchair accessible parking lot": true
        }
      ],
      "Payments": [
        {
          "Credit cards": true
        },
        {
          "Debit cards": true
        },
        {
          "NFC mobile payments": true
        },
        {
          "Credit cards": true
        }
      ]
    },
    "gasPrices": [],
    "url": "https://www.google.com/maps/search/?api=1&query=PMO%20Pharmacy&query_place_id=ChIJGx4QB2XNNoYRcgHWVsIDkmw",
    "searchPageUrl": "https://www.google.com/maps/search/independent%20pharmacy%20Shreveport%20LA/@57.14606775000001,-170.1791191,12z?hl=en",
    "searchString": "independent pharmacy Shreveport LA",
    "language": "en",
    "rank": 7,
    "isAdvertisement": false,
    "kgmid": "/g/1tt1hlfr"
  },
  {
    "title": "Norris Ferry Drug",
    "price": null,
    "categoryName": "Pharmacy",
    "address": "10465 Norris Ferry Rd STE B, Shreveport, LA 71106",
    "neighborhood": "Ellerbe Woods",
    "street": "10465 Norris Ferry Rd STE B",
    "city": "Shreveport",
    "postalCode": "71106",
    "state": "Louisiana",
    "countryCode": "US",
    "phone": "(318) 693-1220",
    "phoneUnformatted": "+13186931220",
    "claimThisBusiness": false,
    "location": {
      "lat": 32.3558857,
      "lng": -93.7137249
    },
    "totalScore": 5,
    "permanentlyClosed": false,
    "temporarilyClosed": false,
    "placeId": "ChIJ75Cfu28rMYYRjbylSvereoo",
    "categories": [
      "Pharmacy"
    ],
    "fid": "0x86312b6fbb9f90ef:0x8a7aabf74aa5bc8d",
    "cid": "9978477002990402701",
    "reviewsCount": 8,
    "imagesCount": 3,
    "imageCategories": [],
    "scrapedAt": "2025-06-22T05:25:12.933Z",
    "googleFoodUrl": null,
    "hotelAds": [],
    "openingHours": [
      {
        "day": "Monday",
        "hours": "9 AM to 6 PM"
      },
      {
        "day": "Tuesday",
        "hours": "9 AM to 6 PM"
      },
      {
        "day": "Wednesday",
        "hours": "9 AM to 6 PM"
      },
      {
        "day": "Thursday",
        "hours": "9 AM to 6 PM"
      },
      {
        "day": "Friday",
        "hours": "9 AM to 6 PM"
      },
      {
        "day": "Saturday",
        "hours": "9:30 AM to 1 PM"
      },
      {
        "day": "Sunday",
        "hours": "Closed"
      }
    ],
    "peopleAlsoSearch": [],
    "placesTags": [],
    "reviewsTags": [],
    "additionalInfo": {
      "Service options": [
        {
          "In-store pickup": true
        }
      ],
      "Accessibility": [
        {
          "Wheelchair accessible entrance": true
        },
        {
          "Wheelchair accessible parking lot": true
        }
      ],
      "Planning": [
        {
          "Quick visit": true
        }
      ],
      "Payments": [
        {
          "Credit cards": true
        }
      ]
    },
    "gasPrices": [],
    "url": "https://www.google.com/maps/search/?api=1&query=Norris%20Ferry%20Drug&query_place_id=ChIJ75Cfu28rMYYRjbylSvereoo",
    "searchPageUrl": "https://www.google.com/maps/search/independent%20pharmacy%20Shreveport%20LA/@57.14606775000001,-170.1791191,12z?hl=en",
    "searchString": "independent pharmacy Shreveport LA",
    "language": "en",
    "rank": 8,
    "isAdvertisement": false,
    "imageUrl": "https://lh3.googleusercontent.com/p/AF1QipOlsGkp6BYhpu5jIz8zXZ6qxNGtcZe9ko4njheq=w408-h544-k-no",
    "kgmid": "/g/11wptff8hv"
  },
  {
    "title": "Highland Clinic Pharmacy",
    "price": null,
    "categoryName": "Pharmacy",
    "address": "1455 E Bert Kouns Industrial Loop, Shreveport, LA 71105",
    "neighborhood": "Springlake, University Terrace",
    "street": "1455 E Bert Kouns Industrial Loop",
    "city": "Shreveport",
    "postalCode": "71105",
    "state": "Louisiana",
    "countryCode": "US",
    "website": "https://www.facebook.com/HighlandClinicPharmacy",
    "phone": "(318) 798-4612",
    "phoneUnformatted": "+13187984612",
    "claimThisBusiness": false,
    "location": {
      "lat": 32.4252813,
      "lng": -93.7170326
    },
    "totalScore": 4.5,
    "permanentlyClosed": false,
    "temporarilyClosed": false,
    "placeId": "ChIJ4VxU_actMYYRNirocB_68tA",
    "categories": [
      "Pharmacy"
    ],
    "fid": "0x86312da7fd545ce1:0xd0f2fa1f70e82a36",
    "cid": "15056371517198182966",
    "reviewsCount": 16,
    "imagesCount": 15,
    "imageCategories": [],
    "scrapedAt": "2025-06-22T05:25:12.933Z",
    "googleFoodUrl": null,
    "hotelAds": [],
    "openingHours": [
      {
        "day": "Monday",
        "hours": "8:30 AM to 12:30 PM, 1:30 to 5:30 PM"
      },
      {
        "day": "Tuesday",
        "hours": "8:30 AM to 12:30 PM, 1:30 to 5:30 PM"
      },
      {
        "day": "Wednesday",
        "hours": "8:30 AM to 12:30 PM, 1:30 to 5:30 PM"
      },
      {
        "day": "Thursday",
        "hours": "8:30 AM to 12:30 PM, 1:30 to 5:30 PM"
      },
      {
        "day": "Friday",
        "hours": "8:30 AM to 12:30 PM, 1:30 to 5:30 PM"
      },
      {
        "day": "Saturday",
        "hours": "Closed"
      },
      {
        "day": "Sunday",
        "hours": "Closed"
      }
    ],
    "peopleAlsoSearch": [],
    "placesTags": [],
    "reviewsTags": [],
    "additionalInfo": {
      "From the business": [
        {
          "Small business": true
        }
      ],
      "Service options": [
        {
          "Delivery": true
        },
        {
          "Same-day delivery": true
        }
      ],
      "Accessibility": [
        {
          "Wheelchair accessible entrance": true
        },
        {
          "Wheelchair accessible parking lot": true
        }
      ],
      "Payments": [
        {
          "Credit cards": true
        }
      ]
    },
    "gasPrices": [],
    "url": "https://www.google.com/maps/search/?api=1&query=Highland%20Clinic%20Pharmacy&query_place_id=ChIJ4VxU_actMYYRNirocB_68tA",
    "searchPageUrl": "https://www.google.com/maps/search/independent%20pharmacy%20Shreveport%20LA/@57.14606775000001,-170.1791191,12z?hl=en",
    "searchString": "independent pharmacy Shreveport LA",
    "language": "en",
    "rank": 9,
    "isAdvertisement": false,
    "imageUrl": "https://lh3.googleusercontent.com/p/AF1QipN3JD33HCRl2irbp8rJuWbXASIsf4ohOQM-Ef9a=w408-h613-k-no",
    "kgmid": "/g/11fn7jkg5k"
  },
  {
    "title": "Kings Pharmacy",
    "price": null,
    "categoryName": "Pharmacy",
    "address": "3102 Linwood Ave, Shreveport, LA 71103",
    "neighborhood": "Caddo Heights, South Highlands",
    "street": "3102 Linwood Ave",
    "city": "Shreveport",
    "postalCode": "71103",
    "state": "Louisiana",
    "countryCode": "US",
    "phone": "(318) 635-8159",
    "phoneUnformatted": "+13186358159",
    "claimThisBusiness": false,
    "location": {
      "lat": 32.481504,
      "lng": -93.763176
    },
    "totalScore": 4,
    "permanentlyClosed": false,
    "temporarilyClosed": false,
    "placeId": "ChIJgbG08F_NNoYRgq285wr-jWQ",
    "categories": [
      "Pharmacy"
    ],
    "fid": "0x8636cd5ff0b4b181:0x648dfe0ae7bcad82",
    "cid": "7245726698300026242",
    "reviewsCount": 54,
    "imagesCount": 3,
    "imageCategories": [],
    "scrapedAt": "2025-06-22T05:25:12.933Z",
    "googleFoodUrl": null,
    "hotelAds": [],
    "openingHours": [
      {
        "day": "Monday",
        "hours": "9 AM to 5 PM"
      },
      {
        "day": "Tuesday",
        "hours": "9 AM to 5 PM"
      },
      {
        "day": "Wednesday",
        "hours": "9 AM to 5 PM"
      },
      {
        "day": "Thursday",
        "hours": "9 AM to 5 PM"
      },
      {
        "day": "Friday",
        "hours": "9 AM to 5 PM"
      },
      {
        "day": "Saturday",
        "hours": "Closed"
      },
      {
        "day": "Sunday",
        "hours": "Closed"
      }
    ],
    "peopleAlsoSearch": [],
    "placesTags": [],
    "reviewsTags": [],
    "additionalInfo": {
      "From the business": [
        {
          "Small business": true
        }
      ],
      "Service options": [
        {
          "Delivery": true
        },
        {
          "Same-day delivery": true
        }
      ],
      "Accessibility": [
        {
          "Wheelchair accessible entrance": true
        },
        {
          "Wheelchair accessible parking lot": true
        }
      ],
      "Planning": [
        {
          "Quick visit": true
        }
      ],
      "Payments": [
        {
          "Credit cards": true
        },
        {
          "Debit cards": true
        },
        {
          "NFC mobile payments": true
        },
        {
          "Credit cards": true
        }
      ]
    },
    "gasPrices": [],
    "url": "https://www.google.com/maps/search/?api=1&query=Kings%20Pharmacy&query_place_id=ChIJgbG08F_NNoYRgq285wr-jWQ",
    "searchPageUrl": "https://www.google.com/maps/search/independent%20pharmacy%20Shreveport%20LA/@57.14606775000001,-170.1791191,12z?hl=en",
    "searchString": "independent pharmacy Shreveport LA",
    "language": "en",
    "rank": 10,
    "isAdvertisement": false,
    "imageUrl": "https://lh3.googleusercontent.com/p/AF1QipPWcDcFGacVJN7LflExeUpR1aXogw6jFJjQ4yDB=w408-h306-k-no",
    "kgmid": "/g/1tt8cn0q"
  },
  {
    "title": "Wellnecessities Pharmacy",
    "price": null,
    "categoryName": "Pharmacy",
    "address": "2120 W Bert Kouns Industrial Loop e, Shreveport, LA 71118",
    "neighborhood": "Hyde Park, Brookwood, Southern Hills",
    "street": "2120 W Bert Kouns Industrial Loop e",
    "city": "Shreveport",
    "postalCode": "71118",
    "state": "Louisiana",
    "countryCode": "US",
    "phone": "(318) 861-7541",
    "phoneUnformatted": "+13188617541",
    "claimThisBusiness": true,
    "location": {
      "lat": 32.4029187,
      "lng": -93.7945421
    },
    "permanentlyClosed": false,
    "temporarilyClosed": false,
    "placeId": "ChIJW9CedpDTNoYRC6PzvvR75Ps",
    "categories": [
      "Pharmacy"
    ],
    "fid": "0x8636d390769ed05b:0xfbe47bf4bef3a30b",
    "cid": "18150768689315816203",
    "reviewsCount": 0,
    "imagesCount": null,
    "imageCategories": [],
    "scrapedAt": "2025-06-22T05:25:12.933Z",
    "googleFoodUrl": null,
    "hotelAds": [],
    "openingHours": [
      {
        "day": "Monday",
        "hours": "7 AM to 5 PM"
      },
      {
        "day": "Tuesday",
        "hours": "7 AM to 5 PM"
      },
      {
        "day": "Wednesday",
        "hours": "7 AM to 5 PM"
      },
      {
        "day": "Thursday",
        "hours": "7 AM to 5 PM"
      },
      {
        "day": "Friday",
        "hours": "7 AM to 5 PM"
      },
      {
        "day": "Saturday",
        "hours": "7 AM to 12 PM"
      },
      {
        "day": "Sunday",
        "hours": "Closed"
      }
    ],
    "peopleAlsoSearch": [],
    "placesTags": [],
    "reviewsTags": [],
    "additionalInfo": {
      "Accessibility": [
        {
          "Wheelchair accessible entrance": true
        },
        {
          "Wheelchair accessible parking lot": true
        }
      ],
      "Payments": [
        {
          "Credit cards": true
        }
      ]
    },
    "gasPrices": [],
    "url": "https://www.google.com/maps/search/?api=1&query=Wellnecessities%20Pharmacy&query_place_id=ChIJW9CedpDTNoYRC6PzvvR75Ps",
    "searchPageUrl": "https://www.google.com/maps/search/independent%20pharmacy%20Shreveport%20LA/@57.14606775000001,-170.1791191,12z?hl=en",
    "searchString": "independent pharmacy Shreveport LA",
    "language": "en",
    "rank": 11,
    "isAdvertisement": false,
    "kgmid": "/g/11cjj68r8y"
  },
  {
    "title": "Drug Emporium Shreveport",
    "price": null,
    "categoryName": "Pharmacy",
    "address": "5819 E Kings Hwy, Shreveport, LA 71105",
    "neighborhood": "Springlake, University Terrace",
    "street": "5819 E Kings Hwy",
    "city": "Shreveport",
    "postalCode": "71105",
    "state": "Louisiana",
    "countryCode": "US",
    "website": "https://www.drugemporiuminc.com/stores/shreveport-la/",
    "phone": "(318) 861-7896",
    "phoneUnformatted": "+13188617896",
    "claimThisBusiness": false,
    "location": {
      "lat": 32.4543039,
      "lng": -93.7080897
    },
    "locatedIn": "Drug Emporium Pharmacy",
    "totalScore": 4.5,
    "permanentlyClosed": false,
    "temporarilyClosed": false,
    "placeId": "ChIJE7Z4qA4tMYYR08LrQ_AqdHg",
    "categories": [
      "Pharmacy",
      "Cosmetics store",
      "Greeting card shop",
      "Health food store",
      "Pet supply store",
      "Grocery store",
      "Vitamin & supplements store"
    ],
    "fid": "0x86312d0ea878b613:0x78742af043ebc2d3",
    "cid": "8679609593269830355",
    "reviewsCount": 942,
    "imagesCount": 104,
    "imageCategories": [],
    "scrapedAt": "2025-06-22T05:25:14.727Z",
    "googleFoodUrl": null,
    "hotelAds": [],
    "openingHours": [
      {
        "day": "Monday",
        "hours": "8 AM to 8 PM"
      },
      {
        "day": "Tuesday",
        "hours": "8 AM to 8 PM"
      },
      {
        "day": "Wednesday",
        "hours": "8 AM to 8 PM"
      },
      {
        "day": "Thursday",
        "hours": "8 AM to 8 PM"
      },
      {
        "day": "Friday",
        "hours": "8 AM to 8 PM"
      },
      {
        "day": "Saturday",
        "hours": "8 AM to 8 PM"
      },
      {
        "day": "Sunday",
        "hours": "10 AM to 6 PM"
      }
    ],
    "additionalOpeningHours": {
      "Drug Emporium Pharmacy": [
        {
          "day": "Monday",
          "hours": "9 AM–7 PM"
        },
        {
          "day": "Tuesday",
          "hours": "9 AM–7 PM"
        },
        {
          "day": "Wednesday",
          "hours": "9 AM–7 PM"
        },
        {
          "day": "Thursday",
          "hours": "9 AM–7 PM"
        },
        {
          "day": "Friday",
          "hours": "9 AM–7 PM"
        },
        {
          "day": "Saturday",
          "hours": "9 AM–6 PM"
        },
        {
          "day": "Sunday",
          "hours": "10 AM–6 PM"
        }
      ]
    },
    "peopleAlsoSearch": [],
    "placesTags": [],
    "reviewsTags": [],
    "additionalInfo": {
      "Service options": [
        {
          "Curbside pickup": true
        },
        {
          "In-store pickup": true
        },
        {
          "In-store shopping": true
        },
        {
          "Onsite services": true
        },
        {
          "Delivery": false
        },
        {
          "Same-day delivery": false
        }
      ],
      "Accessibility": [
        {
          "Wheelchair accessible entrance": true
        },
        {
          "Wheelchair accessible parking lot": true
        }
      ],
      "Offerings": [
        {
          "Bakery": true
        },
        {
          "Pharmacy": true
        }
      ],
      "Planning": [
        {
          "Quick visit": true
        }
      ],
      "Payments": [
        {
          "Checks": true
        },
        {
          "Credit cards": true
        },
        {
          "Debit cards": true
        }
      ],
      "Parking": [
        {
          "On-site parking": true
        }
      ]
    },
    "gasPrices": [],
    "url": "https://www.google.com/maps/search/?api=1&query=Drug%20Emporium%20Shreveport&query_place_id=ChIJE7Z4qA4tMYYR08LrQ_AqdHg",
    "searchPageUrl": "https://www.google.com/maps/search/independent%20pharmacy%20Shreveport%20LA/@17.938125902823707,-67.53577346912216,11z?hl=en",
    "searchString": "independent pharmacy Shreveport LA",
    "language": "en",
    "rank": 11,
    "isAdvertisement": false,
    "imageUrl": "https://lh3.googleusercontent.com/p/AF1QipNJgxP4orw7At15sG21rm95zdMImKQtyS9qj32C=w408-h589-k-no",
    "kgmid": "/g/1v4k6wwt"
  },
  {
    "title": "Community Rx",
    "price": null,
    "categoryName": "Pharmacy",
    "address": "5950 N Market St, Shreveport, LA 71107",
    "neighborhood": null,
    "street": "5950 N Market St",
    "city": "Shreveport",
    "postalCode": "71107",
    "state": "Louisiana",
    "countryCode": "US",
    "website": "https://ncmcla.com/community-rx",
    "phone": "(318) 656-1975",
    "phoneUnformatted": "+13186561975",
    "claimThisBusiness": false,
    "location": {
      "lat": 32.6053724,
      "lng": -93.8498671
    },
    "totalScore": 4.8,
    "permanentlyClosed": false,
    "temporarilyClosed": false,
    "placeId": "ChIJ-YYf9Z3JNoYRSxGY9VAMoO4",
    "categories": [
      "Pharmacy"
    ],
    "fid": "0x8636c99df51f86f9:0xeea00c50f598114b",
    "cid": "17194756919157854539",
    "reviewsCount": 16,
    "imagesCount": 3,
    "imageCategories": [],
    "scrapedAt": "2025-06-22T05:25:14.728Z",
    "googleFoodUrl": null,
    "hotelAds": [],
    "openingHours": [
      {
        "day": "Monday",
        "hours": "8 AM to 6 PM"
      },
      {
        "day": "Tuesday",
        "hours": "8 AM to 6 PM"
      },
      {
        "day": "Wednesday",
        "hours": "8 AM to 6 PM"
      },
      {
        "day": "Thursday",
        "hours": "8 AM to 6 PM"
      },
      {
        "day": "Friday",
        "hours": "8 AM to 6 PM"
      },
      {
        "day": "Saturday",
        "hours": "9 AM to 1 PM"
      },
      {
        "day": "Sunday",
        "hours": "Closed"
      }
    ],
    "peopleAlsoSearch": [],
    "placesTags": [],
    "reviewsTags": [],
    "additionalInfo": {
      "Service options": [
        {
          "Drive-through": true
        }
      ],
      "Accessibility": [
        {
          "Wheelchair accessible entrance": true
        },
        {
          "Wheelchair accessible parking lot": true
        }
      ],
      "Payments": [
        {
          "Credit cards": true
        }
      ]
    },
    "gasPrices": [],
    "url": "https://www.google.com/maps/search/?api=1&query=Community%20Rx&query_place_id=ChIJ-YYf9Z3JNoYRSxGY9VAMoO4",
    "searchPageUrl": "https://www.google.com/maps/search/independent%20pharmacy%20Shreveport%20LA/@17.938125902823707,-67.53577346912216,11z?hl=en",
    "searchString": "independent pharmacy Shreveport LA",
    "language": "en",
    "rank": 12,
    "isAdvertisement": false,
    "imageUrl": "https://lh3.googleusercontent.com/p/AF1QipO8QLKFJ--6ws0E_CTvykKLFHdfT8Y9khdvLaY1=w408-h408-k-no",
    "kgmid": "/g/11wbsp7qfh"
  },
  {
    "title": "Healthcare Pharmacy",
    "price": null,
    "categoryName": "Pharmacy",
    "address": "8720 Quimper Pl, Shreveport, LA 71105",
    "neighborhood": "Springlake, University Terrace",
    "street": "8720 Quimper Pl",
    "city": "Shreveport",
    "postalCode": "71105",
    "state": "Louisiana",
    "countryCode": "US",
    "website": "https://healthcare-pharm.com/",
    "phone": "(318) 671-9603",
    "phoneUnformatted": "+13186719603",
    "claimThisBusiness": true,
    "location": {
      "lat": 32.4211561,
      "lng": -93.7271508
    },
    "permanentlyClosed": false,
    "temporarilyClosed": false,
    "placeId": "ChIJa3ZGuOksMYYRKj6Mdojpjrs",
    "categories": [
      "Pharmacy"
    ],
    "fid": "0x86312ce9b846766b:0xbb8ee988768c3e2a",
    "cid": "13514996304099163690",
    "reviewsCount": 0,
    "imagesCount": null,
    "imageCategories": [],
    "scrapedAt": "2025-06-22T05:25:14.728Z",
    "googleFoodUrl": null,
    "hotelAds": [],
    "openingHours": [
      {
        "day": "Monday",
        "hours": "8 AM to 6 PM"
      },
      {
        "day": "Tuesday",
        "hours": "8 AM to 6 PM"
      },
      {
        "day": "Wednesday",
        "hours": "8 AM to 6 PM"
      },
      {
        "day": "Thursday",
        "hours": "8 AM to 6 PM"
      },
      {
        "day": "Friday",
        "hours": "8 AM to 6 PM"
      },
      {
        "day": "Saturday",
        "hours": "Closed"
      },
      {
        "day": "Sunday",
        "hours": "Closed"
      }
    ],
    "peopleAlsoSearch": [],
    "placesTags": [],
    "reviewsTags": [],
    "additionalInfo": {
      "Accessibility": [
        {
          "Wheelchair accessible entrance": true
        },
        {
          "Wheelchair accessible parking lot": true
        }
      ],
      "Payments": [
        {
          "Credit cards": true
        },
        {
          "Debit cards": true
        },
        {
          "Credit cards": true
        }
      ]
    },
    "gasPrices": [],
    "url": "https://www.google.com/maps/search/?api=1&query=Healthcare%20Pharmacy&query_place_id=ChIJa3ZGuOksMYYRKj6Mdojpjrs",
    "searchPageUrl": "https://www.google.com/maps/search/independent%20pharmacy%20Shreveport%20LA/@17.938125902823707,-67.53577346912216,11z?hl=en",
    "searchString": "independent pharmacy Shreveport LA",
    "language": "en",
    "rank": 13,
    "isAdvertisement": false,
    "kgmid": "/g/1tfjfxmp"
  },
  {
    "title": "Brookshire's Pharmacy",
    "price": null,
    "categoryName": "Pharmacy",
    "address": "388 W Bert Kouns Industrial Loop, Shreveport, LA 71106, United States",
    "neighborhood": "Cedar Grove, Lynbrook",
    "street": "388 W Bert Kouns Industrial Loop",
    "city": "Shreveport",
    "postalCode": "71106",
    "state": "Louisiana",
    "countryCode": "US",
    "website": "https://brookshiresgrocery.web.medrefill.com/bgweb/#/home",
    "phone": "+1 318-687-7558",
    "phoneUnformatted": "+13186877558",
    "claimThisBusiness": false,
    "location": {
      "lat": 32.3997838,
      "lng": -93.7627168
    },
    "totalScore": 3.4,
    "permanentlyClosed": false,
    "temporarilyClosed": false,
    "placeId": "ChIJc6V0qsvSNoYR22vo8Jr9-pw",
    "categories": [
      "Pharmacy"
    ],
    "fid": "0x8636d2cbaa74a573:0x9cfafd9af0e86bdb",
    "cid": "11311632256002976731",
    "reviewsCount": 25,
    "imagesCount": 2,
    "imageCategories": [],
    "scrapedAt": "2025-06-22T05:25:25.096Z",
    "googleFoodUrl": null,
    "hotelAds": [],
    "openingHours": [
      {
        "day": "Monday",
        "hours": "9 AM to 7 PM"
      },
      {
        "day": "Tuesday",
        "hours": "9 AM to 7 PM"
      },
      {
        "day": "Wednesday",
        "hours": "9 AM to 7 PM"
      },
      {
        "day": "Thursday",
        "hours": "9 AM to 7 PM"
      },
      {
        "day": "Friday",
        "hours": "9 AM to 7 PM"
      },
      {
        "day": "Saturday",
        "hours": "9 AM to 4 PM"
      },
      {
        "day": "Sunday",
        "hours": "Closed"
      }
    ],
    "peopleAlsoSearch": [],
    "placesTags": [],
    "reviewsTags": [],
    "additionalInfo": {
      "Service options": [
        {
          "Drive-through": true
        },
        {
          "In-store pick-up": true
        }
      ],
      "Accessibility": [
        {
          "Wheelchair-accessible car park": true
        },
        {
          "Wheelchair-accessible entrance": true
        }
      ],
      "Amenities": [
        {
          "Wi-Fi": true
        },
        {
          "Free Wi-Fi": true
        }
      ],
      "Planning": [
        {
          "Quick visit": true
        }
      ],
      "Payments": [
        {
          "Cheques": true
        },
        {
          "Credit cards": true
        },
        {
          "Debit cards": true
        },
        {
          "NFC mobile payments": true
        },
        {
          "Credit cards": true
        }
      ]
    },
    "gasPrices": [],
    "url": "https://www.google.com/maps/search/?api=1&query=Brookshire's%20Pharmacy&query_place_id=ChIJc6V0qsvSNoYR22vo8Jr9-pw",
    "searchPageUrl": "https://www.google.com/maps/search/independent%20pharmacy%20Shreveport%20LA/@60.874534795447715,-145.05491807162034,9z?hl=en",
    "searchString": "independent pharmacy Shreveport LA",
    "language": "en",
    "rank": 15,
    "isAdvertisement": false,
    "imageUrl": "https://lh3.googleusercontent.com/gps-cs-s/AC9h4nps7J3JCo3jI4m-8iNt-EpUglZ-khO-huzxOs9a7ExC2SZh2S9Q4X584iu9r5N1VG0uNjk968RWS1gsbdLLQow9digulTtEOEwsnroxPjFkaxv8fa4kt9WmZ4U4yCx5elxO-KQ=w408-h544-k-no",
    "kgmid": "/g/1hc39hbyp"
  },
  {
    "title": "CVS Pharmacy",
    "price": null,
    "categoryName": "Pharmacy",
    "address": "9510 Ellerbe Rd, Shreveport, LA 71106, United States",
    "neighborhood": "Ellerbe Woods",
    "street": "9510 Ellerbe Rd",
    "city": "Shreveport",
    "postalCode": "71106",
    "state": "Louisiana",
    "countryCode": "US",
    "website": "https://www.cvs.com/store-locator/shreveport-la-pharmacies/9510-ellerbe-rd-shreveport-la-71106/storeid=4743?WT.mc_id=LS_GOOGLE_RX_4743",
    "phone": "+1 318-797-3272",
    "phoneUnformatted": "+13187973272",
    "claimThisBusiness": false,
    "location": {
      "lat": 32.3935541,
      "lng": -93.725669
    },
    "totalScore": 2.5,
    "permanentlyClosed": false,
    "temporarilyClosed": false,
    "placeId": "ChIJ_0EpX6AsMYYRTgMXMAnZOQA",
    "categories": [
      "Pharmacy"
    ],
    "fid": "0x86312ca05f2941ff:0x39d9093017034e",
    "cid": "16282707157254990",
    "reviewsCount": 23,
    "imagesCount": 9,
    "imageCategories": [],
    "scrapedAt": "2025-06-22T05:25:25.096Z",
    "googleFoodUrl": null,
    "hotelAds": [],
    "openingHours": [
      {
        "day": "Monday",
        "hours": "9 AM to 1:30 PM, 2 to 7 PM"
      },
      {
        "day": "Tuesday",
        "hours": "9 AM to 1:30 PM, 2 to 7 PM"
      },
      {
        "day": "Wednesday",
        "hours": "9 AM to 1:30 PM, 2 to 7 PM"
      },
      {
        "day": "Thursday",
        "hours": "9 AM to 1:30 PM, 2 to 7 PM"
      },
      {
        "day": "Friday",
        "hours": "9 AM to 1:30 PM, 2 to 7 PM"
      },
      {
        "day": "Saturday",
        "hours": "10 AM to 1:30 PM, 2 to 6 PM"
      },
      {
        "day": "Sunday",
        "hours": "11 AM to 1:30 PM, 2 to 6 PM"
      }
    ],
    "peopleAlsoSearch": [],
    "placesTags": [],
    "reviewsTags": [],
    "additionalInfo": {
      "Service options": [
        {
          "Delivery": true
        },
        {
          "Drive-through": true
        },
        {
          "In-store pick-up": true
        },
        {
          "In-store shopping": true
        },
        {
          "On-site services": true
        }
      ],
      "Accessibility": [
        {
          "Wheelchair-accessible car park": true
        },
        {
          "Wheelchair-accessible entrance": true
        }
      ],
      "Offerings": [
        {
          "Naloxone": true
        },
        {
          "Passport photos": true
        }
      ],
      "Crowd": [
        {
          "LGBTQ+ friendly": true
        },
        {
          "Transgender safe space": true
        }
      ],
      "Planning": [
        {
          "Quick visit": true
        }
      ],
      "Payments": [
        {
          "Credit cards": true
        },
        {
          "Debit cards": true
        },
        {
          "NFC mobile payments": true
        },
        {
          "SNAP/EBT": true
        },
        {
          "Credit cards": true
        }
      ]
    },
    "gasPrices": [],
    "url": "https://www.google.com/maps/search/?api=1&query=CVS%20Pharmacy&query_place_id=ChIJ_0EpX6AsMYYRTgMXMAnZOQA",
    "searchPageUrl": "https://www.google.com/maps/search/independent%20pharmacy%20Shreveport%20LA/@60.874534795447715,-145.05491807162034,9z?hl=en",
    "searchString": "independent pharmacy Shreveport LA",
    "language": "en",
    "rank": 16,
    "isAdvertisement": false,
    "imageUrl": "https://lh3.googleusercontent.com/p/AF1QipO3OHMoQKR6Ta6MpAPuS6yekJKjbrV2W_go28XT=w408-h272-k-no",
    "kgmid": "/g/11c467rfb6"
  },
  {
    "title": "Brookshire's Pharmacy",
    "price": "₹₹",
    "categoryName": "Pharmacy",
    "address": "5828 Line Ave, Shreveport, LA 71106, United States",
    "neighborhood": "Caddo Heights, South Highlands",
    "street": "5828 Line Ave",
    "city": "Shreveport",
    "postalCode": "71106",
    "state": "Louisiana",
    "countryCode": "US",
    "website": "https://brookshiresgrocery.web.medrefill.com/bgweb/#/home",
    "phone": "+1 318-869-0669",
    "phoneUnformatted": "+13188690669",
    "claimThisBusiness": false,
    "location": {
      "lat": 32.4558319,
      "lng": -93.7473235
    },
    "totalScore": 3.9,
    "permanentlyClosed": false,
    "temporarilyClosed": false,
    "placeId": "ChIJc6V0qsvSNoYRPab30EQlgTY",
    "categories": [
      "Pharmacy"
    ],
    "fid": "0x8636d2cbaa74a573:0x36812544d0f7a63d",
    "cid": "3927461327537677885",
    "reviewsCount": 16,
    "imagesCount": 1,
    "imageCategories": [],
    "scrapedAt": "2025-06-22T05:25:25.096Z",
    "googleFoodUrl": null,
    "hotelAds": [],
    "openingHours": [
      {
        "day": "Monday",
        "hours": "9 AM to 5 PM"
      },
      {
        "day": "Tuesday",
        "hours": "9 AM to 5 PM"
      },
      {
        "day": "Wednesday",
        "hours": "9 AM to 5 PM"
      },
      {
        "day": "Thursday",
        "hours": "9 AM to 5 PM"
      },
      {
        "day": "Friday",
        "hours": "9 AM to 7 PM"
      },
      {
        "day": "Saturday",
        "hours": "Closed"
      },
      {
        "day": "Sunday",
        "hours": "Closed"
      }
    ],
    "peopleAlsoSearch": [],
    "placesTags": [],
    "reviewsTags": [],
    "additionalInfo": {
      "Service options": [
        {
          "Kerbside pickup": true
        },
        {
          "In-store pick-up": true
        },
        {
          "In-store shopping": true
        }
      ],
      "Accessibility": [
        {
          "Wheelchair-accessible car park": true
        },
        {
          "Wheelchair-accessible entrance": true
        }
      ],
      "Amenities": [
        {
          "Wi-Fi": true
        },
        {
          "Free Wi-Fi": true
        }
      ],
      "Planning": [
        {
          "Quick visit": true
        }
      ],
      "Payments": [
        {
          "Cheques": true
        },
        {
          "Credit cards": true
        },
        {
          "NFC mobile payments": true
        },
        {
          "Credit cards": true
        }
      ]
    },
    "gasPrices": [],
    "url": "https://www.google.com/maps/search/?api=1&query=Brookshire's%20Pharmacy&query_place_id=ChIJc6V0qsvSNoYRPab30EQlgTY",
    "searchPageUrl": "https://www.google.com/maps/search/independent%20pharmacy%20Shreveport%20LA/@60.874534795447715,-145.05491807162034,9z?hl=en",
    "searchString": "independent pharmacy Shreveport LA",
    "language": "en",
    "rank": 17,
    "isAdvertisement": false,
    "imageUrl": "https://streetviewpixels-pa.googleapis.com/v1/thumbnail?panoid=wVgNHTQVMT52da6jbDgerQ&cb_client=search.gws-prod.gps&w=408&h=240&yaw=300.26968&pitch=0&thumbfov=100",
    "kgmid": "/g/1pv0fxsln"
  },
  {
    "title": "National Pharmacy Services",
    "price": null,
    "categoryName": "Pharmacy",
    "address": "8860 Quimper Pl # 100, Shreveport, LA 71105, United States",
    "neighborhood": "Springlake, University Terrace",
    "street": "8860 Quimper Pl # 100",
    "city": "Shreveport",
    "postalCode": "71105",
    "state": "Louisiana",
    "countryCode": "US",
    "website": "https://www.national-pharm.com/",
    "phone": "+1 318-797-9517",
    "phoneUnformatted": "+13187979517",
    "claimThisBusiness": false,
    "location": {
      "lat": 32.4203224,
      "lng": -93.7270767
    },
    "totalScore": 1,
    "permanentlyClosed": false,
    "temporarilyClosed": false,
    "placeId": "ChIJB7kI2cMsMYYRIhTBKauzbOs",
    "categories": [
      "Pharmacy"
    ],
    "fid": "0x86312cc3d908b907:0xeb6cb3ab29c11422",
    "cid": "16964131444119114786",
    "reviewsCount": 1,
    "imagesCount": 1,
    "imageCategories": [],
    "scrapedAt": "2025-06-22T05:25:25.096Z",
    "googleFoodUrl": null,
    "hotelAds": [],
    "openingHours": [
      {
        "day": "Monday",
        "hours": "8 AM to 5 PM"
      },
      {
        "day": "Tuesday",
        "hours": "8 AM to 5 PM"
      },
      {
        "day": "Wednesday",
        "hours": "8 AM to 5 PM"
      },
      {
        "day": "Thursday",
        "hours": "8 AM to 5 PM"
      },
      {
        "day": "Friday",
        "hours": "8 AM to 5 PM"
      },
      {
        "day": "Saturday",
        "hours": "Closed"
      },
      {
        "day": "Sunday",
        "hours": "Closed"
      }
    ],
    "peopleAlsoSearch": [],
    "placesTags": [],
    "reviewsTags": [],
    "additionalInfo": {
      "From the business": [
        {
          "Small Business": true
        }
      ],
      "Accessibility": [
        {
          "Wheelchair-accessible car park": true
        },
        {
          "Wheelchair-accessible entrance": true
        }
      ],
      "Payments": [
        {
          "Debit cards": true
        },
        {
          "Credit cards": true
        }
      ]
    },
    "gasPrices": [],
    "url": "https://www.google.com/maps/search/?api=1&query=National%20Pharmacy%20Services&query_place_id=ChIJB7kI2cMsMYYRIhTBKauzbOs",
    "searchPageUrl": "https://www.google.com/maps/search/independent%20pharmacy%20Shreveport%20LA/@60.874534795447715,-145.05491807162034,9z?hl=en",
    "searchString": "independent pharmacy Shreveport LA",
    "language": "en",
    "rank": 18,
    "isAdvertisement": false,
    "imageUrl": "https://streetviewpixels-pa.googleapis.com/v1/thumbnail?panoid=YU4j2GDfiaXMxyc0SEhyKA&cb_client=search.gws-prod.gps&w=408&h=240&yaw=254.51631&pitch=0&thumbfov=100",
    "kgmid": "/g/1tdlvn61"
  },
  {
    "title": "Walgreens Pharmacy",
    "description": "Department of the Walgreens chain providing prescription medications & other health-related items.",
    "price": "₹₹",
    "categoryName": "Pharmacy",
    "address": "3124 Line Ave, Shreveport, LA 71104, United States",
    "neighborhood": "Caddo Heights, South Highlands",
    "street": "3124 Line Ave",
    "city": "Shreveport",
    "postalCode": "71104",
    "state": "Louisiana",
    "countryCode": "US",
    "website": "https://www.walgreens.com/locator/walgreens-3124+line+ave-shreveport-la-71104/id=5992",
    "phone": "+1 318-222-4807",
    "phoneUnformatted": "+13182224807",
    "claimThisBusiness": false,
    "location": {
      "lat": 32.48073,
      "lng": -93.7464398
    },
    "totalScore": 2.6,
    "permanentlyClosed": false,
    "temporarilyClosed": false,
    "placeId": "ChIJmacTZKrSNoYRK8ArVJw_aYQ",
    "categories": [
      "Pharmacy"
    ],
    "fid": "0x8636d2aa6413a799:0x84693f9c542bc02b",
    "cid": "9541227226220707883",
    "reviewsCount": 21,
    "imagesCount": 3,
    "imageCategories": [],
    "scrapedAt": "2025-06-22T05:25:25.096Z",
    "googleFoodUrl": null,
    "hotelAds": [],
    "openingHours": [
      {
        "day": "Monday",
        "hours": "9 AM to 1:30 PM, 2 to 6 PM"
      },
      {
        "day": "Tuesday",
        "hours": "9 AM to 1:30 PM, 2 to 7 PM"
      },
      {
        "day": "Wednesday",
        "hours": "9 AM to 1:30 PM, 2 to 6 PM"
      },
      {
        "day": "Thursday",
        "hours": "9 AM to 1:30 PM, 2 to 7 PM"
      },
      {
        "day": "Friday",
        "hours": "9 AM to 1:30 PM, 2 to 7 PM"
      },
      {
        "day": "Saturday",
        "hours": "9 AM to 1:30 PM, 2 to 6 PM"
      },
      {
        "day": "Sunday",
        "hours": "Closed"
      }
    ],
    "additionalOpeningHours": {
      "Drive-through": [
        {
          "day": "Monday",
          "hours": "9 am–1:30 pm"
        },
        {
          "day": "Tuesday",
          "hours": "9 am–1:30 pm"
        },
        {
          "day": "Wednesday",
          "hours": "9 am–1:30 pm"
        },
        {
          "day": "Thursday",
          "hours": "9 am–1:30 pm"
        },
        {
          "day": "Friday",
          "hours": "9 am–1:30 pm"
        },
        {
          "day": "Saturday",
          "hours": "9 am–1:30 pm"
        },
        {
          "day": "Sunday",
          "hours": "Closed"
        }
      ]
    },
    "peopleAlsoSearch": [],
    "placesTags": [],
    "reviewsTags": [],
    "additionalInfo": {
      "Service options": [
        {
          "Kerbside pickup": true
        },
        {
          "Drive-through": true
        },
        {
          "In-store pick-up": true
        },
        {
          "On-site services": true
        }
      ],
      "Accessibility": [
        {
          "Wheelchair-accessible car park": true
        },
        {
          "Wheelchair-accessible entrance": true
        }
      ],
      "Offerings": [
        {
          "Naloxone": true
        },
        {
          "Passport photos": true
        }
      ],
      "Planning": [
        {
          "Quick visit": true
        }
      ],
      "Payments": [
        {
          "Cheques": true
        },
        {
          "Credit cards": true
        },
        {
          "Debit cards": true
        },
        {
          "NFC mobile payments": true
        }
      ]
    },
    "gasPrices": [],
    "url": "https://www.google.com/maps/search/?api=1&query=Walgreens%20Pharmacy&query_place_id=ChIJmacTZKrSNoYRK8ArVJw_aYQ",
    "searchPageUrl": "https://www.google.com/maps/search/independent%20pharmacy%20Shreveport%20LA/@60.874534795447715,-145.05491807162034,9z?hl=en",
    "searchString": "independent pharmacy Shreveport LA",
    "language": "en",
    "rank": 19,
    "isAdvertisement": false,
    "imageUrl": "https://lh3.googleusercontent.com/p/AF1QipNvZ8MlaXB3YWLt_LHrhrryodPZCf1Ek_dlnrJw=w525-h240-k-no",
    "kgmid": "/g/11cn9647mv"
  },
  {
    "title": "CVS Pharmacy",
    "price": null,
    "categoryName": "Pharmacy",
    "address": "1540 N Market St, Shreveport, LA 71107, United States",
    "neighborhood": "Freestate, North Highlands",
    "street": "1540 N Market St",
    "city": "Shreveport",
    "postalCode": "71107",
    "state": "Louisiana",
    "countryCode": "US",
    "website": "https://www.cvs.com/store-locator/shreveport-la-pharmacies/1540-n-market-st-shreveport-la-71107/storeid=5325?WT.mc_id=LS_GOOGLE_RX_5325",
    "phone": "+1 318-424-1429",
    "phoneUnformatted": "+13184241429",
    "claimThisBusiness": false,
    "location": {
      "lat": 32.5368705,
      "lng": -93.7694211
    },
    "locatedIn": "LibertyX Bitcoin ATM",
    "totalScore": 3.1,
    "permanentlyClosed": false,
    "temporarilyClosed": false,
    "placeId": "ChIJu2Et5eXMNoYRVDHPB_tl8Bc",
    "categories": [
      "Pharmacy"
    ],
    "fid": "0x8636cce5e52d61bb:0x17f065fb07cf3154",
    "cid": "1724990786125115732",
    "reviewsCount": 52,
    "imagesCount": 8,
    "imageCategories": [],
    "scrapedAt": "2025-06-22T05:25:25.096Z",
    "googleFoodUrl": null,
    "hotelAds": [],
    "openingHours": [
      {
        "day": "Monday",
        "hours": "9 AM to 1:30 PM, 2 to 7 PM"
      },
      {
        "day": "Tuesday",
        "hours": "9 AM to 1:30 PM, 2 to 7 PM"
      },
      {
        "day": "Wednesday",
        "hours": "9 AM to 1:30 PM, 2 to 7 PM"
      },
      {
        "day": "Thursday",
        "hours": "9 AM to 1:30 PM, 2 to 7 PM"
      },
      {
        "day": "Friday",
        "hours": "9 AM to 1:30 PM, 2 to 7 PM"
      },
      {
        "day": "Saturday",
        "hours": "10 AM to 1:30 PM, 2 to 6 PM"
      },
      {
        "day": "Sunday",
        "hours": "11 AM to 1:30 PM, 2 to 5 PM"
      }
    ],
    "additionalOpeningHours": {
      "LibertyX Bitcoin ATM": [
        {
          "day": "Monday",
          "hours": "8 am–10 pm"
        },
        {
          "day": "Tuesday",
          "hours": "8 am–10 pm"
        },
        {
          "day": "Wednesday",
          "hours": "8 am–10 pm"
        },
        {
          "day": "Thursday",
          "hours": "8 am–10 pm"
        },
        {
          "day": "Friday",
          "hours": "8 am–10 pm"
        },
        {
          "day": "Saturday",
          "hours": "8 am–10 pm"
        },
        {
          "day": "Sunday",
          "hours": "8 am–10 pm"
        }
      ]
    },
    "peopleAlsoSearch": [],
    "placesTags": [],
    "reviewsTags": [],
    "additionalInfo": {
      "Service options": [
        {
          "Delivery": true
        },
        {
          "Drive-through": true
        },
        {
          "In-store shopping": true
        }
      ],
      "Accessibility": [
        {
          "Wheelchair-accessible car park": true
        },
        {
          "Wheelchair-accessible entrance": true
        }
      ],
      "Offerings": [
        {
          "Naloxone": true
        },
        {
          "Passport photos": true
        }
      ],
      "Crowd": [
        {
          "LGBTQ+ friendly": true
        },
        {
          "Transgender safe space": true
        }
      ],
      "Planning": [
        {
          "Appointment required": true
        },
        {
          "Quick visit": true
        }
      ],
      "Payments": [
        {
          "Credit cards": true
        },
        {
          "Debit cards": true
        },
        {
          "NFC mobile payments": true
        },
        {
          "SNAP/EBT": true
        },
        {
          "Credit cards": true
        }
      ]
    },
    "gasPrices": [],
    "url": "https://www.google.com/maps/search/?api=1&query=CVS%20Pharmacy&query_place_id=ChIJu2Et5eXMNoYRVDHPB_tl8Bc",
    "searchPageUrl": "https://www.google.com/maps/search/independent%20pharmacy%20Shreveport%20LA/@60.874534795447715,-145.05491807162034,9z?hl=en",
    "searchString": "independent pharmacy Shreveport LA",
    "language": "en",
    "rank": 20,
    "isAdvertisement": false,
    "imageUrl": "https://lh3.googleusercontent.com/p/AF1QipNGhCzE7CeOSLou9FihBXOAa0X4N-fTX7EdxrC_=w408-h272-k-no",
    "kgmid": "/g/11c48cb7pv"
  }
]