[
  {
    "title": "Macey's Provo Pharmacy",
    "price": null,
    "categoryName": "Pharmacy",
    "address": "1400 N State St, Provo, UT 84601",
    "neighborhood": "Carterville",
    "street": "1400 N State St",
    "city": "Provo",
    "postalCode": "84601",
    "state": "Utah",
    "countryCode": "US",
    "website": "https://www.maceys.com/anywhere",
    "phone": "(801) 356-3216",
    "phoneUnformatted": "+18013563216",
    "claimThisBusiness": false,
    "location": {
      "lat": 40.2530202,
      "lng": -111.6662588
    },
    "totalScore": 4.9,
    "permanentlyClosed": false,
    "temporarilyClosed": false,
    "placeId": "ChIJ0ZJugmKbTYcRMZKgoO2MPIE",
    "categories": [
      "Pharmacy"
    ],
    "fid": "0x874d9b62826e92d1:0x813c8ceda0a09231",
    "cid": "9312473081725358641",
    "reviewsCount": 20,
    "imagesCount": 7,
    "imageCategories": [],
    "scrapedAt": "2025-06-22T09:55:54.930Z",
    "googleFoodUrl": null,
    "hotelAds": [],
    "openingHours": [
      {
        "day": "Monday",
        "hours": "8 AM to 8 PM"
      },
      {
        "day": "Tuesday",
        "hours": "8 AM to 8 PM"
      },
      {
        "day": "Wednesday",
        "hours": "8 AM to 8 PM"
      },
      {
        "day": "Thursday",
        "hours": "8 AM to 8 PM"
      },
      {
        "day": "Friday",
        "hours": "8 AM to 8 PM"
      },
      {
        "day": "Saturday",
        "hours": "9 AM to 7 PM"
      },
      {
        "day": "Sunday",
        "hours": "10 AM to 4 PM"
      }
    ],
    "peopleAlsoSearch": [],
    "placesTags": [],
    "reviewsTags": [],
    "additionalInfo": {
      "Service options": [
        {
          "Curbside pickup": true
        },
        {
          "In-store pickup": true
        },
        {
          "Onsite services": true
        }
      ],
      "Accessibility": [
        {
          "Wheelchair accessible entrance": true
        },
        {
          "Wheelchair accessible parking lot": true
        }
      ],
      "Planning": [
        {
          "Quick visit": true
        }
      ],
      "Payments": [
        {
          "Credit cards": true
        }
      ]
    },
    "gasPrices": [],
    "url": "https://www.google.com/maps/search/?api=1&query=Macey's%20Provo%20Pharmacy&query_place_id=ChIJ0ZJugmKbTYcRMZKgoO2MPIE",
    "searchPageUrl": "https://www.google.com/maps/search/independent%20pharmacy%20Provo%20UT/@6.019223325287878,-161.94054322060833,12z?hl=en",
    "searchString": "independent pharmacy Provo UT",
    "language": "en",
    "rank": 1,
    "isAdvertisement": false,
    "imageUrl": "https://lh3.googleusercontent.com/gps-cs-s/AC9h4nrnwNOdPCSw4vmWNPbuMXV3DIHhdGrU2haz_xHOkJaUfz-51oeGFUDrobFAEkZwZIctrjeihNJ-hIrjBAMiGJm6FgxbFbzkm2C21M_OLjVoi32LOfAYkK29orbgmYDBapszcICB=w427-h240-k-no",
    "kgmid": "/g/11j2lvj04l"
  },
  {
    "title": "Edgemont Pharmacy",
    "price": null,
    "categoryName": "Pharmacy",
    "address": "3661 N Canyon Rd, Provo, UT 84604",
    "neighborhood": "Edgemont",
    "street": "3661 N Canyon Rd",
    "city": "Provo",
    "postalCode": "84604",
    "state": "Utah",
    "countryCode": "US",
    "website": "https://www.edgemontpharmacy.com/",
    "phone": "(801) 226-7994",
    "phoneUnformatted": "+18012267994",
    "claimThisBusiness": false,
    "location": {
      "lat": 40.2824152,
      "lng": -111.6524798
    },
    "totalScore": 4.8,
    "permanentlyClosed": false,
    "temporarilyClosed": false,
    "placeId": "ChIJFQAHjWSQTYcR1-NqHgURXrY",
    "categories": [
      "Pharmacy"
    ],
    "fid": "0x874d90648d070015:0xb65e11051e6ae3d7",
    "cid": "13140959476396516311",
    "reviewsCount": 40,
    "imagesCount": 6,
    "imageCategories": [],
    "scrapedAt": "2025-06-22T09:55:54.931Z",
    "googleFoodUrl": null,
    "hotelAds": [],
    "openingHours": [
      {
        "day": "Monday",
        "hours": "9 AM to 6:30 PM"
      },
      {
        "day": "Tuesday",
        "hours": "9 AM to 6:30 PM"
      },
      {
        "day": "Wednesday",
        "hours": "9 AM to 6:30 PM"
      },
      {
        "day": "Thursday",
        "hours": "9 AM to 6:30 PM"
      },
      {
        "day": "Friday",
        "hours": "9 AM to 6:30 PM"
      },
      {
        "day": "Saturday",
        "hours": "10 AM to 2 PM"
      },
      {
        "day": "Sunday",
        "hours": "Closed"
      }
    ],
    "peopleAlsoSearch": [],
    "placesTags": [],
    "reviewsTags": [],
    "additionalInfo": {
      "From the business": [
        {
          "Small business": true
        }
      ],
      "Service options": [
        {
          "Delivery": true
        },
        {
          "In-store pickup": true
        },
        {
          "In-store shopping": true
        },
        {
          "Same-day delivery": true
        }
      ],
      "Accessibility": [
        {
          "Wheelchair accessible entrance": true
        },
        {
          "Wheelchair accessible parking lot": true
        }
      ],
      "Planning": [
        {
          "Quick visit": true
        }
      ],
      "Payments": [
        {
          "Credit cards": true
        },
        {
          "Debit cards": true
        },
        {
          "NFC mobile payments": true
        },
        {
          "Credit cards": true
        }
      ]
    },
    "gasPrices": [],
    "url": "https://www.google.com/maps/search/?api=1&query=Edgemont%20Pharmacy&query_place_id=ChIJFQAHjWSQTYcR1-NqHgURXrY",
    "searchPageUrl": "https://www.google.com/maps/search/independent%20pharmacy%20Provo%20UT/@6.019223325287878,-161.94054322060833,12z?hl=en",
    "searchString": "independent pharmacy Provo UT",
    "language": "en",
    "rank": 2,
    "isAdvertisement": false,
    "imageUrl": "https://lh3.googleusercontent.com/p/AF1QipM8WMU6So0OnLq_pxoHUyVaRQPOBZUwIQf6VFAo=w408-h542-k-no",
    "kgmid": "/g/1tgd6_v4"
  },
  {
    "title": "Revere Health Pharmacy",
    "price": null,
    "categoryName": "Pharmacy",
    "address": "1055 N 500 W Bldg A, Provo, UT 84604",
    "neighborhood": "North Park",
    "street": "1055 N 500 W Bldg A",
    "city": "Provo",
    "postalCode": "84604",
    "state": "Utah",
    "countryCode": "US",
    "website": "http://www.reverehealthpharmacy.com/?utm_source=GMBSocialClimb&utm_medium=RevereHealthPharmacy",
    "phone": "(801) 418-0800",
    "phoneUnformatted": "+18014180800",
    "claimThisBusiness": false,
    "location": {
      "lat": 40.2497292,
      "lng": -111.6681226
    },
    "totalScore": 4.5,
    "permanentlyClosed": false,
    "temporarilyClosed": false,
    "placeId": "ChIJX-x66wmaTYcRJn4TQaHpTz8",
    "categories": [
      "Pharmacy"
    ],
    "fid": "0x874d9a09eb7aec5f:0x3f4fe9a141137e26",
    "cid": "4562121826340404774",
    "reviewsCount": 67,
    "imagesCount": 21,
    "imageCategories": [],
    "scrapedAt": "2025-06-22T09:55:54.931Z",
    "googleFoodUrl": null,
    "hotelAds": [],
    "openingHours": [
      {
        "day": "Monday",
        "hours": "8:30 AM to 6:30 PM"
      },
      {
        "day": "Tuesday",
        "hours": "8:30 AM to 6:30 PM"
      },
      {
        "day": "Wednesday",
        "hours": "8:30 AM to 6:30 PM"
      },
      {
        "day": "Thursday",
        "hours": "8:30 AM to 6:30 PM"
      },
      {
        "day": "Friday",
        "hours": "8:30 AM to 6:30 PM"
      },
      {
        "day": "Saturday",
        "hours": "9 AM to 1 PM"
      },
      {
        "day": "Sunday",
        "hours": "Closed"
      }
    ],
    "peopleAlsoSearch": [],
    "placesTags": [],
    "reviewsTags": [],
    "additionalInfo": {
      "From the business": [
        {
          "Small business": true
        }
      ],
      "Service options": [
        {
          "Delivery": true
        },
        {
          "Drive-through": true
        },
        {
          "In-store pickup": true
        },
        {
          "In-store shopping": true
        },
        {
          "Onsite services": true
        },
        {
          "Same-day delivery": true
        },
        {
          "Spanish": true
        }
      ],
      "Accessibility": [
        {
          "Wheelchair accessible entrance": true
        },
        {
          "Wheelchair accessible parking lot": true
        }
      ],
      "Payments": [
        {
          "Credit cards": true
        }
      ]
    },
    "gasPrices": [],
    "url": "https://www.google.com/maps/search/?api=1&query=Revere%20Health%20Pharmacy&query_place_id=ChIJX-x66wmaTYcRJn4TQaHpTz8",
    "searchPageUrl": "https://www.google.com/maps/search/independent%20pharmacy%20Provo%20UT/@6.019223325287878,-161.94054322060833,12z?hl=en",
    "searchString": "independent pharmacy Provo UT",
    "language": "en",
    "rank": 3,
    "isAdvertisement": false,
    "imageUrl": "https://lh3.googleusercontent.com/p/AF1QipOpoEiKE7L5qKn14NzoAOQe0wdRbGAx1IntwgOt=w408-h272-k-no",
    "kgmid": "/g/12641fnct"
  },
  {
    "title": "B & H Pharmacy",
    "price": null,
    "categoryName": "Pharmacy",
    "address": "286 W Center St, Provo, UT 84601",
    "neighborhood": "Downtown",
    "street": "286 W Center St",
    "city": "Provo",
    "postalCode": "84601",
    "state": "Utah",
    "countryCode": "US",
    "website": "http://bandhpharmacy.com/",
    "phone": "(801) 373-7288",
    "phoneUnformatted": "+18013737288",
    "claimThisBusiness": false,
    "location": {
      "lat": 40.234001,
      "lng": -111.663648
    },
    "totalScore": 4.7,
    "permanentlyClosed": false,
    "temporarilyClosed": false,
    "placeId": "ChIJC-1lI1WXTYcRyCFiK1vqz80",
    "categories": [
      "Pharmacy"
    ],
    "fid": "0x874d97552365ed0b:0xcdcfea5b2b6221c8",
    "cid": "14830329775245107656",
    "reviewsCount": 65,
    "imagesCount": 37,
    "imageCategories": [],
    "scrapedAt": "2025-06-22T09:55:54.932Z",
    "googleFoodUrl": null,
    "hotelAds": [],
    "openingHours": [
      {
        "day": "Monday",
        "hours": "10 AM to 6 PM"
      },
      {
        "day": "Tuesday",
        "hours": "10 AM to 6 PM"
      },
      {
        "day": "Wednesday",
        "hours": "10 AM to 6 PM"
      },
      {
        "day": "Thursday",
        "hours": "10 AM to 6 PM"
      },
      {
        "day": "Friday",
        "hours": "10 AM to 6 PM"
      },
      {
        "day": "Saturday",
        "hours": "Closed"
      },
      {
        "day": "Sunday",
        "hours": "Closed"
      }
    ],
    "peopleAlsoSearch": [],
    "placesTags": [],
    "reviewsTags": [],
    "additionalInfo": {
      "From the business": [
        {
          "Small business": true
        }
      ],
      "Service options": [
        {
          "Delivery": true
        },
        {
          "In-store pickup": true
        },
        {
          "In-store shopping": true
        },
        {
          "Same-day delivery": true
        }
      ],
      "Accessibility": [
        {
          "Wheelchair accessible entrance": true
        },
        {
          "Wheelchair accessible parking lot": true
        }
      ],
      "Planning": [
        {
          "Quick visit": true
        }
      ],
      "Payments": [
        {
          "Credit cards": true
        },
        {
          "Debit cards": true
        },
        {
          "NFC mobile payments": true
        },
        {
          "Credit cards": true
        }
      ]
    },
    "gasPrices": [],
    "url": "https://www.google.com/maps/search/?api=1&query=B%20%26%20H%20Pharmacy&query_place_id=ChIJC-1lI1WXTYcRyCFiK1vqz80",
    "searchPageUrl": "https://www.google.com/maps/search/independent%20pharmacy%20Provo%20UT/@6.019223325287878,-161.94054322060833,12z?hl=en",
    "searchString": "independent pharmacy Provo UT",
    "language": "en",
    "rank": 4,
    "isAdvertisement": false,
    "imageUrl": "https://lh3.googleusercontent.com/gps-cs-s/AC9h4npzHf2uOEOBGXMa3tronrBQDMSb0H2we-iZrVdffDT3VhL4yT9Q85vCdtxlX_CuzMm2kle6rmv24enUto1DuMAGC8kWO1dcxxRYlX2R4sjA7CD9Yz-NRf_BmWI2C9GUjnzJuFBl=w408-h544-k-no",
    "kgmid": "/g/1vnnjwlb"
  },
  {
    "title": "Fresh Market Provo Pharmacy",
    "price": null,
    "categoryName": "Pharmacy",
    "address": "560 W Center St, Provo, UT 84601",
    "neighborhood": "Downtown",
    "street": "560 W Center St",
    "city": "Provo",
    "postalCode": "84601",
    "state": "Utah",
    "countryCode": "US",
    "website": "https://www.freshmarketstores.com/pharmacy",
    "phone": "(801) 374-1558",
    "phoneUnformatted": "+18013741558",
    "claimThisBusiness": false,
    "location": {
      "lat": 40.2342158,
      "lng": -111.668543
    },
    "totalScore": 3.5,
    "permanentlyClosed": false,
    "temporarilyClosed": false,
    "placeId": "ChIJkaChgP-ZTYcROvZJ1Xe82kc",
    "categories": [
      "Pharmacy"
    ],
    "fid": "0x874d99ff80a1a091:0x47dabc77d549f63a",
    "cid": "5177657944481330746",
    "reviewsCount": 15,
    "imagesCount": 2,
    "imageCategories": [],
    "scrapedAt": "2025-06-22T09:55:54.932Z",
    "googleFoodUrl": null,
    "hotelAds": [],
    "openingHours": [
      {
        "day": "Monday",
        "hours": "8 AM to 8 PM"
      },
      {
        "day": "Tuesday",
        "hours": "8 AM to 8 PM"
      },
      {
        "day": "Wednesday",
        "hours": "8 AM to 8 PM"
      },
      {
        "day": "Thursday",
        "hours": "8 AM to 8 PM"
      },
      {
        "day": "Friday",
        "hours": "8 AM to 8 PM"
      },
      {
        "day": "Saturday",
        "hours": "9 AM to 7 PM"
      },
      {
        "day": "Sunday",
        "hours": "10 AM to 4 PM"
      }
    ],
    "peopleAlsoSearch": [],
    "placesTags": [],
    "reviewsTags": [],
    "additionalInfo": {
      "Service options": [
        {
          "Curbside pickup": true
        },
        {
          "Delivery": true
        },
        {
          "In-store pickup": true
        },
        {
          "In-store shopping": true
        },
        {
          "Same-day delivery": true
        }
      ],
      "Accessibility": [
        {
          "Wheelchair accessible entrance": true
        },
        {
          "Wheelchair accessible parking lot": true
        },
        {
          "Wheelchair accessible restroom": true
        },
        {
          "Wheelchair accessible seating": true
        }
      ],
      "Amenities": [
        {
          "Wi-Fi": true
        },
        {
          "Free Wi-Fi": true
        }
      ],
      "Planning": [
        {
          "Quick visit": true
        }
      ],
      "Payments": [
        {
          "Checks": true
        },
        {
          "Credit cards": true
        },
        {
          "Debit cards": true
        },
        {
          "NFC mobile payments": true
        },
        {
          "Credit cards": true
        }
      ]
    },
    "gasPrices": [],
    "url": "https://www.google.com/maps/search/?api=1&query=Fresh%20Market%20Provo%20Pharmacy&query_place_id=ChIJkaChgP-ZTYcROvZJ1Xe82kc",
    "searchPageUrl": "https://www.google.com/maps/search/independent%20pharmacy%20Provo%20UT/@6.019223325287878,-161.94054322060833,12z?hl=en",
    "searchString": "independent pharmacy Provo UT",
    "language": "en",
    "rank": 5,
    "isAdvertisement": false,
    "imageUrl": "https://lh3.googleusercontent.com/gps-cs-s/AC9h4np4aIev84KBtccRGbASZnmXRDEp6HcMAQAaSa3PGQuZ0XYxrUxCAvG_2_lUfSAeAIA4PrLbWFWqYLCdkefFIJlngWRcP-EUNug-f1yGVYtPddlD0ddzx2BYyMYv16LOZP_EMfN8hQ=w408-h253-k-no",
    "kgmid": "/g/1tdky4ft"
  },
  {
    "title": "Rock Canyon Pharmacy",
    "price": null,
    "categoryName": "Pharmacy",
    "address": "3179 N Canyon Rd, Provo, UT 84604",
    "neighborhood": "Edgemont",
    "street": "3179 N Canyon Rd",
    "city": "Provo",
    "postalCode": "84604",
    "state": "Utah",
    "countryCode": "US",
    "website": "http://www.rockcanyonpharmacy.com/",
    "phone": "(801) 377-2002",
    "phoneUnformatted": "+18013772002",
    "claimThisBusiness": false,
    "location": {
      "lat": 40.2757066,
      "lng": -111.6519333
    },
    "totalScore": 4.6,
    "permanentlyClosed": false,
    "temporarilyClosed": false,
    "placeId": "ChIJHdJOL4iQTYcRC5-pTjrBvZw",
    "categories": [
      "Pharmacy"
    ],
    "fid": "0x874d90882f4ed21d:0x9cbdc13a4ea99f0b",
    "cid": "11294395896687075083",
    "reviewsCount": 174,
    "imagesCount": 1,
    "imageCategories": [],
    "scrapedAt": "2025-06-22T09:55:54.932Z",
    "googleFoodUrl": null,
    "hotelAds": [],
    "openingHours": [
      {
        "day": "Monday",
        "hours": "9 AM to 6 PM"
      },
      {
        "day": "Tuesday",
        "hours": "9 AM to 6 PM"
      },
      {
        "day": "Wednesday",
        "hours": "9 AM to 6 PM"
      },
      {
        "day": "Thursday",
        "hours": "9 AM to 6 PM"
      },
      {
        "day": "Friday",
        "hours": "9 AM to 6 PM"
      },
      {
        "day": "Saturday",
        "hours": "Closed"
      },
      {
        "day": "Sunday",
        "hours": "Closed"
      }
    ],
    "peopleAlsoSearch": [],
    "placesTags": [],
    "reviewsTags": [],
    "additionalInfo": {
      "Service options": [
        {
          "Delivery": true
        },
        {
          "In-store pickup": true
        },
        {
          "Same-day delivery": true
        }
      ],
      "Accessibility": [
        {
          "Wheelchair accessible entrance": true
        },
        {
          "Wheelchair accessible parking lot": true
        }
      ],
      "Payments": [
        {
          "Credit cards": true
        },
        {
          "Debit cards": true
        },
        {
          "NFC mobile payments": true
        },
        {
          "Credit cards": true
        }
      ]
    },
    "gasPrices": [],
    "url": "https://www.google.com/maps/search/?api=1&query=Rock%20Canyon%20Pharmacy&query_place_id=ChIJHdJOL4iQTYcRC5-pTjrBvZw",
    "searchPageUrl": "https://www.google.com/maps/search/independent%20pharmacy%20Provo%20UT/@6.019223325287878,-161.94054322060833,12z?hl=en",
    "searchString": "independent pharmacy Provo UT",
    "language": "en",
    "rank": 6,
    "isAdvertisement": false,
    "imageUrl": "https://streetviewpixels-pa.googleapis.com/v1/thumbnail?panoid=z3-VnfhcW6giRAp1Z5XQ7w&cb_client=search.gws-prod.gps&w=408&h=240&yaw=256.25287&pitch=0&thumbfov=100",
    "kgmid": "/g/1tmqgpg0"
  },
  {
    "title": "Oak Hills Pharmacy at BYU",
    "price": null,
    "categoryName": "Pharmacy",
    "address": "1750 N Wymount Terrace Drive, Provo, UT 84604",
    "neighborhood": null,
    "street": "1750 N Wymount Terrace Drive",
    "city": "Provo",
    "postalCode": "84604",
    "state": "Utah",
    "countryCode": "US",
    "phone": "(801) 422-5171",
    "phoneUnformatted": "+18014225171",
    "claimThisBusiness": false,
    "location": {
      "lat": 40.2575636,
      "lng": -111.6427356
    },
    "totalScore": 3,
    "permanentlyClosed": false,
    "temporarilyClosed": false,
    "placeId": "ChIJTYUYZdyRTYcRq9WlP_8xfHA",
    "categories": [
      "Pharmacy"
    ],
    "fid": "0x874d91dc6518854d:0x707c31ff3fa5d5ab",
    "cid": "8105408401714304427",
    "reviewsCount": 38,
    "imagesCount": 6,
    "imageCategories": [],
    "scrapedAt": "2025-06-22T09:55:54.932Z",
    "googleFoodUrl": null,
    "hotelAds": [],
    "openingHours": [
      {
        "day": "Monday",
        "hours": "9 AM to 5:30 PM"
      },
      {
        "day": "Tuesday",
        "hours": "9 AM to 5:30 PM"
      },
      {
        "day": "Wednesday",
        "hours": "9 AM to 5:30 PM"
      },
      {
        "day": "Thursday",
        "hours": "9 AM to 5:30 PM"
      },
      {
        "day": "Friday",
        "hours": "9 AM to 5:30 PM"
      },
      {
        "day": "Saturday",
        "hours": "Closed"
      },
      {
        "day": "Sunday",
        "hours": "Closed"
      }
    ],
    "peopleAlsoSearch": [],
    "placesTags": [],
    "reviewsTags": [],
    "additionalInfo": {
      "From the business": [
        {
          "Small business": true
        }
      ],
      "Service options": [
        {
          "Delivery": true
        },
        {
          "In-store pickup": true
        },
        {
          "Same-day delivery": true
        }
      ],
      "Accessibility": [
        {
          "Wheelchair accessible entrance": true
        },
        {
          "Wheelchair accessible parking lot": true
        }
      ],
      "Payments": [
        {
          "Credit cards": true
        },
        {
          "NFC mobile payments": true
        }
      ]
    },
    "gasPrices": [],
    "url": "https://www.google.com/maps/search/?api=1&query=Oak%20Hills%20Pharmacy%20at%20BYU&query_place_id=ChIJTYUYZdyRTYcRq9WlP_8xfHA",
    "searchPageUrl": "https://www.google.com/maps/search/independent%20pharmacy%20Provo%20UT/@6.019223325287878,-161.94054322060833,12z?hl=en",
    "searchString": "independent pharmacy Provo UT",
    "language": "en",
    "rank": 7,
    "isAdvertisement": false,
    "imageUrl": "https://lh3.googleusercontent.com/gps-cs-s/AC9h4nrd0P8iPej07M8PQ2h53feRrC7Dt3ePdMQW0N0Ygozpe2-UdS0V7Kvj4wcoyQbMcZMV1zwIbunOY9LEEoLUPxl7oiYR92dNPQjoWTjuOXerOVSbJ0mY20B1dk9SK-cgJOVFOKwSFg=w408-h544-k-no",
    "kgmid": "/g/11h12l3ck_"
  },
  {
    "title": "Mountainlands Family Pharmacy",
    "price": null,
    "categoryName": "Pharmacy",
    "address": "750 Freedom Blvd 200 W, Provo, UT 84601",
    "neighborhood": "North Park",
    "street": "750 Freedom Blvd 200 W",
    "city": "Provo",
    "postalCode": "84601",
    "state": "Utah",
    "countryCode": "US",
    "website": "https://www.mountainlands.org/pharmacy",
    "phone": "(801) 429-2035",
    "phoneUnformatted": "+18014292035",
    "claimThisBusiness": true,
    "location": {
      "lat": 40.2437825,
      "lng": -111.6617897
    },
    "totalScore": 4.2,
    "permanentlyClosed": false,
    "temporarilyClosed": false,
    "placeId": "ChIJiaezlqiQTYcRBQ0XTtq5Ycw",
    "categories": [
      "Pharmacy"
    ],
    "fid": "0x874d90a896b3a789:0xcc61b9da4e170d05",
    "cid": "14727256603742375173",
    "reviewsCount": 17,
    "imagesCount": 1,
    "imageCategories": [],
    "scrapedAt": "2025-06-22T09:55:54.932Z",
    "googleFoodUrl": null,
    "hotelAds": [],
    "openingHours": [
      {
        "day": "Monday",
        "hours": "9 AM to 5 PM"
      },
      {
        "day": "Tuesday",
        "hours": "9 AM to 5 PM"
      },
      {
        "day": "Wednesday",
        "hours": "9 AM to 5 PM"
      },
      {
        "day": "Thursday",
        "hours": "9 AM to 5 PM"
      },
      {
        "day": "Friday",
        "hours": "9 AM to 5 PM"
      },
      {
        "day": "Saturday",
        "hours": "Closed"
      },
      {
        "day": "Sunday",
        "hours": "Closed"
      }
    ],
    "peopleAlsoSearch": [],
    "placesTags": [],
    "reviewsTags": [],
    "additionalInfo": {
      "Service options": [
        {
          "Curbside pickup": true
        }
      ],
      "Accessibility": [
        {
          "Wheelchair accessible entrance": true
        },
        {
          "Wheelchair accessible parking lot": true
        }
      ],
      "Payments": [
        {
          "Credit cards": true
        }
      ]
    },
    "gasPrices": [],
    "url": "https://www.google.com/maps/search/?api=1&query=Mountainlands%20Family%20Pharmacy&query_place_id=ChIJiaezlqiQTYcRBQ0XTtq5Ycw",
    "searchPageUrl": "https://www.google.com/maps/search/independent%20pharmacy%20Provo%20UT/@6.019223325287878,-161.94054322060833,12z?hl=en",
    "searchString": "independent pharmacy Provo UT",
    "language": "en",
    "rank": 8,
    "isAdvertisement": false,
    "imageUrl": "https://streetviewpixels-pa.googleapis.com/v1/thumbnail?panoid=Mn9uLrFC9mZDzu6VjPBquA&cb_client=search.gws-prod.gps&w=408&h=240&yaw=41.611324&pitch=0&thumbfov=100",
    "kgmid": "/g/11bw2_cqft"
  },
  {
    "title": "Smith's Pharmacy",
    "price": null,
    "categoryName": "Pharmacy",
    "address": "350 N Freedom Blvd, Provo, UT 84601",
    "neighborhood": "Downtown",
    "street": "350 N Freedom Blvd",
    "city": "Provo",
    "postalCode": "84601",
    "state": "Utah",
    "countryCode": "US",
    "website": "https://www.smithsfoodanddrug.com/rx/pharmacy/details/706/00136?cid=loc_70600136P_gmb",
    "phone": "(801) 377-9250",
    "phoneUnformatted": "+18013779250",
    "claimThisBusiness": false,
    "location": {
      "lat": 40.2387154,
      "lng": -111.6613457
    },
    "totalScore": 2.6,
    "permanentlyClosed": false,
    "temporarilyClosed": false,
    "placeId": "ChIJ9yW4pKuQTYcR3GDHn4IW9dE",
    "categories": [
      "Pharmacy",
      "Drug store",
      "Health counselor",
      "Home health care service"
    ],
    "fid": "0x874d90aba4b825f7:0xd1f516829fc760dc",
    "cid": "15129023273503252700",
    "reviewsCount": 116,
    "imagesCount": 17,
    "imageCategories": [],
    "scrapedAt": "2025-06-22T09:55:54.932Z",
    "googleFoodUrl": null,
    "hotelAds": [],
    "openingHours": [
      {
        "day": "Monday",
        "hours": "9 AM to 1 PM, 1:30 to 8 PM"
      },
      {
        "day": "Tuesday",
        "hours": "9 AM to 1 PM, 1:30 to 8 PM"
      },
      {
        "day": "Wednesday",
        "hours": "9 AM to 1 PM, 1:30 to 8 PM"
      },
      {
        "day": "Thursday",
        "hours": "9 AM to 1 PM, 1:30 to 8 PM"
      },
      {
        "day": "Friday",
        "hours": "9 AM to 1 PM, 1:30 to 8 PM"
      },
      {
        "day": "Saturday",
        "hours": "9 AM to 1 PM, 1:30 to 6 PM"
      },
      {
        "day": "Sunday",
        "hours": "10 AM to 1 PM, 1:30 to 4 PM"
      }
    ],
    "peopleAlsoSearch": [],
    "placesTags": [],
    "reviewsTags": [],
    "additionalInfo": {
      "Service options": [
        {
          "Delivery": true
        },
        {
          "In-store pickup": true
        },
        {
          "In-store shopping": true
        },
        {
          "Same-day delivery": true
        }
      ],
      "Accessibility": [
        {
          "Wheelchair accessible entrance": true
        },
        {
          "Wheelchair accessible parking lot": true
        },
        {
          "Wheelchair accessible restroom": true
        },
        {
          "Wheelchair accessible seating": true
        }
      ],
      "Crowd": [
        {
          "LGBTQ+ friendly": true
        },
        {
          "Transgender safespace": true
        }
      ],
      "Planning": [
        {
          "Quick visit": true
        }
      ],
      "Payments": [
        {
          "Checks": true
        },
        {
          "Credit cards": true
        },
        {
          "Debit cards": true
        },
        {
          "NFC mobile payments": true
        },
        {
          "Credit cards": true
        }
      ]
    },
    "gasPrices": [],
    "url": "https://www.google.com/maps/search/?api=1&query=Smith's%20Pharmacy&query_place_id=ChIJ9yW4pKuQTYcR3GDHn4IW9dE",
    "searchPageUrl": "https://www.google.com/maps/search/independent%20pharmacy%20Provo%20UT/@6.019223325287878,-161.94054322060833,12z?hl=en",
    "searchString": "independent pharmacy Provo UT",
    "language": "en",
    "rank": 9,
    "isAdvertisement": false,
    "imageUrl": "https://lh3.googleusercontent.com/p/AF1QipNcIa7FsXwLsqSFGr2-f7RVJfFxt-SPXHId_Cap=w426-h240-k-no",
    "kgmid": "/g/1yfjk2dms"
  },
  {
    "title": "Walgreens Pharmacy",
    "description": "Department of the Walgreens chain providing prescription medications & other health-related items.",
    "price": null,
    "categoryName": "Pharmacy",
    "address": "1315 N State St, Provo, UT 84604",
    "neighborhood": "North Park",
    "street": "1315 N State St",
    "city": "Provo",
    "postalCode": "84604",
    "state": "Utah",
    "countryCode": "US",
    "website": "https://www.walgreens.com/locator/walgreens-1315+n+state+st-provo-ut-84604/id=11734",
    "phone": "(801) 616-5223",
    "phoneUnformatted": "+18016165223",
    "claimThisBusiness": false,
    "location": {
      "lat": 40.2516008,
      "lng": -111.6688652
    },
    "totalScore": 2.9,
    "permanentlyClosed": false,
    "temporarilyClosed": false,
    "placeId": "ChIJJ-F9S2KbTYcR-27WaCCrDNA",
    "categories": [
      "Pharmacy"
    ],
    "fid": "0x874d9b624b7de127:0xd00cab2068d66efb",
    "cid": "14991545415295725307",
    "reviewsCount": 100,
    "imagesCount": 11,
    "imageCategories": [],
    "scrapedAt": "2025-06-22T09:55:54.933Z",
    "googleFoodUrl": null,
    "hotelAds": [],
    "openingHours": [
      {
        "day": "Monday",
        "hours": "2 AM to 1:30 AM"
      },
      {
        "day": "Tuesday",
        "hours": "2 AM to 1:30 AM"
      },
      {
        "day": "Wednesday",
        "hours": "2 AM to 1:30 AM"
      },
      {
        "day": "Thursday",
        "hours": "2 AM to 1:30 AM"
      },
      {
        "day": "Friday",
        "hours": "2 AM to 1:30 AM"
      },
      {
        "day": "Saturday",
        "hours": "2 AM to 1:30 AM"
      },
      {
        "day": "Sunday",
        "hours": "2 AM to 1:30 AM"
      }
    ],
    "additionalOpeningHours": {
      "Drive through": [
        {
          "day": "Monday",
          "hours": "2 AM–1:30 AM"
        },
        {
          "day": "Tuesday",
          "hours": "2 AM–1:30 AM"
        },
        {
          "day": "Wednesday",
          "hours": "2 AM–1:30 AM"
        },
        {
          "day": "Thursday",
          "hours": "2 AM–1:30 AM"
        },
        {
          "day": "Friday",
          "hours": "2 AM–1:30 AM"
        },
        {
          "day": "Saturday",
          "hours": "2 AM–1:30 AM"
        },
        {
          "day": "Sunday",
          "hours": "2 AM–1:30 AM"
        }
      ]
    },
    "peopleAlsoSearch": [],
    "placesTags": [],
    "reviewsTags": [],
    "additionalInfo": {
      "Service options": [
        {
          "Delivery": true
        },
        {
          "Drive-through": true
        },
        {
          "In-store pickup": true
        },
        {
          "Onsite services": true
        }
      ],
      "Accessibility": [
        {
          "Wheelchair accessible entrance": true
        },
        {
          "Wheelchair accessible parking lot": true
        }
      ],
      "Offerings": [
        {
          "Passport photos": true
        }
      ],
      "Planning": [
        {
          "Quick visit": true
        }
      ],
      "Payments": [
        {
          "Checks": true
        },
        {
          "Credit cards": true
        },
        {
          "Debit cards": true
        }
      ]
    },
    "gasPrices": [],
    "url": "https://www.google.com/maps/search/?api=1&query=Walgreens%20Pharmacy&query_place_id=ChIJJ-F9S2KbTYcR-27WaCCrDNA",
    "searchPageUrl": "https://www.google.com/maps/search/independent%20pharmacy%20Provo%20UT/@6.019223325287878,-161.94054322060833,12z?hl=en",
    "searchString": "independent pharmacy Provo UT",
    "language": "en",
    "rank": 10,
    "isAdvertisement": false,
    "imageUrl": "https://lh3.googleusercontent.com/gps-cs-s/AC9h4npB93Et127faJ4OS9GsoCXd93E348jf1usqzVzb3W2zy3Qw6T1iTEM998l3lIhnkGGm7-LICfTbYl_ro-TeHnjs5H18s1BaibEQTuf7MCajXa5LMDqO2jD_V149dBSkc-_lwRke=w408-h725-k-no",
    "kgmid": "/g/11vdm0y7_x"
  },
  {
    "title": "Orem Family Pharmacy",
    "price": null,
    "categoryName": "Pharmacy",
    "address": "406 N State St, Orem, UT 84057",
    "neighborhood": "Sharon",
    "street": "406 N State St",
    "city": "Orem",
    "postalCode": "84057",
    "state": "Utah",
    "countryCode": "US",
    "website": "http://www.oremrx.com/",
    "phone": "(801) 434-7670",
    "phoneUnformatted": "+18014347670",
    "claimThisBusiness": false,
    "location": {
      "lat": 40.3047324,
      "lng": -111.6979431
    },
    "totalScore": 4.7,
    "permanentlyClosed": false,
    "temporarilyClosed": false,
    "placeId": "ChIJP3HT68yaTYcR63CAWgyjnrA",
    "categories": [
      "Pharmacy",
      "Candy store",
      "Delivery service",
      "Gift shop",
      "Medical supply store"
    ],
    "fid": "0x874d9accebd3713f:0xb09ea30c5a8070eb",
    "cid": "12726788870448902379",
    "reviewsCount": 111,
    "imagesCount": 34,
    "imageCategories": [],
    "scrapedAt": "2025-06-22T09:55:54.933Z",
    "googleFoodUrl": null,
    "hotelAds": [],
    "openingHours": [
      {
        "day": "Monday",
        "hours": "9 AM to 7 PM"
      },
      {
        "day": "Tuesday",
        "hours": "9 AM to 7 PM"
      },
      {
        "day": "Wednesday",
        "hours": "9 AM to 7 PM"
      },
      {
        "day": "Thursday",
        "hours": "9 AM to 7 PM"
      },
      {
        "day": "Friday",
        "hours": "9 AM to 7 PM"
      },
      {
        "day": "Saturday",
        "hours": "9 AM to 2 PM"
      },
      {
        "day": "Sunday",
        "hours": "Closed"
      }
    ],
    "peopleAlsoSearch": [],
    "placesTags": [],
    "reviewsTags": [],
    "additionalInfo": {
      "From the business": [
        {
          "Small business": true
        }
      ],
      "Service options": [
        {
          "Delivery": true
        },
        {
          "Drive-through": true
        },
        {
          "In-store pickup": true
        },
        {
          "Onsite services": true
        },
        {
          "Same-day delivery": true
        }
      ],
      "Accessibility": [
        {
          "Wheelchair accessible entrance": true
        },
        {
          "Wheelchair accessible parking lot": true
        }
      ],
      "Crowd": [
        {
          "LGBTQ+ friendly": true
        },
        {
          "Transgender safespace": true
        }
      ],
      "Planning": [
        {
          "Quick visit": true
        }
      ],
      "Payments": [
        {
          "NFC mobile payments": true
        },
        {
          "Credit cards": true
        }
      ]
    },
    "gasPrices": [],
    "url": "https://www.google.com/maps/search/?api=1&query=Orem%20Family%20Pharmacy&query_place_id=ChIJP3HT68yaTYcR63CAWgyjnrA",
    "searchPageUrl": "https://www.google.com/maps/search/independent%20pharmacy%20Provo%20UT/@6.019223325287878,-161.94054322060833,12z?hl=en",
    "searchString": "independent pharmacy Provo UT",
    "language": "en",
    "rank": 11,
    "isAdvertisement": false,
    "imageUrl": "https://lh3.googleusercontent.com/p/AF1QipNAL2XXDc0UkV5z2MVxi6zzHl4K4CaPs6Ua7RGE=w408-h306-k-no",
    "kgmid": "/g/1tdxwhl7"
  },
  {
    "title": "CVS Pharmacy",
    "price": null,
    "categoryName": "Pharmacy",
    "address": "1273 N University Ave, Provo, UT 84604",
    "neighborhood": "Carterville",
    "street": "1273 N University Ave",
    "city": "Provo",
    "postalCode": "84604",
    "state": "Utah",
    "countryCode": "US",
    "website": "https://www.cvs.com/store-locator/provo-ut-pharmacies/1273-n-university-ave-provo-ut-84604/storeid=10230?WT.mc_id=LS_GOOGLE_RX_10230",
    "phone": "(801) 377-3280",
    "phoneUnformatted": "+18013773280",
    "claimThisBusiness": false,
    "location": {
      "lat": 40.251258,
      "lng": -111.6592724
    },
    "totalScore": 3.3,
    "permanentlyClosed": false,
    "temporarilyClosed": false,
    "placeId": "ChIJ4w3B6KOQTYcRMlubdnuHQIc",
    "categories": [
      "Pharmacy"
    ],
    "fid": "0x874d90a3e8c10de3:0x8740877b769b5b32",
    "cid": "9745938557970373426",
    "reviewsCount": 46,
    "imagesCount": 10,
    "imageCategories": [],
    "scrapedAt": "2025-06-22T09:55:54.933Z",
    "googleFoodUrl": null,
    "hotelAds": [],
    "openingHours": [
      {
        "day": "Monday",
        "hours": "8 AM to 1:30 PM, 2 to 8 PM"
      },
      {
        "day": "Tuesday",
        "hours": "8 AM to 1:30 PM, 2 to 8 PM"
      },
      {
        "day": "Wednesday",
        "hours": "8 AM to 1:30 PM, 2 to 8 PM"
      },
      {
        "day": "Thursday",
        "hours": "8 AM to 1:30 PM, 2 to 8 PM"
      },
      {
        "day": "Friday",
        "hours": "8 AM to 1:30 PM, 2 to 8 PM"
      },
      {
        "day": "Saturday",
        "hours": "9 AM to 1:30 PM, 2 to 6 PM"
      },
      {
        "day": "Sunday",
        "hours": "11 AM to 1:30 PM, 2 to 6 PM"
      }
    ],
    "peopleAlsoSearch": [],
    "placesTags": [],
    "reviewsTags": [],
    "additionalInfo": {
      "Service options": [
        {
          "Delivery": true
        },
        {
          "Drive-through": true
        },
        {
          "In-store pickup": true
        },
        {
          "In-store shopping": true
        },
        {
          "Onsite services": true
        }
      ],
      "Accessibility": [
        {
          "Wheelchair accessible entrance": true
        },
        {
          "Wheelchair accessible parking lot": true
        }
      ],
      "Offerings": [
        {
          "Medication disposal": true
        },
        {
          "Naloxone": true
        },
        {
          "Passport photos": true
        }
      ],
      "Crowd": [
        {
          "LGBTQ+ friendly": true
        },
        {
          "Transgender safespace": true
        }
      ],
      "Planning": [
        {
          "Quick visit": true
        }
      ],
      "Payments": [
        {
          "Credit cards": true
        },
        {
          "Debit cards": true
        },
        {
          "NFC mobile payments": true
        },
        {
          "SNAP/EBT": true
        },
        {
          "Credit cards": true
        }
      ]
    },
    "gasPrices": [],
    "url": "https://www.google.com/maps/search/?api=1&query=CVS%20Pharmacy&query_place_id=ChIJ4w3B6KOQTYcRMlubdnuHQIc",
    "searchPageUrl": "https://www.google.com/maps/search/independent%20pharmacy%20Provo%20UT/@6.019223325287878,-161.94054322060833,12z?hl=en",
    "searchString": "independent pharmacy Provo UT",
    "language": "en",
    "rank": 12,
    "isAdvertisement": false,
    "imageUrl": "https://lh3.googleusercontent.com/p/AF1QipP9xKNXt6S16xLIP79hMnt3wV3VlHB_k9G2CPQY=w408-h272-k-no",
    "kgmid": "/g/11c460_9fg"
  },
  {
    "title": "Intermountain Provo Pharmacy",
    "price": null,
    "categoryName": "Pharmacy",
    "address": "395 W 1230 N St Ste 204, Provo, UT 84604",
    "neighborhood": "North Park",
    "street": "395 W 1230 N St Ste 204",
    "city": "Provo",
    "postalCode": "84604",
    "state": "Utah",
    "countryCode": "US",
    "website": "https://intermountainhealthcare.org/health-wellness-promotion/vaccines/covid/?utm_source=vaccinefinder&utm_medium=web&utm_campaign=covidvaccine2103",
    "phone": "(801) 357-7333",
    "phoneUnformatted": "+18013577333",
    "claimThisBusiness": true,
    "location": {
      "lat": 40.2500245,
      "lng": -111.6646924
    },
    "permanentlyClosed": true,
    "temporarilyClosed": false,
    "placeId": "ChIJz3rN6qCQTYcRRHuSxB6CVag",
    "categories": [
      "Pharmacy"
    ],
    "fid": "0x874d90a0eacd7acf:0xa855821ec4927b44",
    "cid": "12129744240050862916",
    "reviewsCount": 0,
    "imagesCount": 1,
    "imageCategories": [],
    "scrapedAt": "2025-06-22T09:55:54.933Z",
    "googleFoodUrl": null,
    "hotelAds": [],
    "openingHours": [],
    "peopleAlsoSearch": [],
    "placesTags": [],
    "reviewsTags": [],
    "gasPrices": [],
    "url": "https://www.google.com/maps/search/?api=1&query=Intermountain%20Provo%20Pharmacy&query_place_id=ChIJz3rN6qCQTYcRRHuSxB6CVag",
    "searchPageUrl": "https://www.google.com/maps/search/independent%20pharmacy%20Provo%20UT/@6.019223325287878,-161.94054322060833,12z?hl=en",
    "searchString": "independent pharmacy Provo UT",
    "language": "en",
    "rank": 13,
    "isAdvertisement": false,
    "imageUrl": "https://streetviewpixels-pa.googleapis.com/v1/thumbnail?panoid=NBmQA66jfp6eyXKPKIuOoA&cb_client=search.gws-prod.gps&w=408&h=240&yaw=99.602745&pitch=0&thumbfov=100",
    "kgmid": "/g/11rfwjqfrv"
  },
  {
    "title": "CVS Pharmacy",
    "description": "Drugstore chain selling a variety of beauty & health products, plus some grocery & household items.",
    "price": null,
    "categoryName": "Pharmacy",
    "address": "1200 Towne Centre Blvd Suite A, Provo, UT 84601, United States",
    "neighborhood": "East Bay",
    "street": "1200 Towne Centre Blvd Suite A",
    "city": "Provo",
    "postalCode": "84601",
    "state": "Utah",
    "countryCode": "US",
    "website": "https://www.cvs.com/store-locator/provo-ut-pharmacies/1200-towne-centre-blvd-spc-a-provo-ut-84601/storeid=17911?WT.mc_id=LS_GOOGLE_RX_17911",
    "phone": "+1 801-788-3833",
    "phoneUnformatted": "+18017883833",
    "claimThisBusiness": false,
    "location": {
      "lat": 40.2154287,
      "lng": -111.6628374
    },
    "totalScore": 4.4,
    "permanentlyClosed": false,
    "temporarilyClosed": false,
    "placeId": "ChIJO3bVbASXTYcR6WsOfyHpvgU",
    "categories": [
      "Pharmacy"
    ],
    "fid": "0x874d97046cd5763b:0x5bee9217f0e6be9",
    "cid": "414024545839508457",
    "reviewsCount": 7,
    "imagesCount": 3,
    "imageCategories": [],
    "scrapedAt": "2025-06-22T09:56:05.773Z",
    "googleFoodUrl": null,
    "hotelAds": [],
    "openingHours": [
      {
        "day": "Monday",
        "hours": "9 AM to 1:30 PM, 2 to 7 PM"
      },
      {
        "day": "Tuesday",
        "hours": "9 AM to 1:30 PM, 2 to 7 PM"
      },
      {
        "day": "Wednesday",
        "hours": "9 AM to 1:30 PM, 2 to 7 PM"
      },
      {
        "day": "Thursday",
        "hours": "9 AM to 1:30 PM, 2 to 7 PM"
      },
      {
        "day": "Friday",
        "hours": "9 AM to 1:30 PM, 2 to 7 PM"
      },
      {
        "day": "Saturday",
        "hours": "9 AM to 1:30 PM, 2 to 5 PM"
      },
      {
        "day": "Sunday",
        "hours": "11 AM to 1:30 PM, 2 to 5 PM"
      }
    ],
    "peopleAlsoSearch": [],
    "placesTags": [],
    "reviewsTags": [],
    "additionalInfo": {
      "Service options": [
        {
          "Delivery": true
        },
        {
          "In-store shopping": true
        }
      ],
      "Accessibility": [
        {
          "Wheelchair-accessible car park": true
        },
        {
          "Wheelchair-accessible entrance": true
        }
      ],
      "Crowd": [
        {
          "LGBTQ+ friendly": true
        },
        {
          "Transgender safe space": true
        }
      ],
      "Planning": [
        {
          "Quick visit": true
        }
      ],
      "Payments": [
        {
          "Credit cards": true
        },
        {
          "Debit cards": true
        },
        {
          "Credit cards": true
        }
      ]
    },
    "gasPrices": [],
    "url": "https://www.google.com/maps/search/?api=1&query=CVS%20Pharmacy&query_place_id=ChIJO3bVbASXTYcR6WsOfyHpvgU",
    "searchPageUrl": "https://www.google.com/maps/search/independent%20pharmacy%20Provo%20UT/@57.14606775000001,-169.63810806245553,12z?hl=en",
    "searchString": "independent pharmacy Provo UT",
    "language": "en",
    "rank": 12,
    "isAdvertisement": false,
    "imageUrl": "https://lh3.googleusercontent.com/p/AF1QipNQ2H-h67wFNCSHyiCWof-AqpF-bh39JlmUOn0L=w408-h272-k-no",
    "kgmid": "/g/11y412r76h"
  },
  {
    "title": "Walgreens",
    "description": "Drugstore chain with health & beauty aids, prescriptions & photo services, plus mini-mart basics.",
    "price": "$$",
    "categoryName": "Drug store",
    "address": "1315 N State St, Provo, UT 84604",
    "neighborhood": "North Park",
    "street": "1315 N State St",
    "city": "Provo",
    "postalCode": "84604",
    "state": "Utah",
    "countryCode": "US",
    "website": "https://www.walgreens.com/locator/walgreens-1315+n+state+st-provo-ut-84604/id=11734",
    "phone": "(801) 616-5223",
    "phoneUnformatted": "+18016165223",
    "claimThisBusiness": false,
    "location": {
      "lat": 40.2515885,
      "lng": -111.6688864
    },
    "locatedIn": "Walgreens Pharmacy",
    "totalScore": 2.5,
    "permanentlyClosed": false,
    "temporarilyClosed": false,
    "placeId": "ChIJwRqe4wqaTYcRweaJAccvVRw",
    "categories": [
      "Drug store",
      "Beauty supply store",
      "Convenience store",
      "Cosmetics store",
      "Greeting card shop",
      "Perfume store",
      "Stationery store"
    ],
    "fid": "0x874d9a0ae39e1ac1:0x1c552fc70189e6c1",
    "cid": "2041590537853200065",
    "reviewsCount": 430,
    "imagesCount": 39,
    "imageCategories": [],
    "scrapedAt": "2025-06-22T09:56:07.960Z",
    "googleFoodUrl": null,
    "hotelAds": [],
    "openingHours": [
      {
        "day": "Monday",
        "hours": "Open 24 hours"
      },
      {
        "day": "Tuesday",
        "hours": "Open 24 hours"
      },
      {
        "day": "Wednesday",
        "hours": "Open 24 hours"
      },
      {
        "day": "Thursday",
        "hours": "Open 24 hours"
      },
      {
        "day": "Friday",
        "hours": "Open 24 hours"
      },
      {
        "day": "Saturday",
        "hours": "Open 24 hours"
      },
      {
        "day": "Sunday",
        "hours": "Open 24 hours"
      }
    ],
    "additionalOpeningHours": {
      "Walgreens Pharmacy": [
        {
          "day": "Monday",
          "hours": "2 AM–1:30 AM"
        },
        {
          "day": "Tuesday",
          "hours": "2 AM–1:30 AM"
        },
        {
          "day": "Wednesday",
          "hours": "2 AM–1:30 AM"
        },
        {
          "day": "Thursday",
          "hours": "2 AM–1:30 AM"
        },
        {
          "day": "Friday",
          "hours": "2 AM–1:30 AM"
        },
        {
          "day": "Saturday",
          "hours": "2 AM–1:30 AM"
        },
        {
          "day": "Sunday",
          "hours": "2 AM–1:30 AM"
        }
      ],
      "Walgreens Photo": [
        {
          "day": "Monday",
          "hours": "Open 24 hours"
        },
        {
          "day": "Tuesday",
          "hours": "Open 24 hours"
        },
        {
          "day": "Wednesday",
          "hours": "Open 24 hours"
        },
        {
          "day": "Thursday",
          "hours": "Open 24 hours"
        },
        {
          "day": "Friday",
          "hours": "Open 24 hours"
        },
        {
          "day": "Saturday",
          "hours": "Open 24 hours"
        },
        {
          "day": "Sunday",
          "hours": "Open 24 hours"
        }
      ],
      "Pickup": [
        {
          "day": "Monday",
          "hours": "Open 24 hours"
        },
        {
          "day": "Tuesday",
          "hours": "Open 24 hours"
        },
        {
          "day": "Wednesday",
          "hours": "Open 24 hours"
        },
        {
          "day": "Thursday",
          "hours": "Open 24 hours"
        },
        {
          "day": "Friday",
          "hours": "Open 24 hours"
        },
        {
          "day": "Saturday",
          "hours": "Open 24 hours"
        },
        {
          "day": "Sunday",
          "hours": "Open 24 hours"
        }
      ]
    },
    "peopleAlsoSearch": [],
    "placesTags": [],
    "reviewsTags": [],
    "additionalInfo": {
      "Service options": [
        {
          "Curbside pickup": true
        },
        {
          "Delivery": true
        },
        {
          "Drive-through": true
        },
        {
          "In-store pickup": true
        },
        {
          "Onsite services": true
        }
      ],
      "Accessibility": [
        {
          "Wheelchair accessible entrance": true
        },
        {
          "Wheelchair accessible parking lot": true
        }
      ],
      "Offerings": [
        {
          "Medication disposal": true
        },
        {
          "Naloxone": true
        },
        {
          "Passport photos": true
        }
      ],
      "Planning": [
        {
          "Quick visit": true
        }
      ],
      "Payments": [
        {
          "Checks": true
        },
        {
          "Credit cards": true
        },
        {
          "Debit cards": true
        },
        {
          "NFC mobile payments": true
        },
        {
          "SNAP/EBT": true
        },
        {
          "Credit cards": true
        }
      ]
    },
    "gasPrices": [],
    "url": "https://www.google.com/maps/search/?api=1&query=Walgreens&query_place_id=ChIJwRqe4wqaTYcRweaJAccvVRw",
    "searchPageUrl": "https://www.google.com/maps/search/independent%20pharmacy%20Provo%20UT/@64.34834014395538,-156.56290792837981,9z?hl=en",
    "searchString": "independent pharmacy Provo UT",
    "language": "en",
    "rank": 8,
    "isAdvertisement": false,
    "imageUrl": "https://lh3.googleusercontent.com/gps-cs-s/AC9h4nrhdpRI20QaHuVORssuf6iOgFlXPaJAhrXr3YxSCqoO4KYC1XegOx3zsH-SBSJrmi49nnsbzh6cLutHhVjiXEodSbEuEfM-LRM3Aizt4cuzWlnCjM5f5JUg2gmTyOVozTYSTuEG=w426-h240-k-no",
    "kgmid": "/g/1tjg_vkc"
  },
  {
    "title": "Salmon Pharmacy",
    "price": null,
    "categoryName": "Pharmacy",
    "address": "865 N 980 W, Orem, UT 84057",
    "neighborhood": "Bonneville",
    "street": "865 N 980 W",
    "city": "Orem",
    "postalCode": "84057",
    "state": "Utah",
    "countryCode": "US",
    "website": "http://www.salmonpharmacy.com/",
    "phone": "(801) 225-2150",
    "phoneUnformatted": "+18012252150",
    "claimThisBusiness": false,
    "location": {
      "lat": 40.3131869,
      "lng": -111.7199681
    },
    "totalScore": 4.8,
    "permanentlyClosed": false,
    "temporarilyClosed": false,
    "placeId": "ChIJT9CGUi-FTYcRAy8P35BNLe8",
    "categories": [
      "Pharmacy",
      "Drug store",
      "Gift shop"
    ],
    "fid": "0x874d852f5286d04f:0xef2d4d90df0f2f03",
    "cid": "17234516633629699843",
    "reviewsCount": 117,
    "imagesCount": 22,
    "imageCategories": [],
    "scrapedAt": "2025-06-22T09:56:07.961Z",
    "googleFoodUrl": null,
    "hotelAds": [],
    "openingHours": [
      {
        "day": "Monday",
        "hours": "9 AM to 7 PM"
      },
      {
        "day": "Tuesday",
        "hours": "9 AM to 7 PM"
      },
      {
        "day": "Wednesday",
        "hours": "9 AM to 7 PM"
      },
      {
        "day": "Thursday",
        "hours": "9 AM to 7 PM"
      },
      {
        "day": "Friday",
        "hours": "9 AM to 7 PM"
      },
      {
        "day": "Saturday",
        "hours": "9 AM to 3 PM"
      },
      {
        "day": "Sunday",
        "hours": "Closed"
      }
    ],
    "additionalOpeningHours": {
      "Drive through": [
        {
          "day": "Monday",
          "hours": "9 AM–7 PM"
        },
        {
          "day": "Tuesday",
          "hours": "9 AM–7 PM"
        },
        {
          "day": "Wednesday",
          "hours": "9 AM–7 PM"
        },
        {
          "day": "Thursday",
          "hours": "9 AM–7 PM"
        },
        {
          "day": "Friday",
          "hours": "9 AM–7 PM"
        },
        {
          "day": "Saturday",
          "hours": "9 AM–3 PM"
        },
        {
          "day": "Sunday",
          "hours": "Closed"
        }
      ]
    },
    "peopleAlsoSearch": [],
    "placesTags": [],
    "reviewsTags": [],
    "additionalInfo": {
      "From the business": [
        {
          "Small business": true
        }
      ],
      "Service options": [
        {
          "Curbside pickup": true
        },
        {
          "Delivery": true
        },
        {
          "Drive-through": true
        },
        {
          "In-store pickup": true
        },
        {
          "In-store shopping": true
        },
        {
          "Onsite services": true
        },
        {
          "Same-day delivery": true
        },
        {
          "Spanish": true
        }
      ],
      "Accessibility": [
        {
          "Wheelchair accessible entrance": true
        },
        {
          "Wheelchair accessible parking lot": true
        },
        {
          "Wheelchair accessible restroom": true
        },
        {
          "Wheelchair accessible seating": true
        }
      ],
      "Amenities": [
        {
          "Gender-neutral restroom": true
        },
        {
          "Wi-Fi": true
        },
        {
          "Free Wi-Fi": true
        }
      ],
      "Planning": [
        {
          "Quick visit": true
        }
      ],
      "Payments": [
        {
          "Credit cards": true
        },
        {
          "Debit cards": true
        },
        {
          "NFC mobile payments": true
        },
        {
          "Credit cards": true
        }
      ]
    },
    "gasPrices": [],
    "url": "https://www.google.com/maps/search/?api=1&query=Salmon%20Pharmacy&query_place_id=ChIJT9CGUi-FTYcRAy8P35BNLe8",
    "searchPageUrl": "https://www.google.com/maps/search/independent%20pharmacy%20Provo%20UT/@64.34834014395538,-156.56290792837981,9z?hl=en",
    "searchString": "independent pharmacy Provo UT",
    "language": "en",
    "rank": 16,
    "isAdvertisement": false,
    "imageUrl": "https://lh3.googleusercontent.com/gps-cs-s/AC9h4npcpT71gZNe_LvttuWifZxEhuR_Fw4AFxswHjoj1jdWC4U77bg3PrO8LWmIWUajsXFxT8HxmB_XTUpXD9SA74_g2-PtWxb1wZE9G6ibmppjecFaShwB5MUwRIxRFwgr_2KSLHtF=w408-h306-k-no",
    "kgmid": "/g/1tjy1zxp"
  },
  {
    "title": "Taylor Drug",
    "price": null,
    "categoryName": "Pharmacy",
    "address": "265 N State St, Lindon, UT 84042",
    "neighborhood": null,
    "street": "265 N State St",
    "city": "Lindon",
    "postalCode": "84042",
    "state": "Utah",
    "countryCode": "US",
    "website": "https://taylordrugstore.com/",
    "phone": "(385) 440-1222",
    "phoneUnformatted": "+13854401222",
    "claimThisBusiness": false,
    "location": {
      "lat": 40.3422712,
      "lng": -111.721082
    },
    "totalScore": 4.6,
    "permanentlyClosed": false,
    "temporarilyClosed": false,
    "placeId": "ChIJudBk1UKFTYcRRZfOTqWoazo",
    "categories": [
      "Pharmacy"
    ],
    "fid": "0x874d8542d564d0b9:0x3a6ba8a54ece9745",
    "cid": "4209643704653092677",
    "reviewsCount": 52,
    "imagesCount": 1,
    "imageCategories": [],
    "scrapedAt": "2025-06-22T09:56:51.183Z",
    "googleFoodUrl": null,
    "hotelAds": [],
    "openingHours": [
      {
        "day": "Monday",
        "hours": "9 AM to 7 PM"
      },
      {
        "day": "Tuesday",
        "hours": "9 AM to 7 PM"
      },
      {
        "day": "Wednesday",
        "hours": "9 AM to 7 PM"
      },
      {
        "day": "Thursday",
        "hours": "9 AM to 7 PM"
      },
      {
        "day": "Friday",
        "hours": "9 AM to 7 PM"
      },
      {
        "day": "Saturday",
        "hours": "9 AM to 2 PM"
      },
      {
        "day": "Sunday",
        "hours": "Closed"
      }
    ],
    "peopleAlsoSearch": [],
    "placesTags": [],
    "reviewsTags": [],
    "additionalInfo": {
      "From the business": [
        {
          "Small business": true
        }
      ],
      "Service options": [
        {
          "Delivery": true
        },
        {
          "Drive-through": true
        },
        {
          "In-store pickup": true
        },
        {
          "In-store shopping": true
        },
        {
          "Same-day delivery": true
        }
      ],
      "Accessibility": [
        {
          "Wheelchair accessible entrance": true
        },
        {
          "Wheelchair accessible parking lot": true
        }
      ],
      "Planning": [
        {
          "Quick visit": true
        }
      ],
      "Payments": [
        {
          "Credit cards": true
        },
        {
          "Debit cards": true
        },
        {
          "NFC mobile payments": true
        },
        {
          "Credit cards": true
        }
      ]
    },
    "gasPrices": [],
    "url": "https://www.google.com/maps/search/?api=1&query=Taylor%20Drug&query_place_id=ChIJudBk1UKFTYcRRZfOTqWoazo",
    "searchPageUrl": "https://www.google.com/maps/search/independent%20pharmacy%20Provo%20UT/@36.81849750000001,-102.31720148556776,8z?hl=en",
    "searchString": "independent pharmacy Provo UT",
    "language": "en",
    "rank": 16,
    "isAdvertisement": false,
    "imageUrl": "https://streetviewpixels-pa.googleapis.com/v1/thumbnail?panoid=tMAb1l0LZG1q62D1tDQqnw&cb_client=search.gws-prod.gps&w=408&h=240&yaw=185.20255&pitch=0&thumbfov=100",
    "kgmid": "/g/11h3mv1tmc"
  }
]