[
  {
    "title": "Modern Alchemist Compounding Pharmacy",
    "price": null,
    "categoryName": "Pharmacy",
    "address": "7900 San Pedro Dr NE Suite A8, Albuquerque, NM 87109, United States",
    "neighborhood": null,
    "street": "7900 San Pedro Dr NE Suite A8",
    "city": "Albuquerque",
    "postalCode": "87109",
    "state": "New Mexico",
    "countryCode": "US",
    "website": "https://modernalchemistrx.com/",
    "phone": "+1 505-200-0033",
    "phoneUnformatted": "+15052000033",
    "claimThisBusiness": false,
    "location": {
      "lat": 35.1720812,
      "lng": -106.5766842
    },
    "totalScore": 4.9,
    "permanentlyClosed": false,
    "temporarilyClosed": false,
    "placeId": "ChIJZygnF4B1IocRbk0idxDIFgI",
    "categories": [
      "Pharmacy"
    ],
    "fid": "0x8722758017272867:0x216c81077224d6e",
    "cid": "150527610607258990",
    "reviewsCount": 131,
    "imagesCount": 22,
    "imageCategories": [],
    "scrapedAt": "2025-06-22T09:00:59.766Z",
    "googleFoodUrl": null,
    "hotelAds": [],
    "openingHours": [
      {
        "day": "Monday",
        "hours": "9 AM to 6 PM"
      },
      {
        "day": "Tuesday",
        "hours": "9 AM to 6 PM"
      },
      {
        "day": "Wednesday",
        "hours": "9 AM to 6 PM"
      },
      {
        "day": "Thursday",
        "hours": "9 AM to 6 PM"
      },
      {
        "day": "Friday",
        "hours": "9 AM to 6 PM"
      },
      {
        "day": "Saturday",
        "hours": "9 AM to 1 PM"
      },
      {
        "day": "Sunday",
        "hours": "Closed"
      }
    ],
    "peopleAlsoSearch": [],
    "placesTags": [],
    "reviewsTags": [],
    "additionalInfo": {
      "From the business": [
        {
          "Small Business": true
        }
      ],
      "Service options": [
        {
          "In-store pick-up": true
        },
        {
          "In-store shopping": true
        }
      ],
      "Accessibility": [
        {
          "Wheelchair-accessible car park": true
        },
        {
          "Wheelchair-accessible entrance": true
        }
      ],
      "Planning": [
        {
          "Quick visit": true
        }
      ],
      "Payments": [
        {
          "Credit cards": true
        },
        {
          "Debit cards": true
        },
        {
          "NFC mobile payments": true
        },
        {
          "Credit cards": true
        }
      ]
    },
    "gasPrices": [],
    "url": "https://www.google.com/maps/search/?api=1&query=Modern%20Alchemist%20Compounding%20Pharmacy&query_place_id=ChIJZygnF4B1IocRbk0idxDIFgI",
    "searchPageUrl": "https://www.google.com/maps/search/independent%20pharmacy%20Albuquerque%20NM/@60.31354917823661,-173.20649518568482,12z?hl=en",
    "searchString": "independent pharmacy Albuquerque NM",
    "language": "en",
    "rank": 1,
    "isAdvertisement": false,
    "imageUrl": "https://lh3.googleusercontent.com/p/AF1QipN06GXRCdyFsF1JMENiHEuWxnZSVMIPWvwnMBNM=w421-h240-k-no",
    "kgmid": "/g/11kzkl9p5c"
  },
  {
    "title": "Arnett Local Pharmacy & Compounding",
    "price": null,
    "categoryName": "Pharmacy",
    "address": "7120 Wyoming Blvd NE #6, Albuquerque, NM 87109, United States",
    "neighborhood": "North Wyoming",
    "street": "7120 Wyoming Blvd NE #6",
    "city": "Albuquerque",
    "postalCode": "87109",
    "state": "New Mexico",
    "countryCode": "US",
    "website": "http://www.samsregentrx.com/",
    "phone": "+1 505-346-0533",
    "phoneUnformatted": "+15053460533",
    "claimThisBusiness": false,
    "location": {
      "lat": 35.1607279,
      "lng": -106.5594317
    },
    "totalScore": 5,
    "permanentlyClosed": false,
    "temporarilyClosed": false,
    "placeId": "ChIJ1WfB8qF1IocRsRc7i6I84hM",
    "categories": [
      "Pharmacy"
    ],
    "fid": "0x872275a1f2c167d5:0x13e23ca28b3b17b1",
    "cid": "1432774300275513265",
    "reviewsCount": 45,
    "imagesCount": 6,
    "imageCategories": [],
    "scrapedAt": "2025-06-22T09:00:59.768Z",
    "googleFoodUrl": null,
    "hotelAds": [],
    "openingHours": [
      {
        "day": "Monday",
        "hours": "9 AM to 6 PM"
      },
      {
        "day": "Tuesday",
        "hours": "9 AM to 6 PM"
      },
      {
        "day": "Wednesday",
        "hours": "9 AM to 6 PM"
      },
      {
        "day": "Thursday",
        "hours": "9 AM to 6 PM"
      },
      {
        "day": "Friday",
        "hours": "9 AM to 6 PM"
      },
      {
        "day": "Saturday",
        "hours": "9 AM to 2 PM"
      },
      {
        "day": "Sunday",
        "hours": "Closed"
      }
    ],
    "peopleAlsoSearch": [],
    "placesTags": [],
    "reviewsTags": [],
    "additionalInfo": {
      "From the business": [
        {
          "Small Business": true
        }
      ],
      "Service options": [
        {
          "Delivery": true
        },
        {
          "In-store pick-up": true
        },
        {
          "On-site services": true
        },
        {
          "Same-day delivery": true
        }
      ],
      "Accessibility": [
        {
          "Wheelchair-accessible car park": true
        },
        {
          "Wheelchair-accessible entrance": true
        }
      ],
      "Planning": [
        {
          "Quick visit": true
        }
      ],
      "Payments": [
        {
          "Credit cards": true
        },
        {
          "Debit cards": true
        },
        {
          "NFC mobile payments": true
        },
        {
          "Credit cards": true
        }
      ]
    },
    "gasPrices": [],
    "url": "https://www.google.com/maps/search/?api=1&query=Arnett%20Local%20Pharmacy%20%26%20Compounding&query_place_id=ChIJ1WfB8qF1IocRsRc7i6I84hM",
    "searchPageUrl": "https://www.google.com/maps/search/independent%20pharmacy%20Albuquerque%20NM/@60.31354917823661,-173.20649518568482,12z?hl=en",
    "searchString": "independent pharmacy Albuquerque NM",
    "language": "en",
    "rank": 2,
    "isAdvertisement": false,
    "imageUrl": "https://lh3.googleusercontent.com/gps-cs-s/AC9h4nrSHC1s-8R3adTCEGIcX1ywmbGrzFE39_iFFuP5b2cwUwk0LQkyhfMs8C1PcaI4LyTMRnR5Gzd-3H0ot2qR-CQAeUNRrF6ZKSCP5JjLbcnn7ycPFclZaRnoC_Ozqe2rcv4i4CQB=w408-h544-k-no",
    "kgmid": "/g/1w9y1kf1"
  },
  {
    "title": "Menaul Compounding Pharmacy",
    "price": null,
    "categoryName": "Pharmacy",
    "address": "11417 Menaul Blvd NE, Albuquerque, NM 87112, United States",
    "neighborhood": "Enchanted Park",
    "street": "11417 Menaul Blvd NE",
    "city": "Albuquerque",
    "postalCode": "87112",
    "state": "New Mexico",
    "countryCode": "US",
    "website": "http://www.menaulcompoundingpharmacy.com/",
    "phone": "+1 505-291-1600",
    "phoneUnformatted": "+15052911600",
    "claimThisBusiness": false,
    "location": {
      "lat": 35.109029,
      "lng": -106.5133805
    },
    "totalScore": 4.4,
    "permanentlyClosed": false,
    "temporarilyClosed": false,
    "placeId": "ChIJtWD_JhigGIcRFVE0lTGMpmw",
    "categories": [
      "Pharmacy"
    ],
    "fid": "0x8718a01826ff60b5:0x6ca68c3195345115",
    "cid": "7829099146814705941",
    "reviewsCount": 394,
    "imagesCount": 33,
    "imageCategories": [],
    "scrapedAt": "2025-06-22T09:00:59.768Z",
    "googleFoodUrl": null,
    "hotelAds": [],
    "openingHours": [
      {
        "day": "Monday",
        "hours": "8:30 AM to 6:30 PM"
      },
      {
        "day": "Tuesday",
        "hours": "8:30 AM to 6:30 PM"
      },
      {
        "day": "Wednesday",
        "hours": "8:30 AM to 6:30 PM"
      },
      {
        "day": "Thursday",
        "hours": "8:30 AM to 6:30 PM"
      },
      {
        "day": "Friday",
        "hours": "8:30 AM to 6:30 PM"
      },
      {
        "day": "Saturday",
        "hours": "9 AM to 1 PM"
      },
      {
        "day": "Sunday",
        "hours": "Closed"
      }
    ],
    "peopleAlsoSearch": [],
    "placesTags": [],
    "reviewsTags": [],
    "additionalInfo": {
      "From the business": [
        {
          "Small Business": true
        }
      ],
      "Service options": [
        {
          "Delivery": true
        },
        {
          "In-store pick-up": true
        },
        {
          "On-site services": true
        }
      ],
      "Accessibility": [
        {
          "Wheelchair-accessible car park": true
        },
        {
          "Wheelchair-accessible entrance": true
        }
      ],
      "Payments": [
        {
          "Credit cards": true
        },
        {
          "Debit cards": true
        },
        {
          "NFC mobile payments": true
        },
        {
          "Credit cards": true
        }
      ]
    },
    "gasPrices": [],
    "url": "https://www.google.com/maps/search/?api=1&query=Menaul%20Compounding%20Pharmacy&query_place_id=ChIJtWD_JhigGIcRFVE0lTGMpmw",
    "searchPageUrl": "https://www.google.com/maps/search/independent%20pharmacy%20Albuquerque%20NM/@60.31354917823661,-173.20649518568482,12z?hl=en",
    "searchString": "independent pharmacy Albuquerque NM",
    "language": "en",
    "rank": 3,
    "isAdvertisement": false,
    "imageUrl": "https://lh3.googleusercontent.com/gps-cs-s/AC9h4nowg5VmVLk_2FgZfH5EN4q1cnYZziZDPOInB-O63rCHLaDu1MHtlfuaRQvVS9Owg8Qi2h7ByzhNziKPSJu1_D082KxbLoBTD2nzdb2PNAns6-jWtUQXnn_cZp_TD1gjmKPyIjcw=w426-h240-k-no",
    "kgmid": "/g/1txc7h9p"
  },
  {
    "title": "John's Pharmacy",
    "price": null,
    "categoryName": "Pharmacy",
    "address": "9134 Central Ave SE, Albuquerque, NM 87123, United States",
    "neighborhood": "Trumbull Village",
    "street": "9134 Central Ave SE",
    "city": "Albuquerque",
    "postalCode": "87123",
    "state": "New Mexico",
    "countryCode": "US",
    "website": "http://www.johnspharmacyabq.com/",
    "phone": "+1 505-299-6169",
    "phoneUnformatted": "+15052996169",
    "claimThisBusiness": false,
    "location": {
      "lat": 35.0730213,
      "lng": -106.5457603
    },
    "totalScore": 4.9,
    "permanentlyClosed": false,
    "temporarilyClosed": false,
    "placeId": "ChIJZwkQoyILIocRidur3i1DDPw",
    "categories": [
      "Pharmacy"
    ],
    "fid": "0x87220b22a3100967:0xfc0c432ddeabdb89",
    "cid": "18161965261566761865",
    "reviewsCount": 132,
    "imagesCount": 28,
    "imageCategories": [],
    "scrapedAt": "2025-06-22T09:00:59.768Z",
    "googleFoodUrl": null,
    "hotelAds": [],
    "openingHours": [
      {
        "day": "Monday",
        "hours": "9 AM to 6 PM"
      },
      {
        "day": "Tuesday",
        "hours": "9 AM to 6 PM"
      },
      {
        "day": "Wednesday",
        "hours": "9 AM to 6 PM"
      },
      {
        "day": "Thursday",
        "hours": "9 AM to 6 PM"
      },
      {
        "day": "Friday",
        "hours": "9 AM to 6 PM"
      },
      {
        "day": "Saturday",
        "hours": "9 AM to 12 PM"
      },
      {
        "day": "Sunday",
        "hours": "Closed"
      }
    ],
    "peopleAlsoSearch": [],
    "placesTags": [],
    "reviewsTags": [],
    "additionalInfo": {
      "From the business": [
        {
          "Small Business": true
        }
      ],
      "Service options": [
        {
          "Delivery": true
        },
        {
          "In-store pick-up": true
        },
        {
          "In-store shopping": true
        }
      ],
      "Accessibility": [
        {
          "Wheelchair-accessible car park": true
        },
        {
          "Wheelchair-accessible entrance": true
        }
      ],
      "Crowd": [
        {
          "LGBTQ+ friendly": true
        },
        {
          "Transgender safe space": true
        }
      ],
      "Planning": [
        {
          "Quick visit": true
        }
      ],
      "Payments": [
        {
          "Credit cards": true
        },
        {
          "Debit cards": true
        },
        {
          "NFC mobile payments": true
        },
        {
          "Credit cards": true
        }
      ]
    },
    "gasPrices": [],
    "url": "https://www.google.com/maps/search/?api=1&query=John's%20Pharmacy&query_place_id=ChIJZwkQoyILIocRidur3i1DDPw",
    "searchPageUrl": "https://www.google.com/maps/search/independent%20pharmacy%20Albuquerque%20NM/@60.31354917823661,-173.20649518568482,12z?hl=en",
    "searchString": "independent pharmacy Albuquerque NM",
    "language": "en",
    "rank": 4,
    "isAdvertisement": false,
    "imageUrl": "https://lh3.googleusercontent.com/p/AF1QipMwaicVol3nVrehIW7sv0B6Q6A4ofOujghkCNBc=w408-h408-k-no",
    "kgmid": "/g/11h6q_vs7p"
  },
  {
    "title": "Vintage Compounding Pharmacy",
    "price": null,
    "categoryName": "Pharmacy",
    "address": "9821 Montgomery Blvd NE A, Albuquerque, NM 87111, United States",
    "neighborhood": "Lagrima De Oro",
    "street": "9821 Montgomery Blvd NE A",
    "city": "Albuquerque",
    "postalCode": "87111",
    "state": "New Mexico",
    "countryCode": "US",
    "website": "https://vintagecompoundingrx.com/",
    "phone": "+1 505-200-9095",
    "phoneUnformatted": "+15052009095",
    "claimThisBusiness": false,
    "location": {
      "lat": 35.1311942,
      "lng": -106.5308671
    },
    "totalScore": 5,
    "permanentlyClosed": false,
    "temporarilyClosed": false,
    "placeId": "ChIJI7POIwKfGIcRNCwzl7TwDAI",
    "categories": [
      "Pharmacy"
    ],
    "fid": "0x87189f0223ceb323:0x20cf0b497332c34",
    "cid": "147757546217876532",
    "reviewsCount": 160,
    "imagesCount": 6,
    "imageCategories": [],
    "scrapedAt": "2025-06-22T09:00:59.768Z",
    "googleFoodUrl": null,
    "hotelAds": [],
    "openingHours": [
      {
        "day": "Monday",
        "hours": "9 AM to 6 PM"
      },
      {
        "day": "Tuesday",
        "hours": "9 AM to 6 PM"
      },
      {
        "day": "Wednesday",
        "hours": "9 AM to 6 PM"
      },
      {
        "day": "Thursday",
        "hours": "9 AM to 6 PM"
      },
      {
        "day": "Friday",
        "hours": "9 AM to 6 PM"
      },
      {
        "day": "Saturday",
        "hours": "9 AM to 2 PM"
      },
      {
        "day": "Sunday",
        "hours": "Closed"
      }
    ],
    "peopleAlsoSearch": [],
    "placesTags": [],
    "reviewsTags": [],
    "additionalInfo": {
      "From the business": [
        {
          "Small Business": true
        }
      ],
      "Service options": [
        {
          "Delivery": true
        },
        {
          "In-store pick-up": true
        },
        {
          "In-store shopping": true
        }
      ],
      "Accessibility": [
        {
          "Wheelchair-accessible car park": true
        },
        {
          "Wheelchair-accessible entrance": true
        }
      ],
      "Payments": [
        {
          "Credit cards": true
        },
        {
          "Debit cards": true
        },
        {
          "NFC mobile payments": true
        },
        {
          "Credit cards": true
        }
      ]
    },
    "gasPrices": [],
    "url": "https://www.google.com/maps/search/?api=1&query=Vintage%20Compounding%20Pharmacy&query_place_id=ChIJI7POIwKfGIcRNCwzl7TwDAI",
    "searchPageUrl": "https://www.google.com/maps/search/independent%20pharmacy%20Albuquerque%20NM/@60.31354917823661,-173.20649518568482,12z?hl=en",
    "searchString": "independent pharmacy Albuquerque NM",
    "language": "en",
    "rank": 5,
    "isAdvertisement": false,
    "imageUrl": "https://lh3.googleusercontent.com/p/AF1QipNIC5NgNFEnDxDT3k8urh57cMRLVQ2LskdgQ10x=w408-h241-k-no",
    "kgmid": "/g/11vd9y3_gj"
  },
  {
    "title": "FarmaKeio NM",
    "price": null,
    "categoryName": "Pharmacy",
    "address": "2100 Louisiana Blvd NE Suite 460, Albuquerque, NM 87110, United States",
    "neighborhood": "Uptown",
    "street": "2100 Louisiana Blvd NE Suite 460",
    "city": "Albuquerque",
    "postalCode": "87110",
    "state": "New Mexico",
    "countryCode": "US",
    "website": "http://www.abqdrug.com/?utm_source=google&utm_medium=local&utm_campaign=localmaps&utm_content=3213321",
    "phone": "+1 505-705-3540",
    "phoneUnformatted": "+15057053540",
    "claimThisBusiness": false,
    "location": {
      "lat": 35.0979656,
      "lng": -106.5640631
    },
    "totalScore": 4.4,
    "permanentlyClosed": false,
    "temporarilyClosed": false,
    "placeId": "ChIJ855hHb8MIocR4sKZfagYs04",
    "categories": [
      "Pharmacy",
      "Drug store"
    ],
    "fid": "0x87220cbf1d619ef3:0x4eb318a87d99c2e2",
    "cid": "5670903467730387682",
    "reviewsCount": 36,
    "imagesCount": 27,
    "imageCategories": [],
    "scrapedAt": "2025-06-22T09:00:59.768Z",
    "googleFoodUrl": null,
    "hotelAds": [],
    "openingHours": [
      {
        "day": "Monday",
        "hours": "9 AM to 5 PM"
      },
      {
        "day": "Tuesday",
        "hours": "9 AM to 5 PM"
      },
      {
        "day": "Wednesday",
        "hours": "9 AM to 5 PM"
      },
      {
        "day": "Thursday",
        "hours": "9 AM to 5 PM"
      },
      {
        "day": "Friday",
        "hours": "9 AM to 5 PM"
      },
      {
        "day": "Saturday",
        "hours": "Closed"
      },
      {
        "day": "Sunday",
        "hours": "Closed"
      }
    ],
    "additionalOpeningHours": {
      "Delivery": [
        {
          "day": "Monday",
          "hours": "Closed"
        },
        {
          "day": "Tuesday",
          "hours": "2–5 pm"
        },
        {
          "day": "Wednesday",
          "hours": "2–5 pm"
        },
        {
          "day": "Thursday",
          "hours": "2–5 pm"
        },
        {
          "day": "Friday",
          "hours": "2–5 pm"
        },
        {
          "day": "Saturday",
          "hours": "Closed"
        },
        {
          "day": "Sunday",
          "hours": "Closed"
        }
      ]
    },
    "peopleAlsoSearch": [],
    "placesTags": [],
    "reviewsTags": [],
    "additionalInfo": {
      "From the business": [
        {
          "Small Business": true
        }
      ],
      "Service options": [
        {
          "Kerbside pickup": true
        },
        {
          "Delivery": true
        },
        {
          "In-store shopping": true
        },
        {
          "On-site services": true
        },
        {
          "Same-day delivery": true
        },
        {
          "Spanish": true
        }
      ],
      "Accessibility": [
        {
          "Wheelchair-accessible car park": true
        },
        {
          "Wheelchair-accessible entrance": true
        }
      ],
      "Planning": [
        {
          "Quick visit": true
        }
      ],
      "Payments": [
        {
          "Cheques": true
        },
        {
          "Credit cards": true
        },
        {
          "Debit cards": true
        },
        {
          "NFC mobile payments": true
        },
        {
          "Credit cards": true
        }
      ]
    },
    "gasPrices": [],
    "url": "https://www.google.com/maps/search/?api=1&query=FarmaKeio%20NM&query_place_id=ChIJ855hHb8MIocR4sKZfagYs04",
    "searchPageUrl": "https://www.google.com/maps/search/independent%20pharmacy%20Albuquerque%20NM/@60.31354917823661,-173.20649518568482,12z?hl=en",
    "searchString": "independent pharmacy Albuquerque NM",
    "language": "en",
    "rank": 6,
    "isAdvertisement": false,
    "imageUrl": "https://lh3.googleusercontent.com/p/AF1QipOv5SgrBVf675-4lK3gWQrxx9jxxCvfMLsQsxS2=w408-h306-k-no",
    "kgmid": "/g/11f043984n"
  },
  {
    "title": "Contigo Compounding Pharmacy",
    "price": null,
    "categoryName": "Pharmacy",
    "address": "8300 Carmel Ave NE STE 601, Albuquerque, NM 87122, United States",
    "neighborhood": "Nor Este",
    "street": "8300 Carmel Ave NE STE 601",
    "city": "Albuquerque",
    "postalCode": "87122",
    "state": "New Mexico",
    "countryCode": "US",
    "website": "https://contigocompounding.com/",
    "phone": "+1 505-677-8842",
    "phoneUnformatted": "+15056778842",
    "claimThisBusiness": false,
    "location": {
      "lat": 35.1754756,
      "lng": -106.5523974
    },
    "totalScore": 4.9,
    "permanentlyClosed": false,
    "temporarilyClosed": false,
    "placeId": "ChIJlSyKzIV1IocR0unNo_7pceg",
    "categories": [
      "Pharmacy",
      "Health consultant",
      "Veterinary pharmacy"
    ],
    "fid": "0x87227585cc8a2c95:0xe871e9fea3cde9d2",
    "cid": "16749425769046731218",
    "reviewsCount": 438,
    "imagesCount": 6,
    "imageCategories": [],
    "scrapedAt": "2025-06-22T09:00:59.769Z",
    "googleFoodUrl": null,
    "hotelAds": [],
    "openingHours": [
      {
        "day": "Monday",
        "hours": "9 AM to 5 PM"
      },
      {
        "day": "Tuesday",
        "hours": "9 AM to 5 PM"
      },
      {
        "day": "Wednesday",
        "hours": "9 AM to 5 PM"
      },
      {
        "day": "Thursday",
        "hours": "9 AM to 5 PM"
      },
      {
        "day": "Friday",
        "hours": "9 AM to 5 PM"
      },
      {
        "day": "Saturday",
        "hours": "Closed"
      },
      {
        "day": "Sunday",
        "hours": "Closed"
      }
    ],
    "peopleAlsoSearch": [],
    "placesTags": [],
    "reviewsTags": [],
    "additionalInfo": {
      "From the business": [
        {
          "Small Business": true
        }
      ],
      "Service options": [
        {
          "Delivery": true
        },
        {
          "In-store pick-up": true
        }
      ],
      "Accessibility": [
        {
          "Wheelchair-accessible car park": true
        },
        {
          "Wheelchair-accessible entrance": true
        }
      ],
      "Payments": [
        {
          "Credit cards": true
        },
        {
          "Debit cards": true
        },
        {
          "Credit cards": true
        }
      ]
    },
    "gasPrices": [],
    "url": "https://www.google.com/maps/search/?api=1&query=Contigo%20Compounding%20Pharmacy&query_place_id=ChIJlSyKzIV1IocR0unNo_7pceg",
    "searchPageUrl": "https://www.google.com/maps/search/independent%20pharmacy%20Albuquerque%20NM/@60.31354917823661,-173.20649518568482,12z?hl=en",
    "searchString": "independent pharmacy Albuquerque NM",
    "language": "en",
    "rank": 7,
    "isAdvertisement": false,
    "imageUrl": "https://lh3.googleusercontent.com/p/AF1QipONKE7YRxuaF4OPcjRRhq19gZEOqJbE5MaTTlOL=w408-h306-k-no",
    "kgmid": "/g/11n8mkf_gd"
  },
  {
    "title": "Highland Pharmacy",
    "price": null,
    "categoryName": "Pharmacy",
    "address": "717 Encino Pl NE Ste 1, Albuquerque, NM 87102, United States",
    "neighborhood": "Valmonte Acres",
    "street": "717 Encino Pl NE Ste 1",
    "city": "Albuquerque",
    "postalCode": "87102",
    "state": "New Mexico",
    "countryCode": "US",
    "website": "http://www.highlandpharmacy.com/?utm_source=gmb&utm_medium=yext",
    "phone": "+1 505-243-3777",
    "phoneUnformatted": "+15052433777",
    "claimThisBusiness": false,
    "location": {
      "lat": 35.0887293,
      "lng": -106.6319628
    },
    "totalScore": 3.4,
    "permanentlyClosed": false,
    "temporarilyClosed": false,
    "placeId": "ChIJ727F36YMIocROdMijRvg9Po",
    "categories": [
      "Pharmacy"
    ],
    "fid": "0x87220ca6dfc56eef:0xfaf4e01b8d22d339",
    "cid": "18083324812735992633",
    "reviewsCount": 374,
    "imagesCount": 57,
    "imageCategories": [],
    "scrapedAt": "2025-06-22T09:00:59.769Z",
    "googleFoodUrl": null,
    "hotelAds": [],
    "openingHours": [
      {
        "day": "Monday",
        "hours": "9 AM to 6 PM"
      },
      {
        "day": "Tuesday",
        "hours": "9 AM to 6 PM"
      },
      {
        "day": "Wednesday",
        "hours": "9 AM to 6 PM"
      },
      {
        "day": "Thursday",
        "hours": "9 AM to 6 PM"
      },
      {
        "day": "Friday",
        "hours": "9 AM to 6 PM"
      },
      {
        "day": "Saturday",
        "hours": "9 AM to 12 PM"
      },
      {
        "day": "Sunday",
        "hours": "Closed"
      }
    ],
    "peopleAlsoSearch": [],
    "placesTags": [],
    "reviewsTags": [],
    "additionalInfo": {
      "From the business": [
        {
          "Small Business": true
        }
      ],
      "Service options": [
        {
          "Kerbside pickup": true
        },
        {
          "Delivery": true
        },
        {
          "Drive-through": true
        },
        {
          "In-store pick-up": true
        },
        {
          "In-store shopping": true
        },
        {
          "Same-day delivery": true
        },
        {
          "English": true
        }
      ],
      "Accessibility": [
        {
          "Wheelchair-accessible car park": true
        },
        {
          "Wheelchair-accessible entrance": true
        }
      ],
      "Crowd": [
        {
          "LGBTQ+ friendly": true
        },
        {
          "Transgender safe space": true
        }
      ],
      "Planning": [
        {
          "Quick visit": true
        }
      ],
      "Payments": [
        {
          "Credit cards": true
        },
        {
          "Debit cards": true
        },
        {
          "NFC mobile payments": true
        },
        {
          "Credit cards": true
        }
      ]
    },
    "gasPrices": [],
    "url": "https://www.google.com/maps/search/?api=1&query=Highland%20Pharmacy&query_place_id=ChIJ727F36YMIocROdMijRvg9Po",
    "searchPageUrl": "https://www.google.com/maps/search/independent%20pharmacy%20Albuquerque%20NM/@60.31354917823661,-173.20649518568482,12z?hl=en",
    "searchString": "independent pharmacy Albuquerque NM",
    "language": "en",
    "rank": 8,
    "isAdvertisement": false,
    "imageUrl": "https://lh3.googleusercontent.com/gps-cs-s/AC9h4nrU3yIWcgwcovKriSKZRZ4WMDIb7g6dz-4H1anJJzdoQHtv2a1vW4wJdvF6L8aWdlKBzrbXtLEMnRRKJWEqFtGa3oEiMyGbbq_PJppXaMYRmjXJNvgw_7-zzN70yrhWgDOY-zxDpA=w408-h306-k-no",
    "kgmid": "/g/1td42yyl"
  },
  {
    "title": "Vida Pharmacy",
    "price": null,
    "categoryName": "Pharmacy",
    "address": "8500 Jefferson St NE STE D, Albuquerque, NM 87113, United States",
    "neighborhood": "Loop Industrial District",
    "street": "8500 Jefferson St NE STE D",
    "city": "Albuquerque",
    "postalCode": "87113",
    "state": "New Mexico",
    "countryCode": "US",
    "website": "https://www.vidapharmacy.com/",
    "phone": "+1 505-856-1660",
    "phoneUnformatted": "+15058561660",
    "claimThisBusiness": true,
    "location": {
      "lat": 35.1803932,
      "lng": -106.5912353
    },
    "totalScore": 3.8,
    "permanentlyClosed": false,
    "temporarilyClosed": false,
    "placeId": "ChIJy_Zk-zB0IocRfpFrCv5kWcc",
    "categories": [
      "Pharmacy"
    ],
    "fid": "0x87227430fb64f6cb:0xc75964fe0a6b917e",
    "cid": "14364623528734200190",
    "reviewsCount": 18,
    "imagesCount": 1,
    "imageCategories": [],
    "scrapedAt": "2025-06-22T09:00:59.769Z",
    "googleFoodUrl": null,
    "hotelAds": [],
    "openingHours": [
      {
        "day": "Monday",
        "hours": "8:30 AM to 6 PM"
      },
      {
        "day": "Tuesday",
        "hours": "8:30 AM to 6 PM"
      },
      {
        "day": "Wednesday",
        "hours": "8:30 AM to 6 PM"
      },
      {
        "day": "Thursday",
        "hours": "8:30 AM to 6 PM"
      },
      {
        "day": "Friday",
        "hours": "8:30 AM to 6 PM"
      },
      {
        "day": "Saturday",
        "hours": "Closed"
      },
      {
        "day": "Sunday",
        "hours": "Closed"
      }
    ],
    "peopleAlsoSearch": [],
    "placesTags": [],
    "reviewsTags": [],
    "additionalInfo": {
      "Service options": [
        {
          "Delivery": true
        },
        {
          "Same-day delivery": true
        }
      ],
      "Accessibility": [
        {
          "Wheelchair-accessible car park": true
        },
        {
          "Wheelchair-accessible entrance": true
        }
      ],
      "Payments": [
        {
          "Credit cards": true
        },
        {
          "Debit cards": true
        },
        {
          "Credit cards": true
        }
      ]
    },
    "gasPrices": [],
    "url": "https://www.google.com/maps/search/?api=1&query=Vida%20Pharmacy&query_place_id=ChIJy_Zk-zB0IocRfpFrCv5kWcc",
    "searchPageUrl": "https://www.google.com/maps/search/independent%20pharmacy%20Albuquerque%20NM/@60.31354917823661,-173.20649518568482,12z?hl=en",
    "searchString": "independent pharmacy Albuquerque NM",
    "language": "en",
    "rank": 9,
    "isAdvertisement": false,
    "imageUrl": "https://streetviewpixels-pa.googleapis.com/v1/thumbnail?panoid=AKUE4dhi70IRCgOEr4akRg&cb_client=search.gws-prod.gps&w=408&h=240&yaw=39.51811&pitch=0&thumbfov=100",
    "kgmid": "/g/1tywydmr"
  },
  {
    "title": "Phil's Pharmacy",
    "price": null,
    "categoryName": "Pharmacy",
    "address": "5510 Lomas Blvd NE, Albuquerque, NM 87110, United States",
    "neighborhood": "International District",
    "street": "5510 Lomas Blvd NE",
    "city": "Albuquerque",
    "postalCode": "87110",
    "state": "New Mexico",
    "countryCode": "US",
    "website": "https://www.philspharmacynm.com/",
    "phone": "+1 505-265-6868",
    "phoneUnformatted": "+15052656868",
    "claimThisBusiness": false,
    "location": {
      "lat": 35.087154,
      "lng": -106.5838097
    },
    "totalScore": 4.4,
    "permanentlyClosed": false,
    "temporarilyClosed": false,
    "placeId": "ChIJnQ0HlR8LIocRFxyOL6T9UA0",
    "categories": [
      "Pharmacy"
    ],
    "fid": "0x87220b1f95070d9d:0xd50fda42f8e1c17",
    "cid": "959545602244221975",
    "reviewsCount": 42,
    "imagesCount": 2,
    "imageCategories": [],
    "scrapedAt": "2025-06-22T09:00:59.769Z",
    "googleFoodUrl": null,
    "hotelAds": [],
    "openingHours": [
      {
        "day": "Monday",
        "hours": "8 AM to 6 PM"
      },
      {
        "day": "Tuesday",
        "hours": "8 AM to 6 PM"
      },
      {
        "day": "Wednesday",
        "hours": "8 AM to 6 PM"
      },
      {
        "day": "Thursday",
        "hours": "8 AM to 6 PM"
      },
      {
        "day": "Friday",
        "hours": "8 AM to 6 PM"
      },
      {
        "day": "Saturday",
        "hours": "9 AM to 12 PM"
      },
      {
        "day": "Sunday",
        "hours": "Closed"
      }
    ],
    "peopleAlsoSearch": [],
    "placesTags": [],
    "reviewsTags": [],
    "additionalInfo": {
      "Service options": [
        {
          "Delivery": true
        },
        {
          "Drive-through": true
        },
        {
          "Same-day delivery": true
        }
      ],
      "Accessibility": [
        {
          "Wheelchair-accessible car park": true
        },
        {
          "Wheelchair-accessible entrance": true
        }
      ],
      "Planning": [
        {
          "Quick visit": true
        }
      ],
      "Payments": [
        {
          "Credit cards": true
        },
        {
          "Debit cards": true
        },
        {
          "NFC mobile payments": true
        },
        {
          "Credit cards": true
        }
      ]
    },
    "gasPrices": [],
    "url": "https://www.google.com/maps/search/?api=1&query=Phil's%20Pharmacy&query_place_id=ChIJnQ0HlR8LIocRFxyOL6T9UA0",
    "searchPageUrl": "https://www.google.com/maps/search/independent%20pharmacy%20Albuquerque%20NM/@60.31354917823661,-173.20649518568482,12z?hl=en",
    "searchString": "independent pharmacy Albuquerque NM",
    "language": "en",
    "rank": 10,
    "isAdvertisement": false,
    "imageUrl": "https://lh3.googleusercontent.com/gps-cs-s/AC9h4npFuOs0sVN1KHAllj8uQgEospk2IO22TjbwhPiWWxO1UN6wRHt8O5HdflD2PTB1ANUstI-eMladN4ZcItuV7WXbDNC_YvB9zf479qvga0ziT8pKHlA8PdnG6m5T8yddoMNqRDhW=w408-h305-k-no",
    "kgmid": "/g/1tdbfwtv"
  },
  {
    "title": "Lifestyle Compounding",
    "price": null,
    "categoryName": "Pharmacy",
    "address": "3840 Commons Ave NE, Albuquerque, NM 87109, United States",
    "neighborhood": "Jefferson Commons",
    "street": "3840 Commons Ave NE",
    "city": "Albuquerque",
    "postalCode": "87109",
    "state": "New Mexico",
    "countryCode": "US",
    "website": "https://www.lifestylecompounding.com/",
    "phone": "+1 505-609-5433",
    "phoneUnformatted": "+15056095433",
    "claimThisBusiness": false,
    "location": {
      "lat": 35.1432118,
      "lng": -106.6014666
    },
    "totalScore": 4.4,
    "permanentlyClosed": false,
    "temporarilyClosed": false,
    "placeId": "ChIJtTAzBVh1IocRJYBNBMFenhs",
    "categories": [
      "Pharmacy"
    ],
    "fid": "0x87227558053330b5:0x1b9e5ec1044d8025",
    "cid": "1990132268438224933",
    "reviewsCount": 7,
    "imagesCount": 11,
    "imageCategories": [],
    "scrapedAt": "2025-06-22T09:00:59.769Z",
    "googleFoodUrl": null,
    "hotelAds": [],
    "openingHours": [
      {
        "day": "Monday",
        "hours": "9 AM to 6 PM"
      },
      {
        "day": "Tuesday",
        "hours": "9 AM to 6 PM"
      },
      {
        "day": "Wednesday",
        "hours": "9 AM to 6 PM"
      },
      {
        "day": "Thursday",
        "hours": "9 AM to 6 PM"
      },
      {
        "day": "Friday",
        "hours": "9 AM to 6 PM"
      },
      {
        "day": "Saturday",
        "hours": "Closed"
      },
      {
        "day": "Sunday",
        "hours": "Closed"
      }
    ],
    "peopleAlsoSearch": [],
    "placesTags": [],
    "reviewsTags": [],
    "additionalInfo": {
      "Service options": [
        {
          "Delivery": true
        },
        {
          "In-store pick-up": true
        },
        {
          "In-store shopping": true
        }
      ],
      "Accessibility": [
        {
          "Wheelchair-accessible car park": true
        },
        {
          "Wheelchair-accessible entrance": true
        }
      ],
      "Payments": [
        {
          "Credit cards": true
        }
      ]
    },
    "gasPrices": [],
    "url": "https://www.google.com/maps/search/?api=1&query=Lifestyle%20Compounding&query_place_id=ChIJtTAzBVh1IocRJYBNBMFenhs",
    "searchPageUrl": "https://www.google.com/maps/search/independent%20pharmacy%20Albuquerque%20NM/@60.31354917823661,-173.20649518568482,12z?hl=en",
    "searchString": "independent pharmacy Albuquerque NM",
    "language": "en",
    "rank": 11,
    "isAdvertisement": false,
    "imageUrl": "https://lh3.googleusercontent.com/gps-cs-s/AC9h4nr66VXp2yG7QhiRYl2lPhxHwyEdweytNObV6FtR3Qs5Voz7lA2kG7pI1x9L1c3Wg0UklQ2RteJQjQADvd_cBAhNZRQYLlvl34OU2ip16LQadAGQMwHtTXiLnccEYhvAGaNwPRpvpA=w426-h240-k-no",
    "kgmid": "/g/11vr1w55fc"
  },
  {
    "title": "NewScripts Pharmacy",
    "price": null,
    "categoryName": "Pharmacy",
    "address": "3841 Midway Pl NE, Albuquerque, NM 87109, United States",
    "neighborhood": "Midway Business Park",
    "street": "3841 Midway Pl NE",
    "city": "Albuquerque",
    "postalCode": "87109",
    "state": "New Mexico",
    "countryCode": "US",
    "website": "http://www.newscriptspharmacy.com/",
    "phone": "+1 505-358-7155",
    "phoneUnformatted": "+15053587155",
    "claimThisBusiness": true,
    "location": {
      "lat": 35.1503216,
      "lng": -106.6010772
    },
    "totalScore": 5,
    "permanentlyClosed": false,
    "temporarilyClosed": false,
    "placeId": "ChIJ6WyaX4xzIocRMmRZJ71-JwE",
    "categories": [
      "Pharmacy"
    ],
    "fid": "0x8722738c5f9a6ce9:0x1277ebd27596432",
    "cid": "83174469003732018",
    "reviewsCount": 2,
    "imagesCount": 1,
    "imageCategories": [],
    "scrapedAt": "2025-06-22T09:00:59.769Z",
    "googleFoodUrl": null,
    "hotelAds": [],
    "openingHours": [
      {
        "day": "Monday",
        "hours": "9 AM to 5 PM"
      },
      {
        "day": "Tuesday",
        "hours": "9 AM to 5 PM"
      },
      {
        "day": "Wednesday",
        "hours": "9 AM to 5 PM"
      },
      {
        "day": "Thursday",
        "hours": "9 AM to 5 PM"
      },
      {
        "day": "Friday",
        "hours": "9 AM to 5 PM"
      },
      {
        "day": "Saturday",
        "hours": "Closed"
      },
      {
        "day": "Sunday",
        "hours": "Closed"
      }
    ],
    "peopleAlsoSearch": [],
    "placesTags": [],
    "reviewsTags": [],
    "additionalInfo": {
      "Service options": [
        {
          "Delivery": true
        },
        {
          "Same-day delivery": true
        }
      ],
      "Accessibility": [
        {
          "Wheelchair-accessible car park": true
        },
        {
          "Wheelchair-accessible entrance": true
        }
      ],
      "Payments": [
        {
          "Credit cards": true
        },
        {
          "Debit cards": true
        },
        {
          "Credit cards": true
        }
      ]
    },
    "gasPrices": [],
    "url": "https://www.google.com/maps/search/?api=1&query=NewScripts%20Pharmacy&query_place_id=ChIJ6WyaX4xzIocRMmRZJ71-JwE",
    "searchPageUrl": "https://www.google.com/maps/search/independent%20pharmacy%20Albuquerque%20NM/@60.31354917823661,-173.20649518568482,12z?hl=en",
    "searchString": "independent pharmacy Albuquerque NM",
    "language": "en",
    "rank": 12,
    "isAdvertisement": false,
    "imageUrl": "https://streetviewpixels-pa.googleapis.com/v1/thumbnail?panoid=qUuzMQW7c31fB-3aOGWdsg&cb_client=search.gws-prod.gps&w=408&h=240&yaw=23.146902&pitch=0&thumbfov=100",
    "kgmid": "/g/11f1whddnb"
  },
  {
    "title": "Legends Pharmacy III",
    "price": null,
    "categoryName": "Pharmacy",
    "address": "500 Louisiana Blvd NE, Albuquerque, NM 87108, United States",
    "neighborhood": "International District",
    "street": "500 Louisiana Blvd NE",
    "city": "Albuquerque",
    "postalCode": "87108",
    "state": "New Mexico",
    "countryCode": "US",
    "website": "https://abqpharmacy.com/",
    "phone": "+1 505-262-5728",
    "phoneUnformatted": "+15052625728",
    "claimThisBusiness": true,
    "location": {
      "lat": 35.0840253,
      "lng": -106.567647
    },
    "totalScore": 3.9,
    "permanentlyClosed": false,
    "temporarilyClosed": false,
    "placeId": "ChIJhcdbIu8KIocRH9GiXWDM7FI",
    "categories": [
      "Pharmacy"
    ],
    "fid": "0x87220aef225bc785:0x52eccc605da2d11f",
    "cid": "5975375519873683743",
    "reviewsCount": 7,
    "imagesCount": 1,
    "imageCategories": [],
    "scrapedAt": "2025-06-22T09:00:59.770Z",
    "googleFoodUrl": null,
    "hotelAds": [],
    "openingHours": [
      {
        "day": "Monday",
        "hours": "9 AM to 5 PM"
      },
      {
        "day": "Tuesday",
        "hours": "9 AM to 5 PM"
      },
      {
        "day": "Wednesday",
        "hours": "9 AM to 5 PM"
      },
      {
        "day": "Thursday",
        "hours": "9 AM to 5 PM"
      },
      {
        "day": "Friday",
        "hours": "9 AM to 5 PM"
      },
      {
        "day": "Saturday",
        "hours": "Closed"
      },
      {
        "day": "Sunday",
        "hours": "Closed"
      }
    ],
    "peopleAlsoSearch": [],
    "placesTags": [],
    "reviewsTags": [],
    "additionalInfo": {
      "Accessibility": [
        {
          "Wheelchair-accessible car park": true
        },
        {
          "Wheelchair-accessible entrance": true
        }
      ],
      "Payments": [
        {
          "Credit cards": true
        },
        {
          "Debit cards": true
        },
        {
          "Credit cards": true
        }
      ]
    },
    "gasPrices": [],
    "url": "https://www.google.com/maps/search/?api=1&query=Legends%20Pharmacy%20III&query_place_id=ChIJhcdbIu8KIocRH9GiXWDM7FI",
    "searchPageUrl": "https://www.google.com/maps/search/independent%20pharmacy%20Albuquerque%20NM/@60.31354917823661,-173.20649518568482,12z?hl=en",
    "searchString": "independent pharmacy Albuquerque NM",
    "language": "en",
    "rank": 13,
    "isAdvertisement": false,
    "imageUrl": "https://streetviewpixels-pa.googleapis.com/v1/thumbnail?panoid=UJxWvdkfJRYEOZWB9uuPfQ&cb_client=search.gws-prod.gps&w=408&h=240&yaw=39.83773&pitch=0&thumbfov=100",
    "kgmid": "/g/11b5_0vkfs"
  },
  {
    "title": "Pharmacy - Best Buy Drugs Drugstore",
    "price": null,
    "categoryName": "Pharmacy",
    "address": "1445 Wyoming Blvd NE, Albuquerque, NM 87112, United States",
    "neighborhood": "Snow Heights",
    "street": "1445 Wyoming Blvd NE",
    "city": "Albuquerque",
    "postalCode": "87112",
    "state": "New Mexico",
    "countryCode": "US",
    "website": "http://bestbuydrugs.net/",
    "phone": "+1 505-299-4496",
    "phoneUnformatted": "+15052994496",
    "claimThisBusiness": false,
    "location": {
      "lat": 35.096692,
      "lng": -106.55113
    },
    "totalScore": 4,
    "permanentlyClosed": false,
    "temporarilyClosed": false,
    "placeId": "ChIJHdreRrwKIocRdOWmjSMdM5A",
    "categories": [
      "Pharmacy"
    ],
    "fid": "0x87220abc46deda1d:0x90331d238da6e574",
    "cid": "10390680803811452276",
    "reviewsCount": 54,
    "imagesCount": 17,
    "imageCategories": [],
    "scrapedAt": "2025-06-22T09:00:59.770Z",
    "googleFoodUrl": null,
    "hotelAds": [],
    "openingHours": [
      {
        "day": "Monday",
        "hours": "9 AM to 6 PM"
      },
      {
        "day": "Tuesday",
        "hours": "9 AM to 6 PM"
      },
      {
        "day": "Wednesday",
        "hours": "9 AM to 6 PM"
      },
      {
        "day": "Thursday",
        "hours": "9 AM to 6 PM"
      },
      {
        "day": "Friday",
        "hours": "9 AM to 6 PM"
      },
      {
        "day": "Saturday",
        "hours": "9 AM to 1 PM"
      },
      {
        "day": "Sunday",
        "hours": "Closed"
      }
    ],
    "peopleAlsoSearch": [],
    "placesTags": [],
    "reviewsTags": [],
    "additionalInfo": {
      "Service options": [
        {
          "Delivery": true
        },
        {
          "In-store pick-up": true
        }
      ],
      "Accessibility": [
        {
          "Wheelchair-accessible car park": true
        },
        {
          "Wheelchair-accessible entrance": true
        }
      ],
      "Planning": [
        {
          "Quick visit": true
        }
      ],
      "Payments": [
        {
          "Credit cards": true
        },
        {
          "Debit cards": true
        },
        {
          "Credit cards": true
        }
      ]
    },
    "gasPrices": [],
    "url": "https://www.google.com/maps/search/?api=1&query=Pharmacy%20-%20Best%20Buy%20Drugs%20Drugstore&query_place_id=ChIJHdreRrwKIocRdOWmjSMdM5A",
    "searchPageUrl": "https://www.google.com/maps/search/independent%20pharmacy%20Albuquerque%20NM/@60.31354917823661,-173.20649518568482,12z?hl=en",
    "searchString": "independent pharmacy Albuquerque NM",
    "language": "en",
    "rank": 14,
    "isAdvertisement": false,
    "imageUrl": "https://lh3.googleusercontent.com/gps-cs-s/AC9h4nq1UTiSD0CeC9dYCQJW-ZKYZVRENXxGXn9jX86AIUS6doeQuruuAef0NJAhrzfHtfd6oYjy1KG8c-ipCnA5Gc6GPLc-tvvA6TKb3y-iJFD2GRNd3d1LPmyOXwG89CQ_tdJzuIK57g=w408-h264-k-no",
    "kgmid": "/g/1ts1n2ky"
  },
  {
    "title": "Duran Central Pharmacy",
    "description": "Bustling eatery sharing a space with a vintage pharmacy serves hand-rolled tortillas, tacos & more.",
    "price": "$",
    "categoryName": "Pharmacy",
    "address": "1815 Central Ave NW, Albuquerque, NM 87104, United States",
    "neighborhood": "Downtown",
    "street": "1815 Central Ave NW",
    "city": "Albuquerque",
    "postalCode": "87104",
    "state": "New Mexico",
    "countryCode": "US",
    "website": "http://www.duransrx.com/",
    "phone": "+1 505-247-4141",
    "phoneUnformatted": "+15052474141",
    "claimThisBusiness": false,
    "location": {
      "lat": 35.0926756,
      "lng": -106.667045
    },
    "totalScore": 4.4,
    "permanentlyClosed": false,
    "temporarilyClosed": false,
    "placeId": "ChIJJV4lh9EMIocR-E07F3TdfnI",
    "categories": [
      "Pharmacy",
      "Drug store",
      "Gift shop",
      "Restaurant"
    ],
    "fid": "0x87220cd187255e25:0x727edd74173b4df8",
    "cid": "8250275058065034744",
    "reviewsCount": 550,
    "imagesCount": 476,
    "imageCategories": [],
    "scrapedAt": "2025-06-22T09:00:59.770Z",
    "googleFoodUrl": null,
    "hotelAds": [],
    "openingHours": [
      {
        "day": "Monday",
        "hours": "9 AM to 4 PM"
      },
      {
        "day": "Tuesday",
        "hours": "9 AM to 4 PM"
      },
      {
        "day": "Wednesday",
        "hours": "9 AM to 6 PM"
      },
      {
        "day": "Thursday",
        "hours": "9 AM to 6 PM"
      },
      {
        "day": "Friday",
        "hours": "9 AM to 6 PM"
      },
      {
        "day": "Saturday",
        "hours": "9 AM to 4 PM"
      },
      {
        "day": "Sunday",
        "hours": "9 AM to 4 PM"
      }
    ],
    "peopleAlsoSearch": [],
    "placesTags": [],
    "reviewsTags": [],
    "additionalInfo": {
      "From the business": [
        {
          "Identifies as women-owned": true
        },
        {
          "Small Business": true
        }
      ],
      "Service options": [
        {
          "Kerbside pickup": true
        },
        {
          "Delivery": true
        },
        {
          "In-store pick-up": true
        },
        {
          "In-store shopping": true
        },
        {
          "On-site services": true
        },
        {
          "English": true
        }
      ],
      "Accessibility": [
        {
          "Wheelchair-accessible car park": true
        },
        {
          "Wheelchair-accessible entrance": true
        },
        {
          "Wheelchair-accessible seating": true
        },
        {
          "Wheelchair-accessible toilet": true
        },
        {
          "Assistive hearing loop": false
        }
      ],
      "Amenities": [
        {
          "Gender-neutral toilets": true
        },
        {
          "Wi-Fi": true
        },
        {
          "Free Wi-Fi": true
        }
      ],
      "Crowd": [
        {
          "LGBTQ+ friendly": true
        },
        {
          "Transgender safe space": true
        }
      ],
      "Planning": [
        {
          "Quick visit": true
        }
      ],
      "Payments": [
        {
          "Credit cards": true
        },
        {
          "Debit cards": true
        },
        {
          "NFC mobile payments": true
        },
        {
          "Credit cards": true
        }
      ],
      "Parking": [
        {
          "Free of charge street parking": true
        },
        {
          "Free parking lot": true
        }
      ]
    },
    "gasPrices": [],
    "url": "https://www.google.com/maps/search/?api=1&query=Duran%20Central%20Pharmacy&query_place_id=ChIJJV4lh9EMIocR-E07F3TdfnI",
    "searchPageUrl": "https://www.google.com/maps/search/independent%20pharmacy%20Albuquerque%20NM/@60.31354917823661,-173.20649518568482,12z?hl=en",
    "searchString": "independent pharmacy Albuquerque NM",
    "language": "en",
    "rank": 15,
    "isAdvertisement": false,
    "imageUrl": "https://lh3.googleusercontent.com/gps-cs-s/AC9h4nrpcEpYrTP1qKgVzWJehyZyBhHyxF3uNfvir-X6hXXSNPLJKpXAYmkEkLXYpIJKxmxUo8eU2ztFNmdf57-J2KZTcCkEamefxpQx27yhM_Bwx4hCa-TaAmK1PMsRO3pktEsphJmE=w408-h306-k-no",
    "kgmid": "/g/1wt3nwny"
  },
  {
    "title": "Olive Tree Compounding Pharmacy",
    "price": null,
    "categoryName": "Pharmacy",
    "address": "1713 Wellspring Ave SE, Rio Rancho, NM 87124, United States",
    "neighborhood": "Unser Gateway",
    "street": "1713 Wellspring Ave SE",
    "city": "Rio Rancho",
    "postalCode": "87124",
    "state": "New Mexico",
    "countryCode": "US",
    "website": "http://olivetreecompounding.com/",
    "phone": "+1 505-738-3328",
    "phoneUnformatted": "+15057383328",
    "claimThisBusiness": false,
    "location": {
      "lat": 35.2240886,
      "lng": -106.7018624
    },
    "totalScore": 4.8,
    "permanentlyClosed": false,
    "temporarilyClosed": false,
    "placeId": "ChIJIxRfqEtwIocRSw4xs7slL9k",
    "categories": [
      "Pharmacy"
    ],
    "fid": "0x8722704ba85f1423:0xd92f25bbb3310e4b",
    "cid": "15649768718231211595",
    "reviewsCount": 68,
    "imagesCount": 21,
    "imageCategories": [],
    "scrapedAt": "2025-06-22T09:00:59.770Z",
    "googleFoodUrl": null,
    "hotelAds": [],
    "openingHours": [
      {
        "day": "Monday",
        "hours": "9 AM to 6 PM"
      },
      {
        "day": "Tuesday",
        "hours": "9 AM to 6 PM"
      },
      {
        "day": "Wednesday",
        "hours": "9 AM to 6 PM"
      },
      {
        "day": "Thursday",
        "hours": "9 AM to 6 PM"
      },
      {
        "day": "Friday",
        "hours": "9 AM to 6 PM"
      },
      {
        "day": "Saturday",
        "hours": "Closed"
      },
      {
        "day": "Sunday",
        "hours": "Closed"
      }
    ],
    "peopleAlsoSearch": [],
    "placesTags": [],
    "reviewsTags": [],
    "additionalInfo": {
      "From the business": [
        {
          "Small Business": true
        }
      ],
      "Service options": [
        {
          "Delivery": true
        },
        {
          "Same-day delivery": true
        }
      ],
      "Accessibility": [
        {
          "Wheelchair-accessible car park": true
        },
        {
          "Wheelchair-accessible entrance": true
        },
        {
          "Wheelchair-accessible seating": true
        },
        {
          "Wheelchair-accessible toilet": true
        }
      ],
      "Amenities": [
        {
          "Gender-neutral toilets": true
        },
        {
          "Wi-Fi": true
        },
        {
          "Free Wi-Fi": true
        }
      ],
      "Crowd": [
        {
          "LGBTQ+ friendly": true
        },
        {
          "Transgender safe space": true
        }
      ],
      "Payments": [
        {
          "Credit cards": true
        },
        {
          "Debit cards": true
        },
        {
          "NFC mobile payments": true
        }
      ],
      "Parking": [
        {
          "Free parking lot": true
        },
        {
          "On-site parking": true
        }
      ]
    },
    "gasPrices": [],
    "url": "https://www.google.com/maps/search/?api=1&query=Olive%20Tree%20Compounding%20Pharmacy&query_place_id=ChIJIxRfqEtwIocRSw4xs7slL9k",
    "searchPageUrl": "https://www.google.com/maps/search/independent%20pharmacy%20Albuquerque%20NM/@60.31354917823661,-173.20649518568482,12z?hl=en",
    "searchString": "independent pharmacy Albuquerque NM",
    "language": "en",
    "rank": 16,
    "isAdvertisement": false,
    "imageUrl": "https://lh3.googleusercontent.com/p/AF1QipMOS9ytxU7t1W7vwgc7yGi5bdXHFiSxgai2nn_s=w408-h306-k-no",
    "kgmid": "/g/11c6cypmm2"
  },
  {
    "title": "CVS Pharmacy",
    "price": null,
    "categoryName": "Pharmacy",
    "address": "6100 Paseo Del Norte NE, Albuquerque, NM 87113, United States",
    "neighborhood": null,
    "street": "6100 Paseo Del Norte NE",
    "city": "Albuquerque",
    "postalCode": "87113",
    "state": "New Mexico",
    "countryCode": "US",
    "website": "https://www.cvs.com/store-locator/albuquerque-nm-pharmacies/6100-paseo-del-norte-ne-albuquerque-nm-87113/storeid=17124?WT.mc_id=LS_GOOGLE_RX_17124",
    "phone": "+1 505-346-0136",
    "phoneUnformatted": "+15053460136",
    "claimThisBusiness": false,
    "location": {
      "lat": 35.1721695,
      "lng": -106.5818934
    },
    "totalScore": 4,
    "permanentlyClosed": false,
    "temporarilyClosed": false,
    "placeId": "ChIJLdp-y0p0IocRwM292dLzwj0",
    "categories": [
      "Pharmacy"
    ],
    "fid": "0x8722744acb7eda2d:0x3dc2f3d2d9bdcdc0",
    "cid": "4450387468717247936",
    "reviewsCount": 26,
    "imagesCount": 5,
    "imageCategories": [],
    "scrapedAt": "2025-06-22T09:00:59.770Z",
    "googleFoodUrl": null,
    "hotelAds": [],
    "openingHours": [
      {
        "day": "Monday",
        "hours": "9 AM to 1:30 PM, 2 to 7 PM"
      },
      {
        "day": "Tuesday",
        "hours": "9 AM to 1:30 PM, 2 to 7 PM"
      },
      {
        "day": "Wednesday",
        "hours": "9 AM to 1:30 PM, 2 to 7 PM"
      },
      {
        "day": "Thursday",
        "hours": "9 AM to 1:30 PM, 2 to 7 PM"
      },
      {
        "day": "Friday",
        "hours": "9 AM to 1:30 PM, 2 to 7 PM"
      },
      {
        "day": "Saturday",
        "hours": "9 AM to 1:30 PM, 2 to 5 PM"
      },
      {
        "day": "Sunday",
        "hours": "11 AM to 1:30 PM, 2 to 5 PM"
      }
    ],
    "peopleAlsoSearch": [],
    "placesTags": [],
    "reviewsTags": [],
    "additionalInfo": {
      "Service options": [
        {
          "Delivery": true
        },
        {
          "In-store shopping": true
        },
        {
          "On-site services": true
        }
      ],
      "Accessibility": [
        {
          "Wheelchair-accessible car park": true
        },
        {
          "Wheelchair-accessible entrance": true
        }
      ],
      "Offerings": [
        {
          "Naloxone": true
        }
      ],
      "Crowd": [
        {
          "LGBTQ+ friendly": true
        },
        {
          "Transgender safe space": true
        }
      ],
      "Planning": [
        {
          "Quick visit": true
        }
      ],
      "Payments": [
        {
          "Credit cards": true
        },
        {
          "Debit cards": true
        },
        {
          "Credit cards": true
        }
      ]
    },
    "gasPrices": [],
    "url": "https://www.google.com/maps/search/?api=1&query=CVS%20Pharmacy&query_place_id=ChIJLdp-y0p0IocRwM292dLzwj0",
    "searchPageUrl": "https://www.google.com/maps/search/independent%20pharmacy%20Albuquerque%20NM/@60.31354917823661,-173.20649518568482,12z?hl=en",
    "searchString": "independent pharmacy Albuquerque NM",
    "language": "en",
    "rank": 17,
    "isAdvertisement": false,
    "imageUrl": "https://lh3.googleusercontent.com/p/AF1QipNneJaOKfyQMTLgYJ5bVaC-wlvLUzKM6rCq1EGy=w408-h272-k-no",
    "kgmid": "/g/1tgcsbm1"
  },
  {
    "title": "Rx Innovations",
    "price": null,
    "categoryName": "Pharmacy",
    "address": "7209 Jefferson St NE, Albuquerque, NM 87109, United States",
    "neighborhood": "Alameda",
    "street": "7209 Jefferson St NE",
    "city": "Albuquerque",
    "postalCode": "87109",
    "state": "New Mexico",
    "countryCode": "US",
    "website": "http://www.rxinnovations.net/",
    "phone": "+1 505-881-4601",
    "phoneUnformatted": "+15058814601",
    "claimThisBusiness": false,
    "location": {
      "lat": 35.1623278,
      "lng": -106.5938119
    },
    "totalScore": 4.2,
    "permanentlyClosed": false,
    "temporarilyClosed": false,
    "placeId": "ChIJDajol0R0IocRVh6BVB-QoYg",
    "categories": [
      "Pharmacy"
    ],
    "fid": "0x8722744497e8a80d:0x88a1901f54811e56",
    "cid": "9845308724644748886",
    "reviewsCount": 13,
    "imagesCount": 1,
    "imageCategories": [],
    "scrapedAt": "2025-06-22T09:00:59.770Z",
    "googleFoodUrl": null,
    "hotelAds": [],
    "openingHours": [
      {
        "day": "Monday",
        "hours": "8:30 AM to 5 PM"
      },
      {
        "day": "Tuesday",
        "hours": "8:30 AM to 5 PM"
      },
      {
        "day": "Wednesday",
        "hours": "8:30 AM to 5 PM"
      },
      {
        "day": "Thursday",
        "hours": "8:30 AM to 5 PM"
      },
      {
        "day": "Friday",
        "hours": "8:30 AM to 5 PM"
      },
      {
        "day": "Saturday",
        "hours": "Closed"
      },
      {
        "day": "Sunday",
        "hours": "Closed"
      }
    ],
    "peopleAlsoSearch": [],
    "placesTags": [],
    "reviewsTags": [],
    "additionalInfo": {
      "From the business": [
        {
          "Small Business": true
        }
      ],
      "Service options": [
        {
          "Delivery": true
        },
        {
          "Same-day delivery": true
        }
      ],
      "Accessibility": [
        {
          "Wheelchair-accessible car park": true
        },
        {
          "Wheelchair-accessible entrance": true
        }
      ],
      "Payments": [
        {
          "Credit cards": true
        }
      ]
    },
    "gasPrices": [],
    "url": "https://www.google.com/maps/search/?api=1&query=Rx%20Innovations&query_place_id=ChIJDajol0R0IocRVh6BVB-QoYg",
    "searchPageUrl": "https://www.google.com/maps/search/independent%20pharmacy%20Albuquerque%20NM/@60.31354917823661,-173.20649518568482,12z?hl=en",
    "searchString": "independent pharmacy Albuquerque NM",
    "language": "en",
    "rank": 18,
    "isAdvertisement": false,
    "imageUrl": "https://streetviewpixels-pa.googleapis.com/v1/thumbnail?panoid=g59iarF3ammd7Dk0yH4wJA&cb_client=search.gws-prod.gps&w=408&h=240&yaw=353.15338&pitch=0&thumbfov=100",
    "kgmid": "/g/1x5fbtsw"
  },
  {
    "title": "Walgreens Pharmacy",
    "description": "Department of the Walgreens chain providing prescription medications & other health-related items.",
    "price": "$$",
    "categoryName": "Pharmacy",
    "address": "5001 Montgomery Blvd NE, Albuquerque, NM 87109, United States",
    "neighborhood": "Montgomery Plaza",
    "street": "5001 Montgomery Blvd NE",
    "city": "Albuquerque",
    "postalCode": "87109",
    "state": "New Mexico",
    "countryCode": "US",
    "website": "https://www.walgreens.com/locator/walgreens-5001+montgomery+blvd+ne-albuquerque-nm-87109/id=23",
    "phone": "+1 505-881-5210",
    "phoneUnformatted": "+15058815210",
    "claimThisBusiness": false,
    "location": {
      "lat": 35.1336401,
      "lng": -106.586913
    },
    "totalScore": 2.8,
    "permanentlyClosed": false,
    "temporarilyClosed": false,
    "placeId": "ChIJsSf7zeB0IocRa5PhCJ_4GFo",
    "categories": [
      "Pharmacy"
    ],
    "fid": "0x872274e0cdfb27b1:0x5a18f89f08e1936b",
    "cid": "6492212224787059563",
    "reviewsCount": 33,
    "imagesCount": 5,
    "imageCategories": [],
    "scrapedAt": "2025-06-22T09:00:59.771Z",
    "googleFoodUrl": null,
    "hotelAds": [],
    "openingHours": [
      {
        "day": "Monday",
        "hours": "9 AM to 1:30 PM, 2 to 9 PM"
      },
      {
        "day": "Tuesday",
        "hours": "9 AM to 1:30 PM, 2 to 9 PM"
      },
      {
        "day": "Wednesday",
        "hours": "9 AM to 1:30 PM, 2 to 9 PM"
      },
      {
        "day": "Thursday",
        "hours": "9 AM to 1:30 PM, 2 to 9 PM"
      },
      {
        "day": "Friday",
        "hours": "9 AM to 1:30 PM, 2 to 9 PM"
      },
      {
        "day": "Saturday",
        "hours": "9 AM to 1:30 PM, 2 to 6 PM"
      },
      {
        "day": "Sunday",
        "hours": "10 AM to 1:30 PM, 2 to 6 PM"
      }
    ],
    "additionalOpeningHours": {
      "Drive through": [
        {
          "day": "Monday",
          "hours": "9 am–1:30 pm"
        },
        {
          "day": "Tuesday",
          "hours": "9 am–1:30 pm"
        },
        {
          "day": "Wednesday",
          "hours": "9 am–1:30 pm"
        },
        {
          "day": "Thursday",
          "hours": "9 am–1:30 pm"
        },
        {
          "day": "Friday",
          "hours": "9 am–1:30 pm"
        },
        {
          "day": "Saturday",
          "hours": "9 am–1:30 pm"
        },
        {
          "day": "Sunday",
          "hours": "10 am–1:30 pm"
        }
      ]
    },
    "peopleAlsoSearch": [],
    "placesTags": [],
    "reviewsTags": [],
    "additionalInfo": {
      "Service options": [
        {
          "Kerbside pickup": true
        },
        {
          "Drive-through": true
        },
        {
          "In-store pick-up": true
        }
      ],
      "Accessibility": [
        {
          "Wheelchair-accessible car park": true
        },
        {
          "Wheelchair-accessible entrance": true
        }
      ],
      "Offerings": [
        {
          "Medication disposal": true
        },
        {
          "Naloxone": true
        },
        {
          "Passport photos": true
        }
      ],
      "Planning": [
        {
          "Quick visit": true
        }
      ],
      "Payments": [
        {
          "Credit cards": true
        },
        {
          "Debit cards": true
        }
      ]
    },
    "gasPrices": [],
    "url": "https://www.google.com/maps/search/?api=1&query=Walgreens%20Pharmacy&query_place_id=ChIJsSf7zeB0IocRa5PhCJ_4GFo",
    "searchPageUrl": "https://www.google.com/maps/search/independent%20pharmacy%20Albuquerque%20NM/@60.31354917823661,-173.20649518568482,12z?hl=en",
    "searchString": "independent pharmacy Albuquerque NM",
    "language": "en",
    "rank": 19,
    "isAdvertisement": false,
    "imageUrl": "https://lh3.googleusercontent.com/gps-cs-s/AC9h4nqjpbjYfSStwS70P7JLA9Ma1gR9iPo1UJK2ReGL-U8vwVxxEAb-FUSHUXi5pWBWyYdxV7ZTHvRyfCduUkAqd-wJLIyLx-W4mTfTZDlWYcZYK4r0XUC9HV1fU91ebibpNJqe7dh4=w408-h306-k-no",
    "kgmid": "/g/11b782yj4l"
  },
  {
    "title": "Walgreens Pharmacy",
    "description": "Department of the Walgreens chain providing prescription medications & other health-related items.",
    "price": null,
    "categoryName": "Pharmacy",
    "address": "11200 Montgomery Blvd NE, Albuquerque, NM 87111, United States",
    "neighborhood": "Eldorado Heights",
    "street": "11200 Montgomery Blvd NE",
    "city": "Albuquerque",
    "postalCode": "87111",
    "state": "New Mexico",
    "countryCode": "US",
    "website": "https://www.walgreens.com/locator/walgreens-11200+montgomery+blvd+ne-albuquerque-nm-87111/id=11360",
    "phone": "+1 505-298-7477",
    "phoneUnformatted": "+15052987477",
    "claimThisBusiness": false,
    "location": {
      "lat": 35.1301294,
      "lng": -106.515065
    },
    "totalScore": 2.8,
    "permanentlyClosed": false,
    "temporarilyClosed": false,
    "placeId": "ChIJVVWVd_KfGIcRMhcel-DkJzI",
    "categories": [
      "Pharmacy"
    ],
    "fid": "0x87189ff277955555:0x3227e4e0971e1732",
    "cid": "3614108879247251250",
    "reviewsCount": 13,
    "imagesCount": 5,
    "imageCategories": [],
    "scrapedAt": "2025-06-22T09:00:59.771Z",
    "googleFoodUrl": null,
    "hotelAds": [],
    "openingHours": [
      {
        "day": "Monday",
        "hours": "8 AM to 1:30 PM, 2 to 10 PM"
      },
      {
        "day": "Tuesday",
        "hours": "8 AM to 1:30 PM, 2 to 10 PM"
      },
      {
        "day": "Wednesday",
        "hours": "8 AM to 1:30 PM, 2 to 10 PM"
      },
      {
        "day": "Thursday",
        "hours": "8 AM to 1:30 PM, 2 to 10 PM"
      },
      {
        "day": "Friday",
        "hours": "8 AM to 1:30 PM, 2 to 10 PM"
      },
      {
        "day": "Saturday",
        "hours": "9 AM to 1:30 PM, 2 to 6 PM"
      },
      {
        "day": "Sunday",
        "hours": "10 AM to 1:30 PM, 2 to 6 PM"
      }
    ],
    "additionalOpeningHours": {
      "Drive through": [
        {
          "day": "Monday",
          "hours": "8 am–1:30 pm"
        },
        {
          "day": "Tuesday",
          "hours": "8 am–1:30 pm"
        },
        {
          "day": "Wednesday",
          "hours": "8 am–1:30 pm"
        },
        {
          "day": "Thursday",
          "hours": "8 am–1:30 pm"
        },
        {
          "day": "Friday",
          "hours": "8 am–1:30 pm"
        },
        {
          "day": "Saturday",
          "hours": "9 am–1:30 pm"
        },
        {
          "day": "Sunday",
          "hours": "10 am–1:30 pm"
        }
      ]
    },
    "peopleAlsoSearch": [],
    "placesTags": [],
    "reviewsTags": [],
    "additionalInfo": {
      "Service options": [
        {
          "Kerbside pickup": true
        },
        {
          "Drive-through": true
        },
        {
          "In-store pick-up": true
        }
      ],
      "Accessibility": [
        {
          "Wheelchair-accessible car park": true
        },
        {
          "Wheelchair-accessible entrance": true
        }
      ],
      "Offerings": [
        {
          "Passport photos": true
        }
      ],
      "Planning": [
        {
          "Quick visit": true
        }
      ],
      "Payments": [
        {
          "Credit cards": true
        },
        {
          "Debit cards": true
        }
      ]
    },
    "gasPrices": [],
    "url": "https://www.google.com/maps/search/?api=1&query=Walgreens%20Pharmacy&query_place_id=ChIJVVWVd_KfGIcRMhcel-DkJzI",
    "searchPageUrl": "https://www.google.com/maps/search/independent%20pharmacy%20Albuquerque%20NM/@60.31354917823661,-173.20649518568482,12z?hl=en",
    "searchString": "independent pharmacy Albuquerque NM",
    "language": "en",
    "rank": 20,
    "isAdvertisement": false,
    "imageUrl": "https://lh3.googleusercontent.com/p/AF1QipOP7uhKyXZGQ4cZmBioneHi0mdYT-IJRZ2Gjy6Y=w525-h240-k-no",
    "kgmid": "/g/11pb7cy4lt"
  }
]