[
  {
    "title": "Ogden Pharmacy",
    "price": null,
    "categoryName": "Pharmacy",
    "address": "2040 Ogden Ave #117, Aurora, IL 60504",
    "neighborhood": null,
    "street": "2040 Ogden Ave #117",
    "city": "Aurora",
    "postalCode": "60504",
    "state": "Illinois",
    "countryCode": "US",
    "website": "http://www.ogdenpharmacy.com/",
    "phone": "(630) 320-8600",
    "phoneUnformatted": "+16303208600",
    "claimThisBusiness": false,
    "location": {
      "lat": 41.7292859,
      "lng": -88.2699286
    },
    "totalScore": 5,
    "permanentlyClosed": false,
    "temporarilyClosed": false,
    "placeId": "ChIJ9WvZ2jfxDogRiaejokZyVZ4",
    "categories": [
      "Pharmacy"
    ],
    "fid": "0x880ef137dad96bf5:0x9e557246a2a3a789",
    "cid": "11409150878714931081",
    "reviewsCount": 10,
    "imagesCount": 21,
    "imageCategories": [],
    "scrapedAt": "2025-06-22T05:06:53.495Z",
    "googleFoodUrl": null,
    "hotelAds": [],
    "openingHours": [
      {
        "day": "Monday",
        "hours": "9 AM to 6 PM"
      },
      {
        "day": "Tuesday",
        "hours": "9 AM to 6 PM"
      },
      {
        "day": "Wednesday",
        "hours": "9 AM to 6 PM"
      },
      {
        "day": "Thursday",
        "hours": "9 AM to 6 PM"
      },
      {
        "day": "Friday",
        "hours": "9 AM to 6 PM"
      },
      {
        "day": "Saturday",
        "hours": "9 AM to 12 PM"
      },
      {
        "day": "Sunday",
        "hours": "Closed"
      }
    ],
    "peopleAlsoSearch": [],
    "placesTags": [],
    "reviewsTags": [],
    "additionalInfo": {
      "From the business": [
        {
          "Small business": true
        }
      ],
      "Service options": [
        {
          "Delivery": true
        },
        {
          "In-store pickup": true
        },
        {
          "Onsite services": true
        },
        {
          "Same-day delivery": true
        }
      ],
      "Accessibility": [
        {
          "Wheelchair accessible entrance": true
        },
        {
          "Wheelchair accessible parking lot": true
        }
      ],
      "Planning": [
        {
          "Quick visit": true
        }
      ],
      "Payments": [
        {
          "Credit cards": true
        },
        {
          "Debit cards": true
        },
        {
          "NFC mobile payments": true
        },
        {
          "Credit cards": true
        }
      ]
    },
    "gasPrices": [],
    "url": "https://www.google.com/maps/search/?api=1&query=Ogden%20Pharmacy&query_place_id=ChIJ9WvZ2jfxDogRiaejokZyVZ4",
    "searchPageUrl": "https://www.google.com/maps/search/independent%20pharmacy%20Aurora%20IL/@64.82725809239226,-168.0057016382483,13z?hl=en",
    "searchString": "independent pharmacy Aurora IL",
    "language": "en",
    "rank": 1,
    "isAdvertisement": false,
    "imageUrl": "https://lh3.googleusercontent.com/gps-cs-s/AC9h4nqqIrPvWUnN6FdBZBoXNDEv58WaD3Z2rwy4GUifZHzWd0Re58XVi2RMvu90O-NGQ1xOeNnSvoJOArVMaLPW1sHnQXATS9bhuCkbDfY7--GiP1MilAC2P8PHVq92R9NNfpteo4x4=w408-h272-k-no",
    "kgmid": "/g/11k54dwl7n"
  },
  {
    "title": "Benivex Pharmacy",
    "price": null,
    "categoryName": "Pharmacy",
    "address": "370 W Indian Trail, Aurora, IL 60506",
    "neighborhood": null,
    "street": "370 W Indian Trail",
    "city": "Aurora",
    "postalCode": "60506",
    "state": "Illinois",
    "countryCode": "US",
    "website": "https://www.benivex-pharmacy.com/?utm_source=google&utm_medium=local&utm_campaign=localmaps&utm_content=1492052",
    "phone": "(630) 800-1636",
    "phoneUnformatted": "+16308001636",
    "claimThisBusiness": false,
    "location": {
      "lat": 41.7812194,
      "lng": -88.3210611
    },
    "totalScore": 4.4,
    "permanentlyClosed": false,
    "temporarilyClosed": false,
    "placeId": "ChIJcRqhr9P6DogRhehRsn9Jcw8",
    "categories": [
      "Pharmacy",
      "Drug store"
    ],
    "fid": "0x880efad3afa11a71:0xf73497fb251e885",
    "cid": "1113314345692031109",
    "reviewsCount": 20,
    "imagesCount": 12,
    "imageCategories": [],
    "scrapedAt": "2025-06-22T05:06:53.497Z",
    "googleFoodUrl": null,
    "hotelAds": [],
    "openingHours": [
      {
        "day": "Monday",
        "hours": "10 AM to 6 PM"
      },
      {
        "day": "Tuesday",
        "hours": "10 AM to 6 PM"
      },
      {
        "day": "Wednesday",
        "hours": "10 AM to 6 PM"
      },
      {
        "day": "Thursday",
        "hours": "10 AM to 6 PM"
      },
      {
        "day": "Friday",
        "hours": "10 AM to 6 PM"
      },
      {
        "day": "Saturday",
        "hours": "Closed"
      },
      {
        "day": "Sunday",
        "hours": "Closed"
      }
    ],
    "peopleAlsoSearch": [],
    "placesTags": [],
    "reviewsTags": [],
    "additionalInfo": {
      "Service options": [
        {
          "Delivery": true
        },
        {
          "Drive-through": true
        },
        {
          "In-store pickup": true
        },
        {
          "In-store shopping": true
        },
        {
          "Onsite services": true
        },
        {
          "Same-day delivery": true
        }
      ],
      "Accessibility": [
        {
          "Wheelchair accessible entrance": true
        },
        {
          "Wheelchair accessible parking lot": true
        }
      ],
      "Planning": [
        {
          "Quick visit": true
        }
      ],
      "Payments": [
        {
          "Credit cards": true
        },
        {
          "Debit cards": true
        },
        {
          "Credit cards": true
        }
      ]
    },
    "gasPrices": [],
    "url": "https://www.google.com/maps/search/?api=1&query=Benivex%20Pharmacy&query_place_id=ChIJcRqhr9P6DogRhehRsn9Jcw8",
    "searchPageUrl": "https://www.google.com/maps/search/independent%20pharmacy%20Aurora%20IL/@64.82725809239226,-168.0057016382483,13z?hl=en",
    "searchString": "independent pharmacy Aurora IL",
    "language": "en",
    "rank": 2,
    "isAdvertisement": false,
    "imageUrl": "https://lh3.googleusercontent.com/gps-cs-s/AC9h4nomC4f4wQWgmxE_7DfPjSTRjb-bUaz1cilyOFa-fU9kfjaoRhspyIKz2N5q1gbnCbn5oXe2K3omiXm0exVIPFbNsOmSzaMwnuLUQOK8F0ze2eINuhsu8ZGdZWj8Vp4QaAa_lrU=w923-h240-k-no",
    "kgmid": "/g/11cms5d1zz"
  },
  {
    "title": "The Compounder Pharmacy",
    "price": null,
    "categoryName": "Pharmacy",
    "address": "340 Marshall Ave Unit 100, Aurora, IL 60506",
    "neighborhood": null,
    "street": "340 Marshall Ave Unit 100",
    "city": "Aurora",
    "postalCode": "60506",
    "state": "Illinois",
    "countryCode": "US",
    "website": "http://www.thecompounder.com/",
    "phone": "(630) 859-0333",
    "phoneUnformatted": "+16308590333",
    "claimThisBusiness": false,
    "location": {
      "lat": 41.7560669,
      "lng": -88.3279645
    },
    "totalScore": 4.7,
    "permanentlyClosed": false,
    "temporarilyClosed": false,
    "placeId": "ChIJd6DeSVLlDogRdVuXmCM9JDI",
    "categories": [
      "Pharmacy"
    ],
    "fid": "0x880ee55249dea077:0x32243d2398975b75",
    "cid": "3613080024151186293",
    "reviewsCount": 51,
    "imagesCount": 22,
    "imageCategories": [],
    "scrapedAt": "2025-06-22T05:06:53.497Z",
    "googleFoodUrl": null,
    "hotelAds": [],
    "openingHours": [
      {
        "day": "Monday",
        "hours": "8:30 AM to 5 PM"
      },
      {
        "day": "Tuesday",
        "hours": "8:30 AM to 5 PM"
      },
      {
        "day": "Wednesday",
        "hours": "8:30 AM to 5 PM"
      },
      {
        "day": "Thursday",
        "hours": "8:30 AM to 5 PM"
      },
      {
        "day": "Friday",
        "hours": "8:30 AM to 2:30 PM"
      },
      {
        "day": "Saturday",
        "hours": "Closed"
      },
      {
        "day": "Sunday",
        "hours": "Closed"
      }
    ],
    "additionalOpeningHours": {
      "Pickup": [
        {
          "day": "Monday",
          "hours": "8:30 AM–5 PM"
        },
        {
          "day": "Tuesday",
          "hours": "8:30 AM–5 PM"
        },
        {
          "day": "Wednesday",
          "hours": "8:30 AM–5 PM"
        },
        {
          "day": "Thursday",
          "hours": "8:30 AM–5 PM"
        },
        {
          "day": "Friday",
          "hours": "8:30 AM–2:30 PM"
        },
        {
          "day": "Saturday",
          "hours": "Closed"
        },
        {
          "day": "Sunday",
          "hours": "Closed"
        }
      ]
    },
    "peopleAlsoSearch": [],
    "placesTags": [],
    "reviewsTags": [],
    "additionalInfo": {
      "From the business": [
        {
          "Small business": true
        }
      ],
      "Service options": [
        {
          "Curbside pickup": true
        },
        {
          "Delivery": true
        },
        {
          "In-store pickup": true
        },
        {
          "In-store shopping": true
        },
        {
          "Same-day delivery": true
        },
        {
          "English": true
        }
      ],
      "Accessibility": [
        {
          "Wheelchair accessible entrance": true
        },
        {
          "Wheelchair accessible parking lot": true
        },
        {
          "Wheelchair accessible restroom": true
        }
      ],
      "Crowd": [
        {
          "LGBTQ+ friendly": true
        },
        {
          "Transgender safespace": true
        }
      ],
      "Planning": [
        {
          "Quick visit": true
        }
      ],
      "Payments": [
        {
          "Checks": true
        },
        {
          "Credit cards": true
        },
        {
          "Debit cards": true
        },
        {
          "NFC mobile payments": true
        },
        {
          "Credit cards": true
        }
      ]
    },
    "gasPrices": [],
    "url": "https://www.google.com/maps/search/?api=1&query=The%20Compounder%20Pharmacy&query_place_id=ChIJd6DeSVLlDogRdVuXmCM9JDI",
    "searchPageUrl": "https://www.google.com/maps/search/independent%20pharmacy%20Aurora%20IL/@64.82725809239226,-168.0057016382483,13z?hl=en",
    "searchString": "independent pharmacy Aurora IL",
    "language": "en",
    "rank": 3,
    "isAdvertisement": false,
    "imageUrl": "https://lh3.googleusercontent.com/p/AF1QipMdB8wD6v36CruimEYBgHBQ91GsglNsakp0-Ja0=w408-h306-k-no",
    "kgmid": "/g/1t_kh38w"
  },
  {
    "title": "Preferred Prescriptions Pharmacy LLC",
    "price": null,
    "categoryName": "Pharmacy",
    "address": "1281 N Farnsworth Ave, Aurora, IL 60505",
    "neighborhood": null,
    "street": "1281 N Farnsworth Ave",
    "city": "Aurora",
    "postalCode": "60505",
    "state": "Illinois",
    "countryCode": "US",
    "phone": "(618) 508-4647",
    "phoneUnformatted": "+16185084647",
    "claimThisBusiness": true,
    "location": {
      "lat": 41.7839908,
      "lng": -88.2813205
    },
    "permanentlyClosed": false,
    "temporarilyClosed": false,
    "placeId": "ChIJk0pKSin7DogRy7HOvU4M0nU",
    "categories": [
      "Pharmacy"
    ],
    "fid": "0x880efb294a4a4a93:0x75d20c4ebdceb1cb",
    "cid": "8489861779878228427",
    "reviewsCount": 0,
    "imagesCount": 1,
    "imageCategories": [],
    "scrapedAt": "2025-06-22T05:06:53.498Z",
    "googleFoodUrl": null,
    "hotelAds": [],
    "openingHours": [
      {
        "day": "Monday",
        "hours": "9 AM to 5:30 PM"
      },
      {
        "day": "Tuesday",
        "hours": "9 AM to 5:30 PM"
      },
      {
        "day": "Wednesday",
        "hours": "9 AM to 5:30 PM"
      },
      {
        "day": "Thursday",
        "hours": "9 AM to 5:30 PM"
      },
      {
        "day": "Friday",
        "hours": "9 AM to 5:30 PM"
      },
      {
        "day": "Saturday",
        "hours": "Closed"
      },
      {
        "day": "Sunday",
        "hours": "Closed"
      }
    ],
    "peopleAlsoSearch": [],
    "placesTags": [],
    "reviewsTags": [],
    "additionalInfo": {
      "Service options": [
        {
          "Delivery": true
        },
        {
          "In-store pickup": true
        }
      ],
      "Accessibility": [
        {
          "Wheelchair accessible entrance": true
        },
        {
          "Wheelchair accessible parking lot": true
        }
      ]
    },
    "gasPrices": [],
    "url": "https://www.google.com/maps/search/?api=1&query=Preferred%20Prescriptions%20Pharmacy%20LLC&query_place_id=ChIJk0pKSin7DogRy7HOvU4M0nU",
    "searchPageUrl": "https://www.google.com/maps/search/independent%20pharmacy%20Aurora%20IL/@64.82725809239226,-168.0057016382483,13z?hl=en",
    "searchString": "independent pharmacy Aurora IL",
    "language": "en",
    "rank": 4,
    "isAdvertisement": false,
    "imageUrl": "https://streetviewpixels-pa.googleapis.com/v1/thumbnail?panoid=nLRrUO9uX8640ab5Yufhag&cb_client=search.gws-prod.gps&w=408&h=240&yaw=82.66833&pitch=0&thumbfov=100",
    "kgmid": "/g/11r3_2yqh3"
  },
  {
    "title": "Your Pharmacy",
    "price": null,
    "categoryName": "Pharmacy",
    "address": "4050 Healthway Dr, Aurora, IL 60504",
    "neighborhood": null,
    "street": "4050 Healthway Dr",
    "city": "Aurora",
    "postalCode": "60504",
    "state": "Illinois",
    "countryCode": "US",
    "phone": "(630) 318-3616",
    "phoneUnformatted": "+16303183616",
    "claimThisBusiness": false,
    "location": {
      "lat": 41.7522764,
      "lng": -88.2153554
    },
    "totalScore": 5,
    "permanentlyClosed": false,
    "temporarilyClosed": false,
    "placeId": "ChIJg3TuSfn5DogRvFH1vVTeWKc",
    "categories": [
      "Pharmacy"
    ],
    "fid": "0x880ef9f949ee7483:0xa758de54bdf551bc",
    "cid": "12058632457830093244",
    "reviewsCount": 28,
    "imagesCount": 9,
    "imageCategories": [],
    "scrapedAt": "2025-06-22T05:06:54.985Z",
    "googleFoodUrl": null,
    "hotelAds": [],
    "openingHours": [
      {
        "day": "Monday",
        "hours": "9 AM to 6 PM"
      },
      {
        "day": "Tuesday",
        "hours": "9 AM to 6 PM"
      },
      {
        "day": "Wednesday",
        "hours": "9 AM to 6 PM"
      },
      {
        "day": "Thursday",
        "hours": "9 AM to 6 PM"
      },
      {
        "day": "Friday",
        "hours": "9 AM to 6 PM"
      },
      {
        "day": "Saturday",
        "hours": "Closed"
      },
      {
        "day": "Sunday",
        "hours": "Closed"
      }
    ],
    "peopleAlsoSearch": [],
    "placesTags": [],
    "reviewsTags": [],
    "additionalInfo": {
      "Service options": [
        {
          "Curbside pickup": true
        },
        {
          "Delivery": true
        },
        {
          "Same-day delivery": true
        }
      ],
      "Accessibility": [
        {
          "Wheelchair accessible entrance": true
        },
        {
          "Wheelchair accessible parking lot": true
        }
      ],
      "Amenities": [
        {
          "Wi-Fi": true
        },
        {
          "Free Wi-Fi": true
        }
      ],
      "Payments": [
        {
          "Credit cards": true
        },
        {
          "Debit cards": true
        },
        {
          "NFC mobile payments": true
        },
        {
          "Credit cards": true
        }
      ]
    },
    "gasPrices": [],
    "url": "https://www.google.com/maps/search/?api=1&query=Your%20Pharmacy&query_place_id=ChIJg3TuSfn5DogRvFH1vVTeWKc",
    "searchPageUrl": "https://www.google.com/maps/search/independent%20pharmacy%20Aurora%20IL/@18.336340046170918,-74.94602467000274,13z?hl=en",
    "searchString": "independent pharmacy Aurora IL",
    "language": "en",
    "rank": 4,
    "isAdvertisement": false,
    "imageUrl": "https://lh3.googleusercontent.com/gps-cs-s/AC9h4npL_aBdbpVn-1RKhjO4MYA0ZwIaAw20HA1yT2gH_z8HOHTX5mcCiSiVzOEqvIPKS_Z_RiXujYb0ehN71c_Z2C_AzQt_6KhyGTW_XrGPvms4Mzu_eqTtecvV_1ZirksLBnls6_6e=w408-h306-k-no",
    "kgmid": "/g/11fl8gphdd"
  },
  {
    "title": "Genoa Healthcare",
    "price": null,
    "categoryName": "Pharmacy",
    "address": "1230 N Highland Ave suite p, Aurora, IL 60506",
    "neighborhood": null,
    "street": "1230 N Highland Ave suite p",
    "city": "Aurora",
    "postalCode": "60506",
    "state": "Illinois",
    "countryCode": "US",
    "website": "http://www.genoahealthcare.com/",
    "phone": "(630) 506-5048",
    "phoneUnformatted": "+16305065048",
    "claimThisBusiness": false,
    "location": {
      "lat": 41.7837636,
      "lng": -88.3297757
    },
    "totalScore": 5,
    "permanentlyClosed": false,
    "temporarilyClosed": false,
    "placeId": "ChIJl8N1PqnlDogRJ-upv_P8YTw",
    "categories": [
      "Pharmacy"
    ],
    "fid": "0x880ee5a93e75c397:0x3c61fcf3bfa9eb27",
    "cid": "4351036838839446311",
    "reviewsCount": 2,
    "imagesCount": null,
    "imageCategories": [],
    "scrapedAt": "2025-06-22T05:06:54.985Z",
    "googleFoodUrl": null,
    "hotelAds": [],
    "openingHours": [
      {
        "day": "Monday",
        "hours": "8:30 AM to 12:30 PM, 1 to 5 PM"
      },
      {
        "day": "Tuesday",
        "hours": "8:30 AM to 12:30 PM, 1 to 5 PM"
      },
      {
        "day": "Wednesday",
        "hours": "8:30 AM to 12:30 PM, 1 to 5 PM"
      },
      {
        "day": "Thursday",
        "hours": "8:30 AM to 12:30 PM, 1 to 5 PM"
      },
      {
        "day": "Friday",
        "hours": "8:30 AM to 12:30 PM, 1 to 5 PM"
      },
      {
        "day": "Saturday",
        "hours": "Closed"
      },
      {
        "day": "Sunday",
        "hours": "Closed"
      }
    ],
    "peopleAlsoSearch": [],
    "placesTags": [],
    "reviewsTags": [],
    "additionalInfo": {
      "Accessibility": [
        {
          "Wheelchair accessible entrance": true
        },
        {
          "Wheelchair accessible parking lot": true
        }
      ]
    },
    "gasPrices": [],
    "url": "https://www.google.com/maps/search/?api=1&query=Genoa%20Healthcare&query_place_id=ChIJl8N1PqnlDogRJ-upv_P8YTw",
    "searchPageUrl": "https://www.google.com/maps/search/independent%20pharmacy%20Aurora%20IL/@18.336340046170918,-74.94602467000274,13z?hl=en",
    "searchString": "independent pharmacy Aurora IL",
    "language": "en",
    "rank": 5,
    "isAdvertisement": false,
    "kgmid": "/g/11s7yr6fhl"
  },
  {
    "title": "Professional Building Pharmacy",
    "price": null,
    "categoryName": "Pharmacy",
    "address": "251 W. Medical Center Blvd #100, Webster, TX 77598",
    "neighborhood": null,
    "street": "251 W. Medical Center Blvd #100",
    "city": "Webster",
    "postalCode": "77598",
    "state": "Texas",
    "countryCode": "US",
    "website": "http://professionalbuildingpharmacy.com/",
    "phone": "(281) 332-2496",
    "phoneUnformatted": "+12813322496",
    "claimThisBusiness": false,
    "location": {
      "lat": 29.5414766,
      "lng": -95.12384
    },
    "totalScore": 4.9,
    "permanentlyClosed": false,
    "temporarilyClosed": false,
    "placeId": "ChIJmwFuGo2cQIYRCJIIMcmdIp0",
    "categories": [
      "Pharmacy",
      "Medical supply store"
    ],
    "fid": "0x86409c8d1a6e019b:0x9d229dc931089208",
    "cid": "11322785900599480840",
    "reviewsCount": 121,
    "imagesCount": 25,
    "imageCategories": [],
    "scrapedAt": "2025-06-22T05:07:01.257Z",
    "googleFoodUrl": null,
    "hotelAds": [],
    "openingHours": [
      {
        "day": "Monday",
        "hours": "8:30 AM to 6 PM"
      },
      {
        "day": "Tuesday",
        "hours": "8:30 AM to 6 PM"
      },
      {
        "day": "Wednesday",
        "hours": "8:30 AM to 6 PM"
      },
      {
        "day": "Thursday",
        "hours": "8:30 AM to 6 PM"
      },
      {
        "day": "Friday",
        "hours": "8:30 AM to 6 PM"
      },
      {
        "day": "Saturday",
        "hours": "9 AM to 1 PM"
      },
      {
        "day": "Sunday",
        "hours": "Closed"
      }
    ],
    "peopleAlsoSearch": [],
    "placesTags": [],
    "reviewsTags": [],
    "additionalInfo": {
      "From the business": [
        {
          "Identifies as veteran-owned": true
        },
        {
          "Small business": true
        }
      ],
      "Service options": [
        {
          "Delivery": true
        },
        {
          "Drive-through": true
        },
        {
          "In-store pickup": true
        },
        {
          "In-store shopping": true
        }
      ],
      "Accessibility": [
        {
          "Wheelchair accessible entrance": true
        },
        {
          "Wheelchair accessible parking lot": true
        },
        {
          "Wheelchair accessible restroom": true
        }
      ],
      "Planning": [
        {
          "Quick visit": true
        }
      ],
      "Payments": [
        {
          "Checks": true
        },
        {
          "Credit cards": true
        },
        {
          "Debit cards": true
        },
        {
          "NFC mobile payments": true
        },
        {
          "Credit cards": true
        }
      ]
    },
    "gasPrices": [],
    "url": "https://www.google.com/maps/search/?api=1&query=Professional%20Building%20Pharmacy&query_place_id=ChIJmwFuGo2cQIYRCJIIMcmdIp0",
    "searchPageUrl": "https://www.google.com/maps/search/independent%20pharmacy%20Aurora%20IL/@28.22663985800361,-95.98474960000003,8z?hl=en",
    "searchString": "independent pharmacy Aurora IL",
    "language": "en",
    "rank": 3,
    "isAdvertisement": false,
    "imageUrl": "https://lh3.googleusercontent.com/p/AF1QipPUB11oUcJZ9EqqQ50p1VLe1ikZWPi2N2YTJNuQ=w408-h306-k-no",
    "kgmid": "/g/1thk93pq"
  },
  {
    "title": "Medical Park Pharmacy",
    "price": null,
    "categoryName": "Pharmacy",
    "address": "403 W Galena Blvd #210, Aurora, IL 60506, United States",
    "neighborhood": null,
    "street": "403 W Galena Blvd #210",
    "city": "Aurora",
    "postalCode": "60506",
    "state": "Illinois",
    "countryCode": "US",
    "website": "http://medical-park-pharmacy.com/",
    "phone": "+1 630-801-3200",
    "phoneUnformatted": "+16308013200",
    "claimThisBusiness": false,
    "location": {
      "lat": 41.761156,
      "lng": -88.323254
    },
    "totalScore": 5,
    "permanentlyClosed": false,
    "temporarilyClosed": false,
    "placeId": "ChIJbw31EQfwDogRtEr3FCJx__w",
    "categories": [
      "Pharmacy"
    ],
    "fid": "0x880ef00711f50d6f:0xfcff712214f74ab4",
    "cid": "18230414207813634740",
    "reviewsCount": 7,
    "imagesCount": 28,
    "imageCategories": [],
    "scrapedAt": "2025-06-22T05:07:09.910Z",
    "googleFoodUrl": null,
    "hotelAds": [],
    "openingHours": [
      {
        "day": "Monday",
        "hours": "9:30 AM to 5 PM"
      },
      {
        "day": "Tuesday",
        "hours": "9:30 AM to 5 PM"
      },
      {
        "day": "Wednesday",
        "hours": "9:30 AM to 5 PM"
      },
      {
        "day": "Thursday",
        "hours": "9:30 AM to 5 PM"
      },
      {
        "day": "Friday",
        "hours": "9:30 AM to 5 PM"
      },
      {
        "day": "Saturday",
        "hours": "10 AM to 1 PM"
      },
      {
        "day": "Sunday",
        "hours": "Closed"
      }
    ],
    "peopleAlsoSearch": [],
    "placesTags": [],
    "reviewsTags": [],
    "additionalInfo": {
      "From the business": [
        {
          "Small Business": true
        }
      ],
      "Service options": [
        {
          "Delivery": true
        },
        {
          "In-store shopping": true
        }
      ],
      "Accessibility": [
        {
          "Wheelchair-accessible car park": true
        },
        {
          "Wheelchair-accessible entrance": true
        }
      ],
      "Payments": [
        {
          "Cheques": true
        },
        {
          "Credit cards": true
        },
        {
          "Debit cards": true
        },
        {
          "NFC mobile payments": true
        },
        {
          "Credit cards": true
        }
      ]
    },
    "gasPrices": [],
    "url": "https://www.google.com/maps/search/?api=1&query=Medical%20Park%20Pharmacy&query_place_id=ChIJbw31EQfwDogRtEr3FCJx__w",
    "searchPageUrl": "https://www.google.com/maps/search/independent%20pharmacy%20Aurora%20IL/@24.755066651789555,-83.14804345214435,12z?hl=en",
    "searchString": "independent pharmacy Aurora IL",
    "language": "en",
    "rank": 7,
    "isAdvertisement": false,
    "imageUrl": "https://lh3.googleusercontent.com/p/AF1QipPqJsIYODr6mTdsSlqgKmF_MfIVykLoasYHZNhF=w408-h306-k-no",
    "kgmid": "/g/1tcv20nm"
  },
  {
    "title": "Easy Care Pharmacy",
    "price": null,
    "categoryName": "Pharmacy",
    "address": "931 W Galena Blvd, Aurora, IL 60506, United States",
    "neighborhood": null,
    "street": "931 W Galena Blvd",
    "city": "Aurora",
    "postalCode": "60506",
    "state": "Illinois",
    "countryCode": "US",
    "website": "http://www.myeasycarepharmacy.com/",
    "phone": "+1 630-548-1729",
    "phoneUnformatted": "+16305481729",
    "claimThisBusiness": false,
    "location": {
      "lat": 41.7625492,
      "lng": -88.3388297
    },
    "totalScore": 4.7,
    "permanentlyClosed": false,
    "temporarilyClosed": false,
    "placeId": "ChIJJ6yO80PlDogRKQ9tc0jzqGA",
    "categories": [
      "Pharmacy"
    ],
    "fid": "0x880ee543f38eac27:0x60a8f348736d0f29",
    "cid": "6965084316228194089",
    "reviewsCount": 7,
    "imagesCount": 1,
    "imageCategories": [],
    "scrapedAt": "2025-06-22T05:07:09.911Z",
    "googleFoodUrl": null,
    "hotelAds": [],
    "openingHours": [
      {
        "day": "Monday",
        "hours": "9:30 AM to 6 PM"
      },
      {
        "day": "Tuesday",
        "hours": "9:30 AM to 6 PM"
      },
      {
        "day": "Wednesday",
        "hours": "9:30 AM to 6 PM"
      },
      {
        "day": "Thursday",
        "hours": "9:30 AM to 6 PM"
      },
      {
        "day": "Friday",
        "hours": "9:30 AM to 6 PM"
      },
      {
        "day": "Saturday",
        "hours": "9:30 AM to 1 PM"
      },
      {
        "day": "Sunday",
        "hours": "Closed"
      }
    ],
    "peopleAlsoSearch": [],
    "placesTags": [],
    "reviewsTags": [],
    "additionalInfo": {
      "Service options": [
        {
          "Delivery": true
        }
      ],
      "Accessibility": [
        {
          "Wheelchair-accessible car park": true
        },
        {
          "Wheelchair-accessible entrance": true
        }
      ],
      "Planning": [
        {
          "Quick visit": true
        }
      ],
      "Payments": [
        {
          "Credit cards": true
        }
      ]
    },
    "gasPrices": [],
    "url": "https://www.google.com/maps/search/?api=1&query=Easy%20Care%20Pharmacy&query_place_id=ChIJJ6yO80PlDogRKQ9tc0jzqGA",
    "searchPageUrl": "https://www.google.com/maps/search/independent%20pharmacy%20Aurora%20IL/@24.755066651789555,-83.14804345214435,12z?hl=en",
    "searchString": "independent pharmacy Aurora IL",
    "language": "en",
    "rank": 8,
    "isAdvertisement": false,
    "imageUrl": "https://streetviewpixels-pa.googleapis.com/v1/thumbnail?panoid=IE4qEFXaXG4u1U4CJe6iDQ&cb_client=search.gws-prod.gps&w=408&h=240&yaw=26.185896&pitch=0&thumbfov=100",
    "kgmid": "/g/1tl1p0r8"
  },
  {
    "title": "Mercy Medical Center - Pharmacy",
    "price": null,
    "categoryName": "Pharmacy",
    "address": "1325 N Highland Ave, Aurora, IL 60506, United States",
    "neighborhood": null,
    "street": "1325 N Highland Ave",
    "city": "Aurora",
    "postalCode": "60506",
    "state": "Illinois",
    "countryCode": "US",
    "website": "https://mercymedcenter.com/",
    "phone": "+1 630-801-5733",
    "phoneUnformatted": "+16308015733",
    "claimThisBusiness": false,
    "location": {
      "lat": 41.7854836,
      "lng": -88.3257316
    },
    "totalScore": 4.6,
    "permanentlyClosed": false,
    "temporarilyClosed": false,
    "placeId": "ChIJK1BGPSvlDogR_SHdQpO1MwE",
    "categories": [
      "Pharmacy"
    ],
    "fid": "0x880ee52b3d46502b:0x133b59342dd21fd",
    "cid": "86612461936779773",
    "reviewsCount": 5,
    "imagesCount": 6,
    "imageCategories": [],
    "scrapedAt": "2025-06-22T05:07:09.911Z",
    "googleFoodUrl": null,
    "hotelAds": [],
    "openingHours": [
      {
        "day": "Monday",
        "hours": "9 AM to 5:30 PM"
      },
      {
        "day": "Tuesday",
        "hours": "9 AM to 5:30 PM"
      },
      {
        "day": "Wednesday",
        "hours": "9 AM to 5:30 PM"
      },
      {
        "day": "Thursday",
        "hours": "9 AM to 5:30 PM"
      },
      {
        "day": "Friday",
        "hours": "9 AM to 5:30 PM"
      },
      {
        "day": "Saturday",
        "hours": "Closed"
      },
      {
        "day": "Sunday",
        "hours": "Closed"
      }
    ],
    "peopleAlsoSearch": [],
    "placesTags": [],
    "reviewsTags": [],
    "additionalInfo": {
      "Accessibility": [
        {
          "Wheelchair-accessible car park": true
        },
        {
          "Wheelchair-accessible entrance": true
        }
      ],
      "Payments": [
        {
          "Credit cards": true
        },
        {
          "Debit cards": true
        },
        {
          "Credit cards": true
        }
      ]
    },
    "gasPrices": [],
    "url": "https://www.google.com/maps/search/?api=1&query=Mercy%20Medical%20Center%20-%20Pharmacy&query_place_id=ChIJK1BGPSvlDogR_SHdQpO1MwE",
    "searchPageUrl": "https://www.google.com/maps/search/independent%20pharmacy%20Aurora%20IL/@24.755066651789555,-83.14804345214435,12z?hl=en",
    "searchString": "independent pharmacy Aurora IL",
    "language": "en",
    "rank": 9,
    "isAdvertisement": false,
    "imageUrl": "https://lh3.googleusercontent.com/gps-cs-s/AC9h4nqv8fBBPbYxzUzqGWYFHJjycRcdc7RCpTU5jmv-NYDE_wrBrMTXTveQPJin-TL9OHe0eEgv6Nvm3GKyKpvoRixovOYXOV-wO7s6JD1xlq0ErmF0KNIkNFh1BcM5PIfq6y_4gbPP=w408-h306-k-no",
    "kgmid": "/g/1yfjh2llq"
  },
  {
    "title": "Mariano's Pharmacy",
    "price": null,
    "categoryName": "Pharmacy",
    "address": "3025 E New York St, Aurora, IL 60504, United States",
    "neighborhood": null,
    "street": "3025 E New York St",
    "city": "Aurora",
    "postalCode": "60504",
    "state": "Illinois",
    "countryCode": "US",
    "website": "https://www.marianos.com/rx/pharmacy/details/531/00519?cid=loc_53100519P_gmb",
    "phone": "+1 630-236-0847",
    "phoneUnformatted": "+16302360847",
    "claimThisBusiness": false,
    "location": {
      "lat": 41.7579516,
      "lng": -88.2411374
    },
    "totalScore": 4.2,
    "permanentlyClosed": false,
    "temporarilyClosed": false,
    "placeId": "ChIJT1xwTPf5DogRdbVjSWA51Qs",
    "categories": [
      "Pharmacy",
      "Drug store",
      "Health counselor",
      "Home health care service"
    ],
    "fid": "0x880ef9f74c705c4f:0xbd539604963b575",
    "cid": "852650790167491957",
    "reviewsCount": 18,
    "imagesCount": 10,
    "imageCategories": [],
    "scrapedAt": "2025-06-22T05:07:09.911Z",
    "googleFoodUrl": null,
    "hotelAds": [],
    "openingHours": [
      {
        "day": "Monday",
        "hours": "9 AM to 1 PM, 1:30 to 8 PM"
      },
      {
        "day": "Tuesday",
        "hours": "9 AM to 1 PM, 1:30 to 8 PM"
      },
      {
        "day": "Wednesday",
        "hours": "9 AM to 1 PM, 1:30 to 8 PM"
      },
      {
        "day": "Thursday",
        "hours": "9 AM to 1 PM, 1:30 to 8 PM"
      },
      {
        "day": "Friday",
        "hours": "9 AM to 1 PM, 1:30 to 8 PM"
      },
      {
        "day": "Saturday",
        "hours": "9 AM to 1 PM, 1:30 to 6 PM"
      },
      {
        "day": "Sunday",
        "hours": "10 AM to 1 PM, 1:30 to 5 PM"
      }
    ],
    "peopleAlsoSearch": [],
    "placesTags": [],
    "reviewsTags": [],
    "additionalInfo": {
      "Service options": [
        {
          "Delivery": true
        },
        {
          "In-store pick-up": true
        },
        {
          "In-store shopping": true
        },
        {
          "Same-day delivery": true
        }
      ],
      "Accessibility": [
        {
          "Wheelchair-accessible car park": true
        },
        {
          "Wheelchair-accessible entrance": true
        },
        {
          "Wheelchair-accessible seating": true
        },
        {
          "Wheelchair-accessible toilet": true
        }
      ],
      "Crowd": [
        {
          "LGBTQ+ friendly": true
        },
        {
          "Transgender safe space": true
        }
      ],
      "Planning": [
        {
          "Quick visit": true
        }
      ],
      "Payments": [
        {
          "Cheques": true
        },
        {
          "Credit cards": true
        },
        {
          "Debit cards": true
        },
        {
          "NFC mobile payments": true
        }
      ]
    },
    "gasPrices": [],
    "url": "https://www.google.com/maps/search/?api=1&query=Mariano's%20Pharmacy&query_place_id=ChIJT1xwTPf5DogRdbVjSWA51Qs",
    "searchPageUrl": "https://www.google.com/maps/search/independent%20pharmacy%20Aurora%20IL/@24.755066651789555,-83.14804345214435,12z?hl=en",
    "searchString": "independent pharmacy Aurora IL",
    "language": "en",
    "rank": 10,
    "isAdvertisement": false,
    "imageUrl": "https://lh3.googleusercontent.com/p/AF1QipMGqBMnPvoZbYaJtNYSgZg1sHBSCBNjYgNfvKVA=w426-h240-k-no",
    "kgmid": "/g/1q6jhjqxx"
  },
  {
    "title": "Prism Pharmacy",
    "price": null,
    "categoryName": "Pharmacy",
    "address": "475 N Farnsworth Ave Suite 101, Aurora, IL 60505, United States",
    "neighborhood": null,
    "street": "475 N Farnsworth Ave Suite 101",
    "city": "Aurora",
    "postalCode": "60505",
    "state": "Illinois",
    "countryCode": "US",
    "phone": "+1 630-299-3660",
    "phoneUnformatted": "+16302993660",
    "claimThisBusiness": false,
    "location": {
      "lat": 41.7649037,
      "lng": -88.2812049
    },
    "permanentlyClosed": false,
    "temporarilyClosed": false,
    "placeId": "ChIJbxK4CHj7DogRVy4nj2-_qe4",
    "categories": [
      "Pharmacy"
    ],
    "fid": "0x880efb7808b8126f:0xeea9bf6f8f272e57",
    "cid": "17197487137954934359",
    "reviewsCount": 0,
    "imagesCount": 3,
    "imageCategories": [],
    "scrapedAt": "2025-06-22T05:07:09.911Z",
    "googleFoodUrl": null,
    "hotelAds": [],
    "openingHours": [
      {
        "day": "Monday",
        "hours": "10 AM to 4 PM"
      },
      {
        "day": "Tuesday",
        "hours": "10 AM to 4 PM"
      },
      {
        "day": "Wednesday",
        "hours": "10 AM to 4 PM"
      },
      {
        "day": "Thursday",
        "hours": "10 AM to 4 PM"
      },
      {
        "day": "Friday",
        "hours": "10 AM to 4 PM"
      },
      {
        "day": "Saturday",
        "hours": "10 AM to 2 PM"
      },
      {
        "day": "Sunday",
        "hours": "Closed"
      }
    ],
    "peopleAlsoSearch": [],
    "placesTags": [],
    "reviewsTags": [],
    "additionalInfo": {
      "From the business": [
        {
          "Small Business": true
        }
      ],
      "Accessibility": [
        {
          "Wheelchair-accessible car park": true
        },
        {
          "Wheelchair-accessible entrance": true
        }
      ],
      "Planning": [
        {
          "Quick visit": true
        }
      ],
      "Payments": [
        {
          "Credit cards": true
        },
        {
          "Debit cards": true
        },
        {
          "NFC mobile payments": true
        },
        {
          "Credit cards": true
        }
      ]
    },
    "gasPrices": [],
    "url": "https://www.google.com/maps/search/?api=1&query=Prism%20Pharmacy&query_place_id=ChIJbxK4CHj7DogRVy4nj2-_qe4",
    "searchPageUrl": "https://www.google.com/maps/search/independent%20pharmacy%20Aurora%20IL/@24.755066651789555,-83.14804345214435,12z?hl=en",
    "searchString": "independent pharmacy Aurora IL",
    "language": "en",
    "rank": 11,
    "isAdvertisement": false,
    "imageUrl": "https://lh3.googleusercontent.com/p/AF1QipMRGJ-dqGqtt94mLdZmFdgBCcFxUknyWIvFFU3y=w408-h306-k-no",
    "kgmid": "/g/11tx7_jwv1"
  },
  {
    "title": "CVS Pharmacy",
    "price": null,
    "categoryName": "Pharmacy",
    "address": "2360 W Indian Trail, Aurora, IL 60506, United States",
    "neighborhood": null,
    "street": "2360 W Indian Trail",
    "city": "Aurora",
    "postalCode": "60506",
    "state": "Illinois",
    "countryCode": "US",
    "website": "https://www.cvs.com/store-locator/aurora-il-pharmacies/2360-w-indian-trail-aurora-il-60506/storeid=1161?WT.mc_id=LS_GOOGLE_RX_1161",
    "phone": "+1 630-907-2041",
    "phoneUnformatted": "+16309072041",
    "claimThisBusiness": false,
    "location": {
      "lat": 41.7803446,
      "lng": -88.3737845
    },
    "totalScore": 4.1,
    "permanentlyClosed": false,
    "temporarilyClosed": false,
    "placeId": "ChIJ8480QLDlDogRT5WKpsMgFlU",
    "categories": [
      "Pharmacy"
    ],
    "fid": "0x880ee5b040348ff3:0x551620c3a68a954f",
    "cid": "6131123967396320591",
    "reviewsCount": 14,
    "imagesCount": 8,
    "imageCategories": [],
    "scrapedAt": "2025-06-22T05:07:09.911Z",
    "googleFoodUrl": null,
    "hotelAds": [],
    "openingHours": [
      {
        "day": "Monday",
        "hours": "8 AM to 12:30 PM, 1 to 8 PM"
      },
      {
        "day": "Tuesday",
        "hours": "8 AM to 12:30 PM, 1 to 8 PM"
      },
      {
        "day": "Wednesday",
        "hours": "8 AM to 12:30 PM, 1 to 8 PM"
      },
      {
        "day": "Thursday",
        "hours": "8 AM to 12:30 PM, 1 to 8 PM"
      },
      {
        "day": "Friday",
        "hours": "8 AM to 12:30 PM, 1 to 8 PM"
      },
      {
        "day": "Saturday",
        "hours": "9 AM to 12:30 PM, 1 to 6 PM"
      },
      {
        "day": "Sunday",
        "hours": "10 AM to 12:30 PM, 1 to 5 PM"
      }
    ],
    "peopleAlsoSearch": [],
    "placesTags": [],
    "reviewsTags": [],
    "additionalInfo": {
      "Service options": [
        {
          "Delivery": true
        },
        {
          "Drive-through": true
        },
        {
          "In-store pick-up": true
        },
        {
          "In-store shopping": true
        }
      ],
      "Accessibility": [
        {
          "Wheelchair-accessible car park": true
        },
        {
          "Wheelchair-accessible entrance": true
        }
      ],
      "Offerings": [
        {
          "Naloxone": true
        }
      ],
      "Crowd": [
        {
          "LGBTQ+ friendly": true
        },
        {
          "Transgender safe space": true
        }
      ],
      "Planning": [
        {
          "Quick visit": true
        }
      ],
      "Payments": [
        {
          "Credit cards": true
        },
        {
          "Debit cards": true
        },
        {
          "NFC mobile payments": true
        },
        {
          "SNAP/EBT": true
        },
        {
          "Credit cards": true
        }
      ]
    },
    "gasPrices": [],
    "url": "https://www.google.com/maps/search/?api=1&query=CVS%20Pharmacy&query_place_id=ChIJ8480QLDlDogRT5WKpsMgFlU",
    "searchPageUrl": "https://www.google.com/maps/search/independent%20pharmacy%20Aurora%20IL/@24.755066651789555,-83.14804345214435,12z?hl=en",
    "searchString": "independent pharmacy Aurora IL",
    "language": "en",
    "rank": 12,
    "isAdvertisement": false,
    "imageUrl": "https://lh3.googleusercontent.com/p/AF1QipOHhw8VOxRJ0oft0d5D_HClzzf5rl_iiM8JNJSp=w408-h272-k-no",
    "kgmid": "/g/11c469d7bm"
  },
  {
    "title": "Walgreens Pharmacy",
    "description": "Department of the Walgreens chain providing prescription medications & other health-related items.",
    "price": "$$",
    "categoryName": "Pharmacy",
    "address": "22 N Constitution Dr, Aurora, IL 60506, United States",
    "neighborhood": null,
    "street": "22 N Constitution Dr",
    "city": "Aurora",
    "postalCode": "60506",
    "state": "Illinois",
    "countryCode": "US",
    "website": "https://www.walgreens.com/locator/walgreens-22+n+constitution+dr-aurora-il-60506/id=7467",
    "phone": "+1 630-892-0927",
    "phoneUnformatted": "+16308920927",
    "claimThisBusiness": false,
    "location": {
      "lat": 41.7655122,
      "lng": -88.3712769
    },
    "totalScore": 4.3,
    "permanentlyClosed": false,
    "temporarilyClosed": false,
    "placeId": "ChIJE2qDwJnlDogRcadHfKARVME",
    "categories": [
      "Pharmacy"
    ],
    "fid": "0x880ee599c0836a13:0xc15411a07c47a771",
    "cid": "13930778928341297009",
    "reviewsCount": 13,
    "imagesCount": 3,
    "imageCategories": [],
    "scrapedAt": "2025-06-22T05:07:09.911Z",
    "googleFoodUrl": null,
    "hotelAds": [],
    "openingHours": [
      {
        "day": "Monday",
        "hours": "9 to 11 AM, 11:30 AM to 6:45 PM, 7:15 to 9 PM"
      },
      {
        "day": "Tuesday",
        "hours": "9 to 11 AM, 11:30 AM to 6:45 PM, 7:15 to 9 PM"
      },
      {
        "day": "Wednesday",
        "hours": "9 to 11 AM, 11:30 AM to 6:45 PM, 7:15 to 9 PM"
      },
      {
        "day": "Thursday",
        "hours": "9 to 11 AM, 11:30 AM to 6:45 PM, 7:15 to 9 PM"
      },
      {
        "day": "Friday",
        "hours": "9 to 11 AM, 11:30 AM to 6:45 PM, 7:15 to 9 PM"
      },
      {
        "day": "Saturday",
        "hours": "9 AM to 1 PM, 1:30 to 5 PM"
      },
      {
        "day": "Sunday",
        "hours": "9 AM to 1 PM, 1:30 to 5 PM"
      }
    ],
    "additionalOpeningHours": {
      "Drive through": [
        {
          "day": "Monday",
          "hours": "9 am–6:45 pm"
        },
        {
          "day": "Tuesday",
          "hours": "9 am–6:45 pm"
        },
        {
          "day": "Wednesday",
          "hours": "9 am–6:45 pm"
        },
        {
          "day": "Thursday",
          "hours": "9 am–6:45 pm"
        },
        {
          "day": "Friday",
          "hours": "9 am–6:45 pm"
        },
        {
          "day": "Saturday",
          "hours": "9 am–1 pm"
        },
        {
          "day": "Sunday",
          "hours": "9 am–1 pm"
        }
      ]
    },
    "peopleAlsoSearch": [],
    "placesTags": [],
    "reviewsTags": [],
    "additionalInfo": {
      "Service options": [
        {
          "Kerbside pickup": true
        },
        {
          "Drive-through": true
        },
        {
          "In-store pick-up": true
        }
      ],
      "Accessibility": [
        {
          "Wheelchair-accessible car park": true
        },
        {
          "Wheelchair-accessible entrance": true
        }
      ],
      "Offerings": [
        {
          "Naloxone": true
        }
      ],
      "Planning": [
        {
          "Quick visit": true
        }
      ],
      "Payments": [
        {
          "Cheques": true
        },
        {
          "Credit cards": true
        },
        {
          "Debit cards": true
        }
      ]
    },
    "gasPrices": [],
    "url": "https://www.google.com/maps/search/?api=1&query=Walgreens%20Pharmacy&query_place_id=ChIJE2qDwJnlDogRcadHfKARVME",
    "searchPageUrl": "https://www.google.com/maps/search/independent%20pharmacy%20Aurora%20IL/@24.755066651789555,-83.14804345214435,12z?hl=en",
    "searchString": "independent pharmacy Aurora IL",
    "language": "en",
    "rank": 13,
    "isAdvertisement": false,
    "imageUrl": "https://lh3.googleusercontent.com/p/AF1QipPPtITGirbCQMbrgeB6_nntmwap-7tf7Zqyd6Uq=w525-h240-k-no",
    "kgmid": "/g/11cn976ndf"
  },
  {
    "title": "Walgreens Pharmacy",
    "description": "Department of the Walgreens chain providing prescription medications & other health-related items.",
    "price": "$$",
    "categoryName": "Pharmacy",
    "address": "1207 N Randall Rd, Aurora, IL 60506, United States",
    "neighborhood": null,
    "street": "1207 N Randall Rd",
    "city": "Aurora",
    "postalCode": "60506",
    "state": "Illinois",
    "countryCode": "US",
    "website": "https://www.walgreens.com/locator/walgreens-1207+n+randall+rd-aurora-il-60506/id=3774",
    "phone": "+1 630-897-7112",
    "phoneUnformatted": "+16308977112",
    "claimThisBusiness": false,
    "location": {
      "lat": 41.781687,
      "lng": -88.3489287
    },
    "totalScore": 3.9,
    "permanentlyClosed": false,
    "temporarilyClosed": false,
    "placeId": "ChIJBcaXzxvlDogRVUOLT9fhoP8",
    "categories": [
      "Pharmacy"
    ],
    "fid": "0x880ee51bcf97c605:0xffa0e1d74f8b4355",
    "cid": "18419970790814073685",
    "reviewsCount": 8,
    "imagesCount": 3,
    "imageCategories": [],
    "scrapedAt": "2025-06-22T05:07:09.911Z",
    "googleFoodUrl": null,
    "hotelAds": [],
    "openingHours": [
      {
        "day": "Monday",
        "hours": "9 to 11 AM, 11:30 AM to 6:45 PM, 7:15 to 8 PM"
      },
      {
        "day": "Tuesday",
        "hours": "9 to 11 AM, 11:30 AM to 6:45 PM, 7:15 to 8 PM"
      },
      {
        "day": "Wednesday",
        "hours": "9 to 11 AM, 11:30 AM to 6:45 PM, 7:15 to 8 PM"
      },
      {
        "day": "Thursday",
        "hours": "9 to 11 AM, 11:30 AM to 6:45 PM, 7:15 to 8 PM"
      },
      {
        "day": "Friday",
        "hours": "9 to 11 AM, 11:30 AM to 6:45 PM, 7:15 to 8 PM"
      },
      {
        "day": "Saturday",
        "hours": "9 AM to 1 PM, 1:30 to 5 PM"
      },
      {
        "day": "Sunday",
        "hours": "9 AM to 1 PM, 1:30 to 5 PM"
      }
    ],
    "additionalOpeningHours": {
      "Drive through": [
        {
          "day": "Monday",
          "hours": "9 am–6:45 pm"
        },
        {
          "day": "Tuesday",
          "hours": "9 am–6:45 pm"
        },
        {
          "day": "Wednesday",
          "hours": "9 am–6:45 pm"
        },
        {
          "day": "Thursday",
          "hours": "9 am–6:45 pm"
        },
        {
          "day": "Friday",
          "hours": "9 am–6:45 pm"
        },
        {
          "day": "Saturday",
          "hours": "9 am–1 pm"
        },
        {
          "day": "Sunday",
          "hours": "9 am–1 pm"
        }
      ]
    },
    "peopleAlsoSearch": [],
    "placesTags": [],
    "reviewsTags": [],
    "additionalInfo": {
      "Service options": [
        {
          "Drive-through": true
        },
        {
          "In-store pick-up": true
        },
        {
          "On-site services": true
        }
      ],
      "Accessibility": [
        {
          "Wheelchair-accessible car park": true
        },
        {
          "Wheelchair-accessible entrance": true
        }
      ],
      "Offerings": [
        {
          "Naloxone": true
        }
      ],
      "Planning": [
        {
          "Quick visit": true
        }
      ],
      "Payments": [
        {
          "Cheques": true
        },
        {
          "Credit cards": true
        },
        {
          "Debit cards": true
        }
      ]
    },
    "gasPrices": [],
    "url": "https://www.google.com/maps/search/?api=1&query=Walgreens%20Pharmacy&query_place_id=ChIJBcaXzxvlDogRVUOLT9fhoP8",
    "searchPageUrl": "https://www.google.com/maps/search/independent%20pharmacy%20Aurora%20IL/@24.755066651789555,-83.14804345214435,12z?hl=en",
    "searchString": "independent pharmacy Aurora IL",
    "language": "en",
    "rank": 14,
    "isAdvertisement": false,
    "imageUrl": "https://lh3.googleusercontent.com/p/AF1QipOPNyHwiarQVlUcA4Ei-SX2-VcPVLMcnavefp9r=w525-h240-k-no",
    "kgmid": "/g/11cn95crj1"
  },
  {
    "title": "CVS Pharmacy",
    "price": null,
    "categoryName": "Pharmacy",
    "address": "300 N Eola Rd, Aurora, IL 60502, United States",
    "neighborhood": null,
    "street": "300 N Eola Rd",
    "city": "Aurora",
    "postalCode": "60502",
    "state": "Illinois",
    "countryCode": "US",
    "website": "https://www.cvs.com/store-locator/aurora-il-pharmacies/300-north-eola-rd-aurora-il-60502/storeid=8746?WT.mc_id=LS_GOOGLE_RX_8746",
    "phone": "+1 630-978-2380",
    "phoneUnformatted": "+16309782380",
    "claimThisBusiness": false,
    "location": {
      "lat": 41.7579358,
      "lng": -88.2440475
    },
    "totalScore": 3.9,
    "permanentlyClosed": false,
    "temporarilyClosed": false,
    "placeId": "ChIJzwFom_f5DogRlzVFzfmtA_U",
    "categories": [
      "Pharmacy"
    ],
    "fid": "0x880ef9f79b6801cf:0xf503adf9cd453597",
    "cid": "17655146252624803223",
    "reviewsCount": 25,
    "imagesCount": 40,
    "imageCategories": [],
    "scrapedAt": "2025-06-22T05:07:09.911Z",
    "googleFoodUrl": null,
    "hotelAds": [],
    "openingHours": [
      {
        "day": "Monday",
        "hours": "8 AM to 12:30 PM, 1 to 8 PM"
      },
      {
        "day": "Tuesday",
        "hours": "8 AM to 12:30 PM, 1 to 8 PM"
      },
      {
        "day": "Wednesday",
        "hours": "8 AM to 12:30 PM, 1 to 8 PM"
      },
      {
        "day": "Thursday",
        "hours": "8 AM to 12:30 PM, 1 to 8 PM"
      },
      {
        "day": "Friday",
        "hours": "8 AM to 12:30 PM, 1 to 8 PM"
      },
      {
        "day": "Saturday",
        "hours": "9 AM to 12:30 PM, 1 to 6 PM"
      },
      {
        "day": "Sunday",
        "hours": "9 AM to 12:30 PM, 1 to 6 PM"
      }
    ],
    "peopleAlsoSearch": [],
    "placesTags": [],
    "reviewsTags": [],
    "additionalInfo": {
      "Service options": [
        {
          "Delivery": true
        },
        {
          "Drive-through": true
        },
        {
          "In-store shopping": true
        },
        {
          "On-site services": true
        }
      ],
      "Accessibility": [
        {
          "Wheelchair-accessible car park": true
        },
        {
          "Wheelchair-accessible entrance": true
        }
      ],
      "Offerings": [
        {
          "Naloxone": true
        },
        {
          "Passport photos": true
        }
      ],
      "Crowd": [
        {
          "LGBTQ+ friendly": true
        },
        {
          "Transgender safe space": true
        }
      ],
      "Planning": [
        {
          "Quick visit": true
        }
      ],
      "Payments": [
        {
          "Credit cards": true
        },
        {
          "Debit cards": true
        },
        {
          "NFC mobile payments": true
        },
        {
          "Credit cards": true
        }
      ]
    },
    "gasPrices": [],
    "url": "https://www.google.com/maps/search/?api=1&query=CVS%20Pharmacy&query_place_id=ChIJzwFom_f5DogRlzVFzfmtA_U",
    "searchPageUrl": "https://www.google.com/maps/search/independent%20pharmacy%20Aurora%20IL/@24.755066651789555,-83.14804345214435,12z?hl=en",
    "searchString": "independent pharmacy Aurora IL",
    "language": "en",
    "rank": 15,
    "isAdvertisement": false,
    "imageUrl": "https://lh3.googleusercontent.com/p/AF1QipNgkLBQUfylZ3eNHHyiaIILC_GGZZRswjU7VaAk=w408-h272-k-no",
    "kgmid": "/g/11c468w66y"
  },
  {
    "title": "Walgreens Pharmacy",
    "description": "Department of the Walgreens chain providing prescription medications & other health-related items.",
    "price": "$$",
    "categoryName": "Pharmacy",
    "address": "9 N Union St, Aurora, IL 60505, United States",
    "neighborhood": null,
    "street": "9 N Union St",
    "city": "Aurora",
    "postalCode": "60505",
    "state": "Illinois",
    "countryCode": "US",
    "website": "https://www.walgreens.com/locator/walgreens-9+n+union+st-aurora-il-60505/id=12125",
    "phone": "+1 630-585-7594",
    "phoneUnformatted": "+16305857594",
    "claimThisBusiness": false,
    "location": {
      "lat": 41.7533114,
      "lng": -88.3007589
    },
    "totalScore": 4.3,
    "permanentlyClosed": false,
    "temporarilyClosed": false,
    "placeId": "ChIJPaFJSpn6DogRzj3KxjsE0NI",
    "categories": [
      "Pharmacy"
    ],
    "fid": "0x880efa994a49a13d:0xd2d0043bc6ca3dce",
    "cid": "15190646197905407438",
    "reviewsCount": 16,
    "imagesCount": 5,
    "imageCategories": [],
    "scrapedAt": "2025-06-22T05:07:09.911Z",
    "googleFoodUrl": null,
    "hotelAds": [],
    "openingHours": [
      {
        "day": "Monday",
        "hours": "8 to 11 AM, 11:30 AM to 6:45 PM, 7:15 to 10 PM"
      },
      {
        "day": "Tuesday",
        "hours": "8 to 11 AM, 11:30 AM to 6:45 PM, 7:15 to 10 PM"
      },
      {
        "day": "Wednesday",
        "hours": "8 to 11 AM, 11:30 AM to 6:45 PM, 7:15 to 10 PM"
      },
      {
        "day": "Thursday",
        "hours": "8 to 11 AM, 11:30 AM to 6:45 PM, 7:15 to 10 PM"
      },
      {
        "day": "Friday",
        "hours": "8 to 11 AM, 11:30 AM to 6:45 PM, 7:15 to 10 PM"
      },
      {
        "day": "Saturday",
        "hours": "9 AM to 1 PM, 1:30 to 5 PM"
      },
      {
        "day": "Sunday",
        "hours": "9 AM to 1 PM, 1:30 to 5 PM"
      }
    ],
    "additionalOpeningHours": {
      "Drive through": [
        {
          "day": "Monday",
          "hours": "8 am–6:45 pm"
        },
        {
          "day": "Tuesday",
          "hours": "8 am–6:45 pm"
        },
        {
          "day": "Wednesday",
          "hours": "8 am–6:45 pm"
        },
        {
          "day": "Thursday",
          "hours": "8 am–6:45 pm"
        },
        {
          "day": "Friday",
          "hours": "8 am–6:45 pm"
        },
        {
          "day": "Saturday",
          "hours": "9 am–1 pm"
        },
        {
          "day": "Sunday",
          "hours": "9 am–1 pm"
        }
      ]
    },
    "peopleAlsoSearch": [],
    "placesTags": [],
    "reviewsTags": [],
    "additionalInfo": {
      "Service options": [
        {
          "Kerbside pickup": true
        },
        {
          "Drive-through": true
        },
        {
          "In-store pick-up": true
        },
        {
          "On-site services": true
        }
      ],
      "Accessibility": [
        {
          "Wheelchair-accessible car park": true
        },
        {
          "Wheelchair-accessible entrance": true
        }
      ],
      "Offerings": [
        {
          "Naloxone": true
        }
      ],
      "Planning": [
        {
          "Quick visit": true
        }
      ],
      "Payments": [
        {
          "Credit cards": true
        },
        {
          "Debit cards": true
        }
      ]
    },
    "gasPrices": [],
    "url": "https://www.google.com/maps/search/?api=1&query=Walgreens%20Pharmacy&query_place_id=ChIJPaFJSpn6DogRzj3KxjsE0NI",
    "searchPageUrl": "https://www.google.com/maps/search/independent%20pharmacy%20Aurora%20IL/@24.755066651789555,-83.14804345214435,12z?hl=en",
    "searchString": "independent pharmacy Aurora IL",
    "language": "en",
    "rank": 16,
    "isAdvertisement": false,
    "imageUrl": "https://lh3.googleusercontent.com/gps-cs-s/AC9h4npUfWBd4zo5pUySoajFQfUywWaeHXdxUQi15sanXItpTsYZ3msH1rI7mCHAhFb8Rffdu5bdf0QeqNiOhMlbjGO_BgHXKNdPw3jSoQXHqYGutdOs--2WkLSOWlHCxrO1UEnv1hYW=w408-h544-k-no",
    "kgmid": "/g/11cn94cd74"
  },
  {
    "title": "Naperville Pharmacy",
    "price": null,
    "categoryName": "Pharmacy",
    "address": "1020 E Ogden Ave #114, Naperville, IL 60563, United States",
    "neighborhood": "Naperville Park District",
    "street": "1020 E Ogden Ave #114",
    "city": "Naperville",
    "postalCode": "60563",
    "state": "Illinois",
    "countryCode": "US",
    "phone": "+1 630-922-1100",
    "phoneUnformatted": "+16309221100",
    "claimThisBusiness": false,
    "location": {
      "lat": 41.790647,
      "lng": -88.1297809
    },
    "totalScore": 4.3,
    "permanentlyClosed": false,
    "temporarilyClosed": false,
    "placeId": "ChIJ5cSCclZWDogRdfVAANX4BV8",
    "categories": [
      "Pharmacy"
    ],
    "fid": "0x880e56567282c4e5:0x5f05f8d50040f575",
    "cid": "6847152402202686837",
    "reviewsCount": 22,
    "imagesCount": 1,
    "imageCategories": [],
    "scrapedAt": "2025-06-22T05:07:09.911Z",
    "googleFoodUrl": null,
    "hotelAds": [],
    "openingHours": [
      {
        "day": "Monday",
        "hours": "9 AM to 5 PM"
      },
      {
        "day": "Tuesday",
        "hours": "9 AM to 5 PM"
      },
      {
        "day": "Wednesday",
        "hours": "9 AM to 5 PM"
      },
      {
        "day": "Thursday",
        "hours": "9 AM to 5 PM"
      },
      {
        "day": "Friday",
        "hours": "9 AM to 5 PM"
      },
      {
        "day": "Saturday",
        "hours": "9 AM to 12 PM"
      },
      {
        "day": "Sunday",
        "hours": "Closed"
      }
    ],
    "peopleAlsoSearch": [],
    "placesTags": [],
    "reviewsTags": [],
    "additionalInfo": {
      "From the business": [
        {
          "Small Business": true
        }
      ],
      "Service options": [
        {
          "Delivery": true
        },
        {
          "In-store pick-up": true
        }
      ],
      "Accessibility": [
        {
          "Wheelchair-accessible car park": true
        },
        {
          "Wheelchair-accessible entrance": true
        }
      ],
      "Planning": [
        {
          "Quick visit": true
        }
      ],
      "Payments": [
        {
          "Credit cards": true
        },
        {
          "Debit cards": true
        },
        {
          "NFC mobile payments": true
        },
        {
          "Credit cards": true
        }
      ]
    },
    "gasPrices": [],
    "url": "https://www.google.com/maps/search/?api=1&query=Naperville%20Pharmacy&query_place_id=ChIJ5cSCclZWDogRdfVAANX4BV8",
    "searchPageUrl": "https://www.google.com/maps/search/independent%20pharmacy%20Aurora%20IL/@24.755066651789555,-83.14804345214435,12z?hl=en",
    "searchString": "independent pharmacy Aurora IL",
    "language": "en",
    "rank": 17,
    "isAdvertisement": false,
    "imageUrl": "https://streetviewpixels-pa.googleapis.com/v1/thumbnail?panoid=m0XyFNEFZs_UWORDN-owBg&cb_client=search.gws-prod.gps&w=408&h=240&yaw=317.4304&pitch=0&thumbfov=100",
    "kgmid": "/g/1tfmnzyw"
  },
  {
    "title": "Meijer Pharmacy",
    "description": "Chain retailer featuring brand-name groceries plus apparel, electronics & more.",
    "price": "$$",
    "categoryName": "Pharmacy",
    "address": "808 Illinois Rte 59, Aurora, IL 60504, United States",
    "neighborhood": null,
    "street": "808 Illinois Rte 59",
    "city": "Aurora",
    "postalCode": "60504",
    "state": "Illinois",
    "countryCode": "US",
    "website": "https://www.meijer.com/shopping/store-locator/178.html?cmpid=LM:Web::::05112021::GooglePharmacy",
    "phone": "+1 630-692-6110",
    "phoneUnformatted": "+16306926110",
    "claimThisBusiness": false,
    "location": {
      "lat": 41.7684823,
      "lng": -88.2088098
    },
    "totalScore": 3.7,
    "permanentlyClosed": false,
    "temporarilyClosed": false,
    "placeId": "ChIJtaBxZWvwDogRoGZ1u9tw7I0",
    "categories": [
      "Pharmacy",
      "Medical supply store",
      "Drug store"
    ],
    "fid": "0x880ef06b6571a0b5:0x8dec70dbbb7566a0",
    "cid": "10226672942896735904",
    "reviewsCount": 45,
    "imagesCount": 9,
    "imageCategories": [],
    "scrapedAt": "2025-06-22T05:07:09.911Z",
    "googleFoodUrl": null,
    "hotelAds": [],
    "openingHours": [
      {
        "day": "Monday",
        "hours": "9 AM to 8 PM"
      },
      {
        "day": "Tuesday",
        "hours": "9 AM to 8 PM"
      },
      {
        "day": "Wednesday",
        "hours": "9 AM to 8 PM"
      },
      {
        "day": "Thursday",
        "hours": "9 AM to 8 PM"
      },
      {
        "day": "Friday",
        "hours": "9 AM to 8 PM"
      },
      {
        "day": "Saturday",
        "hours": "10 AM to 6 PM"
      },
      {
        "day": "Sunday",
        "hours": "10 AM to 6 PM"
      }
    ],
    "additionalOpeningHours": {
      "Drive through": [
        {
          "day": "Monday",
          "hours": "9 am–8 pm"
        },
        {
          "day": "Tuesday",
          "hours": "9 am–8 pm"
        },
        {
          "day": "Wednesday",
          "hours": "9 am–8 pm"
        },
        {
          "day": "Thursday",
          "hours": "9 am–8 pm"
        },
        {
          "day": "Friday",
          "hours": "9 am–8 pm"
        },
        {
          "day": "Saturday",
          "hours": "10 am–6 pm"
        },
        {
          "day": "Sunday",
          "hours": "10 am–6 pm"
        }
      ],
      "Pickup": [
        {
          "day": "Monday",
          "hours": "9 am–8 pm"
        },
        {
          "day": "Tuesday",
          "hours": "9 am–8 pm"
        },
        {
          "day": "Wednesday",
          "hours": "9 am–8 pm"
        },
        {
          "day": "Thursday",
          "hours": "9 am–8 pm"
        },
        {
          "day": "Friday",
          "hours": "9 am–8 pm"
        },
        {
          "day": "Saturday",
          "hours": "10 am–6 pm"
        },
        {
          "day": "Sunday",
          "hours": "10 am–6 pm"
        }
      ]
    },
    "peopleAlsoSearch": [],
    "placesTags": [],
    "reviewsTags": [],
    "additionalInfo": {
      "Service options": [
        {
          "Delivery": true
        },
        {
          "Drive-through": true
        },
        {
          "In-store pick-up": true
        }
      ],
      "Accessibility": [
        {
          "Wheelchair-accessible car park": true
        },
        {
          "Wheelchair-accessible entrance": true
        }
      ],
      "Offerings": [
        {
          "Medication disposal": true
        }
      ],
      "Planning": [
        {
          "Quick visit": true
        }
      ],
      "Payments": [
        {
          "NFC mobile payments": true
        }
      ]
    },
    "gasPrices": [],
    "url": "https://www.google.com/maps/search/?api=1&query=Meijer%20Pharmacy&query_place_id=ChIJtaBxZWvwDogRoGZ1u9tw7I0",
    "searchPageUrl": "https://www.google.com/maps/search/independent%20pharmacy%20Aurora%20IL/@24.755066651789555,-83.14804345214435,12z?hl=en",
    "searchString": "independent pharmacy Aurora IL",
    "language": "en",
    "rank": 18,
    "isAdvertisement": false,
    "imageUrl": "https://lh3.googleusercontent.com/gps-cs-s/AC9h4nrs1yIsUbhIi8nRhdjh8kztkvx3UJkjoYTnscZkdkn8rvkfehylSKA9yDBWxlDfLxRdMBb_-SPjqT7rBvWRBxE5LikXDIxq6GD-q0IG3lO2KTcoyYZvE9aVESiangxHbmpNokcI=w408-h306-k-no",
    "kgmid": "/g/1tdz9_qz"
  }
]