[
  {
    "title": "Ultra Care Pharmacy",
    "price": null,
    "categoryName": "Pharmacy",
    "address": "12619 Wisteria Dr A, Germantown, MD 20874",
    "neighborhood": null,
    "street": "12619 Wisteria Dr A",
    "city": "Germantown",
    "postalCode": "20874",
    "state": "Maryland",
    "countryCode": "US",
    "website": "http://www.ultracarepharmacymd.com/",
    "phone": "(301) 569-6464",
    "phoneUnformatted": "+13015696464",
    "claimThisBusiness": false,
    "location": {
      "lat": 39.1714449,
      "lng": -77.2609501
    },
    "totalScore": 4.7,
    "permanentlyClosed": false,
    "temporarilyClosed": false,
    "placeId": "ChIJGc3vI0cstokRieLT7MtymfM",
    "categories": [
      "Pharmacy"
    ],
    "fid": "0x89b62c4723efcd19:0xf39972cbecd3e289",
    "cid": "17553187242830455433",
    "reviewsCount": 165,
    "imagesCount": 20,
    "imageCategories": [],
    "scrapedAt": "2025-06-22T05:30:27.821Z",
    "googleFoodUrl": null,
    "hotelAds": [],
    "openingHours": [
      {
        "day": "Monday",
        "hours": "9 AM to 6 PM"
      },
      {
        "day": "Tuesday",
        "hours": "9 AM to 6 PM"
      },
      {
        "day": "Wednesday",
        "hours": "9 AM to 6 PM"
      },
      {
        "day": "Thursday",
        "hours": "9 AM to 6 PM"
      },
      {
        "day": "Friday",
        "hours": "9 AM to 6 PM"
      },
      {
        "day": "Saturday",
        "hours": "10 AM to 2 PM"
      },
      {
        "day": "Sunday",
        "hours": "Closed"
      }
    ],
    "peopleAlsoSearch": [],
    "placesTags": [],
    "reviewsTags": [],
    "additionalInfo": {
      "From the business": [
        {
          "Small business": true
        }
      ],
      "Service options": [
        {
          "Delivery": true
        },
        {
          "In-store pickup": true
        },
        {
          "Onsite services": true
        },
        {
          "Same-day delivery": true
        }
      ],
      "Accessibility": [
        {
          "Wheelchair accessible entrance": true
        },
        {
          "Wheelchair accessible parking lot": true
        }
      ],
      "Payments": [
        {
          "Checks": true
        },
        {
          "Credit cards": true
        },
        {
          "Debit cards": true
        },
        {
          "NFC mobile payments": true
        },
        {
          "Credit cards": true
        }
      ]
    },
    "gasPrices": [],
    "url": "https://www.google.com/maps/search/?api=1&query=Ultra%20Care%20Pharmacy&query_place_id=ChIJGc3vI0cstokRieLT7MtymfM",
    "searchPageUrl": "https://www.google.com/maps/search/independent%20pharmacy%20Germantown%20MD/@20.85199918378289,-156.8573535879949,11z?hl=en",
    "searchString": "independent pharmacy Germantown MD",
    "language": "en",
    "rank": 1,
    "isAdvertisement": false,
    "imageUrl": "https://lh3.googleusercontent.com/p/AF1QipORr2kK1SSuLgTHM3ftY22vTen8NY1whmF0CPaQ=w408-h306-k-no",
    "kgmid": "/g/11dymm9ntj"
  },
  {
    "title": "Giant Pharmacy",
    "price": "$$",
    "categoryName": "Pharmacy",
    "address": "18331 Leaman Farm Rd, Germantown, MD 20874",
    "neighborhood": null,
    "street": "18331 Leaman Farm Rd",
    "city": "Germantown",
    "postalCode": "20874",
    "state": "Maryland",
    "countryCode": "US",
    "website": "https://pharmacy.giantfood.com/md/germantown/18331-leaman-farm-road?y_source=1_MTE2Mzg1MTEtNzE1LWxvY2F0aW9uLndlYnNpdGU%3D",
    "phone": "(301) 528-2764",
    "phoneUnformatted": "+13015282764",
    "claimThisBusiness": false,
    "location": {
      "lat": 39.1597761,
      "lng": -77.2787451
    },
    "totalScore": 3.3,
    "permanentlyClosed": false,
    "temporarilyClosed": false,
    "placeId": "ChIJPSexO9MttokRmZV2tJPo1fs",
    "categories": [
      "Pharmacy"
    ],
    "fid": "0x89b62dd33bb1273d:0xfbd5e893b4769599",
    "cid": "18146665994644788633",
    "reviewsCount": 24,
    "imagesCount": 7,
    "imageCategories": [],
    "scrapedAt": "2025-06-22T05:30:27.823Z",
    "googleFoodUrl": null,
    "hotelAds": [],
    "openingHours": [
      {
        "day": "Monday",
        "hours": "9 AM to 9 PM"
      },
      {
        "day": "Tuesday",
        "hours": "9 AM to 9 PM"
      },
      {
        "day": "Wednesday",
        "hours": "9 AM to 9 PM"
      },
      {
        "day": "Thursday",
        "hours": "9 AM to 9 PM"
      },
      {
        "day": "Friday",
        "hours": "9 AM to 9 PM"
      },
      {
        "day": "Saturday",
        "hours": "9 AM to 6 PM"
      },
      {
        "day": "Sunday",
        "hours": "10 AM to 5 PM"
      }
    ],
    "peopleAlsoSearch": [],
    "placesTags": [],
    "reviewsTags": [],
    "additionalInfo": {
      "Service options": [
        {
          "Delivery": true
        },
        {
          "In-store pickup": true
        },
        {
          "Onsite services": true
        }
      ],
      "Accessibility": [
        {
          "Wheelchair accessible entrance": true
        },
        {
          "Wheelchair accessible parking lot": true
        }
      ],
      "Planning": [
        {
          "Quick visit": true
        }
      ],
      "Payments": [
        {
          "Credit cards": true
        }
      ]
    },
    "gasPrices": [],
    "url": "https://www.google.com/maps/search/?api=1&query=Giant%20Pharmacy&query_place_id=ChIJPSexO9MttokRmZV2tJPo1fs",
    "searchPageUrl": "https://www.google.com/maps/search/independent%20pharmacy%20Germantown%20MD/@20.85199918378289,-156.8573535879949,11z?hl=en",
    "searchString": "independent pharmacy Germantown MD",
    "language": "en",
    "rank": 2,
    "isAdvertisement": false,
    "imageUrl": "https://lh3.googleusercontent.com/gps-cs-s/AC9h4nqhUKBy-WcrEgvX_u_PEuj37JXw19n2TxkodspfahWshhUCJ041dvL0_CeJD2FMD0Hyv7hm9jBNuCQYlyFAjF6nGbDFDRkBfuTEoVSeltL5dRAlD5QElxB-f0pNwtR0lqLgGxC7Lg=w408-h544-k-no",
    "kgmid": "/g/1hd_fz0cl"
  },
  {
    "title": "CVS Pharmacy",
    "price": null,
    "categoryName": "Pharmacy",
    "address": "20908 Frederick Rd, Germantown, MD 20876",
    "neighborhood": null,
    "street": "20908 Frederick Rd",
    "city": "Germantown",
    "postalCode": "20876",
    "state": "Maryland",
    "countryCode": "US",
    "website": "https://www.cvs.com/store-locator/germantown-md-pharmacies/20908-frederick-rd-germantown-md-20876/storeid=16431?WT.mc_id=LS_GOOGLE_RX_16431",
    "phone": "(301) 515-0189",
    "phoneUnformatted": "+13015150189",
    "claimThisBusiness": false,
    "location": {
      "lat": 39.1987842,
      "lng": -77.2484867
    },
    "totalScore": 3.2,
    "permanentlyClosed": false,
    "temporarilyClosed": false,
    "placeId": "ChIJ9QxGRYErtokR_uqRnwJRfeY",
    "categories": [
      "Pharmacy"
    ],
    "fid": "0x89b62b8145460cf5:0xe67d51029f91eafe",
    "cid": "16608520072521181950",
    "reviewsCount": 58,
    "imagesCount": 16,
    "imageCategories": [],
    "scrapedAt": "2025-06-22T05:30:30.029Z",
    "googleFoodUrl": null,
    "hotelAds": [],
    "openingHours": [
      {
        "day": "Monday",
        "hours": "9 AM to 1:30 PM, 2 to 7 PM"
      },
      {
        "day": "Tuesday",
        "hours": "9 AM to 1:30 PM, 2 to 7 PM"
      },
      {
        "day": "Wednesday",
        "hours": "9 AM to 1:30 PM, 2 to 7 PM"
      },
      {
        "day": "Thursday",
        "hours": "9 AM to 1:30 PM, 2 to 7 PM"
      },
      {
        "day": "Friday",
        "hours": "9 AM to 1:30 PM, 2 to 7 PM"
      },
      {
        "day": "Saturday",
        "hours": "10 AM to 1:30 PM, 2 to 6 PM"
      },
      {
        "day": "Sunday",
        "hours": "11 AM to 1:30 PM, 2 to 6 PM"
      }
    ],
    "peopleAlsoSearch": [],
    "placesTags": [],
    "reviewsTags": [],
    "additionalInfo": {
      "Service options": [
        {
          "Delivery": true
        },
        {
          "In-store shopping": true
        }
      ],
      "Accessibility": [
        {
          "Wheelchair accessible entrance": true
        },
        {
          "Wheelchair accessible parking lot": true
        }
      ],
      "Offerings": [
        {
          "Naloxone": true
        }
      ],
      "Crowd": [
        {
          "LGBTQ+ friendly": true
        },
        {
          "Transgender safespace": true
        }
      ],
      "Planning": [
        {
          "Quick visit": true
        }
      ],
      "Payments": [
        {
          "Credit cards": true
        },
        {
          "Debit cards": true
        },
        {
          "Credit cards": true
        }
      ]
    },
    "gasPrices": [],
    "url": "https://www.google.com/maps/search/?api=1&query=CVS%20Pharmacy&query_place_id=ChIJ9QxGRYErtokR_uqRnwJRfeY",
    "searchPageUrl": "https://www.google.com/maps/search/independent%20pharmacy%20Germantown%20MD/@62.264056934850785,-145.05491807162034,9z?hl=en",
    "searchString": "independent pharmacy Germantown MD",
    "language": "en",
    "rank": 2,
    "isAdvertisement": false,
    "imageUrl": "https://lh3.googleusercontent.com/p/AF1QipOcgi1mNrtFuSzhWrPDoH6YR57GPRZ0W5p-4em7=w408-h272-k-no",
    "kgmid": "/g/1ts304gj"
  },
  {
    "title": "Safeway Pharmacy",
    "price": "$$",
    "categoryName": "Pharmacy",
    "address": "19718 Germantown Rd, Germantown, MD 20874",
    "neighborhood": null,
    "street": "19718 Germantown Rd",
    "city": "Germantown",
    "postalCode": "20874",
    "state": "Maryland",
    "countryCode": "US",
    "website": "https://local.pharmacy.safeway.com/safeway/md/germantown/19718-germantown-rd.html",
    "phone": "(301) 916-8587",
    "phoneUnformatted": "+13019168587",
    "claimThisBusiness": false,
    "location": {
      "lat": 39.180577,
      "lng": -77.2666373
    },
    "totalScore": 3,
    "permanentlyClosed": false,
    "temporarilyClosed": false,
    "placeId": "ChIJS5CpDhUstokRFEJzc_dKTzw",
    "categories": [
      "Pharmacy",
      "Drug store",
      "Vitamin & supplements store"
    ],
    "fid": "0x89b62c150ea9904b:0x3c4f4af773734214",
    "cid": "4345774592090128916",
    "reviewsCount": 33,
    "imagesCount": 6,
    "imageCategories": [],
    "scrapedAt": "2025-06-22T05:30:30.030Z",
    "googleFoodUrl": null,
    "hotelAds": [],
    "openingHours": [
      {
        "day": "Monday",
        "hours": "9 AM to 1:30 PM, 2 to 9 PM"
      },
      {
        "day": "Tuesday",
        "hours": "9 AM to 1:30 PM, 2 to 9 PM"
      },
      {
        "day": "Wednesday",
        "hours": "9 AM to 1:30 PM, 2 to 9 PM"
      },
      {
        "day": "Thursday",
        "hours": "9 AM to 1:30 PM, 2 to 9 PM"
      },
      {
        "day": "Friday",
        "hours": "9 AM to 1:30 PM, 2 to 9 PM"
      },
      {
        "day": "Saturday",
        "hours": "9 AM to 1:30 PM, 2 to 6 PM"
      },
      {
        "day": "Sunday",
        "hours": "10 AM to 1:30 PM, 2 to 5 PM"
      }
    ],
    "peopleAlsoSearch": [],
    "placesTags": [],
    "reviewsTags": [],
    "additionalInfo": {
      "Service options": [
        {
          "Delivery": true
        },
        {
          "In-store pickup": true
        },
        {
          "In-store shopping": true
        },
        {
          "Same-day delivery": true
        }
      ],
      "Accessibility": [
        {
          "Wheelchair accessible entrance": true
        },
        {
          "Wheelchair accessible parking lot": true
        }
      ],
      "Amenities": [
        {
          "Wi-Fi": true
        },
        {
          "Free Wi-Fi": true
        }
      ],
      "Crowd": [
        {
          "LGBTQ+ friendly": true
        }
      ],
      "Planning": [
        {
          "Appointment required": true
        },
        {
          "Quick visit": true
        }
      ],
      "Payments": [
        {
          "Checks": true
        },
        {
          "Debit cards": true
        },
        {
          "Credit cards": true
        }
      ]
    },
    "gasPrices": [],
    "url": "https://www.google.com/maps/search/?api=1&query=Safeway%20Pharmacy&query_place_id=ChIJS5CpDhUstokRFEJzc_dKTzw",
    "searchPageUrl": "https://www.google.com/maps/search/independent%20pharmacy%20Germantown%20MD/@62.264056934850785,-145.05491807162034,9z?hl=en",
    "searchString": "independent pharmacy Germantown MD",
    "language": "en",
    "rank": 3,
    "isAdvertisement": false,
    "imageUrl": "https://lh3.googleusercontent.com/p/AF1QipOf8V7ghLlr0ChL7jxxyhF0GpQAlODRyDMPXn8=w426-h240-k-no",
    "kgmid": "/g/1td1wb3z"
  },
  {
    "title": "CVS Pharmacy",
    "price": null,
    "categoryName": "Pharmacy",
    "address": "19901 Frederick Rd, Germantown, MD 20876",
    "neighborhood": null,
    "street": "19901 Frederick Rd",
    "city": "Germantown",
    "postalCode": "20876",
    "state": "Maryland",
    "countryCode": "US",
    "website": "https://www.cvs.com/store-locator/germantown-md-pharmacies/19901-frederick-rd-germantown-md-20876/storeid=5460?WT.mc_id=LS_GOOGLE_RX_5460",
    "phone": "(301) 916-7767",
    "phoneUnformatted": "+13019167767",
    "claimThisBusiness": false,
    "location": {
      "lat": 39.1820435,
      "lng": -77.2379139
    },
    "totalScore": 3.5,
    "permanentlyClosed": false,
    "temporarilyClosed": false,
    "placeId": "ChIJLZbkqIkstokRX2NOnIaPaZY",
    "categories": [
      "Pharmacy"
    ],
    "fid": "0x89b62c89a8e4962d:0x96698f869c4e635f",
    "cid": "10838351786554581855",
    "reviewsCount": 20,
    "imagesCount": 14,
    "imageCategories": [],
    "scrapedAt": "2025-06-22T05:30:30.030Z",
    "googleFoodUrl": null,
    "hotelAds": [],
    "openingHours": [
      {
        "day": "Monday",
        "hours": "9 AM to 1:30 PM, 2 to 10 PM"
      },
      {
        "day": "Tuesday",
        "hours": "9 AM to 1:30 PM, 2 to 10 PM"
      },
      {
        "day": "Wednesday",
        "hours": "9 AM to 1:30 PM, 2 to 10 PM"
      },
      {
        "day": "Thursday",
        "hours": "9 AM to 1:30 PM, 2 to 10 PM"
      },
      {
        "day": "Friday",
        "hours": "9 AM to 1:30 PM, 2 to 10 PM"
      },
      {
        "day": "Saturday",
        "hours": "9 AM to 1:30 PM, 2 to 6 PM"
      },
      {
        "day": "Sunday",
        "hours": "10 AM to 1:30 PM, 2 to 6 PM"
      }
    ],
    "peopleAlsoSearch": [],
    "placesTags": [],
    "reviewsTags": [],
    "additionalInfo": {
      "Service options": [
        {
          "Delivery": true
        },
        {
          "Drive-through": true
        },
        {
          "In-store pickup": true
        },
        {
          "In-store shopping": true
        },
        {
          "Onsite services": true
        }
      ],
      "Accessibility": [
        {
          "Wheelchair accessible entrance": true
        },
        {
          "Wheelchair accessible parking lot": true
        }
      ],
      "Offerings": [
        {
          "Medication disposal": true
        },
        {
          "Naloxone": true
        },
        {
          "Passport photos": true
        }
      ],
      "Crowd": [
        {
          "LGBTQ+ friendly": true
        },
        {
          "Transgender safespace": true
        }
      ],
      "Planning": [
        {
          "Quick visit": true
        }
      ],
      "Payments": [
        {
          "Credit cards": true
        },
        {
          "Debit cards": true
        },
        {
          "NFC mobile payments": true
        },
        {
          "SNAP/EBT": true
        },
        {
          "Credit cards": true
        }
      ]
    },
    "gasPrices": [],
    "url": "https://www.google.com/maps/search/?api=1&query=CVS%20Pharmacy&query_place_id=ChIJLZbkqIkstokRX2NOnIaPaZY",
    "searchPageUrl": "https://www.google.com/maps/search/independent%20pharmacy%20Germantown%20MD/@62.264056934850785,-145.05491807162034,9z?hl=en",
    "searchString": "independent pharmacy Germantown MD",
    "language": "en",
    "rank": 4,
    "isAdvertisement": false,
    "imageUrl": "https://lh3.googleusercontent.com/gps-cs-s/AC9h4nrs3FxpHwvBW51qvsnqBcV0L3VlRwtK6qdQbfc_2Co9IysfGbdIzI3Qj79pWqOYqSd8Rt7f8Og61iou1rZ9WeYbAw3hqxAKGz_YYgYeecCEFTW8AJXo7zX9b0XMKJ5YluVcvEBl=w426-h240-k-no",
    "kgmid": "/g/11c468w6nm"
  },
  {
    "title": "Germantown Pharmacy",
    "price": null,
    "categoryName": "Pharmacy",
    "address": "7465 Poplar Ave, Germantown, TN 38138",
    "neighborhood": null,
    "street": "7465 Poplar Ave",
    "city": "Germantown",
    "postalCode": "38138",
    "state": "Tennessee",
    "countryCode": "US",
    "website": "https://www.rxlocal.com/pharmacyFinder/tn/germantown/germantown-pharmacy",
    "phone": "(901) 729-6429",
    "phoneUnformatted": "+19017296429",
    "claimThisBusiness": false,
    "location": {
      "lat": 35.094374,
      "lng": -89.8141578
    },
    "totalScore": 4.7,
    "permanentlyClosed": false,
    "temporarilyClosed": false,
    "placeId": "ChIJcyx-3y2bf4gRK4H1KQYls4E",
    "categories": [
      "Pharmacy"
    ],
    "fid": "0x887f9b2ddf7e2c73:0x81b3250629f5812b",
    "cid": "9345854360127897899",
    "reviewsCount": 58,
    "imagesCount": 13,
    "imageCategories": [],
    "scrapedAt": "2025-06-22T05:30:42.897Z",
    "googleFoodUrl": null,
    "hotelAds": [],
    "openingHours": [
      {
        "day": "Monday",
        "hours": "9 AM to 6 PM"
      },
      {
        "day": "Tuesday",
        "hours": "9 AM to 6 PM"
      },
      {
        "day": "Wednesday",
        "hours": "9 AM to 6 PM"
      },
      {
        "day": "Thursday",
        "hours": "9 AM to 6 PM"
      },
      {
        "day": "Friday",
        "hours": "9 AM to 6 PM"
      },
      {
        "day": "Saturday",
        "hours": "9 AM to 2 PM"
      },
      {
        "day": "Sunday",
        "hours": "Closed"
      }
    ],
    "peopleAlsoSearch": [],
    "placesTags": [],
    "reviewsTags": [],
    "additionalInfo": {
      "Service options": [
        {
          "Drive-through": true
        },
        {
          "In-store shopping": true
        },
        {
          "Onsite services": true
        }
      ],
      "Accessibility": [
        {
          "Wheelchair accessible entrance": true
        },
        {
          "Wheelchair accessible parking lot": true
        }
      ],
      "Planning": [
        {
          "Quick visit": true
        }
      ],
      "Payments": [
        {
          "Credit cards": true
        }
      ]
    },
    "gasPrices": [],
    "url": "https://www.google.com/maps/search/?api=1&query=Germantown%20Pharmacy&query_place_id=ChIJcyx-3y2bf4gRK4H1KQYls4E",
    "searchPageUrl": "https://www.google.com/maps/search/independent%20pharmacy%20Germantown%20MD/@33.954544952667874,-105.48342742835163,8z?hl=en",
    "searchString": "independent pharmacy Germantown MD",
    "language": "en",
    "rank": 2,
    "isAdvertisement": false,
    "imageUrl": "https://lh3.googleusercontent.com/gps-cs-s/AC9h4noqxjqxFkoN2jXg5juz-5pBmM31FS7dxNGkNxKh3986e2Aw9v_s-IOhG8nQSZDBsjOnz_Ib51rvhEVE5Enmq4kPQiUL2cb9MAuxArvvBbE2VxBFHqr271FCiyZ5kpf8SB9ybg0=w426-h240-k-no",
    "kgmid": "/g/11fmmpsty2"
  },
  {
    "title": "Potomac Care Pharmacy",
    "price": null,
    "categoryName": "Pharmacy",
    "address": "12103 Darnestown Rd, Gaithersburg, MD 20878",
    "neighborhood": "Quince Orchard",
    "street": "12103 Darnestown Rd",
    "city": "Gaithersburg",
    "postalCode": "20878",
    "state": "Maryland",
    "countryCode": "US",
    "website": "http://www.potomaccarepharmacy.com/",
    "phone": "(301) 337-6430",
    "phoneUnformatted": "+13013376430",
    "claimThisBusiness": false,
    "location": {
      "lat": 39.1176919,
      "lng": -77.2505386
    },
    "totalScore": 4.9,
    "permanentlyClosed": false,
    "temporarilyClosed": false,
    "placeId": "ChIJnyENSoYttokRwNgkSIGn9u8",
    "categories": [
      "Pharmacy",
      "Vitamin & supplements store"
    ],
    "fid": "0x89b62d864a0d219f:0xeff6a7814824d8c0",
    "cid": "17291191993038592192",
    "reviewsCount": 33,
    "imagesCount": 54,
    "imageCategories": [],
    "scrapedAt": "2025-06-22T05:31:24.845Z",
    "googleFoodUrl": null,
    "hotelAds": [],
    "openingHours": [
      {
        "day": "Monday",
        "hours": "9 AM to 6 PM"
      },
      {
        "day": "Tuesday",
        "hours": "9 AM to 6 PM"
      },
      {
        "day": "Wednesday",
        "hours": "9 AM to 6 PM"
      },
      {
        "day": "Thursday",
        "hours": "9 AM to 6 PM"
      },
      {
        "day": "Friday",
        "hours": "9 AM to 6 PM"
      },
      {
        "day": "Saturday",
        "hours": "Closed"
      },
      {
        "day": "Sunday",
        "hours": "Closed"
      }
    ],
    "peopleAlsoSearch": [],
    "placesTags": [],
    "reviewsTags": [],
    "additionalInfo": {
      "From the business": [
        {
          "Small business": true
        }
      ],
      "Service options": [
        {
          "Delivery": true
        },
        {
          "In-store pickup": true
        },
        {
          "Same-day delivery": true
        }
      ],
      "Accessibility": [
        {
          "Wheelchair accessible entrance": true
        },
        {
          "Wheelchair accessible parking lot": true
        }
      ],
      "Planning": [
        {
          "Quick visit": true
        }
      ],
      "Payments": [
        {
          "Credit cards": true
        },
        {
          "Debit cards": true
        },
        {
          "NFC mobile payments": true
        },
        {
          "Credit cards": true
        }
      ]
    },
    "gasPrices": [],
    "url": "https://www.google.com/maps/search/?api=1&query=Potomac%20Care%20Pharmacy&query_place_id=ChIJnyENSoYttokRwNgkSIGn9u8",
    "searchPageUrl": "https://www.google.com/maps/search/independent%20pharmacy%20Germantown%20MD/@42.54640259466427,-89.6522977144323,8z?hl=en",
    "searchString": "independent pharmacy Germantown MD",
    "language": "en",
    "rank": 2,
    "isAdvertisement": false,
    "imageUrl": "https://lh3.googleusercontent.com/p/AF1QipP5kfvXZ1DtJweGQiimNtcM0A54TmxEHa53FhOZ=w408-h272-k-no",
    "kgmid": "/g/11c31r978q"
  },
  {
    "title": "Green Pharmacy",
    "price": null,
    "categoryName": "Pharmacy",
    "address": "501 N Frederick Ave #107b, Gaithersburg, MD 20877",
    "neighborhood": null,
    "street": "501 N Frederick Ave #107b",
    "city": "Gaithersburg",
    "postalCode": "20877",
    "state": "Maryland",
    "countryCode": "US",
    "website": "http://greenpharmacyonline.com/",
    "phone": "(301) 519-9518",
    "phoneUnformatted": "+13015199518",
    "claimThisBusiness": false,
    "location": {
      "lat": 39.1510011,
      "lng": -77.2091957
    },
    "totalScore": 4.4,
    "permanentlyClosed": false,
    "temporarilyClosed": false,
    "placeId": "ChIJ8eq7ficttokR2ol6qfltXSQ",
    "categories": [
      "Pharmacy"
    ],
    "fid": "0x89b62d277ebbeaf1:0x245d6df9a97a89da",
    "cid": "2620371477257161178",
    "reviewsCount": 7,
    "imagesCount": 4,
    "imageCategories": [],
    "scrapedAt": "2025-06-22T05:31:24.846Z",
    "googleFoodUrl": null,
    "hotelAds": [],
    "openingHours": [
      {
        "day": "Monday",
        "hours": "9 AM to 7 PM"
      },
      {
        "day": "Tuesday",
        "hours": "9 AM to 7 PM"
      },
      {
        "day": "Wednesday",
        "hours": "9 AM to 7 PM"
      },
      {
        "day": "Thursday",
        "hours": "9 AM to 7 PM"
      },
      {
        "day": "Friday",
        "hours": "9 AM to 7 PM"
      },
      {
        "day": "Saturday",
        "hours": "10 AM to 5 PM"
      },
      {
        "day": "Sunday",
        "hours": "Closed"
      }
    ],
    "peopleAlsoSearch": [],
    "placesTags": [],
    "reviewsTags": [],
    "additionalInfo": {
      "From the business": [
        {
          "Small business": true
        }
      ],
      "Service options": [
        {
          "Delivery": true
        },
        {
          "In-store pickup": true
        },
        {
          "Same-day delivery": true
        },
        {
          "Arabic": true
        }
      ],
      "Accessibility": [
        {
          "Wheelchair accessible entrance": true
        },
        {
          "Wheelchair accessible parking lot": true
        }
      ],
      "Planning": [
        {
          "Quick visit": true
        }
      ],
      "Payments": [
        {
          "Credit cards": true
        },
        {
          "Debit cards": true
        },
        {
          "NFC mobile payments": true
        },
        {
          "Credit cards": true
        }
      ]
    },
    "gasPrices": [],
    "url": "https://www.google.com/maps/search/?api=1&query=Green%20Pharmacy&query_place_id=ChIJ8eq7ficttokR2ol6qfltXSQ",
    "searchPageUrl": "https://www.google.com/maps/search/independent%20pharmacy%20Germantown%20MD/@42.54640259466427,-89.6522977144323,8z?hl=en",
    "searchString": "independent pharmacy Germantown MD",
    "language": "en",
    "rank": 4,
    "isAdvertisement": false,
    "imageUrl": "https://lh3.googleusercontent.com/p/AF1QipPIwzVfEGsuKbnBFCM9b2q6adTxgTtB9pz5WSEQ=w408-h405-k-no",
    "kgmid": "/g/11hbt4zpvs"
  },
  {
    "title": "Healing Pharmacy",
    "price": null,
    "categoryName": "Pharmacy",
    "address": "109 W Chelten Ave, Philadelphia, PA 19144",
    "neighborhood": "Germantown",
    "street": "109 W Chelten Ave",
    "city": "Philadelphia",
    "postalCode": "19144",
    "state": "Pennsylvania",
    "countryCode": "US",
    "website": "http://www.healingpharmacypa.com/",
    "phone": "(267) 297-6482",
    "phoneUnformatted": "+12672976482",
    "claimThisBusiness": false,
    "location": {
      "lat": 40.0338488,
      "lng": -75.1769741
    },
    "totalScore": 4.7,
    "permanentlyClosed": false,
    "temporarilyClosed": false,
    "placeId": "ChIJ7Uh5LTa4xokR8vForugjuUw",
    "categories": [
      "Pharmacy"
    ],
    "fid": "0x89c6b8362d7948ed:0x4cb923e8ae68f1f2",
    "cid": "5528489499839492594",
    "reviewsCount": 18,
    "imagesCount": 5,
    "imageCategories": [],
    "scrapedAt": "2025-06-22T05:31:24.846Z",
    "googleFoodUrl": null,
    "hotelAds": [],
    "openingHours": [
      {
        "day": "Monday",
        "hours": "9 AM to 6 PM"
      },
      {
        "day": "Tuesday",
        "hours": "9 AM to 6 PM"
      },
      {
        "day": "Wednesday",
        "hours": "9 AM to 6 PM"
      },
      {
        "day": "Thursday",
        "hours": "9 AM to 6 PM"
      },
      {
        "day": "Friday",
        "hours": "9 AM to 6 PM"
      },
      {
        "day": "Saturday",
        "hours": "9 AM to 2 PM"
      },
      {
        "day": "Sunday",
        "hours": "Closed"
      }
    ],
    "peopleAlsoSearch": [],
    "placesTags": [],
    "reviewsTags": [],
    "additionalInfo": {
      "From the business": [
        {
          "Small business": true
        }
      ],
      "Service options": [
        {
          "Delivery": true
        },
        {
          "In-store pickup": true
        }
      ],
      "Planning": [
        {
          "Quick visit": true
        }
      ],
      "Payments": [
        {
          "Credit cards": true
        },
        {
          "Debit cards": true
        },
        {
          "NFC mobile payments": true
        },
        {
          "Credit cards": true
        }
      ]
    },
    "gasPrices": [],
    "url": "https://www.google.com/maps/search/?api=1&query=Healing%20Pharmacy&query_place_id=ChIJ7Uh5LTa4xokR8vForugjuUw",
    "searchPageUrl": "https://www.google.com/maps/search/independent%20pharmacy%20Germantown%20MD/@42.54640259466427,-89.6522977144323,8z?hl=en",
    "searchString": "independent pharmacy Germantown MD",
    "language": "en",
    "rank": 5,
    "isAdvertisement": false,
    "imageUrl": "https://lh3.googleusercontent.com/gps-cs-s/AC9h4nqkxynQYNJituFtCAaYj10IKyrg9Oula0Ki3rWq5rDLIi9lN2ZjG6O7oSxbnsQy00Zpm4b0HBLG9aA1coRtOnWGGb3ZhADPovvtgln8RZXfIcZtlfciiWgVbPpwMu-ZCr5VV-9eTg=w408-h725-k-no",
    "kgmid": "/g/1tv252qz"
  },
  {
    "title": "Atlas Pharmacy",
    "price": null,
    "categoryName": "Pharmacy",
    "address": "16220 Frederick Rd #100, Gaithersburg, MD 20877",
    "neighborhood": null,
    "street": "16220 Frederick Rd #100",
    "city": "Gaithersburg",
    "postalCode": "20877",
    "state": "Maryland",
    "countryCode": "US",
    "website": "http://www.atlaspharmarx.com/",
    "phone": "(240) 403-7535",
    "phoneUnformatted": "+12404037535",
    "claimThisBusiness": false,
    "location": {
      "lat": 39.121373,
      "lng": -77.1772212
    },
    "totalScore": 4.9,
    "permanentlyClosed": false,
    "temporarilyClosed": false,
    "placeId": "ChIJr6lY1ZzTt4kRqivnOHid_v4",
    "categories": [
      "Pharmacy",
      "Drug store"
    ],
    "fid": "0x89b7d39cd558a9af:0xfefe9d7838e72baa",
    "cid": "18374296669394512810",
    "reviewsCount": 95,
    "imagesCount": 3,
    "imageCategories": [],
    "scrapedAt": "2025-06-22T05:31:24.846Z",
    "googleFoodUrl": null,
    "hotelAds": [],
    "openingHours": [
      {
        "day": "Monday",
        "hours": "9 AM to 6 PM"
      },
      {
        "day": "Tuesday",
        "hours": "9 AM to 6 PM"
      },
      {
        "day": "Wednesday",
        "hours": "9 AM to 6 PM"
      },
      {
        "day": "Thursday",
        "hours": "9 AM to 6 PM"
      },
      {
        "day": "Friday",
        "hours": "9 AM to 6 PM"
      },
      {
        "day": "Saturday",
        "hours": "Closed"
      },
      {
        "day": "Sunday",
        "hours": "Closed"
      }
    ],
    "peopleAlsoSearch": [],
    "placesTags": [],
    "reviewsTags": [],
    "additionalInfo": {
      "From the business": [
        {
          "Small business": true
        }
      ],
      "Service options": [
        {
          "Delivery": true
        },
        {
          "In-store shopping": true
        },
        {
          "Same-day delivery": true
        }
      ],
      "Accessibility": [
        {
          "Wheelchair accessible entrance": true
        },
        {
          "Wheelchair accessible parking lot": true
        }
      ],
      "Planning": [
        {
          "Quick visit": true
        }
      ],
      "Payments": [
        {
          "Credit cards": true
        },
        {
          "Debit cards": true
        },
        {
          "NFC mobile payments": true
        },
        {
          "Credit cards": true
        }
      ]
    },
    "gasPrices": [],
    "url": "https://www.google.com/maps/search/?api=1&query=Atlas%20Pharmacy&query_place_id=ChIJr6lY1ZzTt4kRqivnOHid_v4",
    "searchPageUrl": "https://www.google.com/maps/search/independent%20pharmacy%20Germantown%20MD/@42.54640259466427,-89.6522977144323,8z?hl=en",
    "searchString": "independent pharmacy Germantown MD",
    "language": "en",
    "rank": 8,
    "isAdvertisement": false,
    "imageUrl": "https://lh3.googleusercontent.com/gps-cs-s/AC9h4noh3v4NMz75B6WJkxLJP2FxTCY4vvpTZM7E-3n6IbGXVcaDb1fKF0h5ZUeHDvEN1GpU3xMFFxlhUbWs1xTItdHjmCKqAcqFgxlYACqasqC-lR1G4fd9s2bhAmlosxhZIV3g2V4JSw=w519-h240-k-no",
    "kgmid": "/g/11t7kxtt6x"
  },
  {
    "title": "Germantown Pharmacy Inc",
    "price": null,
    "categoryName": "Pharmacy",
    "address": "5100 Germantown Ave, Philadelphia, PA 19144",
    "neighborhood": "Germantown",
    "street": "5100 Germantown Ave",
    "city": "Philadelphia",
    "postalCode": "19144",
    "state": "Pennsylvania",
    "countryCode": "US",
    "website": "http://www.germantownpharma.com/",
    "phone": "(215) 844-1319",
    "phoneUnformatted": "+12158441319",
    "claimThisBusiness": true,
    "location": {
      "lat": 40.0302192,
      "lng": -75.1656648
    },
    "totalScore": 4,
    "permanentlyClosed": false,
    "temporarilyClosed": false,
    "placeId": "ChIJF9I0-i-4xokRnn18ieuZCJo",
    "categories": [
      "Pharmacy"
    ],
    "fid": "0x89c6b82ffa34d217:0x9a0899eb897c7d9e",
    "cid": "11099290518557588894",
    "reviewsCount": 15,
    "imagesCount": 1,
    "imageCategories": [],
    "scrapedAt": "2025-06-22T05:31:24.846Z",
    "googleFoodUrl": null,
    "hotelAds": [],
    "openingHours": [
      {
        "day": "Monday",
        "hours": "8:30 AM to 6 PM"
      },
      {
        "day": "Tuesday",
        "hours": "8:30 AM to 6 PM"
      },
      {
        "day": "Wednesday",
        "hours": "8:30 AM to 6 PM"
      },
      {
        "day": "Thursday",
        "hours": "8:30 AM to 6 PM"
      },
      {
        "day": "Friday",
        "hours": "8:30 AM to 6 PM"
      },
      {
        "day": "Saturday",
        "hours": "8:30 AM to 6 PM"
      },
      {
        "day": "Sunday",
        "hours": "Closed"
      }
    ],
    "peopleAlsoSearch": [],
    "placesTags": [],
    "reviewsTags": [],
    "additionalInfo": {
      "Service options": [
        {
          "Delivery": true
        },
        {
          "Same-day delivery": true
        }
      ],
      "Accessibility": [
        {
          "Wheelchair accessible entrance": true
        },
        {
          "Wheelchair accessible parking lot": true
        }
      ],
      "Planning": [
        {
          "Quick visit": true
        }
      ],
      "Payments": [
        {
          "Credit cards": true
        },
        {
          "Debit cards": true
        },
        {
          "NFC mobile payments": true
        },
        {
          "Credit cards": true
        }
      ]
    },
    "gasPrices": [],
    "url": "https://www.google.com/maps/search/?api=1&query=Germantown%20Pharmacy%20Inc&query_place_id=ChIJF9I0-i-4xokRnn18ieuZCJo",
    "searchPageUrl": "https://www.google.com/maps/search/independent%20pharmacy%20Germantown%20MD/@42.54640259466427,-89.6522977144323,8z?hl=en",
    "searchString": "independent pharmacy Germantown MD",
    "language": "en",
    "rank": 9,
    "isAdvertisement": false,
    "imageUrl": "https://streetviewpixels-pa.googleapis.com/v1/thumbnail?panoid=HCojKu8ssUYCTS35n7l8nA&cb_client=search.gws-prod.gps&w=408&h=240&yaw=262.7122&pitch=0&thumbfov=100",
    "kgmid": "/g/1td9fqdk"
  },
  {
    "title": "Wegmans Pharmacy",
    "price": "$$",
    "categoryName": "Pharmacy",
    "address": "20600 Seneca Meadows Pkwy, Germantown, MD 20876",
    "neighborhood": null,
    "street": "20600 Seneca Meadows Pkwy",
    "city": "Germantown",
    "postalCode": "20876",
    "state": "Maryland",
    "countryCode": "US",
    "website": "https://www.wegmans.com/pharmacy/?cid=GMB_Pharmacy_2024:aw:ow:gb:gb:ao::",
    "phone": "(240) 499-0745",
    "phoneUnformatted": "+12404990745",
    "claimThisBusiness": false,
    "location": {
      "lat": 39.199546,
      "lng": -77.256462
    },
    "totalScore": 3.9,
    "permanentlyClosed": false,
    "temporarilyClosed": false,
    "placeId": "ChIJIxHdw3UstokRzOZGLVGRtkU",
    "categories": [
      "Pharmacy"
    ],
    "fid": "0x89b62c75c3dd1123:0x45b691512d46e6cc",
    "cid": "5023362212216366796",
    "reviewsCount": 23,
    "imagesCount": 3,
    "imageCategories": [],
    "scrapedAt": "2025-06-22T05:31:24.846Z",
    "googleFoodUrl": null,
    "hotelAds": [],
    "openingHours": [
      {
        "day": "Monday",
        "hours": "8:30 AM to 9 PM"
      },
      {
        "day": "Tuesday",
        "hours": "8:30 AM to 9 PM"
      },
      {
        "day": "Wednesday",
        "hours": "8:30 AM to 9 PM"
      },
      {
        "day": "Thursday",
        "hours": "8:30 AM to 9 PM"
      },
      {
        "day": "Friday",
        "hours": "8:30 AM to 9 PM"
      },
      {
        "day": "Saturday",
        "hours": "9 AM to 6 PM"
      },
      {
        "day": "Sunday",
        "hours": "9 AM to 5 PM"
      }
    ],
    "peopleAlsoSearch": [],
    "placesTags": [],
    "reviewsTags": [],
    "additionalInfo": {
      "Service options": [
        {
          "Curbside pickup": true
        },
        {
          "Delivery": true
        },
        {
          "In-store pickup": true
        },
        {
          "In-store shopping": true
        }
      ],
      "Accessibility": [
        {
          "Wheelchair accessible entrance": true
        },
        {
          "Wheelchair accessible parking lot": true
        }
      ],
      "Planning": [
        {
          "Quick visit": true
        }
      ],
      "Payments": [
        {
          "Credit cards": true
        }
      ]
    },
    "gasPrices": [],
    "url": "https://www.google.com/maps/search/?api=1&query=Wegmans%20Pharmacy&query_place_id=ChIJIxHdw3UstokRzOZGLVGRtkU",
    "searchPageUrl": "https://www.google.com/maps/search/independent%20pharmacy%20Germantown%20MD/@42.54640259466427,-89.6522977144323,8z?hl=en",
    "searchString": "independent pharmacy Germantown MD",
    "language": "en",
    "rank": 10,
    "isAdvertisement": false,
    "imageUrl": "https://lh3.googleusercontent.com/p/AF1QipP6USPjr66uYFVbIjC6ME_a_KGpzWO5XBDoCnGc=w426-h240-k-no",
    "kgmid": "/g/11b7wc4hh4"
  },
  {
    "title": "Vashan Compounding Pharmacy",
    "price": null,
    "categoryName": "Pharmacy",
    "address": "9005 Shady Grove Ct, Gaithersburg, MD 20877",
    "neighborhood": null,
    "street": "9005 Shady Grove Ct",
    "city": "Gaithersburg",
    "postalCode": "20877",
    "state": "Maryland",
    "countryCode": "US",
    "website": "http://www.vashan.com/",
    "phone": "(301) 947-4747",
    "phoneUnformatted": "+13019474747",
    "claimThisBusiness": false,
    "location": {
      "lat": 39.118802,
      "lng": -77.183506
    },
    "totalScore": 4.8,
    "permanentlyClosed": false,
    "temporarilyClosed": false,
    "placeId": "ChIJE4cKErDSt4kRhhh_eFgI9Zw",
    "categories": [
      "Pharmacy"
    ],
    "fid": "0x89b7d2b0120a8713:0x9cf50858787f1886",
    "cid": "11309955215282608262",
    "reviewsCount": 13,
    "imagesCount": 16,
    "imageCategories": [],
    "scrapedAt": "2025-06-22T05:31:24.846Z",
    "googleFoodUrl": null,
    "hotelAds": [],
    "openingHours": [
      {
        "day": "Monday",
        "hours": "9 AM to 5 PM"
      },
      {
        "day": "Tuesday",
        "hours": "9 AM to 5 PM"
      },
      {
        "day": "Wednesday",
        "hours": "9 AM to 5 PM"
      },
      {
        "day": "Thursday",
        "hours": "9 AM to 5 PM"
      },
      {
        "day": "Friday",
        "hours": "9 AM to 5 PM"
      },
      {
        "day": "Saturday",
        "hours": "Closed"
      },
      {
        "day": "Sunday",
        "hours": "Closed"
      }
    ],
    "peopleAlsoSearch": [],
    "placesTags": [],
    "reviewsTags": [],
    "additionalInfo": {
      "From the business": [
        {
          "Identifies as women-owned": true
        },
        {
          "Small business": true
        }
      ],
      "Service options": [
        {
          "Delivery": true
        },
        {
          "Same-day delivery": true
        }
      ],
      "Accessibility": [
        {
          "Wheelchair accessible entrance": true
        },
        {
          "Wheelchair accessible parking lot": true
        },
        {
          "Wheelchair accessible restroom": true
        }
      ],
      "Crowd": [
        {
          "LGBTQ+ friendly": true
        },
        {
          "Transgender safespace": true
        }
      ],
      "Payments": [
        {
          "Credit cards": true
        },
        {
          "Debit cards": true
        },
        {
          "NFC mobile payments": true
        },
        {
          "Credit cards": true
        }
      ],
      "Parking": [
        {
          "Free parking lot": true
        },
        {
          "On-site parking": true
        }
      ]
    },
    "gasPrices": [],
    "url": "https://www.google.com/maps/search/?api=1&query=Vashan%20Compounding%20Pharmacy&query_place_id=ChIJE4cKErDSt4kRhhh_eFgI9Zw",
    "searchPageUrl": "https://www.google.com/maps/search/independent%20pharmacy%20Germantown%20MD/@42.54640259466427,-89.6522977144323,8z?hl=en",
    "searchString": "independent pharmacy Germantown MD",
    "language": "en",
    "rank": 12,
    "isAdvertisement": false,
    "imageUrl": "https://lh3.googleusercontent.com/p/AF1QipMFSO_eOR8CkG_brIogzDVuQm6sfzOTuMN6XZob=w408-h306-k-no",
    "kgmid": "/g/1ttq2_k1"
  },
  {
    "title": "CVS Pharmacy",
    "price": null,
    "categoryName": "Pharmacy",
    "address": "12825 Wisteria Dr, Germantown, MD 20874",
    "neighborhood": null,
    "street": "12825 Wisteria Dr",
    "city": "Germantown",
    "postalCode": "20874",
    "state": "Maryland",
    "countryCode": "US",
    "website": "https://www.cvs.com/store-locator/germantown-md-pharmacies/12825-wisteria-dr-germantown-md-20874/storeid=1880?WT.mc_id=LS_GOOGLE_RX_1880",
    "phone": "(301) 540-1103",
    "phoneUnformatted": "+13015401103",
    "claimThisBusiness": false,
    "location": {
      "lat": 39.1771248,
      "lng": -77.268936
    },
    "totalScore": 2.7,
    "permanentlyClosed": false,
    "temporarilyClosed": false,
    "placeId": "ChIJPTIsCM0ttokR659SIw1OiCU",
    "categories": [
      "Pharmacy"
    ],
    "fid": "0x89b62dcd082c323d:0x25884e0d23529feb",
    "cid": "2704497394570141675",
    "reviewsCount": 43,
    "imagesCount": 12,
    "imageCategories": [],
    "scrapedAt": "2025-06-22T05:31:24.846Z",
    "googleFoodUrl": null,
    "hotelAds": [],
    "openingHours": [
      {
        "day": "Monday",
        "hours": "8 AM to 1:30 PM, 2 to 9 PM"
      },
      {
        "day": "Tuesday",
        "hours": "8 AM to 1:30 PM, 2 to 9 PM"
      },
      {
        "day": "Wednesday",
        "hours": "8 AM to 1:30 PM, 2 to 9 PM"
      },
      {
        "day": "Thursday",
        "hours": "8 AM to 1:30 PM, 2 to 9 PM"
      },
      {
        "day": "Friday",
        "hours": "8 AM to 1:30 PM, 2 to 9 PM"
      },
      {
        "day": "Saturday",
        "hours": "9 AM to 1:30 PM, 2 to 6 PM"
      },
      {
        "day": "Sunday",
        "hours": "10 AM to 1:30 PM, 2 to 6 PM"
      }
    ],
    "peopleAlsoSearch": [],
    "placesTags": [],
    "reviewsTags": [],
    "additionalInfo": {
      "Service options": [
        {
          "Delivery": true
        },
        {
          "Drive-through": true
        },
        {
          "In-store pickup": true
        },
        {
          "In-store shopping": true
        }
      ],
      "Accessibility": [
        {
          "Wheelchair accessible entrance": true
        },
        {
          "Wheelchair accessible parking lot": true
        }
      ],
      "Offerings": [
        {
          "Naloxone": true
        }
      ],
      "Crowd": [
        {
          "LGBTQ+ friendly": true
        },
        {
          "Transgender safespace": true
        }
      ],
      "Planning": [
        {
          "Quick visit": true
        }
      ],
      "Payments": [
        {
          "Credit cards": true
        },
        {
          "Debit cards": true
        },
        {
          "NFC mobile payments": true
        },
        {
          "SNAP/EBT": true
        },
        {
          "Credit cards": true
        }
      ]
    },
    "gasPrices": [],
    "url": "https://www.google.com/maps/search/?api=1&query=CVS%20Pharmacy&query_place_id=ChIJPTIsCM0ttokR659SIw1OiCU",
    "searchPageUrl": "https://www.google.com/maps/search/independent%20pharmacy%20Germantown%20MD/@42.54640259466427,-89.6522977144323,8z?hl=en",
    "searchString": "independent pharmacy Germantown MD",
    "language": "en",
    "rank": 13,
    "isAdvertisement": false,
    "imageUrl": "https://lh3.googleusercontent.com/p/AF1QipPlM-7tcvsMPHVoLu4p0lRi6DXudEAwHhCGV3JY=w408-h272-k-no",
    "kgmid": "/g/11f68c_kx_"
  },
  {
    "title": "Walgreens Pharmacy",
    "description": "Department of the Walgreens chain providing prescription medications & other health-related items.",
    "price": null,
    "categoryName": "Pharmacy",
    "address": "19927 Century Blvd, Germantown, MD 20874",
    "neighborhood": null,
    "street": "19927 Century Blvd",
    "city": "Germantown",
    "postalCode": "20874",
    "state": "Maryland",
    "countryCode": "US",
    "website": "https://www.walgreens.com/locator/walgreens-19927+century+blvd-germantown-md-20874/id=19966",
    "phone": "(301) 972-4861",
    "phoneUnformatted": "+13019724861",
    "claimThisBusiness": false,
    "location": {
      "lat": 39.1817427,
      "lng": -77.2622257
    },
    "totalScore": 1.7,
    "permanentlyClosed": false,
    "temporarilyClosed": false,
    "placeId": "ChIJVVVlQWsstokRfCmanjHG__s",
    "categories": [
      "Pharmacy"
    ],
    "fid": "0x89b62c6b41655555:0xfbffc6319e9a297c",
    "cid": "18158450138997729660",
    "reviewsCount": 16,
    "imagesCount": 6,
    "imageCategories": [],
    "scrapedAt": "2025-06-22T05:31:24.846Z",
    "googleFoodUrl": null,
    "hotelAds": [],
    "openingHours": [
      {
        "day": "Monday",
        "hours": "9 AM to 1:30 PM, 2 to 7 PM"
      },
      {
        "day": "Tuesday",
        "hours": "9 AM to 1:30 PM, 2 to 7 PM"
      },
      {
        "day": "Wednesday",
        "hours": "9 AM to 1:30 PM, 2 to 7 PM"
      },
      {
        "day": "Thursday",
        "hours": "9 AM to 1:30 PM, 2 to 7 PM"
      },
      {
        "day": "Friday",
        "hours": "9 AM to 1:30 PM, 2 to 7 PM"
      },
      {
        "day": "Saturday",
        "hours": "9 AM to 1:30 PM, 2 to 6 PM"
      },
      {
        "day": "Sunday",
        "hours": "10 AM to 1:30 PM, 2 to 6 PM"
      }
    ],
    "additionalOpeningHours": {
      "Drive through": [
        {
          "day": "Monday",
          "hours": "9 AM–1:30 PM"
        },
        {
          "day": "Tuesday",
          "hours": "9 AM–1:30 PM"
        },
        {
          "day": "Wednesday",
          "hours": "9 AM–1:30 PM"
        },
        {
          "day": "Thursday",
          "hours": "9 AM–1:30 PM"
        },
        {
          "day": "Friday",
          "hours": "9 AM–1:30 PM"
        },
        {
          "day": "Saturday",
          "hours": "9 AM–1:30 PM"
        },
        {
          "day": "Sunday",
          "hours": "10 AM–1:30 PM"
        }
      ]
    },
    "peopleAlsoSearch": [],
    "placesTags": [],
    "reviewsTags": [],
    "additionalInfo": {
      "Service options": [
        {
          "Curbside pickup": true
        },
        {
          "Drive-through": true
        },
        {
          "In-store pickup": true
        }
      ],
      "Accessibility": [
        {
          "Wheelchair accessible entrance": true
        },
        {
          "Wheelchair accessible parking lot": true
        }
      ],
      "Planning": [
        {
          "Quick visit": true
        }
      ],
      "Payments": [
        {
          "Credit cards": true
        }
      ]
    },
    "gasPrices": [],
    "url": "https://www.google.com/maps/search/?api=1&query=Walgreens%20Pharmacy&query_place_id=ChIJVVVlQWsstokRfCmanjHG__s",
    "searchPageUrl": "https://www.google.com/maps/search/independent%20pharmacy%20Germantown%20MD/@42.54640259466427,-89.6522977144323,8z?hl=en",
    "searchString": "independent pharmacy Germantown MD",
    "language": "en",
    "rank": 14,
    "isAdvertisement": false,
    "imageUrl": "https://lh3.googleusercontent.com/gps-cs-s/AC9h4nrHhJ3Y0Eo17DPbh4wqdFJkN-2gFnsRAkPejRTkRxIhP5JUAsy-y8CzxzGDzlXOfDgAwAmDLW6VfGdvA-DaLQ4jbkE6dnf_AYMikbE4rNdaDKijk716noOPE4Tvyuvm1mADFyxg=w519-h240-k-no",
    "kgmid": "/g/11r3smtnnx"
  },
  {
    "title": "Giant Pharmacy",
    "price": "$$",
    "categoryName": "Pharmacy",
    "address": "20944 Frederick Rd, Germantown, MD 20876",
    "neighborhood": null,
    "street": "20944 Frederick Rd",
    "city": "Germantown",
    "postalCode": "20876",
    "state": "Maryland",
    "countryCode": "US",
    "website": "https://pharmacy.giantfood.com/md/germantown/20944-frederick-road?y_source=1_MTE2Mzg1NDgtNzE1LWxvY2F0aW9uLndlYnNpdGU%3D",
    "phone": "(301) 515-9498",
    "phoneUnformatted": "+13015159498",
    "claimThisBusiness": false,
    "location": {
      "lat": 39.2034308,
      "lng": -77.2468508
    },
    "totalScore": 4.6,
    "permanentlyClosed": false,
    "temporarilyClosed": false,
    "placeId": "ChIJtVwNeoQrtokRmF1e03TGr2I",
    "categories": [
      "Pharmacy"
    ],
    "fid": "0x89b62b847a0d5cb5:0x62afc674d35e5d98",
    "cid": "7111120541705985432",
    "reviewsCount": 10,
    "imagesCount": 5,
    "imageCategories": [],
    "scrapedAt": "2025-06-22T05:31:24.846Z",
    "googleFoodUrl": null,
    "hotelAds": [],
    "openingHours": [
      {
        "day": "Monday",
        "hours": "9 AM to 9 PM"
      },
      {
        "day": "Tuesday",
        "hours": "9 AM to 9 PM"
      },
      {
        "day": "Wednesday",
        "hours": "9 AM to 9 PM"
      },
      {
        "day": "Thursday",
        "hours": "9 AM to 9 PM"
      },
      {
        "day": "Friday",
        "hours": "9 AM to 9 PM"
      },
      {
        "day": "Saturday",
        "hours": "9 AM to 6 PM"
      },
      {
        "day": "Sunday",
        "hours": "10 AM to 5 PM"
      }
    ],
    "peopleAlsoSearch": [],
    "placesTags": [],
    "reviewsTags": [],
    "additionalInfo": {
      "Service options": [
        {
          "Delivery": true
        },
        {
          "In-store pickup": true
        },
        {
          "Onsite services": true
        }
      ],
      "Accessibility": [
        {
          "Wheelchair accessible entrance": true
        },
        {
          "Wheelchair accessible parking lot": true
        }
      ],
      "Planning": [
        {
          "Quick visit": true
        }
      ],
      "Payments": [
        {
          "Credit cards": true
        }
      ]
    },
    "gasPrices": [],
    "url": "https://www.google.com/maps/search/?api=1&query=Giant%20Pharmacy&query_place_id=ChIJtVwNeoQrtokRmF1e03TGr2I",
    "searchPageUrl": "https://www.google.com/maps/search/independent%20pharmacy%20Germantown%20MD/@42.54640259466427,-89.6522977144323,8z?hl=en",
    "searchString": "independent pharmacy Germantown MD",
    "language": "en",
    "rank": 15,
    "isAdvertisement": false,
    "imageUrl": "https://lh3.googleusercontent.com/p/AF1QipOKTFqd3sJJZR3BSlEdI-maei3_Bp1ywwhzwTW8=w408-h272-k-no",
    "kgmid": "/g/11hd54knlv"
  },
  {
    "title": "Shady Grove Pharmacy",
    "price": null,
    "categoryName": "Pharmacy",
    "address": "15225 Shady Grove Rd #101, Rockville, MD 20850",
    "neighborhood": null,
    "street": "15225 Shady Grove Rd #101",
    "city": "Rockville",
    "postalCode": "20850",
    "state": "Maryland",
    "countryCode": "US",
    "website": "http://www.shadygroverx.com/",
    "phone": "(301) 948-4222",
    "phoneUnformatted": "+13019484222",
    "claimThisBusiness": false,
    "location": {
      "lat": 39.1068015,
      "lng": -77.1891679
    },
    "totalScore": 4.3,
    "permanentlyClosed": false,
    "temporarilyClosed": false,
    "placeId": "ChIJH1CT4FXNt4kRQf_y2eIcARI",
    "categories": [
      "Pharmacy",
      "Drug store",
      "Health consultant",
      "Medical supply store",
      "Vitamin & supplements store"
    ],
    "fid": "0x89b7cd55e093501f:0x12011ce2d9f2ff41",
    "cid": "1297349928304181057",
    "reviewsCount": 43,
    "imagesCount": 9,
    "imageCategories": [],
    "scrapedAt": "2025-06-22T05:31:24.846Z",
    "googleFoodUrl": null,
    "hotelAds": [],
    "openingHours": [
      {
        "day": "Monday",
        "hours": "9 AM to 5 PM"
      },
      {
        "day": "Tuesday",
        "hours": "9 AM to 5 PM"
      },
      {
        "day": "Wednesday",
        "hours": "9 AM to 5 PM"
      },
      {
        "day": "Thursday",
        "hours": "9 AM to 5 PM"
      },
      {
        "day": "Friday",
        "hours": "9 AM to 5 PM"
      },
      {
        "day": "Saturday",
        "hours": "Closed"
      },
      {
        "day": "Sunday",
        "hours": "Closed"
      }
    ],
    "peopleAlsoSearch": [],
    "placesTags": [],
    "reviewsTags": [],
    "additionalInfo": {
      "From the business": [
        {
          "Small business": true
        }
      ],
      "Service options": [
        {
          "Delivery": true
        },
        {
          "In-store pickup": true
        }
      ],
      "Accessibility": [
        {
          "Wheelchair accessible entrance": true
        },
        {
          "Wheelchair accessible parking lot": true
        }
      ],
      "Planning": [
        {
          "Quick visit": true
        }
      ],
      "Payments": [
        {
          "Credit cards": true
        },
        {
          "Debit cards": true
        },
        {
          "NFC mobile payments": true
        },
        {
          "Credit cards": true
        }
      ]
    },
    "gasPrices": [],
    "url": "https://www.google.com/maps/search/?api=1&query=Shady%20Grove%20Pharmacy&query_place_id=ChIJH1CT4FXNt4kRQf_y2eIcARI",
    "searchPageUrl": "https://www.google.com/maps/search/independent%20pharmacy%20Germantown%20MD/@42.54640259466427,-89.6522977144323,8z?hl=en",
    "searchString": "independent pharmacy Germantown MD",
    "language": "en",
    "rank": 16,
    "isAdvertisement": false,
    "imageUrl": "https://lh3.googleusercontent.com/p/AF1QipM5yE7KdpbJi0diviY1t66kPytt8bNh78GUQFWZ=w408-h271-k-no",
    "kgmid": "/g/1tgwbt38"
  },
  {
    "title": "Germantown Pharmacy",
    "price": null,
    "categoryName": "Pharmacy",
    "address": "340 Calhoun Station Pkwy Suite D, Canton, MS 39046",
    "neighborhood": null,
    "street": "340 Calhoun Station Pkwy Suite D",
    "city": "Canton",
    "postalCode": "39046",
    "state": "Mississippi",
    "countryCode": "US",
    "website": "https://www.germantownpharmacyms.com/",
    "phone": "(601) 891-0881",
    "phoneUnformatted": "+16018910881",
    "claimThisBusiness": false,
    "location": {
      "lat": 32.5321311,
      "lng": -90.098536
    },
    "totalScore": 4.9,
    "permanentlyClosed": false,
    "temporarilyClosed": false,
    "placeId": "ChIJLXPXVcnRKYYRmgWB97DZHaE",
    "categories": [
      "Pharmacy",
      "Gift basket store",
      "Gift shop",
      "Jewelry store"
    ],
    "fid": "0x8629d1c955d7732d:0xa11dd9b0f781059a",
    "cid": "11609674768520906138",
    "reviewsCount": 216,
    "imagesCount": 8,
    "imageCategories": [],
    "scrapedAt": "2025-06-22T05:31:25.490Z",
    "googleFoodUrl": null,
    "hotelAds": [],
    "openingHours": [
      {
        "day": "Monday",
        "hours": "9 AM to 6 PM"
      },
      {
        "day": "Tuesday",
        "hours": "9 AM to 6 PM"
      },
      {
        "day": "Wednesday",
        "hours": "9 AM to 6 PM"
      },
      {
        "day": "Thursday",
        "hours": "9 AM to 6 PM"
      },
      {
        "day": "Friday",
        "hours": "9 AM to 6 PM"
      },
      {
        "day": "Saturday",
        "hours": "Closed"
      },
      {
        "day": "Sunday",
        "hours": "Closed"
      }
    ],
    "peopleAlsoSearch": [],
    "placesTags": [],
    "reviewsTags": [],
    "additionalInfo": {
      "From the business": [
        {
          "Small business": true
        }
      ],
      "Service options": [
        {
          "Delivery": true
        },
        {
          "Drive-through": true
        },
        {
          "In-store pickup": true
        },
        {
          "In-store shopping": true
        },
        {
          "Onsite services": true
        },
        {
          "Same-day delivery": true
        }
      ],
      "Accessibility": [
        {
          "Wheelchair accessible entrance": true
        },
        {
          "Wheelchair accessible parking lot": true
        },
        {
          "Wheelchair accessible restroom": true
        },
        {
          "Wheelchair accessible seating": true
        }
      ],
      "Planning": [
        {
          "Quick visit": true
        }
      ],
      "Payments": [
        {
          "Credit cards": true
        },
        {
          "Debit cards": true
        },
        {
          "NFC mobile payments": true
        }
      ]
    },
    "gasPrices": [],
    "url": "https://www.google.com/maps/search/?api=1&query=Germantown%20Pharmacy&query_place_id=ChIJLXPXVcnRKYYRmgWB97DZHaE",
    "searchPageUrl": "https://www.google.com/maps/search/independent%20pharmacy%20Germantown%20MD/@33.954544952667874,-89.6522977144323,8z?hl=en",
    "searchString": "independent pharmacy Germantown MD",
    "language": "en",
    "rank": 2,
    "isAdvertisement": false,
    "imageUrl": "https://lh3.googleusercontent.com/gps-cs-s/AC9h4nr1RWKVb78hnvOMwIuLWOhYTkSKPT3ygq2Isj9uX3PMKOZqadMJjn3HGcCn_j4K751e4I6Pu4N5DkBobAvWz6BxBl-e24MD9DrjM1ceTa9BCWZnJq_jHdGDzhoZV1vB8a5nneYI=w408-h544-k-no",
    "kgmid": "/g/11sz4hmlrr"
  },
  {
    "title": "Giant Pharmacy",
    "price": "$$",
    "categoryName": "Pharmacy",
    "address": "13060 Middlebrook Road, Germantown, MD 20874",
    "neighborhood": null,
    "street": "13060 Middlebrook Road",
    "city": "Germantown",
    "postalCode": "20874",
    "state": "Maryland",
    "countryCode": "US",
    "website": "https://pharmacy.giantfood.com/md/germantown/13060-middlebrook-rd?y_source=1_MTE2Mzg0NzctNzE1LWxvY2F0aW9uLndlYnNpdGU%3D",
    "phone": "(301) 428-9115",
    "phoneUnformatted": "+13014289115",
    "claimThisBusiness": false,
    "location": {
      "lat": 39.1816354,
      "lng": -77.2711831
    },
    "totalScore": 3.2,
    "permanentlyClosed": false,
    "temporarilyClosed": false,
    "placeId": "ChIJo73LlhYstokRwprjfS5ZM34",
    "categories": [
      "Pharmacy"
    ],
    "fid": "0x89b62c1696cbbda3:0x7e33592e7de39ac2",
    "cid": "9093710128806599362",
    "reviewsCount": 25,
    "imagesCount": 8,
    "imageCategories": [],
    "scrapedAt": "2025-06-22T05:31:39.965Z",
    "googleFoodUrl": null,
    "hotelAds": [],
    "openingHours": [
      {
        "day": "Monday",
        "hours": "9 AM to 9 PM"
      },
      {
        "day": "Tuesday",
        "hours": "9 AM to 9 PM"
      },
      {
        "day": "Wednesday",
        "hours": "9 AM to 9 PM"
      },
      {
        "day": "Thursday",
        "hours": "9 AM to 9 PM"
      },
      {
        "day": "Friday",
        "hours": "9 AM to 9 PM"
      },
      {
        "day": "Saturday",
        "hours": "9 AM to 6 PM"
      },
      {
        "day": "Sunday",
        "hours": "10 AM to 5 PM"
      }
    ],
    "peopleAlsoSearch": [],
    "placesTags": [],
    "reviewsTags": [],
    "additionalInfo": {
      "Service options": [
        {
          "Delivery": true
        },
        {
          "In-store pickup": true
        },
        {
          "Onsite services": true
        }
      ],
      "Accessibility": [
        {
          "Wheelchair accessible entrance": true
        },
        {
          "Wheelchair accessible parking lot": true
        }
      ],
      "Planning": [
        {
          "Quick visit": true
        }
      ],
      "Payments": [
        {
          "Credit cards": true
        }
      ]
    },
    "gasPrices": [],
    "url": "https://www.google.com/maps/search/?api=1&query=Giant%20Pharmacy&query_place_id=ChIJo73LlhYstokRwprjfS5ZM34",
    "searchPageUrl": "https://www.google.com/maps/search/independent%20pharmacy%20Germantown%20MD/@45.410355141996405,-70.65494205772909,8z?hl=en",
    "searchString": "independent pharmacy Germantown MD",
    "language": "en",
    "rank": 9,
    "isAdvertisement": false,
    "imageUrl": "https://lh3.googleusercontent.com/gps-cs-s/AC9h4nqWw1rpdPVtKEgs0fxNgCIbQdI1VONH-KQrCbULXqI1pGdYZ30OL0NlmYFPO8r50lizPD4R6Lr66oCNJppL2PPBx99xw_1mW5IxQD2zXhb1nc7Y7l4m45UJMiYzg3NJX06Ebz1NMA=w408-h544-k-no",
    "kgmid": "/g/1tmqh28p"
  },
  {
    "title": "Rollins Care Pharmacy LLC",
    "price": null,
    "categoryName": "Pharmacy",
    "address": "184 Rollins Ave, Rockville, MD 20852",
    "neighborhood": null,
    "street": "184 Rollins Ave",
    "city": "Rockville",
    "postalCode": "20852",
    "state": "Maryland",
    "countryCode": "US",
    "website": "https://carepharmacies.com/blog/location/rollins-care-pharmacy/",
    "phone": "(301) 816-2801",
    "phoneUnformatted": "+13018162801",
    "claimThisBusiness": false,
    "location": {
      "lat": 39.058337,
      "lng": -77.126089
    },
    "totalScore": 4.7,
    "permanentlyClosed": false,
    "temporarilyClosed": false,
    "placeId": "ChIJ11FWl0rMt4kR22_g1hmeGIk",
    "categories": [
      "Pharmacy",
      "Medical supply store"
    ],
    "fid": "0x89b7cc4a975651d7:0x89189e19d6e06fdb",
    "cid": "9878819616453586907",
    "reviewsCount": 39,
    "imagesCount": 28,
    "imageCategories": [],
    "scrapedAt": "2025-06-22T05:31:40.374Z",
    "googleFoodUrl": null,
    "hotelAds": [],
    "openingHours": [
      {
        "day": "Monday",
        "hours": "9:30 AM to 6 PM"
      },
      {
        "day": "Tuesday",
        "hours": "9:30 AM to 6 PM"
      },
      {
        "day": "Wednesday",
        "hours": "9:30 AM to 6 PM"
      },
      {
        "day": "Thursday",
        "hours": "9:30 AM to 5 PM"
      },
      {
        "day": "Friday",
        "hours": "9:30 AM to 5 PM"
      },
      {
        "day": "Saturday",
        "hours": "11 AM to 3 PM"
      },
      {
        "day": "Sunday",
        "hours": "Closed"
      }
    ],
    "peopleAlsoSearch": [],
    "placesTags": [],
    "reviewsTags": [],
    "additionalInfo": {
      "Service options": [
        {
          "Curbside pickup": true
        },
        {
          "Delivery": true
        },
        {
          "In-store pickup": true
        },
        {
          "In-store shopping": true
        },
        {
          "Same-day delivery": true
        },
        {
          "English": true
        }
      ],
      "Accessibility": [
        {
          "Wheelchair accessible entrance": true
        },
        {
          "Wheelchair accessible parking lot": true
        },
        {
          "Wheelchair accessible restroom": true
        },
        {
          "Wheelchair accessible seating": true
        }
      ],
      "Amenities": [
        {
          "Wi-Fi": true
        },
        {
          "Free Wi-Fi": true
        }
      ],
      "Planning": [
        {
          "Quick visit": true
        }
      ],
      "Payments": [
        {
          "Checks": true
        },
        {
          "Credit cards": true
        },
        {
          "Debit cards": true
        },
        {
          "NFC mobile payments": true
        },
        {
          "Credit cards": true
        }
      ],
      "Parking": [
        {
          "Free parking garage": true
        },
        {
          "Free parking lot": true
        }
      ]
    },
    "gasPrices": [],
    "url": "https://www.google.com/maps/search/?api=1&query=Rollins%20Care%20Pharmacy%20LLC&query_place_id=ChIJ11FWl0rMt4kR22_g1hmeGIk",
    "searchPageUrl": "https://www.google.com/maps/search/independent%20pharmacy%20Germantown%20MD/@36.81849750000001,-73.82116800051296,8z?hl=en",
    "searchString": "independent pharmacy Germantown MD",
    "language": "en",
    "rank": 12,
    "isAdvertisement": false,
    "imageUrl": "https://lh3.googleusercontent.com/p/AF1QipOKEgWmnAE3K0vQWG5z6ay35fCaRZBU2fHcfrU=w408-h304-k-no",
    "kgmid": "/g/1tj2cx0h"
  }
]