[
  {
    "title": "Broadway Pharmacy",
    "price": null,
    "categoryName": "Pharmacy",
    "address": "1118 S Broadway, Minot, ND 58701",
    "neighborhood": null,
    "street": "1118 S Broadway",
    "city": "Minot",
    "postalCode": "58701",
    "state": "North Dakota",
    "countryCode": "US",
    "website": "http://broadwaypharmacyminot.com/",
    "phone": "(701) 441-7345",
    "phoneUnformatted": "+17014417345",
    "claimThisBusiness": false,
    "location": {
      "lat": 48.2248911,
      "lng": -101.2965568
    },
    "totalScore": 5,
    "permanentlyClosed": false,
    "temporarilyClosed": false,
    "placeId": "ChIJjX6P7S8r31IRIYnJRFSi-DI",
    "categories": [
      "Pharmacy"
    ],
    "fid": "0x52df2b2fed8f7e8d:0x32f8a25444c98921",
    "cid": "3672863978935650593",
    "reviewsCount": 11,
    "imagesCount": 5,
    "imageCategories": [],
    "scrapedAt": "2025-06-22T09:15:28.321Z",
    "googleFoodUrl": null,
    "hotelAds": [],
    "openingHours": [
      {
        "day": "Monday",
        "hours": "9 AM to 5:30 PM"
      },
      {
        "day": "Tuesday",
        "hours": "9 AM to 5:30 PM"
      },
      {
        "day": "Wednesday",
        "hours": "9 AM to 5:30 PM"
      },
      {
        "day": "Thursday",
        "hours": "9 AM to 5:30 PM"
      },
      {
        "day": "Friday",
        "hours": "9 AM to 5:30 PM"
      },
      {
        "day": "Saturday",
        "hours": "Closed"
      },
      {
        "day": "Sunday",
        "hours": "Closed"
      }
    ],
    "additionalOpeningHours": {
      "Drive through": [
        {
          "day": "Monday",
          "hours": "9 AM–5:30 PM"
        },
        {
          "day": "Tuesday",
          "hours": "9 AM–5:30 PM"
        },
        {
          "day": "Wednesday",
          "hours": "9 AM–5:30 PM"
        },
        {
          "day": "Thursday",
          "hours": "9 AM–5:30 PM"
        },
        {
          "day": "Friday",
          "hours": "9 AM–5:30 PM"
        },
        {
          "day": "Saturday",
          "hours": "Closed"
        },
        {
          "day": "Sunday",
          "hours": "Closed"
        }
      ]
    },
    "peopleAlsoSearch": [],
    "placesTags": [],
    "reviewsTags": [],
    "additionalInfo": {
      "From the business": [
        {
          "Small business": true
        }
      ],
      "Service options": [
        {
          "Drive-through": true
        },
        {
          "In-store pickup": true
        },
        {
          "In-store shopping": true
        },
        {
          "Onsite services": true
        },
        {
          "English": true
        }
      ],
      "Accessibility": [
        {
          "Wheelchair accessible entrance": true
        },
        {
          "Wheelchair accessible parking lot": true
        }
      ],
      "Planning": [
        {
          "Quick visit": true
        }
      ],
      "Payments": [
        {
          "Credit cards": true
        },
        {
          "Debit cards": true
        },
        {
          "NFC mobile payments": true
        },
        {
          "Credit cards": true
        }
      ],
      "Parking": [
        {
          "Free parking lot": true
        }
      ]
    },
    "gasPrices": [],
    "url": "https://www.google.com/maps/search/?api=1&query=Broadway%20Pharmacy&query_place_id=ChIJjX6P7S8r31IRIYnJRFSi-DI",
    "searchPageUrl": "https://www.google.com/maps/search/independent%20pharmacy%20Minot%20ND/@55.7381509944044,-157.06721604842537,13z?hl=en",
    "searchString": "independent pharmacy Minot ND",
    "language": "en",
    "rank": 1,
    "isAdvertisement": false,
    "imageUrl": "https://lh3.googleusercontent.com/p/AF1QipMeVVVu_VVBRfWuk1UFEhTqDPe8hDjR55bZknn2=w437-h240-k-no",
    "kgmid": "/g/11vbsbscc0"
  },
  {
    "title": "White Drug Pharmacy",
    "price": null,
    "categoryName": "Pharmacy",
    "address": "2211 16th St NW Suite B, Minot, ND 58701",
    "neighborhood": null,
    "street": "2211 16th St NW Suite B",
    "city": "Minot",
    "postalCode": "58701",
    "state": "North Dakota",
    "countryCode": "US",
    "website": "http://www.thriftywhite.com/",
    "phone": "(701) 852-0388",
    "phoneUnformatted": "+17018520388",
    "claimThisBusiness": false,
    "location": {
      "lat": 48.2586891,
      "lng": -101.3205985
    },
    "totalScore": 4,
    "permanentlyClosed": false,
    "temporarilyClosed": false,
    "placeId": "ChIJcTl4oC4q31IRTEriZyiiw_k",
    "categories": [
      "Pharmacy",
      "Drug store"
    ],
    "fid": "0x52df2a2ea0783971:0xf9c3a22867e24a4c",
    "cid": "17997406830327908940",
    "reviewsCount": 28,
    "imagesCount": 3,
    "imageCategories": [],
    "scrapedAt": "2025-06-22T09:15:28.323Z",
    "googleFoodUrl": null,
    "hotelAds": [],
    "openingHours": [
      {
        "day": "Monday",
        "hours": "9 AM to 7 PM"
      },
      {
        "day": "Tuesday",
        "hours": "9 AM to 7 PM"
      },
      {
        "day": "Wednesday",
        "hours": "9 AM to 7 PM"
      },
      {
        "day": "Thursday",
        "hours": "9 AM to 7 PM"
      },
      {
        "day": "Friday",
        "hours": "9 AM to 7 PM"
      },
      {
        "day": "Saturday",
        "hours": "9 AM to 5 PM"
      },
      {
        "day": "Sunday",
        "hours": "12 to 4 PM"
      }
    ],
    "peopleAlsoSearch": [],
    "placesTags": [],
    "reviewsTags": [],
    "additionalInfo": {
      "Service options": [
        {
          "In-store pickup": true
        }
      ],
      "Accessibility": [
        {
          "Wheelchair accessible entrance": true
        },
        {
          "Wheelchair accessible parking lot": true
        }
      ],
      "Offerings": [
        {
          "Medication disposal": true
        }
      ],
      "Planning": [
        {
          "Quick visit": true
        }
      ],
      "Payments": [
        {
          "Checks": true
        },
        {
          "Credit cards": true
        },
        {
          "Debit cards": true
        },
        {
          "NFC mobile payments": true
        }
      ]
    },
    "gasPrices": [],
    "url": "https://www.google.com/maps/search/?api=1&query=White%20Drug%20Pharmacy&query_place_id=ChIJcTl4oC4q31IRTEriZyiiw_k",
    "searchPageUrl": "https://www.google.com/maps/search/independent%20pharmacy%20Minot%20ND/@55.7381509944044,-157.06721604842537,13z?hl=en",
    "searchString": "independent pharmacy Minot ND",
    "language": "en",
    "rank": 2,
    "isAdvertisement": false,
    "imageUrl": "https://lh3.googleusercontent.com/p/AF1QipNKeXrgjEuGSR5fR5Sps60EfacMEIb7paahjRwC=w408-h304-k-no",
    "kgmid": "/g/1tj4yc72"
  },
  {
    "title": "Keycare Pharmacy",
    "price": null,
    "categoryName": "Pharmacy",
    "address": "400 E Burdick Expy, Minot, ND 58701",
    "neighborhood": "Downtown Minot",
    "street": "400 E Burdick Expy",
    "city": "Minot",
    "postalCode": "58701",
    "state": "North Dakota",
    "countryCode": "US",
    "website": "https://www.trinityhealth.org/keycare-pharmacy/",
    "phone": "(701) 857-7900",
    "phoneUnformatted": "+17018577900",
    "claimThisBusiness": false,
    "location": {
      "lat": 48.2318183,
      "lng": -101.2860796
    },
    "totalScore": 3.4,
    "permanentlyClosed": false,
    "temporarilyClosed": false,
    "placeId": "ChIJY_nIM_Qr31IR51ymGAP23XI",
    "categories": [
      "Pharmacy"
    ],
    "fid": "0x52df2bf433c8f963:0x72ddf60318a65ce7",
    "cid": "8277042183335730407",
    "reviewsCount": 17,
    "imagesCount": 1,
    "imageCategories": [],
    "scrapedAt": "2025-06-22T09:15:28.323Z",
    "googleFoodUrl": null,
    "hotelAds": [],
    "openingHours": [
      {
        "day": "Monday",
        "hours": "8 AM to 8 PM"
      },
      {
        "day": "Tuesday",
        "hours": "8 AM to 8 PM"
      },
      {
        "day": "Wednesday",
        "hours": "8 AM to 8 PM"
      },
      {
        "day": "Thursday",
        "hours": "8 AM to 8 PM"
      },
      {
        "day": "Friday",
        "hours": "8 AM to 8 PM"
      },
      {
        "day": "Saturday",
        "hours": "9 AM to 5 PM"
      },
      {
        "day": "Sunday",
        "hours": "9 AM to 5 PM"
      }
    ],
    "peopleAlsoSearch": [],
    "placesTags": [],
    "reviewsTags": [],
    "additionalInfo": {
      "Service options": [
        {
          "Delivery": true
        },
        {
          "Drive-through": true
        },
        {
          "In-store shopping": true
        },
        {
          "Onsite services": true
        }
      ],
      "Accessibility": [
        {
          "Wheelchair accessible entrance": true
        },
        {
          "Wheelchair accessible parking lot": true
        }
      ],
      "Payments": [
        {
          "Credit cards": true
        },
        {
          "Debit cards": true
        },
        {
          "NFC mobile payments": true
        },
        {
          "Credit cards": true
        }
      ]
    },
    "gasPrices": [],
    "url": "https://www.google.com/maps/search/?api=1&query=Keycare%20Pharmacy&query_place_id=ChIJY_nIM_Qr31IR51ymGAP23XI",
    "searchPageUrl": "https://www.google.com/maps/search/independent%20pharmacy%20Minot%20ND/@55.7381509944044,-157.06721604842537,13z?hl=en",
    "searchString": "independent pharmacy Minot ND",
    "language": "en",
    "rank": 3,
    "isAdvertisement": false,
    "imageUrl": "https://streetviewpixels-pa.googleapis.com/v1/thumbnail?panoid=LT2GONC1Ta5a94WrgfT_Rw&cb_client=search.gws-prod.gps&w=408&h=240&yaw=8.013911&pitch=0&thumbfov=100",
    "kgmid": "/g/11jt6fxp_n"
  },
  {
    "title": "Minot Air Force Base Pharmacy",
    "price": null,
    "categoryName": "Pharmacy",
    "address": "194 Missile Ave, Minot Air Force Base, ND 58704",
    "neighborhood": null,
    "street": "194 Missile Ave",
    "city": "Minot Air Force Base",
    "postalCode": "58704",
    "state": "North Dakota",
    "countryCode": "US",
    "website": "https://minot.tricare.mil/Health-Services/Pharmacy",
    "claimThisBusiness": false,
    "location": {
      "lat": 48.4173409,
      "lng": -101.3023065
    },
    "totalScore": 3.6,
    "permanentlyClosed": false,
    "temporarilyClosed": false,
    "placeId": "ChIJl4nthzvf3lIRX2Sf-nkwezk",
    "categories": [
      "Pharmacy"
    ],
    "fid": "0x52dedf3b87ed8997:0x397b3079fa9f645f",
    "cid": "4141957582751229023",
    "reviewsCount": 8,
    "imagesCount": null,
    "imageCategories": [],
    "scrapedAt": "2025-06-22T09:15:28.323Z",
    "googleFoodUrl": null,
    "hotelAds": [],
    "openingHours": [
      {
        "day": "Monday",
        "hours": "7:30 AM to 12:15 PM, 1:15 to 4:30 PM"
      },
      {
        "day": "Tuesday",
        "hours": "7:30 AM to 12:15 PM, 1:15 to 4:30 PM"
      },
      {
        "day": "Wednesday",
        "hours": "10 AM to 12:15 PM, 1:15 to 4:30 PM"
      },
      {
        "day": "Thursday",
        "hours": "7:30 AM to 12:15 PM, 1:15 to 4:30 PM"
      },
      {
        "day": "Friday",
        "hours": "7:30 AM to 12:15 PM, 1:15 to 3:30 PM"
      },
      {
        "day": "Saturday",
        "hours": "Closed"
      },
      {
        "day": "Sunday",
        "hours": "Closed"
      }
    ],
    "additionalOpeningHours": {
      "Pickup": [
        {
          "day": "Monday",
          "hours": "7:30 AM–12:15 PM"
        },
        {
          "day": "Tuesday",
          "hours": "7:30 AM–12:15 PM"
        },
        {
          "day": "Wednesday",
          "hours": "10 AM–12:15 PM"
        },
        {
          "day": "Thursday",
          "hours": "7:30 AM–12:15 PM"
        },
        {
          "day": "Friday",
          "hours": "7:30 AM–12:15 PM"
        },
        {
          "day": "Saturday",
          "hours": "Closed"
        },
        {
          "day": "Sunday",
          "hours": "Closed"
        }
      ]
    },
    "peopleAlsoSearch": [],
    "placesTags": [],
    "reviewsTags": [],
    "additionalInfo": {
      "Accessibility": [
        {
          "Wheelchair accessible entrance": true
        },
        {
          "Wheelchair accessible parking lot": true
        }
      ],
      "Amenities": [
        {
          "Wi-Fi": true
        },
        {
          "Free Wi-Fi": true
        }
      ]
    },
    "gasPrices": [],
    "url": "https://www.google.com/maps/search/?api=1&query=Minot%20Air%20Force%20Base%20Pharmacy&query_place_id=ChIJl4nthzvf3lIRX2Sf-nkwezk",
    "searchPageUrl": "https://www.google.com/maps/search/independent%20pharmacy%20Minot%20ND/@55.7381509944044,-157.06721604842537,13z?hl=en",
    "searchString": "independent pharmacy Minot ND",
    "language": "en",
    "rank": 4,
    "isAdvertisement": false,
    "kgmid": "/g/11bwy_v2hh"
  },
  {
    "title": "CVS Pharmacy",
    "price": null,
    "categoryName": "Pharmacy",
    "address": "1520 20th Ave SW, Minot, ND 58701",
    "neighborhood": null,
    "street": "1520 20th Ave SW",
    "city": "Minot",
    "postalCode": "58701",
    "state": "North Dakota",
    "countryCode": "US",
    "website": "https://www.cvs.com/store-locator/minot-nd-pharmacies/1520-20th-ave-sw-minot-nd-58701/storeid=8611?WT.mc_id=LS_GOOGLE_RX_8611",
    "phone": "(701) 852-4068",
    "phoneUnformatted": "+17018524068",
    "claimThisBusiness": false,
    "location": {
      "lat": 48.2122701,
      "lng": -101.3164604
    },
    "totalScore": 3.3,
    "permanentlyClosed": false,
    "temporarilyClosed": false,
    "placeId": "ChIJ_yo-trIr31IRVDs2T7q_O3M",
    "categories": [
      "Pharmacy"
    ],
    "fid": "0x52df2bb2b63e2aff:0x733bbfba4f363b54",
    "cid": "8303441144901417812",
    "reviewsCount": 43,
    "imagesCount": 8,
    "imageCategories": [],
    "scrapedAt": "2025-06-22T09:15:28.324Z",
    "googleFoodUrl": null,
    "hotelAds": [],
    "openingHours": [
      {
        "day": "Monday",
        "hours": "9 AM to 1:30 PM, 2 to 7 PM"
      },
      {
        "day": "Tuesday",
        "hours": "9 AM to 1:30 PM, 2 to 7 PM"
      },
      {
        "day": "Wednesday",
        "hours": "9 AM to 1:30 PM, 2 to 7 PM"
      },
      {
        "day": "Thursday",
        "hours": "9 AM to 1:30 PM, 2 to 7 PM"
      },
      {
        "day": "Friday",
        "hours": "9 AM to 1:30 PM, 2 to 7 PM"
      },
      {
        "day": "Saturday",
        "hours": "9 AM to 1:30 PM, 2 to 7 PM"
      },
      {
        "day": "Sunday",
        "hours": "10 AM to 1:30 PM, 2 to 6 PM"
      }
    ],
    "peopleAlsoSearch": [],
    "placesTags": [],
    "reviewsTags": [],
    "additionalInfo": {
      "Service options": [
        {
          "Delivery": true
        },
        {
          "Drive-through": true
        },
        {
          "In-store shopping": true
        },
        {
          "Onsite services": true
        }
      ],
      "Accessibility": [
        {
          "Wheelchair accessible entrance": true
        },
        {
          "Wheelchair accessible parking lot": true
        }
      ],
      "Offerings": [
        {
          "Medication disposal": true
        },
        {
          "Naloxone": true
        },
        {
          "Passport photos": true
        }
      ],
      "Crowd": [
        {
          "LGBTQ+ friendly": true
        },
        {
          "Transgender safespace": true
        }
      ],
      "Planning": [
        {
          "Quick visit": true
        }
      ],
      "Payments": [
        {
          "Credit cards": true
        },
        {
          "Debit cards": true
        },
        {
          "NFC mobile payments": true
        },
        {
          "Credit cards": true
        }
      ]
    },
    "gasPrices": [],
    "url": "https://www.google.com/maps/search/?api=1&query=CVS%20Pharmacy&query_place_id=ChIJ_yo-trIr31IRVDs2T7q_O3M",
    "searchPageUrl": "https://www.google.com/maps/search/independent%20pharmacy%20Minot%20ND/@55.7381509944044,-157.06721604842537,13z?hl=en",
    "searchString": "independent pharmacy Minot ND",
    "language": "en",
    "rank": 5,
    "isAdvertisement": false,
    "imageUrl": "https://lh3.googleusercontent.com/p/AF1QipN9C11HHV-0MQ7byegHJJr844LVEMLEiqcnT1g6=w408-h272-k-no",
    "kgmid": "/g/11c467rd_k"
  },
  {
    "title": "G and G Pharmacy",
    "price": null,
    "categoryName": "Pharmacy",
    "address": "1930 S Broadway, Minot, ND 58701",
    "neighborhood": null,
    "street": "1930 S Broadway",
    "city": "Minot",
    "postalCode": "58701",
    "state": "North Dakota",
    "countryCode": "US",
    "website": "https://ggpharmacynd.com/",
    "phone": "(701) 839-8883",
    "phoneUnformatted": "+17018398883",
    "claimThisBusiness": true,
    "location": {
      "lat": 48.2117862,
      "lng": -101.2974719
    },
    "permanentlyClosed": false,
    "temporarilyClosed": false,
    "placeId": "ChIJeYczSQAr31IRnFLRPBywvrA",
    "categories": [
      "Pharmacy"
    ],
    "fid": "0x52df2b0049338779:0xb0beb01c3cd1529c",
    "cid": "12735810431576265372",
    "reviewsCount": 0,
    "imagesCount": 1,
    "imageCategories": [],
    "scrapedAt": "2025-06-22T09:15:28.324Z",
    "googleFoodUrl": null,
    "hotelAds": [],
    "openingHours": [
      {
        "day": "Monday",
        "hours": "9 AM to 6 PM"
      },
      {
        "day": "Tuesday",
        "hours": "9 AM to 6 PM"
      },
      {
        "day": "Wednesday",
        "hours": "9 AM to 6 PM"
      },
      {
        "day": "Thursday",
        "hours": "9 AM to 6 PM"
      },
      {
        "day": "Friday",
        "hours": "9 AM to 6 PM"
      },
      {
        "day": "Saturday",
        "hours": "9 AM to 1 PM"
      },
      {
        "day": "Sunday",
        "hours": "Closed"
      }
    ],
    "peopleAlsoSearch": [],
    "placesTags": [],
    "reviewsTags": [],
    "additionalInfo": {
      "Service options": [
        {
          "In-store pickup": true
        }
      ],
      "Accessibility": [
        {
          "Wheelchair accessible entrance": true
        },
        {
          "Wheelchair accessible parking lot": true
        }
      ],
      "Planning": [
        {
          "Quick visit": true
        }
      ],
      "Payments": [
        {
          "Credit cards": true
        }
      ]
    },
    "gasPrices": [],
    "url": "https://www.google.com/maps/search/?api=1&query=G%20and%20G%20Pharmacy&query_place_id=ChIJeYczSQAr31IRnFLRPBywvrA",
    "searchPageUrl": "https://www.google.com/maps/search/independent%20pharmacy%20Minot%20ND/@55.7381509944044,-157.06721604842537,13z?hl=en",
    "searchString": "independent pharmacy Minot ND",
    "language": "en",
    "rank": 6,
    "isAdvertisement": false,
    "imageUrl": "https://streetviewpixels-pa.googleapis.com/v1/thumbnail?panoid=7yRx69NJnygNENN8R-ba9A&cb_client=search.gws-prod.gps&w=408&h=240&yaw=23.255384&pitch=0&thumbfov=100",
    "kgmid": "/g/11x2zc1_nz"
  },
  {
    "title": "Thrifty White Pharmacy",
    "price": null,
    "categoryName": "Pharmacy",
    "address": "1015 S Broadway #3, Minot, ND 58701",
    "neighborhood": null,
    "street": "1015 S Broadway #3",
    "city": "Minot",
    "postalCode": "58701",
    "state": "North Dakota",
    "countryCode": "US",
    "website": "http://www.thriftywhite.com/",
    "phone": "(701) 852-4181",
    "phoneUnformatted": "+17018524181",
    "claimThisBusiness": false,
    "location": {
      "lat": 48.2267989,
      "lng": -101.2941516
    },
    "totalScore": 3.6,
    "permanentlyClosed": false,
    "temporarilyClosed": false,
    "placeId": "ChIJv2JBLz4q31IRi-M5f1RTDDg",
    "categories": [
      "Pharmacy",
      "Drug store"
    ],
    "fid": "0x52df2a3e2f4162bf:0x380c53547f39e38b",
    "cid": "4038694588221350795",
    "reviewsCount": 61,
    "imagesCount": 4,
    "imageCategories": [],
    "scrapedAt": "2025-06-22T09:15:28.324Z",
    "googleFoodUrl": null,
    "hotelAds": [],
    "openingHours": [
      {
        "day": "Monday",
        "hours": "9 AM to 8 PM"
      },
      {
        "day": "Tuesday",
        "hours": "9 AM to 8 PM"
      },
      {
        "day": "Wednesday",
        "hours": "9 AM to 8 PM"
      },
      {
        "day": "Thursday",
        "hours": "9 AM to 8 PM"
      },
      {
        "day": "Friday",
        "hours": "9 AM to 8 PM"
      },
      {
        "day": "Saturday",
        "hours": "9 AM to 6 PM"
      },
      {
        "day": "Sunday",
        "hours": "12 to 5 PM"
      }
    ],
    "peopleAlsoSearch": [],
    "placesTags": [],
    "reviewsTags": [],
    "additionalInfo": {
      "Service options": [
        {
          "In-store pickup": true
        },
        {
          "In-store shopping": true
        }
      ],
      "Accessibility": [
        {
          "Wheelchair accessible entrance": true
        },
        {
          "Wheelchair accessible parking lot": true
        }
      ],
      "Offerings": [
        {
          "Medication disposal": true
        }
      ],
      "Planning": [
        {
          "Quick visit": true
        }
      ],
      "Payments": [
        {
          "Checks": true
        },
        {
          "Credit cards": true
        },
        {
          "Debit cards": true
        },
        {
          "NFC mobile payments": true
        }
      ]
    },
    "gasPrices": [],
    "url": "https://www.google.com/maps/search/?api=1&query=Thrifty%20White%20Pharmacy&query_place_id=ChIJv2JBLz4q31IRi-M5f1RTDDg",
    "searchPageUrl": "https://www.google.com/maps/search/independent%20pharmacy%20Minot%20ND/@55.7381509944044,-157.06721604842537,13z?hl=en",
    "searchString": "independent pharmacy Minot ND",
    "language": "en",
    "rank": 7,
    "isAdvertisement": false,
    "imageUrl": "https://lh3.googleusercontent.com/gps-cs-s/AC9h4nrRcyQrZu_GdsTh_fTfvpHLHkXmB_lnu9VZK1ru9pEWIAcE0maqm8miPBg_ZUPqh_JRGUhNfywOkm5U1lzIfFwwHOBbcExK7zQSZ5fl3byQWECIR0Jwrxgr252nirAahz1Qc7co=w408-h544-k-no",
    "kgmid": "/g/1thsr0qy"
  },
  {
    "title": "Market Pharmacy",
    "price": null,
    "categoryName": "Pharmacy",
    "address": "1930 S Broadway, Minot, ND 58701",
    "neighborhood": null,
    "street": "1930 S Broadway",
    "city": "Minot",
    "postalCode": "58701",
    "state": "North Dakota",
    "countryCode": "US",
    "phone": "(701) 839-8883",
    "phoneUnformatted": "+17018398883",
    "claimThisBusiness": true,
    "location": {
      "lat": 48.2117862,
      "lng": -101.2974719
    },
    "totalScore": 4.9,
    "permanentlyClosed": true,
    "temporarilyClosed": false,
    "placeId": "ChIJf428qFwq31IRaGQxSOjtmKY",
    "categories": [
      "Pharmacy"
    ],
    "fid": "0x52df2a5ca8bc8d7f:0xa698ede848316468",
    "cid": "12004606388655449192",
    "reviewsCount": 14,
    "imagesCount": 1,
    "imageCategories": [],
    "scrapedAt": "2025-06-22T09:15:28.324Z",
    "googleFoodUrl": null,
    "hotelAds": [],
    "openingHours": [],
    "peopleAlsoSearch": [],
    "placesTags": [],
    "reviewsTags": [],
    "additionalInfo": {
      "Accessibility": [
        {
          "Wheelchair accessible entrance": true
        }
      ],
      "Payments": [
        {
          "Debit cards": true
        },
        {
          "NFC mobile payments": true
        },
        {
          "Credit cards": true
        }
      ]
    },
    "gasPrices": [],
    "url": "https://www.google.com/maps/search/?api=1&query=Market%20Pharmacy&query_place_id=ChIJf428qFwq31IRaGQxSOjtmKY",
    "searchPageUrl": "https://www.google.com/maps/search/independent%20pharmacy%20Minot%20ND/@55.7381509944044,-157.06721604842537,13z?hl=en",
    "searchString": "independent pharmacy Minot ND",
    "language": "en",
    "rank": 8,
    "isAdvertisement": false,
    "imageUrl": "https://streetviewpixels-pa.googleapis.com/v1/thumbnail?panoid=7yRx69NJnygNENN8R-ba9A&cb_client=search.gws-prod.gps&w=408&h=240&yaw=23.255384&pitch=0&thumbfov=100",
    "kgmid": "/g/1wf21hyf"
  },
  {
    "title": "Medicine Shoppe",
    "price": null,
    "categoryName": "Pharmacy",
    "address": "1118 S Broadway St, Minot, ND 58701",
    "neighborhood": null,
    "street": "1118 S Broadway St",
    "city": "Minot",
    "postalCode": "58701",
    "state": "North Dakota",
    "countryCode": "US",
    "website": "http://www.medicineshoppe.com/",
    "phone": "(701) 852-1524",
    "phoneUnformatted": "+17018521524",
    "claimThisBusiness": false,
    "location": {
      "lat": 48.2248666,
      "lng": -101.2964248
    },
    "totalScore": 4.8,
    "permanentlyClosed": false,
    "temporarilyClosed": true,
    "placeId": "ChIJ8f9jzD8q31IR_olV556b4MI",
    "categories": [
      "Pharmacy"
    ],
    "fid": "0x52df2a3fcc63fff1:0xc2e09b9ee75589fe",
    "cid": "14042394744929487358",
    "reviewsCount": 19,
    "imagesCount": 1,
    "imageCategories": [],
    "scrapedAt": "2025-06-22T09:15:28.325Z",
    "googleFoodUrl": null,
    "hotelAds": [],
    "openingHours": [],
    "peopleAlsoSearch": [],
    "placesTags": [],
    "reviewsTags": [],
    "additionalInfo": {
      "Service options": [
        {
          "Drive-through": true
        }
      ],
      "Accessibility": [
        {
          "Wheelchair accessible entrance": true
        },
        {
          "Wheelchair accessible parking lot": true
        }
      ],
      "Payments": [
        {
          "Debit cards": true
        },
        {
          "NFC mobile payments": true
        },
        {
          "Credit cards": true
        }
      ]
    },
    "gasPrices": [],
    "url": "https://www.google.com/maps/search/?api=1&query=Medicine%20Shoppe&query_place_id=ChIJ8f9jzD8q31IR_olV556b4MI",
    "searchPageUrl": "https://www.google.com/maps/search/independent%20pharmacy%20Minot%20ND/@55.7381509944044,-157.06721604842537,13z?hl=en",
    "searchString": "independent pharmacy Minot ND",
    "language": "en",
    "rank": 9,
    "isAdvertisement": false,
    "imageUrl": "https://streetviewpixels-pa.googleapis.com/v1/thumbnail?panoid=W_xzRoFtFR0r3ANQoyngOQ&cb_client=search.gws-prod.gps&w=408&h=240&yaw=262.29358&pitch=0&thumbfov=100",
    "kgmid": "/g/1tfssjtz"
  },
  {
    "title": "Trinity South Ridge Family Medicine",
    "price": null,
    "categoryName": "Pharmacy",
    "address": "1500 24th Ave SW, Minot, ND 58701, United States",
    "neighborhood": null,
    "street": "1500 24th Ave SW",
    "city": "Minot",
    "postalCode": "58701",
    "state": "North Dakota",
    "countryCode": "US",
    "website": "https://www.trinityhealth.org/locations/trinity-health-south-ridge/",
    "phone": "+1 701-857-2515",
    "phoneUnformatted": "+17018572515",
    "claimThisBusiness": true,
    "location": {
      "lat": 48.2083695,
      "lng": -101.3161217
    },
    "totalScore": 5,
    "permanentlyClosed": false,
    "temporarilyClosed": false,
    "placeId": "ChIJVVWV4Kwr31IRIWiJHkN4O6Y",
    "categories": [
      "Pharmacy"
    ],
    "fid": "0x52df2bace0955555:0xa63b78431e896821",
    "cid": "11978299863592429601",
    "reviewsCount": 1,
    "imagesCount": 1,
    "imageCategories": [],
    "scrapedAt": "2025-06-22T09:15:32.251Z",
    "googleFoodUrl": null,
    "hotelAds": [],
    "openingHours": [],
    "peopleAlsoSearch": [],
    "placesTags": [],
    "reviewsTags": [],
    "additionalInfo": {
      "Accessibility": [
        {
          "Wheelchair-accessible car park": true
        },
        {
          "Wheelchair-accessible entrance": true
        }
      ],
      "Payments": [
        {
          "Credit cards": true
        }
      ]
    },
    "gasPrices": [],
    "url": "https://www.google.com/maps/search/?api=1&query=Trinity%20South%20Ridge%20Family%20Medicine&query_place_id=ChIJVVWV4Kwr31IRIWiJHkN4O6Y",
    "searchPageUrl": "https://www.google.com/maps/search/independent%20pharmacy%20Minot%20ND/@64.94267025847846,-168.41170700875844,13z?hl=en",
    "searchString": "independent pharmacy Minot ND",
    "language": "en",
    "rank": 2,
    "isAdvertisement": false,
    "imageUrl": "https://streetviewpixels-pa.googleapis.com/v1/thumbnail?panoid=9nMW3gnYCMqa8xB1857t7w&cb_client=search.gws-prod.gps&w=408&h=240&yaw=174.92134&pitch=0&thumbfov=100",
    "kgmid": "/g/11k46d9kh4"
  },
  {
    "title": "Trinity Health Outpatient Pharmacy",
    "price": null,
    "categoryName": "Pharmacy",
    "address": "2305 37th Ave SW, Minot, ND 58701",
    "neighborhood": null,
    "street": "2305 37th Ave SW",
    "city": "Minot",
    "postalCode": "58701",
    "state": "North Dakota",
    "countryCode": "US",
    "website": "http://trinityhealth.org/",
    "phone": "(701) 418-7110",
    "phoneUnformatted": "+17014187110",
    "claimThisBusiness": false,
    "location": {
      "lat": 48.194432,
      "lng": -101.328465
    },
    "permanentlyClosed": false,
    "temporarilyClosed": false,
    "placeId": "ChIJsyLtkl8r31IROVjYn8czr3Q",
    "categories": [
      "Pharmacy"
    ],
    "fid": "0x52df2b5f92ed22b3:0x74af33c79fd85839",
    "cid": "8407995961797269561",
    "reviewsCount": 0,
    "imagesCount": null,
    "imageCategories": [],
    "scrapedAt": "2025-06-22T09:15:35.043Z",
    "googleFoodUrl": null,
    "hotelAds": [],
    "openingHours": [
      {
        "day": "Monday",
        "hours": "9 AM to 5:30 PM"
      },
      {
        "day": "Tuesday",
        "hours": "9 AM to 5:30 PM"
      },
      {
        "day": "Wednesday",
        "hours": "9 AM to 5:30 PM"
      },
      {
        "day": "Thursday",
        "hours": "9 AM to 5:30 PM"
      },
      {
        "day": "Friday",
        "hours": "9 AM to 5:30 PM"
      },
      {
        "day": "Saturday",
        "hours": "Closed"
      },
      {
        "day": "Sunday",
        "hours": "Closed"
      }
    ],
    "peopleAlsoSearch": [],
    "placesTags": [],
    "reviewsTags": [],
    "additionalInfo": {
      "Service options": [
        {
          "Drive-through": true
        },
        {
          "In-store shopping": true
        },
        {
          "Onsite services": true
        },
        {
          "Delivery": false
        },
        {
          "Same-day delivery": false
        },
        {
          "English": true
        }
      ],
      "Accessibility": [
        {
          "Wheelchair accessible entrance": true
        },
        {
          "Wheelchair accessible parking lot": true
        },
        {
          "Wheelchair accessible restroom": true
        },
        {
          "Wheelchair accessible seating": true
        }
      ],
      "Payments": [
        {
          "Credit cards": true
        }
      ]
    },
    "gasPrices": [],
    "url": "https://www.google.com/maps/search/?api=1&query=Trinity%20Health%20Outpatient%20Pharmacy&query_place_id=ChIJsyLtkl8r31IROVjYn8czr3Q",
    "searchPageUrl": "https://www.google.com/maps/search/independent%20pharmacy%20Minot%20ND/@65.73786228335844,-158.8645058997317,9z?hl=en",
    "searchString": "independent pharmacy Minot ND",
    "language": "en",
    "rank": 3,
    "isAdvertisement": false,
    "kgmid": "/g/11kpr2zmrn"
  },
  {
    "title": "Dakota Drug",
    "price": null,
    "categoryName": "Pharmacy",
    "address": "28 Main St N, Minot, ND 58703",
    "neighborhood": null,
    "street": "28 Main St N",
    "city": "Minot",
    "postalCode": "58703",
    "state": "North Dakota",
    "countryCode": "US",
    "phone": "(701) 852-2141",
    "phoneUnformatted": "+17018522141",
    "claimThisBusiness": true,
    "location": {
      "lat": 48.2374915,
      "lng": -101.2921499
    },
    "permanentlyClosed": false,
    "temporarilyClosed": true,
    "placeId": "ChIJ-5nW3xsq31IRn-pPneP97M0",
    "categories": [
      "Pharmacy"
    ],
    "fid": "0x52df2a1bdfd699fb:0xcdecfde39d4fea9f",
    "cid": "14838514026317605535",
    "reviewsCount": 0,
    "imagesCount": 1,
    "imageCategories": [],
    "scrapedAt": "2025-06-22T09:15:35.043Z",
    "googleFoodUrl": null,
    "hotelAds": [],
    "openingHours": [],
    "peopleAlsoSearch": [],
    "placesTags": [],
    "reviewsTags": [],
    "gasPrices": [],
    "url": "https://www.google.com/maps/search/?api=1&query=Dakota%20Drug&query_place_id=ChIJ-5nW3xsq31IRn-pPneP97M0",
    "searchPageUrl": "https://www.google.com/maps/search/independent%20pharmacy%20Minot%20ND/@65.73786228335844,-158.8645058997317,9z?hl=en",
    "searchString": "independent pharmacy Minot ND",
    "language": "en",
    "rank": 10,
    "isAdvertisement": false,
    "imageUrl": "https://streetviewpixels-pa.googleapis.com/v1/thumbnail?panoid=13h3kzWJhnDVEIO9J1p7cw&cb_client=search.gws-prod.gps&w=408&h=240&yaw=182.40077&pitch=0&thumbfov=100",
    "kgmid": "/g/1vysw5t4"
  },
  {
    "title": "Aasen Drug",
    "price": null,
    "categoryName": "Pharmacy",
    "address": "15 Main St E, Mayville, ND 58257",
    "neighborhood": null,
    "street": "15 Main St E",
    "city": "Mayville",
    "postalCode": "58257",
    "state": "North Dakota",
    "countryCode": "US",
    "website": "http://www.aasendrug.com/",
    "phone": "(701) 788-2552",
    "phoneUnformatted": "+17017882552",
    "claimThisBusiness": true,
    "location": {
      "lat": 47.5001076,
      "lng": -97.3258626
    },
    "totalScore": 4.3,
    "permanentlyClosed": false,
    "temporarilyClosed": false,
    "placeId": "ChIJgUE0BijqxVIRfNNnlpXUqWw",
    "categories": [
      "Pharmacy",
      "Gift shop"
    ],
    "fid": "0x52c5ea2806344181:0x6ca9d4959667d37c",
    "cid": "7830023166098920316",
    "reviewsCount": 15,
    "imagesCount": 4,
    "imageCategories": [],
    "scrapedAt": "2025-06-22T09:17:18.507Z",
    "googleFoodUrl": null,
    "hotelAds": [],
    "openingHours": [
      {
        "day": "Monday",
        "hours": "8:30 AM to 5:30 PM"
      },
      {
        "day": "Tuesday",
        "hours": "8:30 AM to 5:30 PM"
      },
      {
        "day": "Wednesday",
        "hours": "8:30 AM to 5:30 PM"
      },
      {
        "day": "Thursday",
        "hours": "8:30 AM to 5:30 PM"
      },
      {
        "day": "Friday",
        "hours": "8:30 AM to 5:30 PM"
      },
      {
        "day": "Saturday",
        "hours": "9 AM to 12:30 PM"
      },
      {
        "day": "Sunday",
        "hours": "Closed"
      }
    ],
    "peopleAlsoSearch": [],
    "placesTags": [],
    "reviewsTags": [],
    "additionalInfo": {
      "Service options": [
        {
          "Delivery": true
        },
        {
          "Onsite services": true
        },
        {
          "Same-day delivery": true
        },
        {
          "English": true
        }
      ],
      "Accessibility": [
        {
          "Wheelchair accessible entrance": true
        },
        {
          "Wheelchair accessible parking lot": true
        }
      ],
      "Planning": [
        {
          "Quick visit": true
        }
      ],
      "Payments": [
        {
          "Checks": true
        },
        {
          "Credit cards": true
        },
        {
          "Debit cards": true
        },
        {
          "NFC mobile payments": true
        },
        {
          "Credit cards": true
        }
      ]
    },
    "gasPrices": [],
    "url": "https://www.google.com/maps/search/?api=1&query=Aasen%20Drug&query_place_id=ChIJgUE0BijqxVIRfNNnlpXUqWw",
    "searchPageUrl": "https://www.google.com/maps/search/independent%20pharmacy%20Minot%20ND/@48.27430768932854,-95.98474960000003,8z?hl=en",
    "searchString": "independent pharmacy Minot ND",
    "language": "en",
    "rank": 1,
    "isAdvertisement": false,
    "imageUrl": "https://lh3.googleusercontent.com/gps-cs-s/AC9h4npX4BsvtfyWT3qVKwI8tbpLliWwOYREvwarkPql_p2wACRXRxB_Gum0yn6lS9-Idb9cVF2Bz2sjr44V-NNDqAwD7SPg8K2rS9C8rPjRYKKiYJVpqjIN71R6fuEav6-NRQhTp1Q7=w408-h306-k-no",
    "kgmid": "/g/1tjrpmpv"
  },
  {
    "title": "Drayton Drug",
    "price": null,
    "categoryName": "Pharmacy",
    "address": "104 ND-66, Drayton, ND 58225",
    "neighborhood": null,
    "street": "104 ND-66",
    "city": "Drayton",
    "postalCode": "58225",
    "state": "North Dakota",
    "countryCode": "US",
    "phone": "(701) 454-3831",
    "phoneUnformatted": "+17014543831",
    "claimThisBusiness": true,
    "location": {
      "lat": 48.5705565,
      "lng": -97.1768792
    },
    "permanentlyClosed": false,
    "temporarilyClosed": false,
    "placeId": "ChIJXYCrpdxDw1IRd_v72kDYUo0",
    "categories": [
      "Pharmacy"
    ],
    "fid": "0x52c343dca5ab805d:0x8d52d840dafbfb77",
    "cid": "10183439480501566327",
    "reviewsCount": 0,
    "imagesCount": 2,
    "imageCategories": [],
    "scrapedAt": "2025-06-22T09:17:18.507Z",
    "googleFoodUrl": null,
    "hotelAds": [],
    "openingHours": [
      {
        "day": "Monday",
        "hours": "7 AM to 9 PM"
      },
      {
        "day": "Tuesday",
        "hours": "7 AM to 9 PM"
      },
      {
        "day": "Wednesday",
        "hours": "7 AM to 9 PM"
      },
      {
        "day": "Thursday",
        "hours": "7 AM to 9 PM"
      },
      {
        "day": "Friday",
        "hours": "7 AM to 9 PM"
      },
      {
        "day": "Saturday",
        "hours": "Closed"
      },
      {
        "day": "Sunday",
        "hours": "Closed"
      }
    ],
    "peopleAlsoSearch": [],
    "placesTags": [],
    "reviewsTags": [],
    "additionalInfo": {
      "Accessibility": [
        {
          "Wheelchair accessible entrance": true
        },
        {
          "Wheelchair accessible parking lot": true
        }
      ],
      "Offerings": [
        {
          "Medication disposal": true
        }
      ],
      "Planning": [
        {
          "Quick visit": true
        }
      ],
      "Payments": [
        {
          "Credit cards": true
        },
        {
          "Debit cards": true
        },
        {
          "Credit cards": true
        }
      ]
    },
    "gasPrices": [],
    "url": "https://www.google.com/maps/search/?api=1&query=Drayton%20Drug&query_place_id=ChIJXYCrpdxDw1IRd_v72kDYUo0",
    "searchPageUrl": "https://www.google.com/maps/search/independent%20pharmacy%20Minot%20ND/@48.27430768932854,-95.98474960000003,8z?hl=en",
    "searchString": "independent pharmacy Minot ND",
    "language": "en",
    "rank": 2,
    "isAdvertisement": false,
    "imageUrl": "https://lh3.googleusercontent.com/gps-cs-s/AC9h4nqkg8M4JXjF3uPZ_KMRwCV2ty4N9n8xuI9N5J8IB_D4U55Dnbi7Ktxk2krK-gOOEwltAjNZGnDuTdN_fPQkYGWeYY9hmUJBFXz64XgF57QaYLc8C0R99cBPfc7nlRcEv5mzHgc-=w408-h240-k-no-pi-0-ya40.81568-ro-0-fo100",
    "kgmid": "/g/1263frr38"
  },
  {
    "title": "Altru Family Medicine Residency Pharmacy",
    "price": null,
    "categoryName": "Pharmacy",
    "address": "725 Hamline St, Grand Forks, ND 58203",
    "neighborhood": null,
    "street": "725 Hamline St",
    "city": "Grand Forks",
    "postalCode": "58203",
    "state": "North Dakota",
    "countryCode": "US",
    "website": "https://www.altru.org/our-locations/altru-family-medicine-residency-pharmacy",
    "phone": "(701) 780-6870",
    "phoneUnformatted": "+17017806870",
    "claimThisBusiness": false,
    "location": {
      "lat": 47.9262667,
      "lng": -97.0698235
    },
    "totalScore": 3.6,
    "permanentlyClosed": false,
    "temporarilyClosed": false,
    "placeId": "ChIJ13rHWkGBxlIRvo-sT5Onvco",
    "categories": [
      "Pharmacy"
    ],
    "fid": "0x52c681415ac77ad7:0xcabda7934fac8fbe",
    "cid": "14609017017398497214",
    "reviewsCount": 31,
    "imagesCount": 1,
    "imageCategories": [],
    "scrapedAt": "2025-06-22T09:17:18.507Z",
    "googleFoodUrl": null,
    "hotelAds": [],
    "openingHours": [
      {
        "day": "Monday",
        "hours": "8:30 AM to 5 PM"
      },
      {
        "day": "Tuesday",
        "hours": "8:30 AM to 5 PM"
      },
      {
        "day": "Wednesday",
        "hours": "8:30 AM to 5 PM"
      },
      {
        "day": "Thursday",
        "hours": "8:30 AM to 5 PM"
      },
      {
        "day": "Friday",
        "hours": "8:30 AM to 5 PM"
      },
      {
        "day": "Saturday",
        "hours": "Closed"
      },
      {
        "day": "Sunday",
        "hours": "Closed"
      }
    ],
    "peopleAlsoSearch": [],
    "placesTags": [],
    "reviewsTags": [],
    "additionalInfo": {
      "Service options": [
        {
          "Delivery": true
        },
        {
          "In-store pickup": true
        },
        {
          "In-store shopping": true
        }
      ],
      "Accessibility": [
        {
          "Wheelchair accessible entrance": true
        },
        {
          "Wheelchair accessible parking lot": true
        }
      ],
      "Offerings": [
        {
          "Medication disposal": true
        }
      ],
      "Amenities": [
        {
          "Wi-Fi": true
        },
        {
          "Free Wi-Fi": true
        }
      ],
      "Payments": [
        {
          "Cash-only": true
        },
        {
          "Checks": true
        },
        {
          "Credit cards": true
        }
      ]
    },
    "gasPrices": [],
    "url": "https://www.google.com/maps/search/?api=1&query=Altru%20Family%20Medicine%20Residency%20Pharmacy&query_place_id=ChIJ13rHWkGBxlIRvo-sT5Onvco",
    "searchPageUrl": "https://www.google.com/maps/search/independent%20pharmacy%20Minot%20ND/@48.27430768932854,-95.98474960000003,8z?hl=en",
    "searchString": "independent pharmacy Minot ND",
    "language": "en",
    "rank": 3,
    "isAdvertisement": false,
    "imageUrl": "https://streetviewpixels-pa.googleapis.com/v1/thumbnail?panoid=MEiYrlzWNLtKK-v1QcwuZw&cb_client=search.gws-prod.gps&w=408&h=240&yaw=270.72583&pitch=0&thumbfov=100",
    "kgmid": "/g/1hm57qlj7"
  },
  {
    "title": "Linson Pharmacy",
    "price": null,
    "categoryName": "Pharmacy",
    "address": "3175 25th St S Ste D, Fargo, ND 58103",
    "neighborhood": "Bluemont Lakes",
    "street": "3175 25th St S Ste D",
    "city": "Fargo",
    "postalCode": "58103",
    "state": "North Dakota",
    "countryCode": "US",
    "website": "https://linsonpharmacy.com/",
    "phone": "(701) 293-6022",
    "phoneUnformatted": "+17012936022",
    "claimThisBusiness": false,
    "location": {
      "lat": 46.8334745,
      "lng": -96.8221068
    },
    "totalScore": 4.3,
    "permanentlyClosed": false,
    "temporarilyClosed": false,
    "placeId": "ChIJlZa86VzMyFIRiORyEYDhAaw",
    "categories": [
      "Pharmacy",
      "Diabetes equipment supplier"
    ],
    "fid": "0x52c8cc5ce9bc9695:0xac01e1801172e488",
    "cid": "12394435589665121416",
    "reviewsCount": 43,
    "imagesCount": 4,
    "imageCategories": [],
    "scrapedAt": "2025-06-22T09:17:18.507Z",
    "googleFoodUrl": null,
    "hotelAds": [],
    "openingHours": [
      {
        "day": "Monday",
        "hours": "8 AM to 7 PM"
      },
      {
        "day": "Tuesday",
        "hours": "8 AM to 7 PM"
      },
      {
        "day": "Wednesday",
        "hours": "8 AM to 7 PM"
      },
      {
        "day": "Thursday",
        "hours": "8 AM to 7 PM"
      },
      {
        "day": "Friday",
        "hours": "8 AM to 7 PM"
      },
      {
        "day": "Saturday",
        "hours": "9 AM to 4 PM"
      },
      {
        "day": "Sunday",
        "hours": "12 to 4 PM"
      }
    ],
    "peopleAlsoSearch": [],
    "placesTags": [],
    "reviewsTags": [],
    "additionalInfo": {
      "From the business": [
        {
          "Small business": true
        }
      ],
      "Service options": [
        {
          "Delivery": true
        },
        {
          "In-store pickup": true
        },
        {
          "Same-day delivery": true
        }
      ],
      "Accessibility": [
        {
          "Wheelchair accessible entrance": true
        },
        {
          "Wheelchair accessible parking lot": true
        }
      ],
      "Planning": [
        {
          "Quick visit": true
        }
      ],
      "Payments": [
        {
          "Checks": true
        },
        {
          "Credit cards": true
        },
        {
          "Debit cards": true
        },
        {
          "NFC mobile payments": true
        },
        {
          "Credit cards": true
        }
      ]
    },
    "gasPrices": [],
    "url": "https://www.google.com/maps/search/?api=1&query=Linson%20Pharmacy&query_place_id=ChIJlZa86VzMyFIRiORyEYDhAaw",
    "searchPageUrl": "https://www.google.com/maps/search/independent%20pharmacy%20Minot%20ND/@48.27430768932854,-95.98474960000003,8z?hl=en",
    "searchString": "independent pharmacy Minot ND",
    "language": "en",
    "rank": 6,
    "isAdvertisement": false,
    "imageUrl": "https://lh3.googleusercontent.com/gps-cs-s/AC9h4nr7c2AoZ3Mr18F8-ILUkaniRqGwVgD96JxfwNqSCUcUdpqVr7cfRHsb3Cdi1CkWTuxYRqZ1qLcWR9g6AC1gNgPVVYe62TphEXGfRWeGq42sxjm-JPLnC3TtOXg2n36mBI38Dxfmnw=w426-h240-k-no",
    "kgmid": "/g/1vc81g9k"
  },
  {
    "title": "Dakota Pharmacy",
    "price": null,
    "categoryName": "Pharmacy",
    "address": "705 E Main Ave, Bismarck, ND 58501",
    "neighborhood": null,
    "street": "705 E Main Ave",
    "city": "Bismarck",
    "postalCode": "58501",
    "state": "North Dakota",
    "countryCode": "US",
    "website": "https://www.dakotarx.com/",
    "phone": "(701) 255-1881",
    "phoneUnformatted": "+17012551881",
    "claimThisBusiness": false,
    "location": {
      "lat": 46.805053,
      "lng": -100.781316
    },
    "totalScore": 4.4,
    "permanentlyClosed": false,
    "temporarilyClosed": false,
    "placeId": "ChIJ9epoUBaD11IR0NZVd64JpGo",
    "categories": [
      "Pharmacy",
      "Vitamin & supplements store"
    ],
    "fid": "0x52d783165068eaf5:0x6aa409ae7755d6d0",
    "cid": "7684277509131982544",
    "reviewsCount": 29,
    "imagesCount": 44,
    "imageCategories": [],
    "scrapedAt": "2025-06-22T09:17:34.524Z",
    "googleFoodUrl": null,
    "hotelAds": [],
    "openingHours": [
      {
        "day": "Monday",
        "hours": "8 AM to 6 PM"
      },
      {
        "day": "Tuesday",
        "hours": "8 AM to 6 PM"
      },
      {
        "day": "Wednesday",
        "hours": "8 AM to 6 PM"
      },
      {
        "day": "Thursday",
        "hours": "8 AM to 6 PM"
      },
      {
        "day": "Friday",
        "hours": "8 AM to 6 PM"
      },
      {
        "day": "Saturday",
        "hours": "9 AM to 2 PM"
      },
      {
        "day": "Sunday",
        "hours": "Closed"
      }
    ],
    "peopleAlsoSearch": [],
    "placesTags": [],
    "reviewsTags": [],
    "additionalInfo": {
      "Service options": [
        {
          "Delivery": true
        },
        {
          "Drive-through": true
        },
        {
          "In-store pickup": true
        },
        {
          "In-store shopping": true
        },
        {
          "Same-day delivery": true
        }
      ],
      "Accessibility": [
        {
          "Wheelchair accessible entrance": true
        },
        {
          "Wheelchair accessible parking lot": true
        }
      ],
      "Planning": [
        {
          "Quick visit": true
        }
      ],
      "Payments": [
        {
          "Checks": true
        },
        {
          "Credit cards": true
        },
        {
          "Debit cards": true
        },
        {
          "NFC mobile payments": true
        },
        {
          "Credit cards": true
        }
      ]
    },
    "gasPrices": [],
    "url": "https://www.google.com/maps/search/?api=1&query=Dakota%20Pharmacy&query_place_id=ChIJ9epoUBaD11IR0NZVd64JpGo",
    "searchPageUrl": "https://www.google.com/maps/search/independent%20pharmacy%20Minot%20ND/@45.410355141996405,-102.31720148556776,8z?hl=en",
    "searchString": "independent pharmacy Minot ND",
    "language": "en",
    "rank": 1,
    "isAdvertisement": false,
    "imageUrl": "https://lh3.googleusercontent.com/p/AF1QipOSYwxfHoPQmkE8kuiyLGG6Zf76cYRO8TWXNIGU=w408-h306-k-no",
    "kgmid": "/g/1tjxf9m3"
  },
  {
    "title": "Feldmann Ellen",
    "price": null,
    "categoryName": "Pharmacy",
    "address": "1 E Burdick Expy, Minot, ND 58701",
    "neighborhood": "Downtown Minot",
    "street": "1 E Burdick Expy",
    "city": "Minot",
    "postalCode": "58701",
    "state": "North Dakota",
    "countryCode": "US",
    "phone": "(701) 857-5550",
    "phoneUnformatted": "+17018575550",
    "claimThisBusiness": true,
    "location": {
      "lat": 48.232601,
      "lng": -101.292961
    },
    "permanentlyClosed": false,
    "temporarilyClosed": false,
    "placeId": "ChIJj3zobhcq31IRTmdhCGp4zBM",
    "categories": [
      "Pharmacy"
    ],
    "fid": "0x52df2a176ee87c8f:0x13cc786a0861674e",
    "cid": "1426647578772072270",
    "reviewsCount": 0,
    "imagesCount": 1,
    "imageCategories": [],
    "scrapedAt": "2025-06-22T09:17:37.730Z",
    "googleFoodUrl": null,
    "hotelAds": [],
    "openingHours": [
      {
        "day": "Monday",
        "hours": "7 AM to 9 PM"
      },
      {
        "day": "Tuesday",
        "hours": "7 AM to 9 PM"
      },
      {
        "day": "Wednesday",
        "hours": "7 AM to 9 PM"
      },
      {
        "day": "Thursday",
        "hours": "7 AM to 9 PM"
      },
      {
        "day": "Friday",
        "hours": "7 AM to 9 PM"
      },
      {
        "day": "Saturday",
        "hours": "7 AM to 9 PM"
      },
      {
        "day": "Sunday",
        "hours": "7 AM to 9 PM"
      }
    ],
    "peopleAlsoSearch": [],
    "placesTags": [],
    "reviewsTags": [],
    "additionalInfo": {
      "Accessibility": [
        {
          "Wheelchair accessible entrance": true
        },
        {
          "Wheelchair accessible parking lot": true
        }
      ],
      "Planning": [
        {
          "Quick visit": true
        }
      ],
      "Payments": [
        {
          "Credit cards": true
        }
      ]
    },
    "gasPrices": [],
    "url": "https://www.google.com/maps/search/?api=1&query=Feldmann%20Ellen&query_place_id=ChIJj3zobhcq31IRTmdhCGp4zBM",
    "searchPageUrl": "https://www.google.com/maps/search/independent%20pharmacy%20Minot%20ND/@56.705968377238506,-134.6977272005368,9z?hl=en",
    "searchString": "independent pharmacy Minot ND",
    "language": "en",
    "rank": 8,
    "isAdvertisement": false,
    "imageUrl": "https://streetviewpixels-pa.googleapis.com/v1/thumbnail?panoid=URcFzDWKfYQOs4BRoK-xZg&cb_client=search.gws-prod.gps&w=408&h=240&yaw=137.7784&pitch=0&thumbfov=100",
    "kgmid": "/g/1tlkc0hp"
  }
]