[
  {
    "title": "West Virginia Independent Pharmacy Association",
    "price": null,
    "categoryName": "Pharmacy",
    "address": "2017 Quarrier St, Charleston, WV 25311",
    "neighborhood": null,
    "street": "2017 Quarrier St",
    "city": "Charleston",
    "postalCode": "25311",
    "state": "West Virginia",
    "countryCode": "US",
    "website": "https://www.wvipa.org/",
    "phone": "(304) 654-4214",
    "phoneUnformatted": "+13046544214",
    "claimThisBusiness": false,
    "location": {
      "lat": 38.3358948,
      "lng": -81.6091951
    },
    "totalScore": 5,
    "permanentlyClosed": false,
    "temporarilyClosed": false,
    "placeId": "ChIJ-WQN5KMsT4gR227FkX3lAo0",
    "categories": [
      "Pharmacy"
    ],
    "fid": "0x884f2ca3e40d64f9:0x8d02e57d91c56edb",
    "cid": "10160936036780568283",
    "reviewsCount": 4,
    "imagesCount": 2,
    "imageCategories": [],
    "scrapedAt": "2025-06-23T05:28:10.022Z",
    "googleFoodUrl": null,
    "hotelAds": [],
    "openingHours": [
      {
        "day": "Monday",
        "hours": "9 AM to 5 PM"
      },
      {
        "day": "Tuesday",
        "hours": "9 AM to 5 PM"
      },
      {
        "day": "Wednesday",
        "hours": "9 AM to 5 PM"
      },
      {
        "day": "Thursday",
        "hours": "9 AM to 5 PM"
      },
      {
        "day": "Friday",
        "hours": "9 AM to 5 PM"
      },
      {
        "day": "Saturday",
        "hours": "Closed"
      },
      {
        "day": "Sunday",
        "hours": "Closed"
      }
    ],
    "peopleAlsoSearch": [],
    "placesTags": [],
    "reviewsTags": [],
    "additionalInfo": {
      "Accessibility": [
        {
          "Wheelchair accessible entrance": true
        },
        {
          "Wheelchair accessible parking lot": true
        }
      ],
      "Payments": [
        {
          "Credit cards": true
        }
      ]
    },
    "gasPrices": [],
    "url": "https://www.google.com/maps/search/?api=1&query=West%20Virginia%20Independent%20Pharmacy%20Association&query_place_id=ChIJ-WQN5KMsT4gR227FkX3lAo0",
    "searchPageUrl": "https://www.google.com/maps/search/independent%20pharmacy%20in%20Charleston,%20WV/@56.705968377238506,-132.3961292291849,9z?hl=en",
    "searchString": "independent pharmacy in Charleston, WV",
    "language": "en",
    "rank": 1,
    "isAdvertisement": false,
    "imageUrl": "https://lh3.googleusercontent.com/p/AF1QipNWp9bQGPlZmbsJq99qKuc74Kc_JMqwPnRoVC_q=w408-h408-k-no",
    "kgmid": "/g/11fk0bmzkz"
  },
  {
    "title": "Good Life Apothecary",
    "price": null,
    "categoryName": "Pharmacy",
    "address": "3212 Pennsylvania Ave Ste 8, Charleston, WV 25302",
    "neighborhood": null,
    "street": "3212 Pennsylvania Ave Ste 8",
    "city": "Charleston",
    "postalCode": "25302",
    "state": "West Virginia",
    "countryCode": "US",
    "website": "http://www.goodfamilypharmacy.com/",
    "phone": "(304) 345-8600",
    "phoneUnformatted": "+13043458600",
    "claimThisBusiness": true,
    "location": {
      "lat": 38.398973,
      "lng": -81.572215
    },
    "totalScore": 5,
    "permanentlyClosed": false,
    "temporarilyClosed": false,
    "placeId": "ChIJQ-XFXFrUSIgR4ZxP_eQP0qU",
    "categories": [
      "Pharmacy"
    ],
    "fid": "0x8848d45a5cc5e543:0xa5d20fe4fd4f9ce1",
    "cid": "11948630237544160481",
    "reviewsCount": 16,
    "imagesCount": 4,
    "imageCategories": [],
    "scrapedAt": "2025-06-23T05:28:10.023Z",
    "googleFoodUrl": null,
    "hotelAds": [],
    "openingHours": [
      {
        "day": "Monday",
        "hours": "9 AM to 6:30 PM"
      },
      {
        "day": "Tuesday",
        "hours": "9 AM to 6:30 PM"
      },
      {
        "day": "Wednesday",
        "hours": "9 AM to 6:30 PM"
      },
      {
        "day": "Thursday",
        "hours": "9 AM to 6:30 PM"
      },
      {
        "day": "Friday",
        "hours": "9 AM to 6:30 PM"
      },
      {
        "day": "Saturday",
        "hours": "Closed"
      },
      {
        "day": "Sunday",
        "hours": "Closed"
      }
    ],
    "peopleAlsoSearch": [],
    "placesTags": [],
    "reviewsTags": [],
    "additionalInfo": {
      "Accessibility": [
        {
          "Wheelchair accessible entrance": true
        },
        {
          "Wheelchair accessible parking lot": true
        }
      ],
      "Planning": [
        {
          "Quick visit": true
        }
      ],
      "Payments": [
        {
          "Credit cards": true
        },
        {
          "Debit cards": true
        },
        {
          "NFC mobile payments": true
        },
        {
          "Credit cards": true
        }
      ]
    },
    "gasPrices": [],
    "url": "https://www.google.com/maps/search/?api=1&query=Good%20Life%20Apothecary&query_place_id=ChIJQ-XFXFrUSIgR4ZxP_eQP0qU",
    "searchPageUrl": "https://www.google.com/maps/search/independent%20pharmacy%20in%20Charleston,%20WV/@56.705968377238506,-132.3961292291849,9z?hl=en",
    "searchString": "independent pharmacy in Charleston, WV",
    "language": "en",
    "rank": 2,
    "isAdvertisement": false,
    "imageUrl": "https://lh3.googleusercontent.com/gps-cs-s/AC9h4noHbUrT0bxWz3-tHmVxUGW5kW-pDSVOj1D2UH32ZWtxgrRfuO5amU3g32qq8aLyJA7BJaf_LkK8LptDKj4B4_HobDNPXmF8K0KpMU5vEsJrj0gzmz4v315uFqpV8T6DOE9z6GVsCw=w408-h306-k-no",
    "kgmid": "/g/11bv3mlr27"
  },
  {
    "title": "Valley Wellness Pharmacy/MobilityPlus of Charleston WV",
    "price": null,
    "categoryName": "Pharmacy",
    "address": "3715 MacCorkle Ave SE, Charleston, WV 25304",
    "neighborhood": null,
    "street": "3715 MacCorkle Ave SE",
    "city": "Charleston",
    "postalCode": "25304",
    "state": "West Virginia",
    "countryCode": "US",
    "website": "http://www.valleywellnesspharmacy.com/",
    "phone": "(304) 932-0032",
    "phoneUnformatted": "+13049320032",
    "claimThisBusiness": false,
    "location": {
      "lat": 38.3275244,
      "lng": -81.5943973
    },
    "totalScore": 3.6,
    "permanentlyClosed": false,
    "temporarilyClosed": false,
    "placeId": "ChIJaXOjt2crT4gRfndFAHCyPD8",
    "categories": [
      "Pharmacy",
      "Mobility equipment supplier"
    ],
    "fid": "0x884f2b67b7a37369:0x3f3cb2700045777e",
    "cid": "4556713117102733182",
    "reviewsCount": 35,
    "imagesCount": 39,
    "imageCategories": [],
    "scrapedAt": "2025-06-23T05:28:10.024Z",
    "googleFoodUrl": null,
    "hotelAds": [],
    "openingHours": [
      {
        "day": "Monday",
        "hours": "9 AM to 6 PM"
      },
      {
        "day": "Tuesday",
        "hours": "9 AM to 6 PM"
      },
      {
        "day": "Wednesday",
        "hours": "9 AM to 6 PM"
      },
      {
        "day": "Thursday",
        "hours": "9 AM to 6 PM"
      },
      {
        "day": "Friday",
        "hours": "9 AM to 6 PM"
      },
      {
        "day": "Saturday",
        "hours": "9 AM to 2 PM"
      },
      {
        "day": "Sunday",
        "hours": "Closed"
      }
    ],
    "peopleAlsoSearch": [],
    "placesTags": [],
    "reviewsTags": [],
    "additionalInfo": {
      "From the business": [
        {
          "Small business": true
        }
      ],
      "Service options": [
        {
          "Delivery": true
        },
        {
          "Drive-through": true
        },
        {
          "In-store pickup": true
        },
        {
          "Same-day delivery": true
        }
      ],
      "Accessibility": [
        {
          "Wheelchair accessible entrance": true
        },
        {
          "Wheelchair accessible parking lot": true
        }
      ],
      "Planning": [
        {
          "Quick visit": true
        }
      ],
      "Payments": [
        {
          "Credit cards": true
        },
        {
          "Debit cards": true
        },
        {
          "NFC mobile payments": true
        },
        {
          "Credit cards": true
        }
      ]
    },
    "gasPrices": [],
    "url": "https://www.google.com/maps/search/?api=1&query=Valley%20Wellness%20Pharmacy%2FMobilityPlus%20of%20Charleston%20WV&query_place_id=ChIJaXOjt2crT4gRfndFAHCyPD8",
    "searchPageUrl": "https://www.google.com/maps/search/independent%20pharmacy%20in%20Charleston,%20WV/@56.705968377238506,-132.3961292291849,9z?hl=en",
    "searchString": "independent pharmacy in Charleston, WV",
    "language": "en",
    "rank": 3,
    "isAdvertisement": false,
    "imageUrl": "https://lh3.googleusercontent.com/p/AF1QipOkY2jx2PSgAnmGH4bdRxexMBhHFoVsnplZXfuo=w408-h306-k-no",
    "kgmid": "/g/11cn9mfvn7"
  },
  {
    "title": "App Rx Pharmacy",
    "price": null,
    "categoryName": "Pharmacy",
    "address": "708 Bigley Ave, Charleston, WV 25302",
    "neighborhood": null,
    "street": "708 Bigley Ave",
    "city": "Charleston",
    "postalCode": "25302",
    "state": "West Virginia",
    "countryCode": "US",
    "website": "http://wvapplabs.com/",
    "phone": "(304) 306-7778",
    "phoneUnformatted": "+13043067778",
    "claimThisBusiness": true,
    "location": {
      "lat": 38.3603845,
      "lng": -81.6403091
    },
    "totalScore": 4,
    "permanentlyClosed": false,
    "temporarilyClosed": false,
    "placeId": "ChIJhc3T0TrTSIgRsHE0IhgXB-4",
    "categories": [
      "Pharmacy"
    ],
    "fid": "0x8848d33ad1d3cd85:0xee071718223471b0",
    "cid": "17151703098284339632",
    "reviewsCount": 5,
    "imagesCount": 1,
    "imageCategories": [],
    "scrapedAt": "2025-06-23T05:28:10.024Z",
    "googleFoodUrl": null,
    "hotelAds": [],
    "openingHours": [
      {
        "day": "Monday",
        "hours": "8:30 AM to 4:30 PM"
      },
      {
        "day": "Tuesday",
        "hours": "8:30 AM to 4:30 PM"
      },
      {
        "day": "Wednesday",
        "hours": "8:30 AM to 4:30 PM"
      },
      {
        "day": "Thursday",
        "hours": "8:30 AM to 4:30 PM"
      },
      {
        "day": "Friday",
        "hours": "8:30 AM to 4:30 PM"
      },
      {
        "day": "Saturday",
        "hours": "Closed"
      },
      {
        "day": "Sunday",
        "hours": "Closed"
      }
    ],
    "peopleAlsoSearch": [],
    "placesTags": [],
    "reviewsTags": [],
    "additionalInfo": {
      "Service options": [
        {
          "Delivery": true
        },
        {
          "Same-day delivery": true
        }
      ],
      "Accessibility": [
        {
          "Wheelchair accessible entrance": true
        },
        {
          "Wheelchair accessible parking lot": true
        }
      ],
      "Payments": [
        {
          "Credit cards": true
        },
        {
          "Debit cards": true
        },
        {
          "NFC mobile payments": true
        },
        {
          "Credit cards": true
        }
      ]
    },
    "gasPrices": [],
    "url": "https://www.google.com/maps/search/?api=1&query=App%20Rx%20Pharmacy&query_place_id=ChIJhc3T0TrTSIgRsHE0IhgXB-4",
    "searchPageUrl": "https://www.google.com/maps/search/independent%20pharmacy%20in%20Charleston,%20WV/@56.705968377238506,-132.3961292291849,9z?hl=en",
    "searchString": "independent pharmacy in Charleston, WV",
    "language": "en",
    "rank": 4,
    "isAdvertisement": false,
    "imageUrl": "https://streetviewpixels-pa.googleapis.com/v1/thumbnail?panoid=YBqJsZYJQHtq48sWJ7cwIg&cb_client=search.gws-prod.gps&w=408&h=240&yaw=161.81322&pitch=0&thumbfov=100",
    "kgmid": "/g/11h8cgjcn1"
  },
  {
    "title": "Drug Emporium",
    "price": null,
    "categoryName": "Pharmacy",
    "address": "1603 Kanawha Blvd W, Charleston, WV 25387, United States",
    "neighborhood": null,
    "street": "1603 Kanawha Blvd W",
    "city": "Charleston",
    "postalCode": "25387",
    "state": "West Virginia",
    "countryCode": "US",
    "website": "http://www.drugemp.com/",
    "phone": "+1 304-345-5921",
    "phoneUnformatted": "+13043455921",
    "claimThisBusiness": false,
    "location": {
      "lat": 38.3675923,
      "lng": -81.6672736
    },
    "totalScore": 4.4,
    "permanentlyClosed": false,
    "temporarilyClosed": false,
    "placeId": "ChIJ__CCicjSSIgRQCJHhsenqVQ",
    "categories": [
      "Pharmacy",
      "Wine shop"
    ],
    "fid": "0x8848d2c88982f0ff:0x54a9a7c786472240",
    "cid": "6100591645643186752",
    "reviewsCount": 202,
    "imagesCount": 13,
    "imageCategories": [],
    "scrapedAt": "2025-06-23T05:28:14.079Z",
    "googleFoodUrl": null,
    "hotelAds": [],
    "openingHours": [
      {
        "day": "Monday",
        "hours": "9 AM to 8 PM"
      },
      {
        "day": "Tuesday",
        "hours": "9 AM to 8 PM"
      },
      {
        "day": "Wednesday",
        "hours": "9 AM to 8 PM"
      },
      {
        "day": "Thursday",
        "hours": "9 AM to 8 PM"
      },
      {
        "day": "Friday",
        "hours": "9 AM to 8 PM"
      },
      {
        "day": "Saturday",
        "hours": "9 AM to 7 PM"
      },
      {
        "day": "Sunday",
        "hours": "11 AM to 6 PM"
      }
    ],
    "peopleAlsoSearch": [],
    "placesTags": [],
    "reviewsTags": [],
    "additionalInfo": {
      "Service options": [
        {
          "Delivery": true
        },
        {
          "On-site services": true
        }
      ],
      "Accessibility": [
        {
          "Wheelchair-accessible car park": true
        },
        {
          "Wheelchair-accessible entrance": true
        }
      ],
      "Planning": [
        {
          "Quick visit": true
        }
      ],
      "Payments": [
        {
          "Credit cards": true
        },
        {
          "Debit cards": true
        },
        {
          "NFC mobile payments": true
        },
        {
          "SNAP/EBT": true
        },
        {
          "Credit cards": true
        }
      ]
    },
    "gasPrices": [],
    "url": "https://www.google.com/maps/search/?api=1&query=Drug%20Emporium&query_place_id=ChIJ__CCicjSSIgRQCJHhsenqVQ",
    "searchPageUrl": "https://www.google.com/maps/search/independent%20pharmacy%20in%20Charleston,%20WV/@-14.080964346836003,-169.2774386277914,12z?hl=en",
    "searchString": "independent pharmacy in Charleston, WV",
    "language": "en",
    "rank": 4,
    "isAdvertisement": false,
    "imageUrl": "https://lh3.googleusercontent.com/gps-cs-s/AC9h4nptDEGx6xw9AAuwylmg1jUDAUnnZnE2GGp-qa3tunkNpmiIpi4kSPYmzK6kDH8-2S9y0koNmymFzvALYQjMjxnSpRCWMFdYFEdgHNyoREZR7Ljx3doZO7eV8TFDLkpxhk-8FE6D=w408-h544-k-no",
    "kgmid": "/g/1tj22704"
  },
  {
    "title": "Trinity Infusion",
    "price": null,
    "categoryName": "Pharmacy",
    "address": "327 6th Ave, South Charleston, WV 25303, United States",
    "neighborhood": null,
    "street": "327 6th Ave",
    "city": "South Charleston",
    "postalCode": "25303",
    "state": "West Virginia",
    "countryCode": "US",
    "website": "https://www.tpswv.com/",
    "phone": "+1 304-746-7201",
    "phoneUnformatted": "+13047467201",
    "claimThisBusiness": false,
    "location": {
      "lat": 38.3685323,
      "lng": -81.6949399
    },
    "totalScore": 4.7,
    "permanentlyClosed": false,
    "temporarilyClosed": false,
    "placeId": "ChIJE9Y_b1fNSIgRKlEqOEBMEh4",
    "categories": [
      "Pharmacy",
      "Medical supply store"
    ],
    "fid": "0x8848cd576f3fd613:0x1e124c40382a512a",
    "cid": "2166878209422545194",
    "reviewsCount": 7,
    "imagesCount": 1,
    "imageCategories": [],
    "scrapedAt": "2025-06-23T05:28:22.860Z",
    "googleFoodUrl": null,
    "hotelAds": [],
    "openingHours": [],
    "peopleAlsoSearch": [],
    "placesTags": [],
    "reviewsTags": [],
    "additionalInfo": {
      "From the business": [
        {
          "Small Business": true
        }
      ],
      "Service options": [
        {
          "Delivery": true
        }
      ],
      "Accessibility": [
        {
          "Wheelchair-accessible car park": true
        },
        {
          "Wheelchair-accessible entrance": true
        }
      ],
      "Payments": [
        {
          "Credit cards": true
        },
        {
          "Debit cards": true
        },
        {
          "Credit cards": true
        }
      ]
    },
    "gasPrices": [],
    "url": "https://www.google.com/maps/search/?api=1&query=Trinity%20Infusion&query_place_id=ChIJE9Y_b1fNSIgRKlEqOEBMEh4",
    "searchPageUrl": "https://www.google.com/maps/search/independent%20pharmacy%20in%20Charleston,%20WV/@51.9240985376484,-179.90774136292754,14z?hl=en",
    "searchString": "independent pharmacy in Charleston, WV",
    "language": "en",
    "rank": 6,
    "isAdvertisement": false,
    "imageUrl": "https://streetviewpixels-pa.googleapis.com/v1/thumbnail?panoid=vL7Ve9e05EpK1C9ZDimG9g&cb_client=search.gws-prod.gps&w=408&h=240&yaw=338.65494&pitch=0&thumbfov=100",
    "kgmid": "/g/11gly3dqv_"
  },
  {
    "title": "Kines Family Pharmacy",
    "price": null,
    "categoryName": "Pharmacy",
    "address": "6097 Sissonville Dr, Charleston, WV 25312, United States",
    "neighborhood": null,
    "street": "6097 Sissonville Dr",
    "city": "Charleston",
    "postalCode": "25312",
    "state": "West Virginia",
    "countryCode": "US",
    "phone": "+1 304-984-1001",
    "phoneUnformatted": "+13049841001",
    "claimThisBusiness": false,
    "location": {
      "lat": 38.466788,
      "lng": -81.669279
    },
    "totalScore": 4.8,
    "permanentlyClosed": false,
    "temporarilyClosed": false,
    "placeId": "ChIJQxKCVcfRSIgRBWGoQ8NZ_Bw",
    "categories": [
      "Pharmacy"
    ],
    "fid": "0x8848d1c755821243:0x1cfc59c343a86105",
    "cid": "2088643022381670661",
    "reviewsCount": 23,
    "imagesCount": 6,
    "imageCategories": [],
    "scrapedAt": "2025-06-23T05:28:22.860Z",
    "googleFoodUrl": null,
    "hotelAds": [],
    "openingHours": [
      {
        "day": "Monday",
        "hours": "9 AM to 7 PM"
      },
      {
        "day": "Tuesday",
        "hours": "9 AM to 7 PM"
      },
      {
        "day": "Wednesday",
        "hours": "9 AM to 7 PM"
      },
      {
        "day": "Thursday",
        "hours": "9 AM to 7 PM"
      },
      {
        "day": "Friday",
        "hours": "9 AM to 7 PM"
      },
      {
        "day": "Saturday",
        "hours": "9 AM to 1 PM"
      },
      {
        "day": "Sunday",
        "hours": "Closed"
      }
    ],
    "peopleAlsoSearch": [],
    "placesTags": [],
    "reviewsTags": [],
    "additionalInfo": {
      "From the business": [
        {
          "Small Business": true
        }
      ],
      "Service options": [
        {
          "In-store shopping": true
        }
      ],
      "Accessibility": [
        {
          "Wheelchair-accessible car park": true
        },
        {
          "Wheelchair-accessible entrance": true
        }
      ],
      "Planning": [
        {
          "Quick visit": true
        }
      ],
      "Payments": [
        {
          "Credit cards": true
        },
        {
          "Debit cards": true
        },
        {
          "NFC mobile payments": true
        },
        {
          "Credit cards": true
        }
      ]
    },
    "gasPrices": [],
    "url": "https://www.google.com/maps/search/?api=1&query=Kines%20Family%20Pharmacy&query_place_id=ChIJQxKCVcfRSIgRBWGoQ8NZ_Bw",
    "searchPageUrl": "https://www.google.com/maps/search/independent%20pharmacy%20in%20Charleston,%20WV/@51.9240985376484,-179.90774136292754,14z?hl=en",
    "searchString": "independent pharmacy in Charleston, WV",
    "language": "en",
    "rank": 7,
    "isAdvertisement": false,
    "imageUrl": "https://lh3.googleusercontent.com/p/AF1QipOLg092XWJ6pFxOZNbC_1FsR3N2anSyGNCF0Oge=w408-h408-k-no",
    "kgmid": "/g/1tdw44xc"
  },
  {
    "title": "Fruth Pharmacy",
    "price": null,
    "categoryName": "Pharmacy",
    "address": "10 Spring St, Charleston, WV 25302, United States",
    "neighborhood": null,
    "street": "10 Spring St",
    "city": "Charleston",
    "postalCode": "25302",
    "state": "West Virginia",
    "countryCode": "US",
    "website": "http://www.fruthpharmacy.com/",
    "phone": "+1 304-553-0320",
    "phoneUnformatted": "+13045530320",
    "claimThisBusiness": false,
    "location": {
      "lat": 38.3594714,
      "lng": -81.6255932
    },
    "totalScore": 4.7,
    "permanentlyClosed": false,
    "temporarilyClosed": false,
    "placeId": "ChIJjYv_AjbTSIgRKB0lF0QxH4Y",
    "categories": [
      "Pharmacy"
    ],
    "fid": "0x8848d33602ff8b8d:0x861f314417251d28",
    "cid": "9664497493876219176",
    "reviewsCount": 3,
    "imagesCount": 1,
    "imageCategories": [],
    "scrapedAt": "2025-06-23T05:28:22.860Z",
    "googleFoodUrl": null,
    "hotelAds": [],
    "openingHours": [
      {
        "day": "Monday",
        "hours": "9 AM to 7 PM"
      },
      {
        "day": "Tuesday",
        "hours": "9 AM to 7 PM"
      },
      {
        "day": "Wednesday",
        "hours": "9 AM to 7 PM"
      },
      {
        "day": "Thursday",
        "hours": "9 AM to 7 PM"
      },
      {
        "day": "Friday",
        "hours": "9 AM to 7 PM"
      },
      {
        "day": "Saturday",
        "hours": "9 AM to 3 PM"
      },
      {
        "day": "Sunday",
        "hours": "Closed"
      }
    ],
    "peopleAlsoSearch": [],
    "placesTags": [],
    "reviewsTags": [],
    "additionalInfo": {
      "Service options": [
        {
          "In-store pick-up": true
        }
      ],
      "Accessibility": [
        {
          "Wheelchair-accessible car park": true
        },
        {
          "Wheelchair-accessible entrance": true
        }
      ],
      "Planning": [
        {
          "Quick visit": true
        }
      ],
      "Payments": [
        {
          "Credit cards": true
        }
      ]
    },
    "gasPrices": [],
    "url": "https://www.google.com/maps/search/?api=1&query=Fruth%20Pharmacy&query_place_id=ChIJjYv_AjbTSIgRKB0lF0QxH4Y",
    "searchPageUrl": "https://www.google.com/maps/search/independent%20pharmacy%20in%20Charleston,%20WV/@51.9240985376484,-179.90774136292754,14z?hl=en",
    "searchString": "independent pharmacy in Charleston, WV",
    "language": "en",
    "rank": 8,
    "isAdvertisement": false,
    "imageUrl": "https://streetviewpixels-pa.googleapis.com/v1/thumbnail?panoid=5P9XwmQGaMdYhomOcl4KTA&cb_client=search.gws-prod.gps&w=408&h=240&yaw=133.87683&pitch=0&thumbfov=100",
    "kgmid": "/g/11l1js7k1j"
  },
  {
    "title": "Fruth Pharmacy",
    "price": null,
    "categoryName": "Pharmacy",
    "address": "864 Oakwood Rd, Charleston, WV 25314, United States",
    "neighborhood": null,
    "street": "864 Oakwood Rd",
    "city": "Charleston",
    "postalCode": "25314",
    "state": "West Virginia",
    "countryCode": "US",
    "website": "http://www.fruthpharmacy.com/",
    "phone": "+1 304-343-2807",
    "phoneUnformatted": "+13043432807",
    "claimThisBusiness": false,
    "location": {
      "lat": 38.3427882,
      "lng": -81.6623548
    },
    "totalScore": 4.5,
    "permanentlyClosed": false,
    "temporarilyClosed": false,
    "placeId": "ChIJFzceyjstT4gRovYIIqcL7uc",
    "categories": [
      "Pharmacy",
      "Beer store",
      "Convenience store",
      "Gift shop",
      "Walk-in clinic"
    ],
    "fid": "0x884f2d3bca1e3717:0xe7ee0ba72208f6a2",
    "cid": "16712308079676946082",
    "reviewsCount": 29,
    "imagesCount": 6,
    "imageCategories": [],
    "scrapedAt": "2025-06-23T05:28:22.861Z",
    "googleFoodUrl": null,
    "hotelAds": [],
    "openingHours": [
      {
        "day": "Monday",
        "hours": "9 AM to 8 PM"
      },
      {
        "day": "Tuesday",
        "hours": "9 AM to 8 PM"
      },
      {
        "day": "Wednesday",
        "hours": "9 AM to 8 PM"
      },
      {
        "day": "Thursday",
        "hours": "9 AM to 8 PM"
      },
      {
        "day": "Friday",
        "hours": "9 AM to 8 PM"
      },
      {
        "day": "Saturday",
        "hours": "9 AM to 5 PM"
      },
      {
        "day": "Sunday",
        "hours": "11 AM to 4 PM"
      }
    ],
    "peopleAlsoSearch": [],
    "placesTags": [],
    "reviewsTags": [],
    "additionalInfo": {
      "Service options": [
        {
          "Drive-through": true
        },
        {
          "In-store pick-up": true
        }
      ],
      "Accessibility": [
        {
          "Wheelchair-accessible car park": true
        },
        {
          "Wheelchair-accessible entrance": true
        }
      ],
      "Planning": [
        {
          "Quick visit": true
        }
      ],
      "Payments": [
        {
          "Credit cards": true
        },
        {
          "Debit cards": true
        },
        {
          "NFC mobile payments": true
        },
        {
          "SNAP/EBT": true
        },
        {
          "Credit cards": true
        }
      ]
    },
    "gasPrices": [],
    "url": "https://www.google.com/maps/search/?api=1&query=Fruth%20Pharmacy&query_place_id=ChIJFzceyjstT4gRovYIIqcL7uc",
    "searchPageUrl": "https://www.google.com/maps/search/independent%20pharmacy%20in%20Charleston,%20WV/@51.9240985376484,-179.90774136292754,14z?hl=en",
    "searchString": "independent pharmacy in Charleston, WV",
    "language": "en",
    "rank": 9,
    "isAdvertisement": false,
    "imageUrl": "https://lh3.googleusercontent.com/p/AF1QipPFEkjDf_NjEpvycn7m8mQHGlJhh5eupxF4zzYy=w408-h306-k-no",
    "kgmid": "/g/1tj9cpr1"
  },
  {
    "title": "Drug Emporium",
    "price": null,
    "categoryName": "Pharmacy",
    "address": "5101 MacCorkle Ave SE, Charleston, WV 25304, United States",
    "neighborhood": null,
    "street": "5101 MacCorkle Ave SE",
    "city": "Charleston",
    "postalCode": "25304",
    "state": "West Virginia",
    "countryCode": "US",
    "website": "https://www.drugemp.com/",
    "phone": "+1 304-925-7099",
    "phoneUnformatted": "+13049257099",
    "claimThisBusiness": false,
    "location": {
      "lat": 38.3178763,
      "lng": -81.5757386
    },
    "totalScore": 4.5,
    "permanentlyClosed": false,
    "temporarilyClosed": false,
    "placeId": "ChIJtfA4_Q0rT4gRFE9IzQ1R2J8",
    "categories": [
      "Pharmacy",
      "Discount store"
    ],
    "fid": "0x884f2b0dfd38f0b5:0x9fd8510dcd484f14",
    "cid": "11518045166720536340",
    "reviewsCount": 95,
    "imagesCount": 10,
    "imageCategories": [],
    "scrapedAt": "2025-06-23T05:28:22.861Z",
    "googleFoodUrl": null,
    "hotelAds": [],
    "openingHours": [
      {
        "day": "Monday",
        "hours": "9 AM to 8 PM"
      },
      {
        "day": "Tuesday",
        "hours": "9 AM to 8 PM"
      },
      {
        "day": "Wednesday",
        "hours": "9 AM to 8 PM"
      },
      {
        "day": "Thursday",
        "hours": "9 AM to 8 PM"
      },
      {
        "day": "Friday",
        "hours": "9 PM to 12 AM"
      },
      {
        "day": "Saturday",
        "hours": "12 AM to 8 PM"
      },
      {
        "day": "Sunday",
        "hours": "11 AM to 6 PM"
      }
    ],
    "peopleAlsoSearch": [],
    "placesTags": [],
    "reviewsTags": [],
    "additionalInfo": {
      "Service options": [
        {
          "Delivery": false
        },
        {
          "Same-day delivery": false
        }
      ],
      "Accessibility": [
        {
          "Wheelchair-accessible car park": true
        },
        {
          "Wheelchair-accessible entrance": true
        }
      ],
      "Amenities": [
        {
          "Wi-Fi": true
        },
        {
          "Free Wi-Fi": true
        }
      ],
      "Planning": [
        {
          "Quick visit": true
        }
      ],
      "Payments": [
        {
          "Credit cards": true
        },
        {
          "Debit cards": true
        },
        {
          "NFC mobile payments": true
        },
        {
          "SNAP/EBT": true
        },
        {
          "Credit cards": true
        }
      ]
    },
    "gasPrices": [],
    "url": "https://www.google.com/maps/search/?api=1&query=Drug%20Emporium&query_place_id=ChIJtfA4_Q0rT4gRFE9IzQ1R2J8",
    "searchPageUrl": "https://www.google.com/maps/search/independent%20pharmacy%20in%20Charleston,%20WV/@51.9240985376484,-179.90774136292754,14z?hl=en",
    "searchString": "independent pharmacy in Charleston, WV",
    "language": "en",
    "rank": 10,
    "isAdvertisement": false,
    "imageUrl": "https://lh3.googleusercontent.com/gps-cs-s/AC9h4nqltxK30pcrNewsNPEkChJeLTw-qUkQAgGWp2O-NZoW74mwISsHGIcN8U1WDMg7EmAMw-gxOUZp1G1O0kZCzjaU9haeiX5ZqBANsyl37Yl6YJTPLb9xG1Lcus-_DJZhjv7cqd1cqQ=w426-h240-k-no",
    "kgmid": "/g/1v940rqt"
  }
]