[
  {
    "title": "AJ Pharmacy/Compounding",
    "price": null,
    "categoryName": "Pharmacy",
    "address": "1017 Smith St Ste 1, Providence, RI 02908",
    "neighborhood": "Elmhurst",
    "street": "1017 Smith St Ste 1",
    "city": "Providence",
    "postalCode": "02908",
    "state": "Rhode Island",
    "countryCode": "US",
    "website": "https://www.ajpharmacyri.com/",
    "phone": "(401) 366-2800",
    "phoneUnformatted": "+14013662800",
    "claimThisBusiness": false,
    "location": {
      "lat": 41.8430858,
      "lng": -71.4457791
    },
    "totalScore": 4.4,
    "permanentlyClosed": false,
    "temporarilyClosed": false,
    "placeId": "ChIJURskgMlF5IkR6CMPSbrDGvY",
    "categories": [
      "Pharmacy"
    ],
    "fid": "0x89e445c980241b51:0xf61ac3ba490f23e8",
    "cid": "17733701687581811688",
    "reviewsCount": 48,
    "imagesCount": 5,
    "imageCategories": [],
    "scrapedAt": "2025-06-22T09:23:04.590Z",
    "googleFoodUrl": null,
    "hotelAds": [],
    "openingHours": [
      {
        "day": "Monday",
        "hours": "9 AM to 7 PM"
      },
      {
        "day": "Tuesday",
        "hours": "9 AM to 7 PM"
      },
      {
        "day": "Wednesday",
        "hours": "9 AM to 7 PM"
      },
      {
        "day": "Thursday",
        "hours": "9 AM to 7 PM"
      },
      {
        "day": "Friday",
        "hours": "9 AM to 7 PM"
      },
      {
        "day": "Saturday",
        "hours": "10 AM to 6 PM"
      },
      {
        "day": "Sunday",
        "hours": "Closed"
      }
    ],
    "peopleAlsoSearch": [],
    "placesTags": [],
    "reviewsTags": [],
    "additionalInfo": {
      "From the business": [
        {
          "Identifies as women-owned": true
        },
        {
          "Small business": true
        }
      ],
      "Service options": [
        {
          "Curbside pickup": true
        },
        {
          "Delivery": true
        },
        {
          "In-store pickup": true
        },
        {
          "In-store shopping": true
        },
        {
          "Same-day delivery": true
        },
        {
          "Spanish": true
        }
      ],
      "Accessibility": [
        {
          "Wheelchair accessible entrance": true
        },
        {
          "Wheelchair accessible parking lot": true
        }
      ],
      "Planning": [
        {
          "Quick visit": true
        }
      ],
      "Payments": [
        {
          "Credit cards": true
        },
        {
          "Debit cards": true
        },
        {
          "NFC mobile payments": true
        },
        {
          "SNAP/EBT": true
        },
        {
          "Credit cards": true
        }
      ]
    },
    "gasPrices": [],
    "url": "https://www.google.com/maps/search/?api=1&query=AJ%20Pharmacy%2FCompounding&query_place_id=ChIJURskgMlF5IkR6CMPSbrDGvY",
    "searchPageUrl": "https://www.google.com/maps/search/independent%20pharmacy%20Providence%20RI/@42.54640259466427,-111.81587931391937,8z?hl=en",
    "searchString": "independent pharmacy Providence RI",
    "language": "en",
    "rank": 1,
    "isAdvertisement": false,
    "imageUrl": "https://lh3.googleusercontent.com/gps-cs-s/AC9h4noad574KV0PCkK3NZoMbX-YBkczcTKbTyBpu0-NqmetrbzjnUA_d9lh63MjTr2LWoX6PEj1aaQwI8WP2G3p3I2nl_8oi4rWiVvAmOagtMFRoYbGMeKuhS9NASccoicv7SzPmcpn=w408-h544-k-no",
    "kgmid": "/g/11jp_68myn"
  },
  {
    "title": "VCare Pharmacy of RI",
    "price": null,
    "categoryName": "Pharmacy",
    "address": "265 Waterman St, Providence, RI 02906",
    "neighborhood": "Wayland",
    "street": "265 Waterman St",
    "city": "Providence",
    "postalCode": "02906",
    "state": "Rhode Island",
    "countryCode": "US",
    "website": "https://myvcarepharmacy.com/ri/",
    "phone": "(401) 340-1800",
    "phoneUnformatted": "+14013401800",
    "claimThisBusiness": false,
    "location": {
      "lat": 41.8278802,
      "lng": -71.3854117
    },
    "totalScore": 4.9,
    "permanentlyClosed": false,
    "temporarilyClosed": false,
    "placeId": "ChIJ37UzhyxF5IkR1abAG_y_Wvc",
    "categories": [
      "Pharmacy"
    ],
    "fid": "0x89e4452c8733b5df:0xf75abffc1bc0a6d5",
    "cid": "17823769564790433493",
    "reviewsCount": 7,
    "imagesCount": 3,
    "imageCategories": [],
    "scrapedAt": "2025-06-22T09:23:04.591Z",
    "googleFoodUrl": null,
    "hotelAds": [],
    "openingHours": [
      {
        "day": "Monday",
        "hours": "9 AM to 5:30 PM"
      },
      {
        "day": "Tuesday",
        "hours": "9 AM to 5:30 PM"
      },
      {
        "day": "Wednesday",
        "hours": "9 AM to 5:30 PM"
      },
      {
        "day": "Thursday",
        "hours": "9 AM to 5:30 PM"
      },
      {
        "day": "Friday",
        "hours": "9 AM to 5:30 PM"
      },
      {
        "day": "Saturday",
        "hours": "Closed"
      },
      {
        "day": "Sunday",
        "hours": "Closed"
      }
    ],
    "peopleAlsoSearch": [],
    "placesTags": [],
    "reviewsTags": [],
    "additionalInfo": {
      "From the business": [
        {
          "Small business": true
        }
      ],
      "Service options": [
        {
          "Delivery": true
        }
      ],
      "Accessibility": [
        {
          "Wheelchair accessible parking lot": true
        }
      ],
      "Payments": [
        {
          "Credit cards": true
        }
      ]
    },
    "gasPrices": [],
    "url": "https://www.google.com/maps/search/?api=1&query=VCare%20Pharmacy%20of%20RI&query_place_id=ChIJ37UzhyxF5IkR1abAG_y_Wvc",
    "searchPageUrl": "https://www.google.com/maps/search/independent%20pharmacy%20Providence%20RI/@42.54640259466427,-111.81587931391937,8z?hl=en",
    "searchString": "independent pharmacy Providence RI",
    "language": "en",
    "rank": 2,
    "isAdvertisement": false,
    "imageUrl": "https://lh3.googleusercontent.com/gps-cs-s/AC9h4noLdc9-E74Bt6DAzc2Fi8vb9_ARKB8sxxgENKDFokgg4GLJSQbA9Qtph3jdq8UICk-99CQ65G8fS79fXAtb9336m88auwlg-Tp1LQUmNsctqyU9PcyWIywaj8KYhmQBS4hiX3D0cA=w408-h306-k-no",
    "kgmid": "/g/11jn_sf11_"
  },
  {
    "title": "Asthenis Pharmacy",
    "price": null,
    "categoryName": "Pharmacy",
    "address": "206 Cranston St, Providence, RI 02907",
    "neighborhood": "West End",
    "street": "206 Cranston St",
    "city": "Providence",
    "postalCode": "02907",
    "state": "Rhode Island",
    "countryCode": "US",
    "website": "http://www.asthenis.org/",
    "phone": "(401) 473-3958",
    "phoneUnformatted": "+14014733958",
    "claimThisBusiness": false,
    "location": {
      "lat": 41.8139417,
      "lng": -71.42657
    },
    "totalScore": 4.8,
    "permanentlyClosed": false,
    "temporarilyClosed": false,
    "placeId": "ChIJLZACDHdF5IkRdi2jZhuNY80",
    "categories": [
      "Pharmacy"
    ],
    "fid": "0x89e445770c02902d:0xcd638d1b66a32d76",
    "cid": "14799827949295185270",
    "reviewsCount": 25,
    "imagesCount": 14,
    "imageCategories": [],
    "scrapedAt": "2025-06-22T09:23:04.591Z",
    "googleFoodUrl": null,
    "hotelAds": [],
    "openingHours": [
      {
        "day": "Monday",
        "hours": "9:30 AM to 12:30 PM, 1 to 5 PM"
      },
      {
        "day": "Tuesday",
        "hours": "9:30 AM to 12:30 PM, 1 to 5 PM"
      },
      {
        "day": "Wednesday",
        "hours": "9:30 AM to 12:30 PM, 1 to 5 PM"
      },
      {
        "day": "Thursday",
        "hours": "9:30 AM to 12:30 PM, 1 to 5 PM"
      },
      {
        "day": "Friday",
        "hours": "9:30 AM to 12:30 PM, 1 to 5 PM"
      },
      {
        "day": "Saturday",
        "hours": "10 AM to 12 PM"
      },
      {
        "day": "Sunday",
        "hours": "Closed"
      }
    ],
    "additionalOpeningHours": {
      "Lunch": [
        {
          "day": "Monday",
          "hours": "12:30–1 PM"
        },
        {
          "day": "Tuesday",
          "hours": "12:30–1 PM"
        },
        {
          "day": "Wednesday",
          "hours": "12:30–1 PM"
        },
        {
          "day": "Thursday",
          "hours": "12:30–1 PM"
        },
        {
          "day": "Friday",
          "hours": "12:30–1 PM"
        },
        {
          "day": "Saturday",
          "hours": "Closed"
        },
        {
          "day": "Sunday",
          "hours": "Closed"
        }
      ]
    },
    "peopleAlsoSearch": [],
    "placesTags": [],
    "reviewsTags": [],
    "additionalInfo": {
      "From the business": [
        {
          "Small business": true
        }
      ],
      "Service options": [
        {
          "Delivery": true
        },
        {
          "Same-day delivery": true
        }
      ],
      "Accessibility": [
        {
          "Wheelchair accessible entrance": true
        },
        {
          "Wheelchair accessible parking lot": true
        }
      ],
      "Planning": [
        {
          "Quick visit": true
        }
      ],
      "Payments": [
        {
          "Credit cards": true
        },
        {
          "Debit cards": true
        },
        {
          "NFC mobile payments": true
        },
        {
          "Credit cards": true
        }
      ]
    },
    "gasPrices": [],
    "url": "https://www.google.com/maps/search/?api=1&query=Asthenis%20Pharmacy&query_place_id=ChIJLZACDHdF5IkRdi2jZhuNY80",
    "searchPageUrl": "https://www.google.com/maps/search/independent%20pharmacy%20Providence%20RI/@42.54640259466427,-111.81587931391937,8z?hl=en",
    "searchString": "independent pharmacy Providence RI",
    "language": "en",
    "rank": 3,
    "isAdvertisement": false,
    "imageUrl": "https://lh3.googleusercontent.com/p/AF1QipPX-IMdw61GFBVEJ3nMt3jZlLitSZ7-suFowAEH=w408-h408-k-no",
    "kgmid": "/g/11h5q8fs_w"
  },
  {
    "title": "Benzer Pharmacy",
    "price": null,
    "categoryName": "Pharmacy",
    "address": "265 Waterman St, Providence, RI 02906",
    "neighborhood": "Wayland",
    "street": "265 Waterman St",
    "city": "Providence",
    "postalCode": "02906",
    "state": "Rhode Island",
    "countryCode": "US",
    "phone": "(401) 340-1800",
    "phoneUnformatted": "+14013401800",
    "claimThisBusiness": false,
    "location": {
      "lat": 41.8278727,
      "lng": -71.3853858
    },
    "totalScore": 3.7,
    "permanentlyClosed": false,
    "temporarilyClosed": false,
    "placeId": "ChIJEzx--P5F5IkRrHUCtBsHypk",
    "categories": [
      "Pharmacy"
    ],
    "fid": "0x89e445fef87e3c13:0x99ca071bb40275ac",
    "cid": "11081677648664098220",
    "reviewsCount": 6,
    "imagesCount": 1,
    "imageCategories": [],
    "scrapedAt": "2025-06-22T09:23:04.591Z",
    "googleFoodUrl": null,
    "hotelAds": [],
    "openingHours": [
      {
        "day": "Monday",
        "hours": "9 AM to 5:30 PM"
      },
      {
        "day": "Tuesday",
        "hours": "9 AM to 5:30 PM"
      },
      {
        "day": "Wednesday",
        "hours": "9 AM to 5:30 PM"
      },
      {
        "day": "Thursday",
        "hours": "9 AM to 5:30 PM"
      },
      {
        "day": "Friday",
        "hours": "9 AM to 5:30 PM"
      },
      {
        "day": "Saturday",
        "hours": "Closed"
      },
      {
        "day": "Sunday",
        "hours": "Closed"
      }
    ],
    "peopleAlsoSearch": [],
    "placesTags": [],
    "reviewsTags": [],
    "additionalInfo": {
      "Accessibility": [
        {
          "Wheelchair accessible parking lot": true
        }
      ],
      "Payments": [
        {
          "Credit cards": true
        },
        {
          "Debit cards": true
        },
        {
          "NFC mobile payments": true
        },
        {
          "Credit cards": true
        }
      ]
    },
    "gasPrices": [],
    "url": "https://www.google.com/maps/search/?api=1&query=Benzer%20Pharmacy&query_place_id=ChIJEzx--P5F5IkRrHUCtBsHypk",
    "searchPageUrl": "https://www.google.com/maps/search/independent%20pharmacy%20Providence%20RI/@42.54640259466427,-111.81587931391937,8z?hl=en",
    "searchString": "independent pharmacy Providence RI",
    "language": "en",
    "rank": 4,
    "isAdvertisement": false,
    "imageUrl": "https://streetviewpixels-pa.googleapis.com/v1/thumbnail?panoid=TqdPgV8bqucPCFcQ0DZufw&cb_client=search.gws-prod.gps&w=408&h=240&yaw=207.80066&pitch=0&thumbfov=100",
    "kgmid": "/g/11h1vfxgc9"
  },
  {
    "title": "Anthony's Pharmacy Atwood LLC",
    "price": null,
    "categoryName": "Pharmacy",
    "address": "1524 Atwood Ave, Johnston, RI 02919",
    "neighborhood": null,
    "street": "1524 Atwood Ave",
    "city": "Johnston",
    "postalCode": "02919",
    "state": "Rhode Island",
    "countryCode": "US",
    "website": "http://anthonyspharmacy.net/",
    "phone": "(401) 900-1788",
    "phoneUnformatted": "+14019001788",
    "claimThisBusiness": false,
    "location": {
      "lat": 41.8273987,
      "lng": -71.5016612
    },
    "totalScore": 4.8,
    "permanentlyClosed": false,
    "temporarilyClosed": false,
    "placeId": "ChIJqy8EApRF5IkRKjt9DSON5NM",
    "categories": [
      "Pharmacy"
    ],
    "fid": "0x89e4459402042fab:0xd3e48d230d7d3b2a",
    "cid": "15268483818382506794",
    "reviewsCount": 129,
    "imagesCount": 4,
    "imageCategories": [],
    "scrapedAt": "2025-06-22T09:23:04.591Z",
    "googleFoodUrl": null,
    "hotelAds": [],
    "openingHours": [
      {
        "day": "Monday",
        "hours": "9 AM to 6:30 PM"
      },
      {
        "day": "Tuesday",
        "hours": "9 AM to 6:30 PM"
      },
      {
        "day": "Wednesday",
        "hours": "9 AM to 6:30 PM"
      },
      {
        "day": "Thursday",
        "hours": "9 AM to 6:30 PM"
      },
      {
        "day": "Friday",
        "hours": "9 AM to 6:30 PM"
      },
      {
        "day": "Saturday",
        "hours": "9 AM to 3 PM"
      },
      {
        "day": "Sunday",
        "hours": "Closed"
      }
    ],
    "additionalOpeningHours": {
      "Delivery": [
        {
          "day": "Monday",
          "hours": "9 AM–5 PM"
        },
        {
          "day": "Tuesday",
          "hours": "9 AM–5 PM"
        },
        {
          "day": "Wednesday",
          "hours": "9 AM–5 PM"
        },
        {
          "day": "Thursday",
          "hours": "9 AM–5 PM"
        },
        {
          "day": "Friday",
          "hours": "9 AM–5 PM"
        },
        {
          "day": "Saturday",
          "hours": "9 AM–3 PM"
        },
        {
          "day": "Sunday",
          "hours": "Closed"
        }
      ]
    },
    "peopleAlsoSearch": [],
    "placesTags": [],
    "reviewsTags": [],
    "additionalInfo": {
      "From the business": [
        {
          "Small business": true
        }
      ],
      "Service options": [
        {
          "Delivery": true
        }
      ],
      "Accessibility": [
        {
          "Wheelchair accessible entrance": true
        },
        {
          "Wheelchair accessible parking lot": true
        }
      ],
      "Planning": [
        {
          "Quick visit": true
        }
      ],
      "Payments": [
        {
          "Credit cards": true
        }
      ]
    },
    "gasPrices": [],
    "url": "https://www.google.com/maps/search/?api=1&query=Anthony's%20Pharmacy%20Atwood%20LLC&query_place_id=ChIJqy8EApRF5IkRKjt9DSON5NM",
    "searchPageUrl": "https://www.google.com/maps/search/independent%20pharmacy%20Providence%20RI/@42.54640259466427,-111.81587931391937,8z?hl=en",
    "searchString": "independent pharmacy Providence RI",
    "language": "en",
    "rank": 5,
    "isAdvertisement": false,
    "imageUrl": "https://lh3.googleusercontent.com/gps-cs-s/AC9h4npaUvs2cj45oz-Z4dquqno9_dPsK8tAIt2vuJYfkejEhwkwcY-bDhqelyxoLbcOmyR_KmlH5B-BwNLjMgzqjI4bLFD32TiSVnvEleBGfvIv5UChayv8Rt-3dPcGCCOkAP8Rc5w=w408-h725-k-no",
    "kgmid": "/g/1tx_7ckl"
  },
  {
    "title": "Genoa Healthcare",
    "price": null,
    "categoryName": "Pharmacy",
    "address": "530 N Main St #6, Providence, RI 02904",
    "neighborhood": "Mount Hope",
    "street": "530 N Main St #6",
    "city": "Providence",
    "postalCode": "02904",
    "state": "Rhode Island",
    "countryCode": "US",
    "website": "http://www.genoahealthcare.com/",
    "phone": "(401) 276-6370",
    "phoneUnformatted": "+14012766370",
    "claimThisBusiness": false,
    "location": {
      "lat": 41.8363913,
      "lng": -71.4101917
    },
    "totalScore": 4.6,
    "permanentlyClosed": false,
    "temporarilyClosed": false,
    "placeId": "ChIJTwZxWR5F5IkRaEKPY8m-RcA",
    "categories": [
      "Pharmacy"
    ],
    "fid": "0x89e4451e5971064f:0xc045bec9638f4268",
    "cid": "13854689600843235944",
    "reviewsCount": 16,
    "imagesCount": 1,
    "imageCategories": [],
    "scrapedAt": "2025-06-22T09:23:04.591Z",
    "googleFoodUrl": null,
    "hotelAds": [],
    "openingHours": [
      {
        "day": "Monday",
        "hours": "8 AM to 5 PM"
      },
      {
        "day": "Tuesday",
        "hours": "8 AM to 5 PM"
      },
      {
        "day": "Wednesday",
        "hours": "8 AM to 5 PM"
      },
      {
        "day": "Thursday",
        "hours": "8 AM to 5 PM"
      },
      {
        "day": "Friday",
        "hours": "8 AM to 5 PM"
      },
      {
        "day": "Saturday",
        "hours": "Closed"
      },
      {
        "day": "Sunday",
        "hours": "Closed"
      }
    ],
    "peopleAlsoSearch": [],
    "placesTags": [],
    "reviewsTags": [],
    "additionalInfo": {
      "Accessibility": [
        {
          "Wheelchair accessible entrance": true
        },
        {
          "Wheelchair accessible parking lot": true
        }
      ],
      "Payments": [
        {
          "Debit cards": true
        },
        {
          "NFC mobile payments": true
        },
        {
          "Credit cards": true
        }
      ]
    },
    "gasPrices": [],
    "url": "https://www.google.com/maps/search/?api=1&query=Genoa%20Healthcare&query_place_id=ChIJTwZxWR5F5IkRaEKPY8m-RcA",
    "searchPageUrl": "https://www.google.com/maps/search/independent%20pharmacy%20Providence%20RI/@42.54640259466427,-111.81587931391937,8z?hl=en",
    "searchString": "independent pharmacy Providence RI",
    "language": "en",
    "rank": 6,
    "isAdvertisement": false,
    "imageUrl": "https://streetviewpixels-pa.googleapis.com/v1/thumbnail?panoid=AusR8-6feZKJhQxF8jtuAg&cb_client=search.gws-prod.gps&w=408&h=240&yaw=260.7787&pitch=0&thumbfov=100",
    "kgmid": "/g/1q67vg9s0"
  },
  {
    "title": "VidaScrip Pharmacy",
    "price": null,
    "categoryName": "Pharmacy",
    "address": "500 Broad St, Providence, RI 02907",
    "neighborhood": "Upper South Providence",
    "street": "500 Broad St",
    "city": "Providence",
    "postalCode": "02907",
    "state": "Rhode Island",
    "countryCode": "US",
    "phone": "(401) 868-9070",
    "phoneUnformatted": "+14018689070",
    "claimThisBusiness": true,
    "location": {
      "lat": 41.8104114,
      "lng": -71.4209875
    },
    "permanentlyClosed": false,
    "temporarilyClosed": false,
    "placeId": "ChIJ4VuainpF5IkRi6olWeEsfKQ",
    "categories": [
      "Pharmacy"
    ],
    "fid": "0x89e4457a8a9a5be1:0xa47c2ce15925aa8b",
    "cid": "11852397665707207307",
    "reviewsCount": 0,
    "imagesCount": 1,
    "imageCategories": [],
    "scrapedAt": "2025-06-22T09:23:04.591Z",
    "googleFoodUrl": null,
    "hotelAds": [],
    "openingHours": [
      {
        "day": "Monday",
        "hours": "8:30 AM to 8 PM"
      },
      {
        "day": "Tuesday",
        "hours": "8:30 AM to 8 PM"
      },
      {
        "day": "Wednesday",
        "hours": "8:30 AM to 8 PM"
      },
      {
        "day": "Thursday",
        "hours": "8:30 AM to 8 PM"
      },
      {
        "day": "Friday",
        "hours": "8:30 AM to 8 PM"
      },
      {
        "day": "Saturday",
        "hours": "9 AM to 3 PM"
      },
      {
        "day": "Sunday",
        "hours": "9 AM to 3 PM"
      }
    ],
    "peopleAlsoSearch": [],
    "placesTags": [],
    "reviewsTags": [],
    "additionalInfo": {
      "Accessibility": [
        {
          "Wheelchair accessible parking lot": true
        }
      ],
      "Payments": [
        {
          "Credit cards": true
        }
      ]
    },
    "gasPrices": [],
    "url": "https://www.google.com/maps/search/?api=1&query=VidaScrip%20Pharmacy&query_place_id=ChIJ4VuainpF5IkRi6olWeEsfKQ",
    "searchPageUrl": "https://www.google.com/maps/search/independent%20pharmacy%20Providence%20RI/@42.54640259466427,-111.81587931391937,8z?hl=en",
    "searchString": "independent pharmacy Providence RI",
    "language": "en",
    "rank": 7,
    "isAdvertisement": false,
    "imageUrl": "https://streetviewpixels-pa.googleapis.com/v1/thumbnail?panoid=A5QO62UiwAcGwf6bd-45Gw&cb_client=search.gws-prod.gps&w=408&h=240&yaw=80.38345&pitch=0&thumbfov=100",
    "kgmid": "/g/1tfn3rtv"
  },
  {
    "title": "Brown University Health Pharmacy at Corliss Street",
    "price": null,
    "categoryName": "Pharmacy",
    "address": "180 Corliss St Suite A, Providence, RI 02904",
    "neighborhood": "Mount Hope",
    "street": "180 Corliss St Suite A",
    "city": "Providence",
    "postalCode": "02904",
    "state": "Rhode Island",
    "countryCode": "US",
    "website": "https://www.brownhealth.org/centers-services/pharmacy",
    "phone": "(401) 606-8030",
    "phoneUnformatted": "+14016068030",
    "claimThisBusiness": false,
    "location": {
      "lat": 41.8431913,
      "lng": -71.4127612
    },
    "totalScore": 4.6,
    "permanentlyClosed": false,
    "temporarilyClosed": false,
    "placeId": "ChIJQwvFEGdF5IkR0kYXhgWVg4Y",
    "categories": [
      "Pharmacy"
    ],
    "fid": "0x89e4456710c50b43:0x86839505861746d2",
    "cid": "9692754673988486866",
    "reviewsCount": 11,
    "imagesCount": 6,
    "imageCategories": [],
    "scrapedAt": "2025-06-22T09:23:05.175Z",
    "googleFoodUrl": null,
    "hotelAds": [],
    "openingHours": [
      {
        "day": "Monday",
        "hours": "7 AM to 7 PM"
      },
      {
        "day": "Tuesday",
        "hours": "7 AM to 7 PM"
      },
      {
        "day": "Wednesday",
        "hours": "7 AM to 7 PM"
      },
      {
        "day": "Thursday",
        "hours": "7 AM to 7 PM"
      },
      {
        "day": "Friday",
        "hours": "7 AM to 7 PM"
      },
      {
        "day": "Saturday",
        "hours": "8 AM to 4 PM"
      },
      {
        "day": "Sunday",
        "hours": "Closed"
      }
    ],
    "peopleAlsoSearch": [],
    "placesTags": [],
    "reviewsTags": [],
    "additionalInfo": {
      "Service options": [
        {
          "Delivery": true
        },
        {
          "In-store pickup": true
        },
        {
          "In-store shopping": true
        },
        {
          "Onsite services": true
        }
      ],
      "Accessibility": [
        {
          "Wheelchair accessible entrance": true
        },
        {
          "Wheelchair accessible parking lot": true
        }
      ],
      "Payments": [
        {
          "Credit cards": true
        },
        {
          "Debit cards": true
        },
        {
          "NFC mobile payments": true
        },
        {
          "Credit cards": true
        }
      ]
    },
    "gasPrices": [],
    "url": "https://www.google.com/maps/search/?api=1&query=Brown%20University%20Health%20Pharmacy%20at%20Corliss%20Street&query_place_id=ChIJQwvFEGdF5IkR0kYXhgWVg4Y",
    "searchPageUrl": "https://www.google.com/maps/search/independent%20pharmacy%20Providence%20RI/@70.60118977126913,-151.95971198567602,9z?hl=en",
    "searchString": "independent pharmacy Providence RI",
    "language": "en",
    "rank": 6,
    "isAdvertisement": false,
    "imageUrl": "https://lh3.googleusercontent.com/p/AF1QipNbwmmECd_5rdD3eE3JunaDpTQL_bxnauEslZSG=w408-h271-k-no",
    "kgmid": "/g/11r29998lg"
  },
  {
    "title": "Prescription Compounding Specialists of RI",
    "price": null,
    "categoryName": "Pharmacy",
    "address": "1145 Reservoir Ave #116, Cranston, RI 02920, United States",
    "neighborhood": null,
    "street": "1145 Reservoir Ave #116",
    "city": "Cranston",
    "postalCode": "02920",
    "state": "Rhode Island",
    "countryCode": "US",
    "phone": "+1 401-429-0330",
    "phoneUnformatted": "+14014290330",
    "claimThisBusiness": true,
    "location": {
      "lat": 41.770538,
      "lng": -71.45462
    },
    "totalScore": 4.9,
    "permanentlyClosed": false,
    "temporarilyClosed": false,
    "placeId": "ChIJ-diOdRlP5IkRdK1AqEgKYkM",
    "categories": [
      "Pharmacy"
    ],
    "fid": "0x89e44f19758ed8f9:0x43620a48a840ad74",
    "cid": "4855454655435550068",
    "reviewsCount": 40,
    "imagesCount": 1,
    "imageCategories": [],
    "scrapedAt": "2025-06-22T09:23:11.234Z",
    "googleFoodUrl": null,
    "hotelAds": [],
    "openingHours": [
      {
        "day": "Monday",
        "hours": "9 AM to 6 PM"
      },
      {
        "day": "Tuesday",
        "hours": "9 AM to 6 PM"
      },
      {
        "day": "Wednesday",
        "hours": "9 AM to 6 PM"
      },
      {
        "day": "Thursday",
        "hours": "9 AM to 6 PM"
      },
      {
        "day": "Friday",
        "hours": "9 AM to 6 PM"
      },
      {
        "day": "Saturday",
        "hours": "Closed"
      },
      {
        "day": "Sunday",
        "hours": "Closed"
      }
    ],
    "peopleAlsoSearch": [],
    "placesTags": [],
    "reviewsTags": [],
    "additionalInfo": {
      "Service options": [
        {
          "In-store pick-up": true
        }
      ],
      "Accessibility": [
        {
          "Wheelchair-accessible car park": true
        },
        {
          "Wheelchair-accessible entrance": true
        }
      ],
      "Payments": [
        {
          "Credit cards": true
        },
        {
          "Debit cards": true
        },
        {
          "NFC mobile payments": true
        },
        {
          "Credit cards": true
        }
      ]
    },
    "gasPrices": [],
    "url": "https://www.google.com/maps/search/?api=1&query=Prescription%20Compounding%20Specialists%20of%20RI&query_place_id=ChIJ-diOdRlP5IkRdK1AqEgKYkM",
    "searchPageUrl": "https://www.google.com/maps/search/independent%20pharmacy%20Providence%20RI/@66.43262335305997,-164.61850082811145,9z?hl=en",
    "searchString": "independent pharmacy Providence RI",
    "language": "en",
    "rank": 4,
    "isAdvertisement": false,
    "imageUrl": "https://streetviewpixels-pa.googleapis.com/v1/thumbnail?panoid=RfZx76kPmRJqsdOuc_nwbQ&cb_client=search.gws-prod.gps&w=408&h=240&yaw=38.444675&pitch=0&thumbfov=100",
    "kgmid": "/g/1xpwkt3p"
  },
  {
    "title": "AJpharmacyII & RI Wellness Medical Center",
    "price": null,
    "categoryName": "Pharmacy",
    "address": "468 Smithfield Rd, North Providence, RI 02904, United States",
    "neighborhood": null,
    "street": "468 Smithfield Rd",
    "city": "North Providence",
    "postalCode": "02904",
    "state": "Rhode Island",
    "countryCode": "US",
    "website": "http://www.ajpharmacyri.com/",
    "phone": "+1 401-441-5988",
    "phoneUnformatted": "+14014415988",
    "claimThisBusiness": false,
    "location": {
      "lat": 41.8609651,
      "lng": -71.4634743
    },
    "totalScore": 4,
    "permanentlyClosed": false,
    "temporarilyClosed": false,
    "placeId": "ChIJ9R-tOiVF5IkR9AsMk0sCvEw",
    "categories": [
      "Pharmacy"
    ],
    "fid": "0x89e445253aad1ff5:0x4cbc024b930c0bf4",
    "cid": "5529296966116969460",
    "reviewsCount": 3,
    "imagesCount": 3,
    "imageCategories": [],
    "scrapedAt": "2025-06-22T09:23:11.234Z",
    "googleFoodUrl": null,
    "hotelAds": [],
    "openingHours": [
      {
        "day": "Monday",
        "hours": "9 AM to 6 PM"
      },
      {
        "day": "Tuesday",
        "hours": "9 AM to 6 PM"
      },
      {
        "day": "Wednesday",
        "hours": "9 AM to 6 PM"
      },
      {
        "day": "Thursday",
        "hours": "9 AM to 6 PM"
      },
      {
        "day": "Friday",
        "hours": "9 AM to 6 PM"
      },
      {
        "day": "Saturday",
        "hours": "Closed"
      },
      {
        "day": "Sunday",
        "hours": "Closed"
      }
    ],
    "peopleAlsoSearch": [],
    "placesTags": [],
    "reviewsTags": [],
    "additionalInfo": {
      "From the business": [
        {
          "Small Business": true
        }
      ],
      "Service options": [
        {
          "In-store pick-up": true
        }
      ],
      "Accessibility": [
        {
          "Wheelchair-accessible car park": true
        },
        {
          "Wheelchair-accessible entrance": true
        }
      ],
      "Planning": [
        {
          "Quick visit": true
        }
      ],
      "Payments": [
        {
          "Credit cards": true
        },
        {
          "SNAP/EBT": true
        }
      ]
    },
    "gasPrices": [],
    "url": "https://www.google.com/maps/search/?api=1&query=AJpharmacyII%20%26%20RI%20Wellness%20Medical%20Center&query_place_id=ChIJ9R-tOiVF5IkR9AsMk0sCvEw",
    "searchPageUrl": "https://www.google.com/maps/search/independent%20pharmacy%20Providence%20RI/@66.43262335305997,-164.61850082811145,9z?hl=en",
    "searchString": "independent pharmacy Providence RI",
    "language": "en",
    "rank": 5,
    "isAdvertisement": false,
    "imageUrl": "https://lh3.googleusercontent.com/p/AF1QipPpdLmJWCfbgtnlXGxMc3SlAqhGK6w7XI1y_on4=w414-h240-k-no",
    "kgmid": "/g/11t7m5476j"
  },
  {
    "title": "Brown University Health Pharmacy at Rhode Island Hospital",
    "price": null,
    "categoryName": "Pharmacy",
    "address": "593 Eddy Street 1st Floor Davol Building 1st Floor, Davol Building, Providence, RI 02903",
    "neighborhood": "Upper South Providence",
    "street": "593 Eddy Street 1st Floor Davol Building 1st Floor, Davol Building",
    "city": "Providence",
    "postalCode": "02903",
    "state": "RI",
    "countryCode": "US",
    "website": "https://www.brownhealth.org/centers-services/pharmacy",
    "phone": "(401) 444-4909",
    "phoneUnformatted": "+14014444909",
    "claimThisBusiness": false,
    "location": {
      "lat": 41.8107889,
      "lng": -71.4090636
    },
    "totalScore": 4.8,
    "permanentlyClosed": false,
    "temporarilyClosed": false,
    "placeId": "ChIJu8dIx2lF5IkRFjRREZawej4",
    "categories": [
      "Pharmacy"
    ],
    "fid": "0x89e44569c748c7bb:0x3e7ab09611513416",
    "cid": "4502104936092349462",
    "reviewsCount": 26,
    "imagesCount": 2,
    "imageCategories": [],
    "scrapedAt": "2025-06-22T09:23:14.385Z",
    "googleFoodUrl": null,
    "hotelAds": [],
    "openingHours": [
      {
        "day": "Monday",
        "hours": "7 AM to 11:30 PM"
      },
      {
        "day": "Tuesday",
        "hours": "7 AM to 11:30 PM"
      },
      {
        "day": "Wednesday",
        "hours": "7 AM to 11:30 PM"
      },
      {
        "day": "Thursday",
        "hours": "7 AM to 11:30 PM"
      },
      {
        "day": "Friday",
        "hours": "7 AM to 11:30 PM"
      },
      {
        "day": "Saturday",
        "hours": "8 AM to 4:30 PM"
      },
      {
        "day": "Sunday",
        "hours": "8 AM to 4:30 PM"
      }
    ],
    "peopleAlsoSearch": [],
    "placesTags": [],
    "reviewsTags": [],
    "additionalInfo": {
      "Service options": [
        {
          "Delivery": true
        },
        {
          "English": true
        }
      ],
      "Accessibility": [
        {
          "Wheelchair accessible entrance": true
        },
        {
          "Wheelchair accessible parking lot": true
        }
      ],
      "Payments": [
        {
          "Credit cards": true
        },
        {
          "Debit cards": true
        },
        {
          "NFC mobile payments": true
        },
        {
          "Credit cards": true
        }
      ]
    },
    "gasPrices": [],
    "url": "https://www.google.com/maps/search/?api=1&query=Brown%20University%20Health%20Pharmacy%20at%20Rhode%20Island%20Hospital&query_place_id=ChIJu8dIx2lF5IkRFjRREZawej4",
    "searchPageUrl": "https://www.google.com/maps/search/independent%20pharmacy%20Providence%20RI/@65.04310121365691,-165.7692998137874,9z?hl=en",
    "searchString": "independent pharmacy Providence RI",
    "language": "en",
    "rank": 9,
    "isAdvertisement": false,
    "imageUrl": "https://lh3.googleusercontent.com/p/AF1QipMClVT5-GhIwaPXcZ3pqH3EOkwPky7z1MnUyJ7u=w426-h240-k-no",
    "kgmid": "/g/1w0j0m9w"
  },
  {
    "title": "ApothiCare 360 Compounding Pharmacy",
    "price": null,
    "categoryName": "Pharmacy",
    "address": "6631 Orion Dr #112, Fort Myers, FL 33912",
    "neighborhood": null,
    "street": "6631 Orion Dr #112",
    "city": "Fort Myers",
    "postalCode": "33912",
    "state": "Florida",
    "countryCode": "US",
    "website": "http://www.apothicare360.com/",
    "phone": "(239) 690-7700",
    "phoneUnformatted": "+12396907700",
    "claimThisBusiness": false,
    "location": {
      "lat": 26.5457221,
      "lng": -81.8480882
    },
    "totalScore": 4.9,
    "permanentlyClosed": false,
    "temporarilyClosed": false,
    "placeId": "ChIJ5eu3L0EV24gRsdDeEPoBcIk",
    "categories": [
      "Pharmacy",
      "Vitamin & supplements store"
    ],
    "fid": "0x88db15412fb7ebe5:0x897001fa10ded0b1",
    "cid": "9903417754124210353",
    "reviewsCount": 38,
    "imagesCount": 24,
    "imageCategories": [],
    "scrapedAt": "2025-06-22T09:23:43.898Z",
    "googleFoodUrl": null,
    "hotelAds": [],
    "openingHours": [
      {
        "day": "Monday",
        "hours": "8:30 AM to 5:30 PM"
      },
      {
        "day": "Tuesday",
        "hours": "8:30 AM to 5:30 PM"
      },
      {
        "day": "Wednesday",
        "hours": "8:30 AM to 5:30 PM"
      },
      {
        "day": "Thursday",
        "hours": "8:30 AM to 5:30 PM"
      },
      {
        "day": "Friday",
        "hours": "8:30 AM to 5:30 PM"
      },
      {
        "day": "Saturday",
        "hours": "Closed"
      },
      {
        "day": "Sunday",
        "hours": "Closed"
      }
    ],
    "peopleAlsoSearch": [],
    "placesTags": [],
    "reviewsTags": [],
    "additionalInfo": {
      "From the business": [
        {
          "Small business": true
        }
      ],
      "Service options": [
        {
          "Delivery": true
        },
        {
          "In-store pickup": true
        },
        {
          "In-store shopping": true
        },
        {
          "Same-day delivery": true
        }
      ],
      "Accessibility": [
        {
          "Wheelchair accessible entrance": true
        },
        {
          "Wheelchair accessible parking lot": true
        }
      ],
      "Amenities": [
        {
          "Gender-neutral restroom": true
        }
      ],
      "Crowd": [
        {
          "LGBTQ+ friendly": true
        }
      ],
      "Payments": [
        {
          "Credit cards": true
        },
        {
          "Debit cards": true
        },
        {
          "NFC mobile payments": true
        },
        {
          "Credit cards": true
        }
      ]
    },
    "gasPrices": [],
    "url": "https://www.google.com/maps/search/?api=1&query=ApothiCare%20360%20Compounding%20Pharmacy&query_place_id=ChIJ5eu3L0EV24gRsdDeEPoBcIk",
    "searchPageUrl": "https://www.google.com/maps/search/independent%20pharmacy%20Providence%20RI/@25.362687310671483,-80.15361988608069,8z?hl=en",
    "searchString": "independent pharmacy Providence RI",
    "language": "en",
    "rank": 2,
    "isAdvertisement": false,
    "imageUrl": "https://lh3.googleusercontent.com/p/AF1QipNjNQMCarN64QYTIBQbjGQai6z9FVGlxk2pKfPy=w408-h306-k-no",
    "kgmid": "/g/1pyqjs0t6"
  },
  {
    "title": "CVS Pharmacy",
    "price": null,
    "categoryName": "Pharmacy",
    "address": "1919 Mineral Spring Ave, North Providence, RI 02904",
    "neighborhood": null,
    "street": "1919 Mineral Spring Ave",
    "city": "North Providence",
    "postalCode": "02904",
    "state": "Rhode Island",
    "countryCode": "US",
    "website": "https://www.cvs.com/store-locator/north-providence-ri-pharmacies/1919-mineral-spring-avenue-north-providence-ri-02904/storeid=351?WT.mc_id=LS_GOOGLE_RX_351",
    "phone": "(401) 353-2501",
    "phoneUnformatted": "+14013532501",
    "claimThisBusiness": false,
    "location": {
      "lat": 41.8610524,
      "lng": -71.468252
    },
    "totalScore": 4.1,
    "permanentlyClosed": false,
    "temporarilyClosed": false,
    "placeId": "ChIJacZ-9iRE5IkRcsAMdAqfvos",
    "categories": [
      "Pharmacy"
    ],
    "fid": "0x89e44424f67ec669:0x8bbe9f0a740cc072",
    "cid": "10069660684092489842",
    "reviewsCount": 38,
    "imagesCount": 10,
    "imageCategories": [],
    "scrapedAt": "2025-06-22T09:23:43.899Z",
    "googleFoodUrl": null,
    "hotelAds": [],
    "openingHours": [
      {
        "day": "Monday",
        "hours": "12 AM to 1:30 PM, 2 PM to 12 AM"
      },
      {
        "day": "Tuesday",
        "hours": "12 AM to 1:30 PM, 2 PM to 12 AM"
      },
      {
        "day": "Wednesday",
        "hours": "12 AM to 1:30 PM, 2 PM to 12 AM"
      },
      {
        "day": "Thursday",
        "hours": "12 AM to 1:30 PM, 2 PM to 12 AM"
      },
      {
        "day": "Friday",
        "hours": "12 AM to 1:30 PM, 2 PM to 12 AM"
      },
      {
        "day": "Saturday",
        "hours": "12 AM to 1:30 PM, 2 PM to 12 AM"
      },
      {
        "day": "Sunday",
        "hours": "12 AM to 1:30 PM, 2 PM to 12 AM"
      }
    ],
    "peopleAlsoSearch": [],
    "placesTags": [],
    "reviewsTags": [],
    "additionalInfo": {
      "Service options": [
        {
          "Delivery": true
        },
        {
          "Drive-through": true
        },
        {
          "In-store shopping": true
        },
        {
          "Onsite services": true
        }
      ],
      "Accessibility": [
        {
          "Wheelchair accessible entrance": true
        },
        {
          "Wheelchair accessible parking lot": true
        }
      ],
      "Offerings": [
        {
          "Medication disposal": true
        },
        {
          "Naloxone": true
        },
        {
          "Passport photos": true
        }
      ],
      "Crowd": [
        {
          "LGBTQ+ friendly": true
        },
        {
          "Transgender safespace": true
        }
      ],
      "Planning": [
        {
          "Quick visit": true
        }
      ],
      "Payments": [
        {
          "Credit cards": true
        },
        {
          "Debit cards": true
        },
        {
          "NFC mobile payments": true
        },
        {
          "SNAP/EBT": true
        },
        {
          "Credit cards": true
        }
      ]
    },
    "gasPrices": [],
    "url": "https://www.google.com/maps/search/?api=1&query=CVS%20Pharmacy&query_place_id=ChIJacZ-9iRE5IkRcsAMdAqfvos",
    "searchPageUrl": "https://www.google.com/maps/search/independent%20pharmacy%20Providence%20RI/@25.362687310671483,-80.15361988608069,8z?hl=en",
    "searchString": "independent pharmacy Providence RI",
    "language": "en",
    "rank": 11,
    "isAdvertisement": false,
    "imageUrl": "https://lh3.googleusercontent.com/p/AF1QipPKm0qFS0PyDgpPc75brEJIzfbzKLYFI2G1dNj8=w408-h272-k-no",
    "kgmid": "/g/11c6rxpz88"
  },
  {
    "title": "Park Ave Pharmacy",
    "price": null,
    "categoryName": "Pharmacy",
    "address": "1375 Park Ave, Cranston, RI 02920",
    "neighborhood": null,
    "street": "1375 Park Ave",
    "city": "Cranston",
    "postalCode": "02920",
    "state": "Rhode Island",
    "countryCode": "US",
    "website": "http://www.parkavepharma.com/",
    "phone": "(401) 228-1544",
    "phoneUnformatted": "+14012281544",
    "claimThisBusiness": false,
    "location": {
      "lat": 41.784246,
      "lng": -71.4595881
    },
    "totalScore": 4.9,
    "permanentlyClosed": false,
    "temporarilyClosed": false,
    "placeId": "ChIJP4zIh-RP5IkRvcjRekwMOwc",
    "categories": [
      "Pharmacy"
    ],
    "fid": "0x89e44fe487c88c3f:0x73b0c4c7ad1c8bd",
    "cid": "521023704509040829",
    "reviewsCount": 52,
    "imagesCount": 16,
    "imageCategories": [],
    "scrapedAt": "2025-06-22T09:23:45.974Z",
    "googleFoodUrl": null,
    "hotelAds": [],
    "openingHours": [
      {
        "day": "Monday",
        "hours": "9 AM to 7 PM"
      },
      {
        "day": "Tuesday",
        "hours": "9 AM to 7 PM"
      },
      {
        "day": "Wednesday",
        "hours": "9 AM to 7 PM"
      },
      {
        "day": "Thursday",
        "hours": "9 AM to 7 PM"
      },
      {
        "day": "Friday",
        "hours": "9 AM to 7 PM"
      },
      {
        "day": "Saturday",
        "hours": "9 AM to 3 PM"
      },
      {
        "day": "Sunday",
        "hours": "Closed"
      }
    ],
    "additionalOpeningHours": {
      "Pickup": [
        {
          "day": "Monday",
          "hours": "9 AM–7 PM"
        },
        {
          "day": "Tuesday",
          "hours": "9 AM–7 PM"
        },
        {
          "day": "Wednesday",
          "hours": "9 AM–7 PM"
        },
        {
          "day": "Thursday",
          "hours": "9 AM–7 PM"
        },
        {
          "day": "Friday",
          "hours": "9 AM–7 PM"
        },
        {
          "day": "Saturday",
          "hours": "9 AM–2 PM"
        },
        {
          "day": "Sunday",
          "hours": "Closed"
        }
      ]
    },
    "peopleAlsoSearch": [],
    "placesTags": [],
    "reviewsTags": [],
    "additionalInfo": {
      "From the business": [
        {
          "Identifies as Asian-owned": true
        },
        {
          "Small business": true
        }
      ],
      "Service options": [
        {
          "Curbside pickup": true
        },
        {
          "Delivery": true
        },
        {
          "In-store pickup": true
        },
        {
          "In-store shopping": true
        },
        {
          "Same-day delivery": true
        }
      ],
      "Accessibility": [
        {
          "Wheelchair accessible entrance": true
        },
        {
          "Wheelchair accessible parking lot": true
        },
        {
          "Wheelchair accessible restroom": true
        },
        {
          "Wheelchair accessible seating": true
        }
      ],
      "Amenities": [
        {
          "Gender-neutral restroom": true
        },
        {
          "Wi-Fi": true
        },
        {
          "Free Wi-Fi": true
        }
      ],
      "Crowd": [
        {
          "LGBTQ+ friendly": true
        },
        {
          "Transgender safespace": true
        }
      ],
      "Planning": [
        {
          "Quick visit": true
        }
      ],
      "Payments": [
        {
          "Checks": true
        },
        {
          "Credit cards": true
        },
        {
          "Debit cards": true
        },
        {
          "NFC mobile payments": true
        },
        {
          "Credit cards": true
        }
      ]
    },
    "gasPrices": [],
    "url": "https://www.google.com/maps/search/?api=1&query=Park%20Ave%20Pharmacy&query_place_id=ChIJP4zIh-RP5IkRvcjRekwMOwc",
    "searchPageUrl": "https://www.google.com/maps/search/independent%20pharmacy%20Providence%20RI/@42.54640259466427,-73.82116800051296,8z?hl=en",
    "searchString": "independent pharmacy Providence RI",
    "language": "en",
    "rank": 12,
    "isAdvertisement": false,
    "imageUrl": "https://lh3.googleusercontent.com/p/AF1QipNjhVwqWoLslYwL4KmMPNJxnGp7otfwsyDPwVCo=w426-h240-k-no",
    "kgmid": "/g/11tjlg2ht0"
  },
  {
    "title": "Walgreens Pharmacy at Providence Community Health Center",
    "description": "Department of the Walgreens chain providing prescription medications & other health-related items.",
    "price": "$$",
    "categoryName": "Pharmacy",
    "address": "335 Prairie Ave, Providence, RI 02905",
    "neighborhood": "Lower South Providence",
    "street": "335 Prairie Ave",
    "city": "Providence",
    "postalCode": "02905",
    "state": "Rhode Island",
    "countryCode": "US",
    "website": "https://www.walgreens.com/locator/walgreens-335+prairie+ave-providence-ri-02905/id=15538",
    "phone": "(401) 781-4325",
    "phoneUnformatted": "+14017814325",
    "claimThisBusiness": false,
    "location": {
      "lat": 41.8050078,
      "lng": -71.4147968
    },
    "totalScore": 4.2,
    "permanentlyClosed": false,
    "temporarilyClosed": false,
    "placeId": "ChIJceCOhGNF5IkRXpRvgjjMcyk",
    "categories": [
      "Pharmacy"
    ],
    "fid": "0x89e44563848ee071:0x2973cc38826f945e",
    "cid": "2986955520955356254",
    "reviewsCount": 62,
    "imagesCount": 4,
    "imageCategories": [],
    "scrapedAt": "2025-06-22T09:23:45.974Z",
    "googleFoodUrl": null,
    "hotelAds": [],
    "openingHours": [
      {
        "day": "Monday",
        "hours": "8 AM to 8 PM"
      },
      {
        "day": "Tuesday",
        "hours": "8 AM to 8 PM"
      },
      {
        "day": "Wednesday",
        "hours": "8 AM to 8 PM"
      },
      {
        "day": "Thursday",
        "hours": "8 AM to 8 PM"
      },
      {
        "day": "Friday",
        "hours": "8 AM to 8 PM"
      },
      {
        "day": "Saturday",
        "hours": "9 AM to 5 PM"
      },
      {
        "day": "Sunday",
        "hours": "9 AM to 5 PM"
      }
    ],
    "additionalOpeningHours": {
      "Pickup": [
        {
          "day": "Monday",
          "hours": "8 AM–8 PM"
        },
        {
          "day": "Tuesday",
          "hours": "8 AM–8 PM"
        },
        {
          "day": "Wednesday",
          "hours": "8 AM–8 PM"
        },
        {
          "day": "Thursday",
          "hours": "8 AM–8 PM"
        },
        {
          "day": "Friday",
          "hours": "8 AM–8 PM"
        },
        {
          "day": "Saturday",
          "hours": "9 AM–5 PM"
        },
        {
          "day": "Sunday",
          "hours": "9 AM–5 PM"
        }
      ]
    },
    "peopleAlsoSearch": [],
    "placesTags": [],
    "reviewsTags": [],
    "additionalInfo": {
      "Service options": [
        {
          "In-store pickup": true
        }
      ],
      "Accessibility": [
        {
          "Wheelchair accessible entrance": true
        },
        {
          "Wheelchair accessible parking lot": true
        }
      ],
      "Planning": [
        {
          "Quick visit": true
        }
      ],
      "Payments": [
        {
          "Credit cards": true
        },
        {
          "Debit cards": true
        },
        {
          "NFC mobile payments": true
        },
        {
          "Credit cards": true
        }
      ]
    },
    "gasPrices": [],
    "url": "https://www.google.com/maps/search/?api=1&query=Walgreens%20Pharmacy%20at%20Providence%20Community%20Health%20Center&query_place_id=ChIJceCOhGNF5IkRXpRvgjjMcyk",
    "searchPageUrl": "https://www.google.com/maps/search/independent%20pharmacy%20Providence%20RI/@42.54640259466427,-73.82116800051296,8z?hl=en",
    "searchString": "independent pharmacy Providence RI",
    "language": "en",
    "rank": 13,
    "isAdvertisement": false,
    "imageUrl": "https://lh3.googleusercontent.com/gps-cs-s/AC9h4nqjifhqUcE7XuW1lBFdgXIchCSWaJ-p1dSso58SKeBtvojl53AvmKt1EPDBzKZBpIllfm26LfI_iesBa5Unk5-tnnlD5LQOdDAMmifpJrY5UrW4loPaJrLYL3GJ_7bdPXJZWRTA=w408-h306-k-no",
    "kgmid": "/g/11b5yxmzt6"
  },
  {
    "title": "Shaw's Pharmacy",
    "price": "$$",
    "categoryName": "Pharmacy",
    "address": "15 Smithfield Rd, North Providence, RI 02904",
    "neighborhood": null,
    "street": "15 Smithfield Rd",
    "city": "North Providence",
    "postalCode": "02904",
    "state": "Rhode Island",
    "countryCode": "US",
    "website": "https://local.pharmacy.shaws.com/ri/north-providence/15-smithfield-rd.html",
    "phone": "(401) 353-4075",
    "phoneUnformatted": "+14013534075",
    "claimThisBusiness": false,
    "location": {
      "lat": 41.8562039,
      "lng": -71.4474255
    },
    "totalScore": 4.1,
    "permanentlyClosed": false,
    "temporarilyClosed": false,
    "placeId": "ChIJnQzl0EVE5IkR_UkWNoxG6rA",
    "categories": [
      "Pharmacy",
      "Drug store",
      "Vitamin & supplements store"
    ],
    "fid": "0x89e44445d0e50c9d:0xb0ea468c361649fd",
    "cid": "12748079263242406397",
    "reviewsCount": 20,
    "imagesCount": 3,
    "imageCategories": [],
    "scrapedAt": "2025-06-22T09:23:45.975Z",
    "googleFoodUrl": null,
    "hotelAds": [],
    "openingHours": [
      {
        "day": "Monday",
        "hours": "9 AM to 2 PM, 2:30 to 8 PM"
      },
      {
        "day": "Tuesday",
        "hours": "9 AM to 2 PM, 2:30 to 8 PM"
      },
      {
        "day": "Wednesday",
        "hours": "9 AM to 2 PM, 2:30 to 8 PM"
      },
      {
        "day": "Thursday",
        "hours": "9 AM to 2 PM, 2:30 to 8 PM"
      },
      {
        "day": "Friday",
        "hours": "9 AM to 2 PM, 2:30 to 8 PM"
      },
      {
        "day": "Saturday",
        "hours": "9 AM to 2 PM, 2:30 to 5 PM"
      },
      {
        "day": "Sunday",
        "hours": "10 AM to 2 PM, 2:30 to 5 PM"
      }
    ],
    "peopleAlsoSearch": [],
    "placesTags": [],
    "reviewsTags": [],
    "additionalInfo": {
      "Service options": [
        {
          "Delivery": true
        },
        {
          "In-store pickup": true
        },
        {
          "In-store shopping": true
        },
        {
          "Onsite services": true
        },
        {
          "Same-day delivery": true
        }
      ],
      "Accessibility": [
        {
          "Wheelchair accessible entrance": true
        },
        {
          "Wheelchair accessible parking lot": true
        }
      ],
      "Crowd": [
        {
          "LGBTQ+ friendly": true
        }
      ],
      "Planning": [
        {
          "Appointment required": true
        },
        {
          "Quick visit": true
        }
      ],
      "Payments": [
        {
          "Checks": true
        },
        {
          "Debit cards": true
        },
        {
          "NFC mobile payments": true
        },
        {
          "Credit cards": true
        }
      ]
    },
    "gasPrices": [],
    "url": "https://www.google.com/maps/search/?api=1&query=Shaw's%20Pharmacy&query_place_id=ChIJnQzl0EVE5IkR_UkWNoxG6rA",
    "searchPageUrl": "https://www.google.com/maps/search/independent%20pharmacy%20Providence%20RI/@42.54640259466427,-73.82116800051296,8z?hl=en",
    "searchString": "independent pharmacy Providence RI",
    "language": "en",
    "rank": 14,
    "isAdvertisement": false,
    "imageUrl": "https://lh3.googleusercontent.com/gps-cs-s/AC9h4npO1BuwKnxB1CDW5X8kpOX8ZcHvHHYiAgi0AmkC5ltQAu5xwAEjOtp1fqO5n2vNDfwIPwhp8igfA3IF3Ts4iSeDAL7PjmDkZ-TettOHlxdF-4aqa5Siz4xJEIMy8i9S4V4m9Pn8=w426-h240-k-no",
    "kgmid": "/g/11cjkvhkrk"
  },
  {
    "title": "CVS Pharmacy Specialty Services",
    "price": null,
    "categoryName": "Pharmacy",
    "address": "2 Dudley St Suite 170, Providence, RI 02905",
    "neighborhood": "Upper South Providence",
    "street": "2 Dudley St Suite 170",
    "city": "Providence",
    "postalCode": "02905",
    "state": "Rhode Island",
    "countryCode": "US",
    "website": "https://www.cvsspecialty.com/wps/portal/specialty?WT.mc_id=LS_GOOGLE_02293",
    "phone": "(401) 421-1555",
    "phoneUnformatted": "+14014211555",
    "claimThisBusiness": false,
    "location": {
      "lat": 41.8103278,
      "lng": -71.4081682
    },
    "totalScore": 3,
    "permanentlyClosed": false,
    "temporarilyClosed": false,
    "placeId": "ChIJh6suamhF5IkRWzjborrp9ms",
    "categories": [
      "Pharmacy"
    ],
    "fid": "0x89e445686a2eab87:0x6bf6e9baa2db385b",
    "cid": "7779662394134575195",
    "reviewsCount": 9,
    "imagesCount": 2,
    "imageCategories": [],
    "scrapedAt": "2025-06-22T09:23:45.975Z",
    "googleFoodUrl": null,
    "hotelAds": [],
    "openingHours": [
      {
        "day": "Monday",
        "hours": "8 AM to 6 PM"
      },
      {
        "day": "Tuesday",
        "hours": "8 AM to 6 PM"
      },
      {
        "day": "Wednesday",
        "hours": "8 AM to 6 PM"
      },
      {
        "day": "Thursday",
        "hours": "8 AM to 6 PM"
      },
      {
        "day": "Friday",
        "hours": "8 AM to 6 PM"
      },
      {
        "day": "Saturday",
        "hours": "Closed"
      },
      {
        "day": "Sunday",
        "hours": "Closed"
      }
    ],
    "peopleAlsoSearch": [],
    "placesTags": [],
    "reviewsTags": [],
    "additionalInfo": {
      "Service options": [
        {
          "Delivery": true
        },
        {
          "In-store shopping": true
        }
      ],
      "Accessibility": [
        {
          "Wheelchair accessible entrance": true
        },
        {
          "Wheelchair accessible parking lot": true
        }
      ],
      "Payments": [
        {
          "Credit cards": true
        },
        {
          "Debit cards": true
        }
      ]
    },
    "gasPrices": [],
    "url": "https://www.google.com/maps/search/?api=1&query=CVS%20Pharmacy%20Specialty%20Services&query_place_id=ChIJh6suamhF5IkRWzjborrp9ms",
    "searchPageUrl": "https://www.google.com/maps/search/independent%20pharmacy%20Providence%20RI/@42.54640259466427,-73.82116800051296,8z?hl=en",
    "searchString": "independent pharmacy Providence RI",
    "language": "en",
    "rank": 15,
    "isAdvertisement": false,
    "imageUrl": "https://lh3.googleusercontent.com/p/AF1QipMmlr4ARqQLreLcpc9-zfM5PGG581u9tWKdGSS9=w467-h240-k-no",
    "kgmid": "/g/1v1sm7gv"
  },
  {
    "title": "CVS Pharmacy",
    "price": null,
    "categoryName": "Pharmacy",
    "address": "400 Admiral St, Providence, RI 02908",
    "neighborhood": "Wanskuck",
    "street": "400 Admiral St",
    "city": "Providence",
    "postalCode": "02908",
    "state": "Rhode Island",
    "countryCode": "US",
    "website": "https://www.cvs.com/store-locator/providence-ri-pharmacies/400-admiral-street-providence-ri-02908/storeid=856?WT.mc_id=LS_GOOGLE_RX_856",
    "phone": "(401) 351-5030",
    "phoneUnformatted": "+14013515030",
    "claimThisBusiness": false,
    "location": {
      "lat": 41.8460218,
      "lng": -71.429442
    },
    "totalScore": 3.7,
    "permanentlyClosed": false,
    "temporarilyClosed": false,
    "placeId": "ChIJv1JGWv9E5IkRIhYJUVM0VVI",
    "categories": [
      "Pharmacy"
    ],
    "fid": "0x89e444ff5a4652bf:0x5255345351091622",
    "cid": "5932705616576976418",
    "reviewsCount": 23,
    "imagesCount": 3,
    "imageCategories": [],
    "scrapedAt": "2025-06-22T09:23:45.975Z",
    "googleFoodUrl": null,
    "hotelAds": [],
    "openingHours": [
      {
        "day": "Monday",
        "hours": "9 AM to 1:30 PM, 2 to 8 PM"
      },
      {
        "day": "Tuesday",
        "hours": "9 AM to 1:30 PM, 2 to 8 PM"
      },
      {
        "day": "Wednesday",
        "hours": "9 AM to 1:30 PM, 2 to 8 PM"
      },
      {
        "day": "Thursday",
        "hours": "9 AM to 1:30 PM, 2 to 8 PM"
      },
      {
        "day": "Friday",
        "hours": "9 AM to 1:30 PM, 2 to 8 PM"
      },
      {
        "day": "Saturday",
        "hours": "9 AM to 1:30 PM, 2 to 6 PM"
      },
      {
        "day": "Sunday",
        "hours": "10 AM to 1:30 PM, 2 to 6 PM"
      }
    ],
    "peopleAlsoSearch": [],
    "placesTags": [],
    "reviewsTags": [],
    "additionalInfo": {
      "Service options": [
        {
          "Delivery": true
        },
        {
          "In-store shopping": true
        },
        {
          "Onsite services": true
        }
      ],
      "Accessibility": [
        {
          "Wheelchair accessible entrance": true
        },
        {
          "Wheelchair accessible parking lot": true
        }
      ],
      "Offerings": [
        {
          "Naloxone": true
        },
        {
          "Passport photos": true
        }
      ],
      "Crowd": [
        {
          "LGBTQ+ friendly": true
        },
        {
          "Transgender safespace": true
        }
      ],
      "Planning": [
        {
          "Quick visit": true
        }
      ],
      "Payments": [
        {
          "Credit cards": true
        },
        {
          "Debit cards": true
        },
        {
          "NFC mobile payments": true
        },
        {
          "SNAP/EBT": true
        },
        {
          "Credit cards": true
        }
      ]
    },
    "gasPrices": [],
    "url": "https://www.google.com/maps/search/?api=1&query=CVS%20Pharmacy&query_place_id=ChIJv1JGWv9E5IkRIhYJUVM0VVI",
    "searchPageUrl": "https://www.google.com/maps/search/independent%20pharmacy%20Providence%20RI/@42.54640259466427,-73.82116800051296,8z?hl=en",
    "searchString": "independent pharmacy Providence RI",
    "language": "en",
    "rank": 16,
    "isAdvertisement": false,
    "imageUrl": "https://lh3.googleusercontent.com/p/AF1QipNGtHKuDznUY_UqXCmUh7xsT5NU4z_41MJ0J-BQ=w408-h272-k-no",
    "kgmid": "/g/11c475cbkc"
  },
  {
    "title": "PharMerica - Warwick, RI",
    "price": null,
    "categoryName": "Pharmacy",
    "address": "83 Vermont Ave #2, Warwick, RI 02888",
    "neighborhood": null,
    "street": "83 Vermont Ave #2",
    "city": "Warwick",
    "postalCode": "02888",
    "state": "Rhode Island",
    "countryCode": "US",
    "website": "https://pharmerica.com/location/pharmerica-warwick-ri/",
    "phone": "(800) 446-1190",
    "phoneUnformatted": "+18004461190",
    "claimThisBusiness": false,
    "location": {
      "lat": 41.7403422,
      "lng": -71.4416217
    },
    "totalScore": 3,
    "permanentlyClosed": false,
    "temporarilyClosed": false,
    "placeId": "ChIJLZ3f1I9O5IkR9qzAmhtQUl4",
    "categories": [
      "Pharmacy"
    ],
    "fid": "0x89e44e8fd4df9d2d:0x5e52501b9ac0acf6",
    "cid": "6796582867146157302",
    "reviewsCount": 4,
    "imagesCount": 5,
    "imageCategories": [],
    "scrapedAt": "2025-06-22T09:23:45.975Z",
    "googleFoodUrl": null,
    "hotelAds": [],
    "openingHours": [
      {
        "day": "Monday",
        "hours": "Open 24 hours"
      },
      {
        "day": "Tuesday",
        "hours": "Open 24 hours"
      },
      {
        "day": "Wednesday",
        "hours": "Open 24 hours"
      },
      {
        "day": "Thursday",
        "hours": "Open 24 hours"
      },
      {
        "day": "Friday",
        "hours": "Open 24 hours"
      },
      {
        "day": "Saturday",
        "hours": "Open 24 hours"
      },
      {
        "day": "Sunday",
        "hours": "Open 24 hours"
      }
    ],
    "peopleAlsoSearch": [],
    "placesTags": [],
    "reviewsTags": [],
    "additionalInfo": {
      "Accessibility": [
        {
          "Wheelchair accessible entrance": true
        },
        {
          "Wheelchair accessible parking lot": true
        }
      ]
    },
    "gasPrices": [],
    "url": "https://www.google.com/maps/search/?api=1&query=PharMerica%20-%20Warwick%2C%20RI&query_place_id=ChIJLZ3f1I9O5IkR9qzAmhtQUl4",
    "searchPageUrl": "https://www.google.com/maps/search/independent%20pharmacy%20Providence%20RI/@42.54640259466427,-73.82116800051296,8z?hl=en",
    "searchString": "independent pharmacy Providence RI",
    "language": "en",
    "rank": 17,
    "isAdvertisement": false,
    "imageUrl": "https://lh3.googleusercontent.com/p/AF1QipOzf0OjPzLS3qYcdO1jzAeuwvQXSXZX904UMzhg=w408-h408-k-no",
    "kgmid": "/g/11g71fklfm"
  },
  {
    "title": "CVS Pharmacy",
    "price": null,
    "categoryName": "Pharmacy",
    "address": "481 Angell St, Providence, RI 02906",
    "neighborhood": "Wayland",
    "street": "481 Angell St",
    "city": "Providence",
    "postalCode": "02906",
    "state": "Rhode Island",
    "countryCode": "US",
    "website": "https://www.cvs.com/store-locator/providence-ri-pharmacies/481-angell-street-providence-ri-02906/storeid=1294?WT.mc_id=LS_GOOGLE_RX_1294",
    "phone": "(401) 521-4340",
    "phoneUnformatted": "+14015214340",
    "claimThisBusiness": false,
    "location": {
      "lat": 41.8297083,
      "lng": -71.3887185
    },
    "totalScore": 4,
    "permanentlyClosed": false,
    "temporarilyClosed": false,
    "placeId": "ChIJAT7hqy5F5IkRM2HMYuQy8es",
    "categories": [
      "Pharmacy"
    ],
    "fid": "0x89e4452eabe13e01:0xebf132e462cc6133",
    "cid": "17001426024791826739",
    "reviewsCount": 12,
    "imagesCount": 6,
    "imageCategories": [],
    "scrapedAt": "2025-06-22T09:23:45.975Z",
    "googleFoodUrl": null,
    "hotelAds": [],
    "openingHours": [
      {
        "day": "Monday",
        "hours": "9 AM to 1:30 PM, 2 to 7 PM"
      },
      {
        "day": "Tuesday",
        "hours": "9 AM to 1:30 PM, 2 to 7 PM"
      },
      {
        "day": "Wednesday",
        "hours": "9 AM to 1:30 PM, 2 to 7 PM"
      },
      {
        "day": "Thursday",
        "hours": "9 AM to 1:30 PM, 2 to 7 PM"
      },
      {
        "day": "Friday",
        "hours": "9 AM to 1:30 PM, 2 to 7 PM"
      },
      {
        "day": "Saturday",
        "hours": "9 AM to 1:30 PM, 2 to 6 PM"
      },
      {
        "day": "Sunday",
        "hours": "11 AM to 1:30 PM, 2 to 5 PM"
      }
    ],
    "peopleAlsoSearch": [],
    "placesTags": [],
    "reviewsTags": [],
    "additionalInfo": {
      "Service options": [
        {
          "Delivery": true
        },
        {
          "In-store pickup": true
        },
        {
          "In-store shopping": true
        }
      ],
      "Accessibility": [
        {
          "Wheelchair accessible entrance": true
        },
        {
          "Wheelchair accessible parking lot": true
        }
      ],
      "Offerings": [
        {
          "Naloxone": true
        },
        {
          "Passport photos": true
        }
      ],
      "Crowd": [
        {
          "LGBTQ+ friendly": true
        },
        {
          "Transgender safespace": true
        }
      ],
      "Planning": [
        {
          "Quick visit": true
        }
      ],
      "Payments": [
        {
          "Credit cards": true
        },
        {
          "Debit cards": true
        },
        {
          "NFC mobile payments": true
        },
        {
          "SNAP/EBT": true
        },
        {
          "Credit cards": true
        }
      ]
    },
    "gasPrices": [],
    "url": "https://www.google.com/maps/search/?api=1&query=CVS%20Pharmacy&query_place_id=ChIJAT7hqy5F5IkRM2HMYuQy8es",
    "searchPageUrl": "https://www.google.com/maps/search/independent%20pharmacy%20Providence%20RI/@42.54640259466427,-73.82116800051296,8z?hl=en",
    "searchString": "independent pharmacy Providence RI",
    "language": "en",
    "rank": 18,
    "isAdvertisement": false,
    "imageUrl": "https://lh3.googleusercontent.com/p/AF1QipMmqR4r58HthIu7vfX-2ShqOOM26R-kS1RsBEey=w408-h272-k-no",
    "kgmid": "/g/11c467flfj"
  }
]