[
  {
    "title": "Louisville Compounding Pharmacy",
    "price": null,
    "categoryName": "Pharmacy",
    "address": "3930 Dupont Cir APT 1, Louisville, KY 40207",
    "neighborhood": null,
    "street": "3930 Dupont Cir APT 1",
    "city": "Louisville",
    "postalCode": "40207",
    "state": "Kentucky",
    "countryCode": "US",
    "website": "http://www.lourx.com/",
    "phone": "(502) 894-4464",
    "phoneUnformatted": "+15028944464",
    "claimThisBusiness": false,
    "location": {
      "lat": 38.2313416,
      "lng": -85.6322744
    },
    "totalScore": 4.8,
    "permanentlyClosed": false,
    "temporarilyClosed": false,
    "placeId": "ChIJQQb7gtIKaYgR7qdLiAM7i9I",
    "categories": [
      "Pharmacy",
      "Drug store",
      "Homeopathic pharmacy",
      "Veterinary pharmacy",
      "Vitamin & supplements store"
    ],
    "fid": "0x88690ad282fb0641:0xd28b3b03884ba7ee",
    "cid": "15171284656085247982",
    "reviewsCount": 59,
    "imagesCount": 15,
    "imageCategories": [],
    "scrapedAt": "2025-06-22T05:17:53.409Z",
    "googleFoodUrl": null,
    "hotelAds": [],
    "openingHours": [
      {
        "day": "Monday",
        "hours": "9 AM to 5 PM"
      },
      {
        "day": "Tuesday",
        "hours": "9 AM to 5 PM"
      },
      {
        "day": "Wednesday",
        "hours": "9 AM to 5 PM"
      },
      {
        "day": "Thursday",
        "hours": "9 AM to 5 PM"
      },
      {
        "day": "Friday",
        "hours": "9 AM to 5 PM"
      },
      {
        "day": "Saturday",
        "hours": "Closed"
      },
      {
        "day": "Sunday",
        "hours": "Closed"
      }
    ],
    "peopleAlsoSearch": [],
    "placesTags": [],
    "reviewsTags": [],
    "additionalInfo": {
      "From the business": [
        {
          "Small business": true
        }
      ],
      "Service options": [
        {
          "Delivery": true
        },
        {
          "In-store pickup": true
        },
        {
          "Same-day delivery": true
        }
      ],
      "Accessibility": [
        {
          "Wheelchair accessible entrance": true
        },
        {
          "Wheelchair accessible parking lot": true
        },
        {
          "Wheelchair accessible restroom": true
        },
        {
          "Wheelchair accessible seating": true
        }
      ],
      "Amenities": [
        {
          "Wi-Fi": true
        },
        {
          "Free Wi-Fi": true
        }
      ],
      "Planning": [
        {
          "Quick visit": true
        }
      ],
      "Payments": [
        {
          "Credit cards": true
        },
        {
          "Debit cards": true
        },
        {
          "NFC mobile payments": true
        },
        {
          "Credit cards": true
        }
      ]
    },
    "gasPrices": [],
    "url": "https://www.google.com/maps/search/?api=1&query=Louisville%20Compounding%20Pharmacy&query_place_id=ChIJQQb7gtIKaYgR7qdLiAM7i9I",
    "searchPageUrl": "https://www.google.com/maps/search/independent%20pharmacy%20Louisville%20KY/@-0.1658560469091287,-160.067769998547,13z?hl=en",
    "searchString": "independent pharmacy Louisville KY",
    "language": "en",
    "rank": 1,
    "isAdvertisement": false,
    "imageUrl": "https://lh3.googleusercontent.com/gps-cs-s/AC9h4nrtxZHK8d4VVgV3x_dL1iNqZeY57NJjHfvC4bdMG0pcHNJQ4f3zQ3XzWRi6b9HBImUsB5xGlH-w4iVgbnnVZfubmP2J22yRTS5NkfLFerci65kvHdLmPmpinTjFP9mU22eS_Hw=w408-h544-k-no",
    "kgmid": "/g/1v5k3ryp"
  },
  {
    "title": "St. Matthews Community Pharmacy",
    "price": null,
    "categoryName": "Pharmacy",
    "address": "200 N Hurstbourne Pkwy Ste 174, Louisville, KY 40222",
    "neighborhood": null,
    "street": "200 N Hurstbourne Pkwy Ste 174",
    "city": "Louisville",
    "postalCode": "40222",
    "state": "Kentucky",
    "countryCode": "US",
    "website": "https://stmatthewsrx.com/",
    "phone": "(844) 552-9669",
    "phoneUnformatted": "+18445529669",
    "claimThisBusiness": false,
    "location": {
      "lat": 38.2497303,
      "lng": -85.5801704
    },
    "totalScore": 4,
    "permanentlyClosed": false,
    "temporarilyClosed": false,
    "placeId": "ChIJaV_kWdt0aYgRZZ0v9uJXyF0",
    "categories": [
      "Pharmacy",
      "Drug store"
    ],
    "fid": "0x886974db59e45f69:0x5dc857e2f62f9d65",
    "cid": "6757747873173970277",
    "reviewsCount": 61,
    "imagesCount": 6,
    "imageCategories": [],
    "scrapedAt": "2025-06-22T05:17:53.410Z",
    "googleFoodUrl": null,
    "hotelAds": [],
    "openingHours": [
      {
        "day": "Monday",
        "hours": "9 AM to 5 PM"
      },
      {
        "day": "Tuesday",
        "hours": "9 AM to 5 PM"
      },
      {
        "day": "Wednesday",
        "hours": "9 AM to 5 PM"
      },
      {
        "day": "Thursday",
        "hours": "9 AM to 5 PM"
      },
      {
        "day": "Friday",
        "hours": "9 AM to 5 PM"
      },
      {
        "day": "Saturday",
        "hours": "Closed"
      },
      {
        "day": "Sunday",
        "hours": "Closed"
      }
    ],
    "peopleAlsoSearch": [],
    "placesTags": [],
    "reviewsTags": [],
    "additionalInfo": {
      "Service options": [
        {
          "Delivery": true
        },
        {
          "In-store pickup": true
        },
        {
          "In-store shopping": true
        },
        {
          "Onsite services": true
        }
      ],
      "Accessibility": [
        {
          "Wheelchair accessible entrance": true
        },
        {
          "Wheelchair accessible parking lot": true
        }
      ],
      "Planning": [
        {
          "Quick visit": true
        }
      ],
      "Payments": [
        {
          "Credit cards": true
        },
        {
          "Debit cards": true
        }
      ]
    },
    "gasPrices": [],
    "url": "https://www.google.com/maps/search/?api=1&query=St.%20Matthews%20Community%20Pharmacy&query_place_id=ChIJaV_kWdt0aYgRZZ0v9uJXyF0",
    "searchPageUrl": "https://www.google.com/maps/search/independent%20pharmacy%20Louisville%20KY/@-0.1658560469091287,-160.067769998547,13z?hl=en",
    "searchString": "independent pharmacy Louisville KY",
    "language": "en",
    "rank": 2,
    "isAdvertisement": false,
    "imageUrl": "https://lh3.googleusercontent.com/p/AF1QipOOQCdvbA74WqJyF56k1wy7pXslnGTqwaQSETTc=w408-h306-k-no",
    "kgmid": "/g/1ptvv6cz5"
  },
  {
    "title": "Village Pharmacy",
    "price": null,
    "categoryName": "Pharmacy",
    "address": "1100 E Market St, Louisville, KY 40206",
    "neighborhood": null,
    "street": "1100 E Market St",
    "city": "Louisville",
    "postalCode": "40206",
    "state": "Kentucky",
    "countryCode": "US",
    "website": "https://www.homeoftheinnocents.org/services/community-based-services/village-pharmacy/",
    "phone": "(502) 596-1232",
    "phoneUnformatted": "+15025961232",
    "claimThisBusiness": false,
    "location": {
      "lat": 38.252269,
      "lng": -85.731886
    },
    "totalScore": 4.8,
    "permanentlyClosed": false,
    "temporarilyClosed": false,
    "placeId": "ChIJ6zvgNNpyaYgR90ncru6gTpE",
    "categories": [
      "Pharmacy"
    ],
    "fid": "0x886972da34e03beb:0x914ea0eeaedc49f7",
    "cid": "10470483130679314935",
    "reviewsCount": 13,
    "imagesCount": 4,
    "imageCategories": [],
    "scrapedAt": "2025-06-22T05:17:53.410Z",
    "googleFoodUrl": null,
    "hotelAds": [],
    "openingHours": [
      {
        "day": "Monday",
        "hours": "8:30 AM to 5 PM"
      },
      {
        "day": "Tuesday",
        "hours": "8:30 AM to 5 PM"
      },
      {
        "day": "Wednesday",
        "hours": "8:30 AM to 1 PM, 2 to 5 PM"
      },
      {
        "day": "Thursday",
        "hours": "8:30 AM to 5 PM"
      },
      {
        "day": "Friday",
        "hours": "8:30 AM to 5 PM"
      },
      {
        "day": "Saturday",
        "hours": "Closed"
      },
      {
        "day": "Sunday",
        "hours": "Closed"
      }
    ],
    "peopleAlsoSearch": [],
    "placesTags": [],
    "reviewsTags": [],
    "additionalInfo": {
      "From the business": [
        {
          "Small business": true
        }
      ],
      "Accessibility": [
        {
          "Wheelchair accessible entrance": true
        },
        {
          "Wheelchair accessible parking lot": true
        }
      ],
      "Payments": [
        {
          "Checks": true
        },
        {
          "Credit cards": true
        },
        {
          "Debit cards": true
        },
        {
          "Credit cards": true
        }
      ]
    },
    "gasPrices": [],
    "url": "https://www.google.com/maps/search/?api=1&query=Village%20Pharmacy&query_place_id=ChIJ6zvgNNpyaYgR90ncru6gTpE",
    "searchPageUrl": "https://www.google.com/maps/search/independent%20pharmacy%20Louisville%20KY/@-0.1658560469091287,-160.067769998547,13z?hl=en",
    "searchString": "independent pharmacy Louisville KY",
    "language": "en",
    "rank": 3,
    "isAdvertisement": false,
    "imageUrl": "https://lh3.googleusercontent.com/p/AF1QipOHOMwi4ccG5XyCp50eps7IuRCSriHDMUuRnKEf=w408-h270-k-no",
    "kgmid": "/g/1pp2xbh8x"
  },
  {
    "title": "Kentucky Pharmacy",
    "price": null,
    "categoryName": "Pharmacy",
    "address": "2233 Lower Hunters Trace, Louisville, KY 40216",
    "neighborhood": "Pleasure Ridge Park",
    "street": "2233 Lower Hunters Trace",
    "city": "Louisville",
    "postalCode": "40216",
    "state": "Kentucky",
    "countryCode": "US",
    "website": "http://www.kypharmacy.net/",
    "phone": "(502) 289-3797",
    "phoneUnformatted": "+15022893797",
    "claimThisBusiness": false,
    "location": {
      "lat": 38.1597839,
      "lng": -85.8500831
    },
    "totalScore": 5,
    "permanentlyClosed": false,
    "temporarilyClosed": false,
    "placeId": "ChIJS9WRU5QTaYgRoAtuWc3wV5U",
    "categories": [
      "Pharmacy"
    ],
    "fid": "0x886913945391d54b:0x9557f0cd596e0ba0",
    "cid": "10761334599384435616",
    "reviewsCount": 7,
    "imagesCount": 45,
    "imageCategories": [],
    "scrapedAt": "2025-06-22T05:17:53.410Z",
    "googleFoodUrl": null,
    "hotelAds": [],
    "openingHours": [
      {
        "day": "Monday",
        "hours": "9 AM to 5 PM"
      },
      {
        "day": "Tuesday",
        "hours": "9 AM to 5 PM"
      },
      {
        "day": "Wednesday",
        "hours": "9 AM to 5 PM"
      },
      {
        "day": "Thursday",
        "hours": "9 AM to 5 PM"
      },
      {
        "day": "Friday",
        "hours": "9 AM to 5 PM"
      },
      {
        "day": "Saturday",
        "hours": "Closed"
      },
      {
        "day": "Sunday",
        "hours": "Closed"
      }
    ],
    "peopleAlsoSearch": [],
    "placesTags": [],
    "reviewsTags": [],
    "additionalInfo": {
      "From the business": [
        {
          "Identifies as Asian-owned": true
        },
        {
          "Identifies as women-owned": true
        },
        {
          "Small business": true
        }
      ],
      "Service options": [
        {
          "Delivery": true
        },
        {
          "Drive-through": true
        },
        {
          "In-store pickup": true
        },
        {
          "Onsite services": true
        },
        {
          "Same-day delivery": true
        }
      ],
      "Accessibility": [
        {
          "Wheelchair accessible entrance": true
        },
        {
          "Wheelchair accessible parking lot": true
        },
        {
          "Wheelchair accessible seating": true
        }
      ],
      "Amenities": [
        {
          "Wi-Fi": true
        },
        {
          "Free Wi-Fi": true
        }
      ],
      "Payments": [
        {
          "Credit cards": true
        }
      ]
    },
    "gasPrices": [],
    "url": "https://www.google.com/maps/search/?api=1&query=Kentucky%20Pharmacy&query_place_id=ChIJS9WRU5QTaYgRoAtuWc3wV5U",
    "searchPageUrl": "https://www.google.com/maps/search/independent%20pharmacy%20Louisville%20KY/@-0.1658560469091287,-160.067769998547,13z?hl=en",
    "searchString": "independent pharmacy Louisville KY",
    "language": "en",
    "rank": 4,
    "isAdvertisement": false,
    "imageUrl": "https://lh3.googleusercontent.com/p/AF1QipNH7Fv3DM5K0kvTXY6qccMv6e7Yox5W8Hznqnkt=w408-h306-k-no",
    "kgmid": "/g/11nfvx3nl1"
  },
  {
    "title": "Audubon Pharmacy",
    "price": null,
    "categoryName": "Pharmacy",
    "address": "3503 Poplar Level Rd, Louisville, KY 40213",
    "neighborhood": "Poplar Level",
    "street": "3503 Poplar Level Rd",
    "city": "Louisville",
    "postalCode": "40213",
    "state": "Kentucky",
    "countryCode": "US",
    "website": "https://www.audubonpharmacy.com/",
    "phone": "(502) 371-1002",
    "phoneUnformatted": "+15023711002",
    "claimThisBusiness": false,
    "location": {
      "lat": 38.2088522,
      "lng": -85.7156592
    },
    "totalScore": 4.9,
    "permanentlyClosed": false,
    "temporarilyClosed": false,
    "placeId": "ChIJ13G1b-UMaYgRLoQW5qvVDRk",
    "categories": [
      "Pharmacy",
      "Drug store"
    ],
    "fid": "0x88690ce56fb571d7:0x190dd5abe616842e",
    "cid": "1805333959921796142",
    "reviewsCount": 19,
    "imagesCount": 17,
    "imageCategories": [],
    "scrapedAt": "2025-06-22T05:17:53.410Z",
    "googleFoodUrl": null,
    "hotelAds": [],
    "openingHours": [
      {
        "day": "Monday",
        "hours": "9 AM to 5 PM"
      },
      {
        "day": "Tuesday",
        "hours": "9 AM to 5 PM"
      },
      {
        "day": "Wednesday",
        "hours": "9 AM to 5 PM"
      },
      {
        "day": "Thursday",
        "hours": "9 AM to 5 PM"
      },
      {
        "day": "Friday",
        "hours": "9 AM to 5 PM"
      },
      {
        "day": "Saturday",
        "hours": "Closed"
      },
      {
        "day": "Sunday",
        "hours": "Closed"
      }
    ],
    "peopleAlsoSearch": [],
    "placesTags": [],
    "reviewsTags": [],
    "additionalInfo": {
      "From the business": [
        {
          "Small business": true
        }
      ],
      "Service options": [
        {
          "Delivery": true
        },
        {
          "Same-day delivery": true
        }
      ],
      "Accessibility": [
        {
          "Wheelchair accessible parking lot": true
        }
      ],
      "Payments": [
        {
          "Credit cards": true
        },
        {
          "Debit cards": true
        },
        {
          "NFC mobile payments": true
        },
        {
          "Credit cards": true
        }
      ]
    },
    "gasPrices": [],
    "url": "https://www.google.com/maps/search/?api=1&query=Audubon%20Pharmacy&query_place_id=ChIJ13G1b-UMaYgRLoQW5qvVDRk",
    "searchPageUrl": "https://www.google.com/maps/search/independent%20pharmacy%20Louisville%20KY/@-0.1658560469091287,-160.067769998547,13z?hl=en",
    "searchString": "independent pharmacy Louisville KY",
    "language": "en",
    "rank": 5,
    "isAdvertisement": false,
    "imageUrl": "https://lh3.googleusercontent.com/gps-cs-s/AC9h4nqS44yk-iiBRuYQq8Gy-Swg04xM0Ngpnqg1J0t2aVQ8N4HOyq6YxJ1GeQbmqDAPanjYSB-SGHY-krzjehjrWf9bJVslmaTwN2ETu4yDGDAEwACjUqnNHu7vX7GM871KtC0z_GLi=w408-h270-k-no",
    "kgmid": "/g/1tcvcmz9"
  },
  {
    "title": "Art Jacob Prescription Shoppe",
    "price": null,
    "categoryName": "Pharmacy",
    "address": "4036 Dutchmans Ln Suite 2, Louisville, KY 40207",
    "neighborhood": null,
    "street": "4036 Dutchmans Ln Suite 2",
    "city": "Louisville",
    "postalCode": "40207",
    "state": "Kentucky",
    "countryCode": "US",
    "phone": "(502) 897-6591",
    "phoneUnformatted": "+15028976591",
    "claimThisBusiness": false,
    "location": {
      "lat": 38.2342996,
      "lng": -85.6310813
    },
    "totalScore": 5,
    "permanentlyClosed": false,
    "temporarilyClosed": false,
    "placeId": "ChIJLxy58c0KaYgRPB1nuTWglEk",
    "categories": [
      "Pharmacy"
    ],
    "fid": "0x88690acdf1b91c2f:0x4994a035b9671d3c",
    "cid": "5302038813926169916",
    "reviewsCount": 58,
    "imagesCount": 2,
    "imageCategories": [],
    "scrapedAt": "2025-06-22T05:17:53.411Z",
    "googleFoodUrl": null,
    "hotelAds": [],
    "openingHours": [
      {
        "day": "Monday",
        "hours": "8:30 AM to 5:30 PM"
      },
      {
        "day": "Tuesday",
        "hours": "8:30 AM to 5:30 PM"
      },
      {
        "day": "Wednesday",
        "hours": "8:30 AM to 5:30 PM"
      },
      {
        "day": "Thursday",
        "hours": "8:30 AM to 5:30 PM"
      },
      {
        "day": "Friday",
        "hours": "8:30 AM to 5:30 PM"
      },
      {
        "day": "Saturday",
        "hours": "Closed"
      },
      {
        "day": "Sunday",
        "hours": "Closed"
      }
    ],
    "peopleAlsoSearch": [],
    "placesTags": [],
    "reviewsTags": [],
    "additionalInfo": {
      "From the business": [
        {
          "Small business": true
        }
      ],
      "Service options": [
        {
          "Delivery": true
        },
        {
          "In-store pickup": true
        },
        {
          "In-store shopping": true
        },
        {
          "Same-day delivery": true
        }
      ],
      "Accessibility": [
        {
          "Wheelchair accessible entrance": true
        },
        {
          "Wheelchair accessible parking lot": true
        }
      ],
      "Amenities": [
        {
          "Wi-Fi": true
        },
        {
          "Free Wi-Fi": true
        }
      ],
      "Planning": [
        {
          "Quick visit": true
        }
      ],
      "Payments": [
        {
          "Credit cards": true
        },
        {
          "Debit cards": true
        },
        {
          "Credit cards": true
        }
      ]
    },
    "gasPrices": [],
    "url": "https://www.google.com/maps/search/?api=1&query=Art%20Jacob%20Prescription%20Shoppe&query_place_id=ChIJLxy58c0KaYgRPB1nuTWglEk",
    "searchPageUrl": "https://www.google.com/maps/search/independent%20pharmacy%20Louisville%20KY/@-0.1658560469091287,-160.067769998547,13z?hl=en",
    "searchString": "independent pharmacy Louisville KY",
    "language": "en",
    "rank": 6,
    "isAdvertisement": false,
    "imageUrl": "https://lh3.googleusercontent.com/p/AF1QipPLGR0HJ5V_nBT89yJRUD5P06zO9EJ3osW05Jq_=w408-h303-k-no",
    "kgmid": "/g/1tc_lwt4"
  },
  {
    "title": "RxAlternatives",
    "price": null,
    "categoryName": "Pharmacy",
    "address": "9813 Merioneth Dr, Louisville, KY 40299",
    "neighborhood": null,
    "street": "9813 Merioneth Dr",
    "city": "Louisville",
    "postalCode": "40299",
    "state": "Kentucky",
    "countryCode": "US",
    "website": "http://rxalternatives.net/",
    "phone": "(866) 409-4419",
    "phoneUnformatted": "+18664094419",
    "claimThisBusiness": true,
    "location": {
      "lat": 38.2046695,
      "lng": -85.5760554
    },
    "totalScore": 4.5,
    "permanentlyClosed": false,
    "temporarilyClosed": false,
    "placeId": "ChIJy9VEBUOgaYgRTNFE7bW-sl0",
    "categories": [
      "Pharmacy"
    ],
    "fid": "0x8869a0430544d5cb:0x5db2beb5ed44d14c",
    "cid": "6751668479960863052",
    "reviewsCount": 35,
    "imagesCount": 1,
    "imageCategories": [],
    "scrapedAt": "2025-06-22T05:17:53.411Z",
    "googleFoodUrl": null,
    "hotelAds": [],
    "openingHours": [
      {
        "day": "Monday",
        "hours": "8:30 AM to 4:30 PM"
      },
      {
        "day": "Tuesday",
        "hours": "8:30 AM to 4:30 PM"
      },
      {
        "day": "Wednesday",
        "hours": "8:30 AM to 4:30 PM"
      },
      {
        "day": "Thursday",
        "hours": "8:30 AM to 4:30 PM"
      },
      {
        "day": "Friday",
        "hours": "8:30 AM to 4:30 PM"
      },
      {
        "day": "Saturday",
        "hours": "Closed"
      },
      {
        "day": "Sunday",
        "hours": "Closed"
      }
    ],
    "peopleAlsoSearch": [],
    "placesTags": [],
    "reviewsTags": [],
    "additionalInfo": {
      "Service options": [
        {
          "Delivery": true
        },
        {
          "In-store pickup": true
        },
        {
          "Same-day delivery": true
        }
      ],
      "Accessibility": [
        {
          "Wheelchair accessible entrance": true
        },
        {
          "Wheelchair accessible parking lot": true
        }
      ],
      "Payments": [
        {
          "Credit cards": true
        },
        {
          "Debit cards": true
        },
        {
          "NFC mobile payments": true
        },
        {
          "Credit cards": true
        }
      ]
    },
    "gasPrices": [],
    "url": "https://www.google.com/maps/search/?api=1&query=RxAlternatives&query_place_id=ChIJy9VEBUOgaYgRTNFE7bW-sl0",
    "searchPageUrl": "https://www.google.com/maps/search/independent%20pharmacy%20Louisville%20KY/@-0.1658560469091287,-160.067769998547,13z?hl=en",
    "searchString": "independent pharmacy Louisville KY",
    "language": "en",
    "rank": 7,
    "isAdvertisement": false,
    "imageUrl": "https://streetviewpixels-pa.googleapis.com/v1/thumbnail?panoid=oGVnFYUAOImRU5jB_ZExLA&cb_client=search.gws-prod.gps&w=408&h=240&yaw=354.06604&pitch=0&thumbfov=100",
    "kgmid": "/g/11c1vkv5w4"
  },
  {
    "title": "Middletown Pharmacy & Wellness",
    "price": null,
    "categoryName": "Pharmacy",
    "address": "11601 Shelbyville Rd Suite A, Louisville, KY 40243",
    "neighborhood": null,
    "street": "11601 Shelbyville Rd Suite A",
    "city": "Louisville",
    "postalCode": "40243",
    "state": "Kentucky",
    "countryCode": "US",
    "website": "http://www.middletownpharmacyandwellness.com/",
    "phone": "(502) 690-2410",
    "phoneUnformatted": "+15026902410",
    "claimThisBusiness": false,
    "location": {
      "lat": 38.2464241,
      "lng": -85.5420256
    },
    "totalScore": 4.5,
    "permanentlyClosed": false,
    "temporarilyClosed": false,
    "placeId": "ChIJJ86lYOmfaYgRYYcnDhS6xEQ",
    "categories": [
      "Pharmacy"
    ],
    "fid": "0x88699fe960a5ce27:0x44c4ba140e278761",
    "cid": "4955290085313972065",
    "reviewsCount": 39,
    "imagesCount": 18,
    "imageCategories": [],
    "scrapedAt": "2025-06-22T05:17:53.411Z",
    "googleFoodUrl": null,
    "hotelAds": [],
    "openingHours": [
      {
        "day": "Monday",
        "hours": "9 AM to 6 PM"
      },
      {
        "day": "Tuesday",
        "hours": "9 AM to 6 PM"
      },
      {
        "day": "Wednesday",
        "hours": "9 AM to 6 PM"
      },
      {
        "day": "Thursday",
        "hours": "9 AM to 6 PM"
      },
      {
        "day": "Friday",
        "hours": "9 AM to 6 PM"
      },
      {
        "day": "Saturday",
        "hours": "Closed"
      },
      {
        "day": "Sunday",
        "hours": "Closed"
      }
    ],
    "peopleAlsoSearch": [],
    "placesTags": [],
    "reviewsTags": [],
    "additionalInfo": {
      "From the business": [
        {
          "Small business": true
        }
      ],
      "Service options": [
        {
          "Delivery": true
        },
        {
          "Drive-through": true
        },
        {
          "In-store pickup": true
        },
        {
          "Same-day delivery": true
        }
      ],
      "Accessibility": [
        {
          "Wheelchair accessible entrance": true
        },
        {
          "Wheelchair accessible parking lot": true
        }
      ],
      "Amenities": [
        {
          "Wi-Fi": true
        },
        {
          "Free Wi-Fi": true
        }
      ],
      "Payments": [
        {
          "Credit cards": true
        }
      ]
    },
    "gasPrices": [],
    "url": "https://www.google.com/maps/search/?api=1&query=Middletown%20Pharmacy%20%26%20Wellness&query_place_id=ChIJJ86lYOmfaYgRYYcnDhS6xEQ",
    "searchPageUrl": "https://www.google.com/maps/search/independent%20pharmacy%20Louisville%20KY/@-0.1658560469091287,-160.067769998547,13z?hl=en",
    "searchString": "independent pharmacy Louisville KY",
    "language": "en",
    "rank": 8,
    "isAdvertisement": false,
    "imageUrl": "https://lh3.googleusercontent.com/p/AF1QipPbc7O8f6H8RzUlLgeJZidC6Yr6CLe70uzmJHyM=w408-h306-k-no",
    "kgmid": "/g/11n_1x4s8k"
  },
  {
    "title": "Hume Pharmacy",
    "price": null,
    "categoryName": "Pharmacy",
    "address": "10101 Taylorsville Rd, Louisville, KY 40299",
    "neighborhood": null,
    "street": "10101 Taylorsville Rd",
    "city": "Louisville",
    "postalCode": "40299",
    "state": "Kentucky",
    "countryCode": "US",
    "website": "https://www.humerx.com/",
    "phone": "(502) 267-7453",
    "phoneUnformatted": "+15022677453",
    "claimThisBusiness": false,
    "location": {
      "lat": 38.1985069,
      "lng": -85.5697703
    },
    "totalScore": 4.8,
    "permanentlyClosed": false,
    "temporarilyClosed": false,
    "placeId": "ChIJs3BZtFagaYgR5enbrMlAOwc",
    "categories": [
      "Pharmacy",
      "Drug store",
      "Medical supply store"
    ],
    "fid": "0x8869a056b45970b3:0x73b40c9acdbe9e5",
    "cid": "521081416824121829",
    "reviewsCount": 130,
    "imagesCount": 13,
    "imageCategories": [],
    "scrapedAt": "2025-06-22T05:17:53.411Z",
    "googleFoodUrl": null,
    "hotelAds": [],
    "openingHours": [
      {
        "day": "Monday",
        "hours": "8 AM to 5 PM"
      },
      {
        "day": "Tuesday",
        "hours": "8 AM to 5 PM"
      },
      {
        "day": "Wednesday",
        "hours": "8 AM to 5 PM"
      },
      {
        "day": "Thursday",
        "hours": "8 AM to 5 PM"
      },
      {
        "day": "Friday",
        "hours": "8 AM to 5 PM"
      },
      {
        "day": "Saturday",
        "hours": "9 AM to 1 PM"
      },
      {
        "day": "Sunday",
        "hours": "Closed"
      }
    ],
    "peopleAlsoSearch": [],
    "placesTags": [],
    "reviewsTags": [],
    "additionalInfo": {
      "From the business": [
        {
          "Small business": true
        }
      ],
      "Service options": [
        {
          "Delivery": true
        },
        {
          "Drive-through": true
        },
        {
          "In-store pickup": true
        },
        {
          "Same-day delivery": true
        }
      ],
      "Accessibility": [
        {
          "Wheelchair accessible entrance": true
        },
        {
          "Wheelchair accessible parking lot": true
        }
      ],
      "Planning": [
        {
          "Quick visit": true
        }
      ],
      "Payments": [
        {
          "Credit cards": true
        },
        {
          "Debit cards": true
        },
        {
          "NFC mobile payments": true
        },
        {
          "Credit cards": true
        }
      ]
    },
    "gasPrices": [],
    "url": "https://www.google.com/maps/search/?api=1&query=Hume%20Pharmacy&query_place_id=ChIJs3BZtFagaYgR5enbrMlAOwc",
    "searchPageUrl": "https://www.google.com/maps/search/independent%20pharmacy%20Louisville%20KY/@-0.1658560469091287,-160.067769998547,13z?hl=en",
    "searchString": "independent pharmacy Louisville KY",
    "language": "en",
    "rank": 9,
    "isAdvertisement": false,
    "imageUrl": "https://lh3.googleusercontent.com/p/AF1QipM0xwW5SoaVCJH53HZ5n1MbPIuDnIff3QEDpmbs=w408-h272-k-no",
    "kgmid": "/g/1tdkyf4v"
  },
  {
    "title": "Compound Care Pharmacy",
    "price": null,
    "categoryName": "Pharmacy",
    "address": "12123 Shelbyville Rd Suite 104, Louisville, KY 40243",
    "neighborhood": null,
    "street": "12123 Shelbyville Rd Suite 104",
    "city": "Louisville",
    "postalCode": "40243",
    "state": "Kentucky",
    "countryCode": "US",
    "website": "http://www.compoundcarerx.com/",
    "phone": "(502) 244-6500",
    "phoneUnformatted": "+15022446500",
    "claimThisBusiness": false,
    "location": {
      "lat": 38.2476068,
      "lng": -85.5276281
    },
    "totalScore": 4.6,
    "permanentlyClosed": false,
    "temporarilyClosed": false,
    "placeId": "ChIJJa7W0UifaYgR6P2lCR7e4C8",
    "categories": [
      "Pharmacy"
    ],
    "fid": "0x88699f48d1d6ae25:0x2fe0de1e09a5fde8",
    "cid": "3450001535158058472",
    "reviewsCount": 55,
    "imagesCount": 11,
    "imageCategories": [],
    "scrapedAt": "2025-06-22T05:17:53.411Z",
    "googleFoodUrl": null,
    "hotelAds": [],
    "openingHours": [
      {
        "day": "Monday",
        "hours": "9 AM to 5:30 PM"
      },
      {
        "day": "Tuesday",
        "hours": "9 AM to 5:30 PM"
      },
      {
        "day": "Wednesday",
        "hours": "9 AM to 5:30 PM"
      },
      {
        "day": "Thursday",
        "hours": "9 AM to 5:30 PM"
      },
      {
        "day": "Friday",
        "hours": "9 AM to 5:30 PM"
      },
      {
        "day": "Saturday",
        "hours": "Closed"
      },
      {
        "day": "Sunday",
        "hours": "Closed"
      }
    ],
    "peopleAlsoSearch": [],
    "placesTags": [],
    "reviewsTags": [],
    "additionalInfo": {
      "From the business": [
        {
          "Small business": true
        }
      ],
      "Service options": [
        {
          "Delivery": true
        },
        {
          "In-store pickup": true
        },
        {
          "In-store shopping": true
        },
        {
          "Same-day delivery": true
        }
      ],
      "Accessibility": [
        {
          "Wheelchair accessible entrance": true
        },
        {
          "Wheelchair accessible parking lot": true
        }
      ],
      "Planning": [
        {
          "Quick visit": true
        }
      ],
      "Payments": [
        {
          "Credit cards": true
        },
        {
          "Debit cards": true
        },
        {
          "NFC mobile payments": true
        },
        {
          "Credit cards": true
        }
      ]
    },
    "gasPrices": [],
    "url": "https://www.google.com/maps/search/?api=1&query=Compound%20Care%20Pharmacy&query_place_id=ChIJJa7W0UifaYgR6P2lCR7e4C8",
    "searchPageUrl": "https://www.google.com/maps/search/independent%20pharmacy%20Louisville%20KY/@-0.1658560469091287,-160.067769998547,13z?hl=en",
    "searchString": "independent pharmacy Louisville KY",
    "language": "en",
    "rank": 10,
    "isAdvertisement": false,
    "imageUrl": "https://lh3.googleusercontent.com/gps-cs-s/AC9h4npsmbBNkSaARkLgOIjoHqsbWxN0nb3DCYg7tKvi7p33mwCY9o0sPgexgmUiOqtfZdtUn4bj8FbQOXi55vHLQOyhSPidtoyfoTZocz7H-va_3CxR_ZH9yKWaNKK4qfZ6mt3OPQjX=w408-h305-k-no",
    "kgmid": "/g/1tddsylx"
  },
  {
    "title": "MY PHARMACY",
    "price": null,
    "categoryName": "Pharmacy",
    "address": "170 Dr Arla Way, Louisville, KY 40229",
    "neighborhood": null,
    "street": "170 Dr Arla Way",
    "city": "Louisville",
    "postalCode": "40229",
    "state": "Kentucky",
    "countryCode": "US",
    "website": "https://www.mypharmacyhillview.com/",
    "phone": "(502) 277-1425",
    "phoneUnformatted": "+15022771425",
    "claimThisBusiness": false,
    "location": {
      "lat": 38.0700216,
      "lng": -85.6712339
    },
    "totalScore": 4.7,
    "permanentlyClosed": false,
    "temporarilyClosed": false,
    "placeId": "ChIJs4qgtKYIaYgRylJggoBkVUQ",
    "categories": [
      "Pharmacy"
    ],
    "fid": "0x886908a6b4a08ab3:0x44556480826052ca",
    "cid": "4923952270705447626",
    "reviewsCount": 81,
    "imagesCount": 2,
    "imageCategories": [],
    "scrapedAt": "2025-06-22T05:17:53.411Z",
    "googleFoodUrl": null,
    "hotelAds": [],
    "openingHours": [
      {
        "day": "Monday",
        "hours": "8 AM to 6 PM"
      },
      {
        "day": "Tuesday",
        "hours": "8 AM to 6 PM"
      },
      {
        "day": "Wednesday",
        "hours": "8 AM to 6 PM"
      },
      {
        "day": "Thursday",
        "hours": "8 AM to 6 PM"
      },
      {
        "day": "Friday",
        "hours": "8 AM to 6 PM"
      },
      {
        "day": "Saturday",
        "hours": "8 AM to 2 PM"
      },
      {
        "day": "Sunday",
        "hours": "Closed"
      }
    ],
    "peopleAlsoSearch": [],
    "placesTags": [],
    "reviewsTags": [],
    "additionalInfo": {
      "From the business": [
        {
          "Identifies as Latino-owned": true
        },
        {
          "Identifies as women-owned": true
        },
        {
          "Small business": true
        }
      ],
      "Service options": [
        {
          "Delivery": true
        },
        {
          "Drive-through": true
        },
        {
          "In-store pickup": true
        },
        {
          "Same-day delivery": true
        }
      ],
      "Accessibility": [
        {
          "Wheelchair accessible entrance": true
        },
        {
          "Wheelchair accessible parking lot": true
        }
      ],
      "Offerings": [
        {
          "Medication disposal": true
        }
      ],
      "Planning": [
        {
          "Quick visit": true
        }
      ],
      "Payments": [
        {
          "Checks": true
        },
        {
          "Credit cards": true
        },
        {
          "Debit cards": true
        },
        {
          "Credit cards": true
        }
      ],
      "Parking": [
        {
          "Free parking lot": true
        },
        {
          "On-site parking": true
        }
      ]
    },
    "gasPrices": [],
    "url": "https://www.google.com/maps/search/?api=1&query=MY%20PHARMACY&query_place_id=ChIJs4qgtKYIaYgRylJggoBkVUQ",
    "searchPageUrl": "https://www.google.com/maps/search/independent%20pharmacy%20Louisville%20KY/@-0.1658560469091287,-160.067769998547,13z?hl=en",
    "searchString": "independent pharmacy Louisville KY",
    "language": "en",
    "rank": 11,
    "isAdvertisement": false,
    "imageUrl": "https://lh3.googleusercontent.com/gps-cs-s/AC9h4nqab5IWWF0ei3Bpe6NuFBMOIXpo-Y8YkiNNd4bmDBI3iM_cs4kIEXsVBB30i8aulLz7f6Kehmp95O1cf5Uje0aL0hWrzacSfjWZ6whIhOgHiHoB7vhx1Uaa1HFma2GCESkkF3iQ=w408-h240-k-no-pi-10-ya340-ro0-fo100",
    "kgmid": "/g/11c1nhpggh"
  },
  {
    "title": "Triple Crown Pharmacy",
    "price": null,
    "categoryName": "Pharmacy",
    "address": "13332 Shelbyville Rd, Louisville, KY 40223",
    "neighborhood": null,
    "street": "13332 Shelbyville Rd",
    "city": "Louisville",
    "postalCode": "40223",
    "state": "Kentucky",
    "countryCode": "US",
    "website": "https://www.triplecrownpharmacy.com/",
    "phone": "(502) 281-4900",
    "phoneUnformatted": "+15022814900",
    "claimThisBusiness": false,
    "location": {
      "lat": 38.2412466,
      "lng": -85.507765
    },
    "totalScore": 4.4,
    "permanentlyClosed": false,
    "temporarilyClosed": false,
    "placeId": "ChIJT-OP2xuZaYgRxyqPkHdP9HY",
    "categories": [
      "Pharmacy"
    ],
    "fid": "0x8869991bdb8fe34f:0x76f44f77908f2ac7",
    "cid": "8571563365737900743",
    "reviewsCount": 34,
    "imagesCount": 1,
    "imageCategories": [],
    "scrapedAt": "2025-06-22T05:17:53.411Z",
    "googleFoodUrl": null,
    "hotelAds": [],
    "openingHours": [
      {
        "day": "Monday",
        "hours": "8:30 AM to 6:30 PM"
      },
      {
        "day": "Tuesday",
        "hours": "8:30 AM to 6:30 PM"
      },
      {
        "day": "Wednesday",
        "hours": "8:30 AM to 6:30 PM"
      },
      {
        "day": "Thursday",
        "hours": "8:30 AM to 6:30 PM"
      },
      {
        "day": "Friday",
        "hours": "8:30 AM to 6:30 PM"
      },
      {
        "day": "Saturday",
        "hours": "Closed"
      },
      {
        "day": "Sunday",
        "hours": "Closed"
      }
    ],
    "peopleAlsoSearch": [],
    "placesTags": [],
    "reviewsTags": [],
    "additionalInfo": {
      "From the business": [
        {
          "Small business": true
        }
      ],
      "Service options": [
        {
          "Delivery": true
        },
        {
          "In-store pickup": true
        },
        {
          "Same-day delivery": true
        }
      ],
      "Accessibility": [
        {
          "Wheelchair accessible entrance": true
        },
        {
          "Wheelchair accessible parking lot": true
        }
      ],
      "Payments": [
        {
          "Credit cards": true
        },
        {
          "Debit cards": true
        },
        {
          "Credit cards": true
        }
      ],
      "Parking": [
        {
          "On-site parking": true
        }
      ]
    },
    "gasPrices": [],
    "url": "https://www.google.com/maps/search/?api=1&query=Triple%20Crown%20Pharmacy&query_place_id=ChIJT-OP2xuZaYgRxyqPkHdP9HY",
    "searchPageUrl": "https://www.google.com/maps/search/independent%20pharmacy%20Louisville%20KY/@-0.1658560469091287,-160.067769998547,13z?hl=en",
    "searchString": "independent pharmacy Louisville KY",
    "language": "en",
    "rank": 12,
    "isAdvertisement": false,
    "imageUrl": "https://streetviewpixels-pa.googleapis.com/v1/thumbnail?panoid=1PcoEQU8wMHBRR0R1eAHSg&cb_client=search.gws-prod.gps&w=408&h=240&yaw=125.450516&pitch=0&thumbfov=100",
    "kgmid": "/g/11lkjzxmcs"
  },
  {
    "title": "Cox's Pharmacy",
    "price": null,
    "categoryName": "Pharmacy",
    "address": "4942 Manslick Rd, Louisville, KY 40216",
    "neighborhood": "Cloverleaf",
    "street": "4942 Manslick Rd",
    "city": "Louisville",
    "postalCode": "40216",
    "state": "Kentucky",
    "countryCode": "US",
    "phone": "(502) 364-0901",
    "phoneUnformatted": "+15023640901",
    "claimThisBusiness": false,
    "location": {
      "lat": 38.1715832,
      "lng": -85.7985255
    },
    "totalScore": 4.5,
    "permanentlyClosed": false,
    "temporarilyClosed": false,
    "placeId": "ChIJRd02uTASaYgRuEO2N8z-u6w",
    "categories": [
      "Pharmacy"
    ],
    "fid": "0x88691230b936dd45:0xacbbfecc37b643b8",
    "cid": "12446822148229972920",
    "reviewsCount": 355,
    "imagesCount": 7,
    "imageCategories": [],
    "scrapedAt": "2025-06-22T05:17:53.411Z",
    "googleFoodUrl": null,
    "hotelAds": [],
    "openingHours": [
      {
        "day": "Monday",
        "hours": "9 AM to 9 PM"
      },
      {
        "day": "Tuesday",
        "hours": "9 AM to 9 PM"
      },
      {
        "day": "Wednesday",
        "hours": "9 AM to 9 PM"
      },
      {
        "day": "Thursday",
        "hours": "9 AM to 9 PM"
      },
      {
        "day": "Friday",
        "hours": "9 AM to 9 PM"
      },
      {
        "day": "Saturday",
        "hours": "9 AM to 6 PM"
      },
      {
        "day": "Sunday",
        "hours": "Closed"
      }
    ],
    "peopleAlsoSearch": [],
    "placesTags": [],
    "reviewsTags": [],
    "additionalInfo": {
      "From the business": [
        {
          "Small business": true
        }
      ],
      "Service options": [
        {
          "Delivery": true
        },
        {
          "Drive-through": true
        },
        {
          "In-store pickup": true
        }
      ],
      "Accessibility": [
        {
          "Wheelchair accessible entrance": true
        },
        {
          "Wheelchair accessible parking lot": true
        }
      ],
      "Planning": [
        {
          "Quick visit": true
        }
      ],
      "Payments": [
        {
          "Credit cards": true
        },
        {
          "Debit cards": true
        },
        {
          "NFC mobile payments": true
        },
        {
          "Credit cards": true
        }
      ]
    },
    "gasPrices": [],
    "url": "https://www.google.com/maps/search/?api=1&query=Cox's%20Pharmacy&query_place_id=ChIJRd02uTASaYgRuEO2N8z-u6w",
    "searchPageUrl": "https://www.google.com/maps/search/independent%20pharmacy%20Louisville%20KY/@-0.1658560469091287,-160.067769998547,13z?hl=en",
    "searchString": "independent pharmacy Louisville KY",
    "language": "en",
    "rank": 13,
    "isAdvertisement": false,
    "imageUrl": "https://lh3.googleusercontent.com/p/AF1QipPRAGkKTBenTuiVchG3VmiLv5HBZmBL072JDKws=w408-h499-k-no",
    "kgmid": "/g/1tdvw14d"
  },
  {
    "title": "Apotheco Pharmacy Louisville",
    "price": null,
    "categoryName": "Pharmacy",
    "address": "3582 Springhurst Blvd, Louisville, KY 40241",
    "neighborhood": null,
    "street": "3582 Springhurst Blvd",
    "city": "Louisville",
    "postalCode": "40241",
    "state": "Kentucky",
    "countryCode": "US",
    "website": "https://www.apothecopharmacy.com/location/apotheco-pharmacy-louisville/",
    "phone": "(502) 771-6011",
    "phoneUnformatted": "+15027716011",
    "claimThisBusiness": false,
    "location": {
      "lat": 38.298374,
      "lng": -85.5615115
    },
    "totalScore": 4.9,
    "permanentlyClosed": false,
    "temporarilyClosed": false,
    "placeId": "ChIJ931LjsCfaYgR69hSr92l-ws",
    "categories": [
      "Pharmacy",
      "Dermatologist"
    ],
    "fid": "0x88699fc08e4b7df7:0xbfba5ddaf52d8eb",
    "cid": "863466125119379691",
    "reviewsCount": 24,
    "imagesCount": 2,
    "imageCategories": [],
    "scrapedAt": "2025-06-22T05:17:53.411Z",
    "googleFoodUrl": null,
    "hotelAds": [],
    "openingHours": [
      {
        "day": "Monday",
        "hours": "9 AM to 5 PM"
      },
      {
        "day": "Tuesday",
        "hours": "9 AM to 5 PM"
      },
      {
        "day": "Wednesday",
        "hours": "9 AM to 5 PM"
      },
      {
        "day": "Thursday",
        "hours": "9 AM to 5 PM"
      },
      {
        "day": "Friday",
        "hours": "9 AM to 5 PM"
      },
      {
        "day": "Saturday",
        "hours": "Closed"
      },
      {
        "day": "Sunday",
        "hours": "Closed"
      }
    ],
    "peopleAlsoSearch": [],
    "placesTags": [],
    "reviewsTags": [],
    "additionalInfo": {
      "From the business": [
        {
          "Small business": true
        }
      ],
      "Service options": [
        {
          "Delivery": true
        },
        {
          "Onsite services": true
        },
        {
          "Same-day delivery": true
        }
      ],
      "Accessibility": [
        {
          "Wheelchair accessible entrance": true
        },
        {
          "Wheelchair accessible parking lot": true
        }
      ],
      "Payments": [
        {
          "Credit cards": true
        }
      ]
    },
    "gasPrices": [],
    "url": "https://www.google.com/maps/search/?api=1&query=Apotheco%20Pharmacy%20Louisville&query_place_id=ChIJ931LjsCfaYgR69hSr92l-ws",
    "searchPageUrl": "https://www.google.com/maps/search/independent%20pharmacy%20Louisville%20KY/@-0.1658560469091287,-160.067769998547,13z?hl=en",
    "searchString": "independent pharmacy Louisville KY",
    "language": "en",
    "rank": 14,
    "isAdvertisement": false,
    "imageUrl": "https://lh3.googleusercontent.com/p/AF1QipOOlKiwRhJqNHeP68j__dQqo1oRUwZ2chmLXcU8=w417-h240-k-no",
    "kgmid": "/g/11jlls0rt9"
  },
  {
    "title": "Synchrony Pharmacy - Louisville",
    "price": null,
    "categoryName": "Pharmacy",
    "address": "2701 Chestnut Station Court, Louisville, KY 40299",
    "neighborhood": null,
    "street": "2701 Chestnut Station Court",
    "city": "Louisville",
    "postalCode": "40299",
    "state": "Kentucky",
    "countryCode": "US",
    "website": "https://www.synchronyhs.com/pharmacy/?utm_source=google&utm_medium=organic&utm_campaign=gbplouisville",
    "phone": "(866) 579-3181",
    "phoneUnformatted": "+18665793181",
    "claimThisBusiness": false,
    "location": {
      "lat": 38.207402,
      "lng": -85.5322002
    },
    "totalScore": 2.6,
    "permanentlyClosed": false,
    "temporarilyClosed": false,
    "placeId": "ChIJ0RHpT5GhaYgRS6nxcahnCqY",
    "categories": [
      "Pharmacy"
    ],
    "fid": "0x8869a1914fe911d1:0xa60a67a871f1a94b",
    "cid": "11964489333226973515",
    "reviewsCount": 21,
    "imagesCount": 2,
    "imageCategories": [],
    "scrapedAt": "2025-06-22T05:17:53.412Z",
    "googleFoodUrl": null,
    "hotelAds": [],
    "openingHours": [],
    "peopleAlsoSearch": [],
    "placesTags": [],
    "reviewsTags": [],
    "additionalInfo": {
      "Accessibility": [
        {
          "Wheelchair accessible entrance": true
        },
        {
          "Wheelchair accessible parking lot": true
        }
      ],
      "Payments": [
        {
          "Credit cards": true
        },
        {
          "Debit cards": true
        },
        {
          "Credit cards": true
        }
      ]
    },
    "gasPrices": [],
    "url": "https://www.google.com/maps/search/?api=1&query=Synchrony%20Pharmacy%20-%20Louisville&query_place_id=ChIJ0RHpT5GhaYgRS6nxcahnCqY",
    "searchPageUrl": "https://www.google.com/maps/search/independent%20pharmacy%20Louisville%20KY/@-0.1658560469091287,-160.067769998547,13z?hl=en",
    "searchString": "independent pharmacy Louisville KY",
    "language": "en",
    "rank": 15,
    "isAdvertisement": false,
    "imageUrl": "https://lh3.googleusercontent.com/p/AF1QipPowCq7nDY-OPuSNls2i-CvPNfSXRWXJ7CjweU2=w426-h240-k-no",
    "kgmid": "/g/1tf2yjwd"
  },
  {
    "title": "New Vitalis Pharmacy",
    "price": null,
    "categoryName": "Pharmacy",
    "address": "4139 Cadillac Ct STE 201, Louisville, KY 40213",
    "neighborhood": "Poplar Level",
    "street": "4139 Cadillac Ct STE 201",
    "city": "Louisville",
    "postalCode": "40213",
    "state": "Kentucky",
    "countryCode": "US",
    "website": "https://newvitalis.com/",
    "phone": "(855) 848-9055",
    "phoneUnformatted": "+18558489055",
    "claimThisBusiness": false,
    "location": {
      "lat": 38.2002811,
      "lng": -85.701351
    },
    "totalScore": 5,
    "permanentlyClosed": false,
    "temporarilyClosed": false,
    "placeId": "ChIJv2NBk4sMaYgRkm7CrI-jz6M",
    "categories": [
      "Pharmacy"
    ],
    "fid": "0x88690c8b934163bf:0xa3cfa38facc26e92",
    "cid": "11803832985835433618",
    "reviewsCount": 5,
    "imagesCount": 13,
    "imageCategories": [],
    "scrapedAt": "2025-06-22T05:17:53.412Z",
    "googleFoodUrl": null,
    "hotelAds": [],
    "openingHours": [
      {
        "day": "Monday",
        "hours": "9 AM to 6 PM"
      },
      {
        "day": "Tuesday",
        "hours": "9 AM to 6 PM"
      },
      {
        "day": "Wednesday",
        "hours": "9 AM to 6 PM"
      },
      {
        "day": "Thursday",
        "hours": "9 AM to 6 PM"
      },
      {
        "day": "Friday",
        "hours": "9 AM to 3 PM"
      },
      {
        "day": "Saturday",
        "hours": "Closed"
      },
      {
        "day": "Sunday",
        "hours": "Closed"
      }
    ],
    "peopleAlsoSearch": [],
    "placesTags": [],
    "reviewsTags": [],
    "additionalInfo": {
      "From the business": [
        {
          "Small business": true
        }
      ],
      "Service options": [
        {
          "Delivery": true
        },
        {
          "Same-day delivery": true
        }
      ],
      "Accessibility": [
        {
          "Wheelchair accessible entrance": true
        },
        {
          "Wheelchair accessible parking lot": true
        }
      ],
      "Payments": [
        {
          "Credit cards": true
        },
        {
          "Debit cards": true
        },
        {
          "NFC mobile payments": true
        },
        {
          "Credit cards": true
        }
      ]
    },
    "gasPrices": [],
    "url": "https://www.google.com/maps/search/?api=1&query=New%20Vitalis%20Pharmacy&query_place_id=ChIJv2NBk4sMaYgRkm7CrI-jz6M",
    "searchPageUrl": "https://www.google.com/maps/search/independent%20pharmacy%20Louisville%20KY/@-0.1658560469091287,-160.067769998547,13z?hl=en",
    "searchString": "independent pharmacy Louisville KY",
    "language": "en",
    "rank": 16,
    "isAdvertisement": false,
    "imageUrl": "https://lh3.googleusercontent.com/p/AF1QipNHZzh3IfNUVTjcG93ojNDEj_PitCa6JSA3hrDQ=w408-h272-k-no",
    "kgmid": "/g/11c61hjdg5"
  },
  {
    "title": "St. Matthews Specialty Pharmacy",
    "price": null,
    "categoryName": "Pharmacy",
    "address": "200 N Hurstbourne Pkwy Ste 176, Louisville, KY 40222",
    "neighborhood": null,
    "street": "200 N Hurstbourne Pkwy Ste 176",
    "city": "Louisville",
    "postalCode": "40222",
    "state": "Kentucky",
    "countryCode": "US",
    "website": "https://stmatthewsrx.com/",
    "phone": "(844) 690-4462",
    "phoneUnformatted": "+18446904462",
    "claimThisBusiness": false,
    "location": {
      "lat": 38.2497303,
      "lng": -85.5801704
    },
    "totalScore": 4.6,
    "permanentlyClosed": false,
    "temporarilyClosed": false,
    "placeId": "ChIJIR09R1mfaYgRnaT9no6cw4E",
    "categories": [
      "Pharmacy"
    ],
    "fid": "0x88699f59473d1d21:0x81c39c8e9efda49d",
    "cid": "9350489387717993629",
    "reviewsCount": 5,
    "imagesCount": 2,
    "imageCategories": [],
    "scrapedAt": "2025-06-22T05:17:53.412Z",
    "googleFoodUrl": null,
    "hotelAds": [],
    "openingHours": [
      {
        "day": "Monday",
        "hours": "9 AM to 5 PM"
      },
      {
        "day": "Tuesday",
        "hours": "9 AM to 5 PM"
      },
      {
        "day": "Wednesday",
        "hours": "9 AM to 5 PM"
      },
      {
        "day": "Thursday",
        "hours": "9 AM to 5 PM"
      },
      {
        "day": "Friday",
        "hours": "9 AM to 5 PM"
      },
      {
        "day": "Saturday",
        "hours": "Closed"
      },
      {
        "day": "Sunday",
        "hours": "Closed"
      }
    ],
    "peopleAlsoSearch": [],
    "placesTags": [],
    "reviewsTags": [],
    "additionalInfo": {
      "Service options": [
        {
          "Delivery": true
        },
        {
          "In-store pickup": true
        },
        {
          "Same-day delivery": true
        }
      ],
      "Accessibility": [
        {
          "Wheelchair accessible entrance": true
        },
        {
          "Wheelchair accessible parking lot": true
        }
      ],
      "Payments": [
        {
          "Credit cards": true
        },
        {
          "Debit cards": true
        },
        {
          "NFC mobile payments": true
        },
        {
          "Credit cards": true
        }
      ]
    },
    "gasPrices": [],
    "url": "https://www.google.com/maps/search/?api=1&query=St.%20Matthews%20Specialty%20Pharmacy&query_place_id=ChIJIR09R1mfaYgRnaT9no6cw4E",
    "searchPageUrl": "https://www.google.com/maps/search/independent%20pharmacy%20Louisville%20KY/@-0.1658560469091287,-160.067769998547,13z?hl=en",
    "searchString": "independent pharmacy Louisville KY",
    "language": "en",
    "rank": 17,
    "isAdvertisement": false,
    "imageUrl": "https://lh3.googleusercontent.com/p/AF1QipMOYUc8ae82wuzZ8arav7JYiADlmv-YX4SvZXSk=w1028-h240-k-no",
    "kgmid": "/g/11p_81y_11"
  },
  {
    "title": "LIFEWELL RX PHARMACY",
    "price": null,
    "categoryName": "Pharmacy",
    "address": "2200 Buechel Ave, Louisville, KY 40218",
    "neighborhood": null,
    "street": "2200 Buechel Ave",
    "city": "Louisville",
    "postalCode": "40218",
    "state": "Kentucky",
    "countryCode": "US",
    "website": "http://www.lifewellrxpharmacy.com/pharmacy-our-location",
    "phone": "(502) 742-5958",
    "phoneUnformatted": "+15027425958",
    "claimThisBusiness": true,
    "location": {
      "lat": 38.191782,
      "lng": -85.6452137
    },
    "totalScore": 5,
    "permanentlyClosed": false,
    "temporarilyClosed": false,
    "placeId": "ChIJcy2l5aoLaYgRcqEOjfrXkyo",
    "categories": [
      "Pharmacy"
    ],
    "fid": "0x88690baae5a52d73:0x2a93d7fa8d0ea172",
    "cid": "3068033242277781874",
    "reviewsCount": 13,
    "imagesCount": 1,
    "imageCategories": [],
    "scrapedAt": "2025-06-22T05:17:53.412Z",
    "googleFoodUrl": null,
    "hotelAds": [],
    "openingHours": [
      {
        "day": "Monday",
        "hours": "9 AM to 5 PM"
      },
      {
        "day": "Tuesday",
        "hours": "9 AM to 5 PM"
      },
      {
        "day": "Wednesday",
        "hours": "9 AM to 5 PM"
      },
      {
        "day": "Thursday",
        "hours": "9 AM to 5 PM"
      },
      {
        "day": "Friday",
        "hours": "9 AM to 5 PM"
      },
      {
        "day": "Saturday",
        "hours": "10 AM to 3 PM"
      },
      {
        "day": "Sunday",
        "hours": "Closed"
      }
    ],
    "peopleAlsoSearch": [],
    "placesTags": [],
    "reviewsTags": [],
    "additionalInfo": {
      "Service options": [
        {
          "Delivery": true
        },
        {
          "Same-day delivery": true
        }
      ],
      "Accessibility": [
        {
          "Wheelchair accessible entrance": true
        },
        {
          "Wheelchair accessible parking lot": true
        }
      ],
      "Payments": [
        {
          "Credit cards": true
        },
        {
          "Debit cards": true
        },
        {
          "NFC mobile payments": true
        },
        {
          "Credit cards": true
        }
      ]
    },
    "gasPrices": [],
    "url": "https://www.google.com/maps/search/?api=1&query=LIFEWELL%20RX%20PHARMACY&query_place_id=ChIJcy2l5aoLaYgRcqEOjfrXkyo",
    "searchPageUrl": "https://www.google.com/maps/search/independent%20pharmacy%20Louisville%20KY/@-0.1658560469091287,-160.067769998547,13z?hl=en",
    "searchString": "independent pharmacy Louisville KY",
    "language": "en",
    "rank": 18,
    "isAdvertisement": false,
    "imageUrl": "https://streetviewpixels-pa.googleapis.com/v1/thumbnail?panoid=iGGK7KPi76rFznR0GX8rTQ&cb_client=search.gws-prod.gps&w=408&h=240&yaw=113.139595&pitch=0&thumbfov=100",
    "kgmid": "/g/11rghpy_0w"
  },
  {
    "title": "Afton Pharmacy",
    "price": null,
    "categoryName": "Pharmacy",
    "address": "4400 Breckenridge Ln Suite 100, Louisville, KY 40218",
    "neighborhood": null,
    "street": "4400 Breckenridge Ln Suite 100",
    "city": "Louisville",
    "postalCode": "40218",
    "state": "Kentucky",
    "countryCode": "US",
    "website": "https://www.aftonpharmacy.com/",
    "phone": "(877) 794-2699",
    "phoneUnformatted": "+18777942699",
    "claimThisBusiness": false,
    "location": {
      "lat": 38.1827598,
      "lng": -85.6277308
    },
    "totalScore": 3,
    "permanentlyClosed": false,
    "temporarilyClosed": false,
    "placeId": "ChIJ7Y-VIKILaYgRc3527RXwm1k",
    "categories": [
      "Pharmacy"
    ],
    "fid": "0x88690ba220958fed:0x599bf015ed767e73",
    "cid": "6457018467734683251",
    "reviewsCount": 4,
    "imagesCount": 1,
    "imageCategories": [],
    "scrapedAt": "2025-06-22T05:17:53.412Z",
    "googleFoodUrl": null,
    "hotelAds": [],
    "openingHours": [
      {
        "day": "Monday",
        "hours": "8 AM to 4 PM"
      },
      {
        "day": "Tuesday",
        "hours": "8 AM to 4 PM"
      },
      {
        "day": "Wednesday",
        "hours": "8 AM to 4 PM"
      },
      {
        "day": "Thursday",
        "hours": "8 AM to 4 PM"
      },
      {
        "day": "Friday",
        "hours": "8 AM to 4 PM"
      },
      {
        "day": "Saturday",
        "hours": "Closed"
      },
      {
        "day": "Sunday",
        "hours": "Closed"
      }
    ],
    "peopleAlsoSearch": [],
    "placesTags": [],
    "reviewsTags": [],
    "additionalInfo": {
      "From the business": [
        {
          "Small business": true
        }
      ],
      "Service options": [
        {
          "Delivery": true
        },
        {
          "Same-day delivery": true
        }
      ],
      "Accessibility": [
        {
          "Wheelchair accessible entrance": true
        },
        {
          "Wheelchair accessible parking lot": true
        }
      ],
      "Payments": [
        {
          "Credit cards": true
        },
        {
          "Debit cards": true
        },
        {
          "NFC mobile payments": true
        },
        {
          "Credit cards": true
        }
      ]
    },
    "gasPrices": [],
    "url": "https://www.google.com/maps/search/?api=1&query=Afton%20Pharmacy&query_place_id=ChIJ7Y-VIKILaYgRc3527RXwm1k",
    "searchPageUrl": "https://www.google.com/maps/search/independent%20pharmacy%20Louisville%20KY/@-0.1658560469091287,-160.067769998547,13z?hl=en",
    "searchString": "independent pharmacy Louisville KY",
    "language": "en",
    "rank": 19,
    "isAdvertisement": false,
    "imageUrl": "https://streetviewpixels-pa.googleapis.com/v1/thumbnail?panoid=9qmLM7SsirmV_kT_g-wMlw&cb_client=search.gws-prod.gps&w=408&h=240&yaw=92.743706&pitch=0&thumbfov=100",
    "kgmid": "/g/11khf5wpqp"
  },
  {
    "title": "Pharmacy Alternatives LLC",
    "price": null,
    "categoryName": "Pharmacy",
    "address": "11401 Bluegrass Pkwy, Louisville, KY 40299",
    "neighborhood": null,
    "street": "11401 Bluegrass Pkwy",
    "city": "Louisville",
    "postalCode": "40299",
    "state": "Kentucky",
    "countryCode": "US",
    "website": "https://www.palrx.com/?utm_source=GMB&utm_medium=GMB&utm_campaign=GMB",
    "phone": "(866) 501-3997",
    "phoneUnformatted": "+18665013997",
    "claimThisBusiness": false,
    "location": {
      "lat": 38.2211571,
      "lng": -85.5449057
    },
    "totalScore": 2.3,
    "permanentlyClosed": false,
    "temporarilyClosed": false,
    "placeId": "ChIJJ1wtxC-gaYgRrhOjAIp9Wl4",
    "categories": [
      "Pharmacy"
    ],
    "fid": "0x8869a02fc42d5c27:0x5e5a7d8a00a313ae",
    "cid": "6798884619138831278",
    "reviewsCount": 7,
    "imagesCount": 2,
    "imageCategories": [],
    "scrapedAt": "2025-06-22T05:17:53.412Z",
    "googleFoodUrl": null,
    "hotelAds": [],
    "openingHours": [
      {
        "day": "Monday",
        "hours": "9 AM to 5 PM"
      },
      {
        "day": "Tuesday",
        "hours": "9 AM to 5 PM"
      },
      {
        "day": "Wednesday",
        "hours": "9 AM to 5 PM"
      },
      {
        "day": "Thursday",
        "hours": "9 AM to 5 PM"
      },
      {
        "day": "Friday",
        "hours": "9 AM to 5 PM"
      },
      {
        "day": "Saturday",
        "hours": "Closed"
      },
      {
        "day": "Sunday",
        "hours": "Closed"
      }
    ],
    "peopleAlsoSearch": [],
    "placesTags": [],
    "reviewsTags": [],
    "additionalInfo": {
      "Accessibility": [
        {
          "Wheelchair accessible parking lot": true
        },
        {
          "Wheelchair accessible entrance": false
        }
      ],
      "Payments": [
        {
          "Credit cards": true
        }
      ]
    },
    "gasPrices": [],
    "url": "https://www.google.com/maps/search/?api=1&query=Pharmacy%20Alternatives%20LLC&query_place_id=ChIJJ1wtxC-gaYgRrhOjAIp9Wl4",
    "searchPageUrl": "https://www.google.com/maps/search/independent%20pharmacy%20Louisville%20KY/@-0.1658560469091287,-160.067769998547,13z?hl=en",
    "searchString": "independent pharmacy Louisville KY",
    "language": "en",
    "rank": 20,
    "isAdvertisement": false,
    "imageUrl": "https://lh3.googleusercontent.com/p/AF1QipOH0QggsSbX4L1kPlNo3OCrAzfEMg-9Aej-5b6B=w969-h240-k-no",
    "kgmid": "/g/1tdcbk65"
  }
]