[
  {
    "title": "The Medicine Shoppe Pharmacy",
    "price": null,
    "categoryName": "Pharmacy",
    "address": "12838 New Hampshire Ave, Silver Spring, MD 20904",
    "neighborhood": null,
    "street": "12838 New Hampshire Ave",
    "city": "Silver Spring",
    "postalCode": "20904",
    "state": "Maryland",
    "countryCode": "US",
    "website": "https://silverspring.medicineshoppe.com/",
    "phone": "(301) 622-0744",
    "phoneUnformatted": "+13016220744",
    "claimThisBusiness": false,
    "location": {
      "lat": 39.0658238,
      "lng": -77.0011053
    },
    "totalScore": 4.4,
    "permanentlyClosed": false,
    "temporarilyClosed": false,
    "placeId": "ChIJTWNChWfFt4kRRd5UfcCiiFk",
    "categories": [
      "Pharmacy"
    ],
    "fid": "0x89b7c5678542634d:0x5988a2c07d54de45",
    "cid": "6451585413828369989",
    "reviewsCount": 24,
    "imagesCount": 9,
    "imageCategories": [],
    "scrapedAt": "2025-06-22T05:32:14.304Z",
    "googleFoodUrl": null,
    "hotelAds": [],
    "openingHours": [
      {
        "day": "Monday",
        "hours": "9 AM to 6 PM"
      },
      {
        "day": "Tuesday",
        "hours": "9 AM to 6 PM"
      },
      {
        "day": "Wednesday",
        "hours": "9 AM to 6 PM"
      },
      {
        "day": "Thursday",
        "hours": "9 AM to 6 PM"
      },
      {
        "day": "Friday",
        "hours": "9 AM to 6 PM"
      },
      {
        "day": "Saturday",
        "hours": "9 AM to 2 PM"
      },
      {
        "day": "Sunday",
        "hours": "Closed"
      }
    ],
    "peopleAlsoSearch": [],
    "placesTags": [],
    "reviewsTags": [],
    "additionalInfo": {
      "Service options": [
        {
          "Delivery": true
        },
        {
          "In-store pickup": true
        },
        {
          "Same-day delivery": true
        }
      ],
      "Accessibility": [
        {
          "Wheelchair accessible entrance": true
        },
        {
          "Wheelchair accessible parking lot": true
        }
      ],
      "Planning": [
        {
          "Quick visit": true
        }
      ],
      "Payments": [
        {
          "Credit cards": true
        }
      ]
    },
    "gasPrices": [],
    "url": "https://www.google.com/maps/search/?api=1&query=The%20Medicine%20Shoppe%20Pharmacy&query_place_id=ChIJTWNChWfFt4kRRd5UfcCiiFk",
    "searchPageUrl": "https://www.google.com/maps/search/independent%20pharmacy%20Silver%20Spring%20MD/@54.6216851681339,-163.4677018424355,9z?hl=en",
    "searchString": "independent pharmacy Silver Spring MD",
    "language": "en",
    "rank": 1,
    "isAdvertisement": false,
    "imageUrl": "https://lh3.googleusercontent.com/gps-cs-s/AC9h4nrBHsvLQWqK-xd-aAkiRNZWRD6LCx9LlhNPTsQUAd2iEvbo1sirk6qGX09miLI2tBKK8fgIUw5yiMxsc5JUwBMq-3uWpoXXPi8tYvbG-9vkjrHIeizAFEZg41PxqVsXM9WA4OC7=w408-h544-k-no",
    "kgmid": "/g/1tf6n2mt"
  },
  {
    "title": "Little Acorn Pharmacy",
    "price": null,
    "categoryName": "Pharmacy",
    "address": "11161 New Hampshire Ave #110, Silver Spring, MD 20904",
    "neighborhood": null,
    "street": "11161 New Hampshire Ave #110",
    "city": "Silver Spring",
    "postalCode": "20904",
    "state": "Maryland",
    "countryCode": "US",
    "website": "https://www.littleacornpharmacy.com/",
    "phone": "(301) 592-0060",
    "phoneUnformatted": "+13015920060",
    "claimThisBusiness": false,
    "location": {
      "lat": 39.039336,
      "lng": -76.989391
    },
    "totalScore": 4.7,
    "permanentlyClosed": false,
    "temporarilyClosed": false,
    "placeId": "ChIJT5G7zZjFt4kRMvnuHYbG7Fc",
    "categories": [
      "Pharmacy",
      "Veterinary pharmacy"
    ],
    "fid": "0x89b7c598cdbb914f:0x57ecc6861deef932",
    "cid": "6335657055133563186",
    "reviewsCount": 101,
    "imagesCount": 28,
    "imageCategories": [],
    "scrapedAt": "2025-06-22T05:32:14.305Z",
    "googleFoodUrl": null,
    "hotelAds": [],
    "openingHours": [
      {
        "day": "Monday",
        "hours": "9 AM to 6 PM"
      },
      {
        "day": "Tuesday",
        "hours": "9 AM to 6 PM"
      },
      {
        "day": "Wednesday",
        "hours": "9 AM to 6 PM"
      },
      {
        "day": "Thursday",
        "hours": "9 AM to 6 PM"
      },
      {
        "day": "Friday",
        "hours": "9 AM to 6 PM"
      },
      {
        "day": "Saturday",
        "hours": "9 AM to 2 PM"
      },
      {
        "day": "Sunday",
        "hours": "Closed"
      }
    ],
    "peopleAlsoSearch": [],
    "placesTags": [],
    "reviewsTags": [],
    "additionalInfo": {
      "From the business": [
        {
          "Small business": true
        }
      ],
      "Service options": [
        {
          "Delivery": true
        },
        {
          "Drive-through": true
        },
        {
          "In-store pickup": true
        },
        {
          "In-store shopping": true
        },
        {
          "Onsite services": true
        },
        {
          "Spanish": true
        }
      ],
      "Accessibility": [
        {
          "Wheelchair accessible entrance": true
        },
        {
          "Wheelchair accessible parking lot": true
        }
      ],
      "Planning": [
        {
          "Quick visit": true
        }
      ],
      "Payments": [
        {
          "Credit cards": true
        },
        {
          "Debit cards": true
        },
        {
          "NFC mobile payments": true
        },
        {
          "Credit cards": true
        }
      ]
    },
    "gasPrices": [],
    "url": "https://www.google.com/maps/search/?api=1&query=Little%20Acorn%20Pharmacy&query_place_id=ChIJT5G7zZjFt4kRMvnuHYbG7Fc",
    "searchPageUrl": "https://www.google.com/maps/search/independent%20pharmacy%20Silver%20Spring%20MD/@54.6216851681339,-163.4677018424355,9z?hl=en",
    "searchString": "independent pharmacy Silver Spring MD",
    "language": "en",
    "rank": 2,
    "isAdvertisement": false,
    "imageUrl": "https://lh3.googleusercontent.com/p/AF1QipNjP6xkm5aLuFMfAmRMiw2KUTFgKGOQJZn3eQ-6=w408-h272-k-no",
    "kgmid": "/g/11btx0rk21"
  },
  {
    "title": "Musgrove Pharmacy",
    "price": null,
    "categoryName": "Pharmacy",
    "address": "2415 Musgrove Rd #101, Silver Spring, MD 20904",
    "neighborhood": null,
    "street": "2415 Musgrove Rd #101",
    "city": "Silver Spring",
    "postalCode": "20904",
    "state": "Maryland",
    "countryCode": "US",
    "phone": "(301) 879-2011",
    "phoneUnformatted": "+13018792011",
    "claimThisBusiness": false,
    "location": {
      "lat": 39.067461,
      "lng": -76.9604803
    },
    "totalScore": 4.3,
    "permanentlyClosed": false,
    "temporarilyClosed": false,
    "placeId": "ChIJP36ilj7Ft4kR0ajh0utY-aI",
    "categories": [
      "Pharmacy"
    ],
    "fid": "0x89b7c53e96a27e3f:0xa2f958ebd2e1a8d1",
    "cid": "11743515273223842001",
    "reviewsCount": 87,
    "imagesCount": 12,
    "imageCategories": [],
    "scrapedAt": "2025-06-22T05:32:14.305Z",
    "googleFoodUrl": null,
    "hotelAds": [],
    "openingHours": [
      {
        "day": "Monday",
        "hours": "9:30 AM to 12:30 PM, 1:15 to 5:30 PM"
      },
      {
        "day": "Tuesday",
        "hours": "9:30 AM to 12:30 PM, 1:15 to 5:30 PM"
      },
      {
        "day": "Wednesday",
        "hours": "9:30 AM to 12:30 PM, 1:15 to 5:30 PM"
      },
      {
        "day": "Thursday",
        "hours": "9:30 AM to 12:30 PM, 1:15 to 5:30 PM"
      },
      {
        "day": "Friday",
        "hours": "9:30 AM to 12:30 PM, 1:15 to 5:30 PM"
      },
      {
        "day": "Saturday",
        "hours": "Closed"
      },
      {
        "day": "Sunday",
        "hours": "Closed"
      }
    ],
    "additionalOpeningHours": {
      "Delivery": [
        {
          "day": "Monday",
          "hours": "9 AM–5 PM"
        },
        {
          "day": "Tuesday",
          "hours": "9 AM–5 PM"
        },
        {
          "day": "Wednesday",
          "hours": "9 AM–5 PM"
        },
        {
          "day": "Thursday",
          "hours": "9 AM–5 PM"
        },
        {
          "day": "Friday",
          "hours": "9 AM–5 PM"
        },
        {
          "day": "Saturday",
          "hours": "Closed"
        },
        {
          "day": "Sunday",
          "hours": "Closed"
        }
      ],
      "Online service hours": [
        {
          "day": "Monday",
          "hours": "9:30 AM–5:30 PM"
        },
        {
          "day": "Tuesday",
          "hours": "9:30 AM–5:30 PM"
        },
        {
          "day": "Wednesday",
          "hours": "9:30 AM–5:30 PM"
        },
        {
          "day": "Thursday",
          "hours": "9:30 AM–5:30 PM"
        },
        {
          "day": "Friday",
          "hours": "9:30 AM–5:30 PM"
        },
        {
          "day": "Saturday",
          "hours": "Closed"
        },
        {
          "day": "Sunday",
          "hours": "Closed"
        }
      ]
    },
    "peopleAlsoSearch": [],
    "placesTags": [],
    "reviewsTags": [],
    "additionalInfo": {
      "From the business": [
        {
          "Identifies as Asian-owned": true
        },
        {
          "Identifies as Black-owned": true
        },
        {
          "Small business": true
        }
      ],
      "Service options": [
        {
          "Curbside pickup": true
        },
        {
          "Delivery": true
        },
        {
          "In-store pickup": true
        },
        {
          "In-store shopping": true
        },
        {
          "Hindi": true
        }
      ],
      "Accessibility": [
        {
          "Wheelchair accessible entrance": true
        },
        {
          "Wheelchair accessible parking lot": true
        },
        {
          "Wheelchair accessible restroom": true
        },
        {
          "Wheelchair accessible seating": true
        }
      ],
      "Amenities": [
        {
          "Wi-Fi": true
        },
        {
          "Free Wi-Fi": true
        }
      ],
      "Crowd": [
        {
          "LGBTQ+ friendly": true
        },
        {
          "Transgender safespace": true
        }
      ],
      "Payments": [
        {
          "Checks": true
        },
        {
          "Credit cards": true
        },
        {
          "Credit cards": true
        }
      ]
    },
    "gasPrices": [],
    "url": "https://www.google.com/maps/search/?api=1&query=Musgrove%20Pharmacy&query_place_id=ChIJP36ilj7Ft4kR0ajh0utY-aI",
    "searchPageUrl": "https://www.google.com/maps/search/independent%20pharmacy%20Silver%20Spring%20MD/@54.6216851681339,-163.4677018424355,9z?hl=en",
    "searchString": "independent pharmacy Silver Spring MD",
    "language": "en",
    "rank": 3,
    "isAdvertisement": false,
    "imageUrl": "https://lh3.googleusercontent.com/gps-cs-s/AC9h4noexlAPyAYohu53NuUv3dSWF-Ok6dHYkPspsesrbCVfPsY4o5Hz0K3tov17ijLWCvQ-g_JkdG0ioloz2V4zQlSad_ToSqrHc7qztY-n1TgeCyVyt0pScLnUurf7ebv4A8iV5AttIA=w408-h544-k-no",
    "kgmid": "/g/11gjs2kz9n"
  },
  {
    "title": "The Medicine Shoppe Pharmacy",
    "price": null,
    "categoryName": "Pharmacy",
    "address": "10313 Georgia Ave, Wheaton, MD 20902",
    "neighborhood": "Wheaton",
    "street": "10313 Georgia Ave",
    "city": "Wheaton",
    "postalCode": "20902",
    "state": "Maryland",
    "countryCode": "US",
    "website": "https://www.medicineshoppe.com/find-a-pharmacy",
    "phone": "(301) 681-5878",
    "phoneUnformatted": "+13016815878",
    "claimThisBusiness": true,
    "location": {
      "lat": 39.0251166,
      "lng": -77.045399
    },
    "totalScore": 4,
    "permanentlyClosed": false,
    "temporarilyClosed": false,
    "placeId": "ChIJ0aFbriTPt4kR5P15r7Olzsk",
    "categories": [
      "Pharmacy"
    ],
    "fid": "0x89b7cf24ae5ba1d1:0xc9cea5b3af79fde4",
    "cid": "14541742437987646948",
    "reviewsCount": 40,
    "imagesCount": 3,
    "imageCategories": [],
    "scrapedAt": "2025-06-22T05:32:14.306Z",
    "googleFoodUrl": null,
    "hotelAds": [],
    "openingHours": [
      {
        "day": "Monday",
        "hours": "9 AM to 5 PM"
      },
      {
        "day": "Tuesday",
        "hours": "9 AM to 5 PM"
      },
      {
        "day": "Wednesday",
        "hours": "9 AM to 5 PM"
      },
      {
        "day": "Thursday",
        "hours": "9 AM to 5 PM"
      },
      {
        "day": "Friday",
        "hours": "9 AM to 5 PM"
      },
      {
        "day": "Saturday",
        "hours": "Closed"
      },
      {
        "day": "Sunday",
        "hours": "Closed"
      }
    ],
    "peopleAlsoSearch": [],
    "placesTags": [],
    "reviewsTags": [],
    "additionalInfo": {
      "Service options": [
        {
          "Delivery": true
        },
        {
          "Same-day delivery": true
        }
      ],
      "Accessibility": [
        {
          "Wheelchair accessible entrance": true
        },
        {
          "Wheelchair accessible parking lot": true
        }
      ],
      "Planning": [
        {
          "Quick visit": true
        }
      ],
      "Payments": [
        {
          "Credit cards": true
        }
      ]
    },
    "gasPrices": [],
    "url": "https://www.google.com/maps/search/?api=1&query=The%20Medicine%20Shoppe%20Pharmacy&query_place_id=ChIJ0aFbriTPt4kR5P15r7Olzsk",
    "searchPageUrl": "https://www.google.com/maps/search/independent%20pharmacy%20Silver%20Spring%20MD/@54.6216851681339,-163.4677018424355,9z?hl=en",
    "searchString": "independent pharmacy Silver Spring MD",
    "language": "en",
    "rank": 4,
    "isAdvertisement": false,
    "imageUrl": "https://lh3.googleusercontent.com/gps-cs-s/AC9h4nqxSgiPD9qQFyJ4eOWhEVvUKYDhdxs_f-OPFevrk-x6x_JgSVFNUimbLgJ1kCM-ssMSTXI6CffsazE3xebvljfUdp-ASayVARoNFGq_c9lRRNuf6z-SdXNGP8CJtvBVbHSOUOg=w408-h544-k-no",
    "kgmid": "/g/1vgw9j51"
  },
  {
    "title": "RxClinicllc pharmacy",
    "price": null,
    "categoryName": "Pharmacy",
    "address": "8700 Georgia Ave #403, Silver Spring, MD 20910",
    "neighborhood": "Downtown Silver Spring",
    "street": "8700 Georgia Ave #403",
    "city": "Silver Spring",
    "postalCode": "20910",
    "state": "Maryland",
    "countryCode": "US",
    "phone": "(240) 531-2724",
    "phoneUnformatted": "+12405312724",
    "claimThisBusiness": false,
    "location": {
      "lat": 38.9973984,
      "lng": -77.0301658
    },
    "totalScore": 5,
    "permanentlyClosed": false,
    "temporarilyClosed": true,
    "placeId": "ChIJb4Zu69nJt4kRlnB_XJ2OCD0",
    "categories": [
      "Pharmacy"
    ],
    "fid": "0x89b7c9d9eb6e866f:0x3d088e9d5c7f7096",
    "cid": "4397921842640154774",
    "reviewsCount": 1,
    "imagesCount": 11,
    "imageCategories": [],
    "scrapedAt": "2025-06-22T05:32:14.306Z",
    "googleFoodUrl": null,
    "hotelAds": [],
    "openingHours": [],
    "peopleAlsoSearch": [],
    "placesTags": [],
    "reviewsTags": [],
    "additionalInfo": {
      "From the business": [
        {
          "Small business": true
        }
      ],
      "Service options": [
        {
          "Curbside pickup": true
        },
        {
          "Delivery": true
        },
        {
          "In-store pickup": true
        },
        {
          "In-store shopping": true
        },
        {
          "Same-day delivery": true
        }
      ],
      "Accessibility": [
        {
          "Wheelchair accessible entrance": true
        },
        {
          "Wheelchair accessible parking lot": true
        },
        {
          "Wheelchair accessible restroom": true
        },
        {
          "Wheelchair accessible seating": true
        }
      ],
      "Payments": [
        {
          "Checks": true
        },
        {
          "Debit cards": true
        },
        {
          "Credit cards": true
        }
      ]
    },
    "gasPrices": [],
    "url": "https://www.google.com/maps/search/?api=1&query=RxClinicllc%20pharmacy&query_place_id=ChIJb4Zu69nJt4kRlnB_XJ2OCD0",
    "searchPageUrl": "https://www.google.com/maps/search/independent%20pharmacy%20Silver%20Spring%20MD/@54.6216851681339,-163.4677018424355,9z?hl=en",
    "searchString": "independent pharmacy Silver Spring MD",
    "language": "en",
    "rank": 5,
    "isAdvertisement": false,
    "imageUrl": "https://lh3.googleusercontent.com/p/AF1QipNbBshK1_cYTPk5nvyDD-zwfkHMeK44oJAdqED5=w408-h544-k-no",
    "kgmid": "/g/11r_mdl4nx"
  },
  {
    "title": "Lung Rx LLC",
    "price": null,
    "categoryName": "Pharmacy",
    "address": "1015 Spring St, Silver Spring, MD 20910, United States",
    "neighborhood": null,
    "street": "1015 Spring St",
    "city": "Silver Spring",
    "postalCode": "20910",
    "state": "Maryland",
    "countryCode": "US",
    "phone": "+1 301-608-9292",
    "phoneUnformatted": "+13016089292",
    "claimThisBusiness": true,
    "location": {
      "lat": 38.9996989,
      "lng": -77.0273715
    },
    "totalScore": 5,
    "permanentlyClosed": false,
    "temporarilyClosed": false,
    "placeId": "ChIJR0AIxrDIt4kR7rTY7-kDXPI",
    "categories": [
      "Pharmacy"
    ],
    "fid": "0x89b7c8b0c6084047:0xf25c03e9efd8b4ee",
    "cid": "17463837758322160878",
    "reviewsCount": 1,
    "imagesCount": 1,
    "imageCategories": [],
    "scrapedAt": "2025-06-22T05:32:27.116Z",
    "googleFoodUrl": null,
    "hotelAds": [],
    "openingHours": [],
    "peopleAlsoSearch": [],
    "placesTags": [],
    "reviewsTags": [],
    "gasPrices": [],
    "url": "https://www.google.com/maps/search/?api=1&query=Lung%20Rx%20LLC&query_place_id=ChIJR0AIxrDIt4kR7rTY7-kDXPI",
    "searchPageUrl": "https://www.google.com/maps/search/independent%20pharmacy%20Silver%20Spring%20MD/@65.04310121365691,-161.1661038710836,9z?hl=en",
    "searchString": "independent pharmacy Silver Spring MD",
    "language": "en",
    "rank": 4,
    "isAdvertisement": false,
    "imageUrl": "https://streetviewpixels-pa.googleapis.com/v1/thumbnail?panoid=2F72trd3L2GlPvbRoJEayQ&cb_client=search.gws-prod.gps&w=408&h=240&yaw=32.470688&pitch=0&thumbfov=100",
    "kgmid": "/g/1tdnm02m"
  },
  {
    "title": "DOD Serum Repository",
    "price": null,
    "categoryName": "Pharmacy",
    "address": "11800 Tech Rd # 260, Silver Spring, MD 20904",
    "neighborhood": null,
    "street": "11800 Tech Rd # 260",
    "city": "Silver Spring",
    "postalCode": "20904",
    "state": "Maryland",
    "countryCode": "US",
    "phone": "(301) 622-7120",
    "phoneUnformatted": "+13016227120",
    "claimThisBusiness": true,
    "location": {
      "lat": 39.0504751,
      "lng": -76.9729534
    },
    "permanentlyClosed": false,
    "temporarilyClosed": false,
    "placeId": "ChIJpwJB-QTFt4kR7q5XeS68SAo",
    "categories": [
      "Pharmacy"
    ],
    "fid": "0x89b7c504f94102a7:0xa48bc2e7957aeee",
    "cid": "741049046492753646",
    "reviewsCount": 0,
    "imagesCount": 1,
    "imageCategories": [],
    "scrapedAt": "2025-06-22T05:32:31.319Z",
    "googleFoodUrl": null,
    "hotelAds": [],
    "openingHours": [],
    "peopleAlsoSearch": [],
    "placesTags": [],
    "reviewsTags": [],
    "additionalInfo": {
      "Accessibility": [
        {
          "Wheelchair accessible entrance": true
        },
        {
          "Wheelchair accessible parking lot": true
        }
      ]
    },
    "gasPrices": [],
    "url": "https://www.google.com/maps/search/?api=1&query=DOD%20Serum%20Repository&query_place_id=ChIJpwJB-QTFt4kR7q5XeS68SAo",
    "searchPageUrl": "https://www.google.com/maps/search/independent%20pharmacy%20Silver%20Spring%20MD/@63.240391500735214,-170.00639511653398,11z?hl=en",
    "searchString": "independent pharmacy Silver Spring MD",
    "language": "en",
    "rank": 2,
    "isAdvertisement": false,
    "imageUrl": "https://streetviewpixels-pa.googleapis.com/v1/thumbnail?panoid=D2mT0fiZ5mLdFY4nsQbdQA&cb_client=search.gws-prod.gps&w=408&h=240&yaw=266.35135&pitch=0&thumbfov=100",
    "kgmid": "/g/1td72x4x"
  },
  {
    "title": "Pym core",
    "price": null,
    "categoryName": "Pharmacy",
    "address": "8674 Piney Branch Rd, Silver Spring, MD 20901",
    "neighborhood": null,
    "street": "8674 Piney Branch Rd",
    "city": "Silver Spring",
    "postalCode": "20901",
    "state": "Maryland",
    "countryCode": "US",
    "claimThisBusiness": true,
    "location": {
      "lat": 38.9990977,
      "lng": -76.9987991
    },
    "permanentlyClosed": false,
    "temporarilyClosed": false,
    "placeId": "ChIJuy9itmjHt4kR7dI64Lx3HQk",
    "categories": [
      "Pharmacy"
    ],
    "fid": "0x89b7c768b6622fbb:0x91d77bce03ad2ed",
    "cid": "656812773765468909",
    "reviewsCount": 0,
    "imagesCount": 1,
    "imageCategories": [],
    "scrapedAt": "2025-06-22T05:32:39.359Z",
    "googleFoodUrl": null,
    "hotelAds": [],
    "openingHours": [],
    "peopleAlsoSearch": [],
    "placesTags": [],
    "reviewsTags": [],
    "gasPrices": [],
    "url": "https://www.google.com/maps/search/?api=1&query=Pym%20core&query_place_id=ChIJuy9itmjHt4kR7dI64Lx3HQk",
    "searchPageUrl": "https://www.google.com/maps/search/independent%20pharmacy%20Silver%20Spring%20MD/@60.31354917823661,-172.6715933,12z?hl=en",
    "searchString": "independent pharmacy Silver Spring MD",
    "language": "en",
    "rank": 3,
    "isAdvertisement": false,
    "imageUrl": "https://streetviewpixels-pa.googleapis.com/v1/thumbnail?panoid=yHE-QcXvvAm8s1VlSmSFYw&cb_client=search.gws-prod.gps&w=408&h=240&yaw=42.485218&pitch=0&thumbfov=100",
    "kgmid": "/g/11h52mgsgc"
  },
  {
    "title": "CVS Pharmacy",
    "price": null,
    "categoryName": "Pharmacy",
    "address": "1290 East-West Hwy, Silver Spring, MD 20910",
    "neighborhood": "Downtown Silver Spring",
    "street": "1290 East-West Hwy",
    "city": "Silver Spring",
    "postalCode": "20910",
    "state": "Maryland",
    "countryCode": "US",
    "website": "https://www.cvs.com/store-locator/silver-spring-md-pharmacies/1290-east-west-highway-silver-spring-md-20910/storeid=1477?WT.mc_id=LS_GOOGLE_RX_1477",
    "phone": "(301) 588-6261",
    "phoneUnformatted": "+13015886261",
    "claimThisBusiness": false,
    "location": {
      "lat": 38.9924182,
      "lng": -77.0319559
    },
    "totalScore": 2.4,
    "permanentlyClosed": false,
    "temporarilyClosed": false,
    "placeId": "ChIJVbn4Rr_It4kR4cFUbcazBT0",
    "categories": [
      "Pharmacy"
    ],
    "fid": "0x89b7c8bf46f8b955:0x3d05b3c66d54c1e1",
    "cid": "4397118276016325089",
    "reviewsCount": 24,
    "imagesCount": 7,
    "imageCategories": [],
    "scrapedAt": "2025-06-22T05:32:39.359Z",
    "googleFoodUrl": null,
    "hotelAds": [],
    "openingHours": [
      {
        "day": "Monday",
        "hours": "9 AM to 1:30 PM, 2 to 9 PM"
      },
      {
        "day": "Tuesday",
        "hours": "9 AM to 1:30 PM, 2 to 9 PM"
      },
      {
        "day": "Wednesday",
        "hours": "9 AM to 1:30 PM, 2 to 9 PM"
      },
      {
        "day": "Thursday",
        "hours": "9 AM to 1:30 PM, 2 to 9 PM"
      },
      {
        "day": "Friday",
        "hours": "9 AM to 1:30 PM, 2 to 9 PM"
      },
      {
        "day": "Saturday",
        "hours": "10 AM to 1:30 PM, 2 to 6 PM"
      },
      {
        "day": "Sunday",
        "hours": "10 AM to 1:30 PM, 2 to 6 PM"
      }
    ],
    "peopleAlsoSearch": [],
    "placesTags": [],
    "reviewsTags": [],
    "additionalInfo": {
      "Service options": [
        {
          "Delivery": true
        },
        {
          "In-store shopping": true
        }
      ],
      "Accessibility": [
        {
          "Wheelchair accessible entrance": true
        },
        {
          "Wheelchair accessible parking lot": true
        }
      ],
      "Offerings": [
        {
          "Naloxone": true
        },
        {
          "Passport photos": true
        }
      ],
      "Crowd": [
        {
          "LGBTQ+ friendly": true
        },
        {
          "Transgender safespace": true
        }
      ],
      "Planning": [
        {
          "Quick visit": true
        }
      ],
      "Payments": [
        {
          "Credit cards": true
        },
        {
          "Debit cards": true
        },
        {
          "NFC mobile payments": true
        },
        {
          "SNAP/EBT": true
        },
        {
          "Credit cards": true
        }
      ]
    },
    "gasPrices": [],
    "url": "https://www.google.com/maps/search/?api=1&query=CVS%20Pharmacy&query_place_id=ChIJVbn4Rr_It4kR4cFUbcazBT0",
    "searchPageUrl": "https://www.google.com/maps/search/independent%20pharmacy%20Silver%20Spring%20MD/@60.31354917823661,-172.6715933,12z?hl=en",
    "searchString": "independent pharmacy Silver Spring MD",
    "language": "en",
    "rank": 5,
    "isAdvertisement": false,
    "imageUrl": "https://lh3.googleusercontent.com/p/AF1QipOiFnNxrKS6fdc2PoYIiVpruTz0Y_IczUjGUs2-=w408-h272-k-no",
    "kgmid": "/g/11c460_9l9"
  },
  {
    "title": "Rodman's Discount Store",
    "description": "Sizable supermarket featuring a range of gourmet foodstuffs & home health care, plus wine & beer.",
    "price": null,
    "categoryName": "Pharmacy",
    "address": "4301 Randolph Rd, Silver Spring, MD 20906",
    "neighborhood": null,
    "street": "4301 Randolph Rd",
    "city": "Silver Spring",
    "postalCode": "20906",
    "state": "Maryland",
    "countryCode": "US",
    "website": "http://www.rodmans.com/",
    "phone": "(301) 946-3100",
    "phoneUnformatted": "+13019463100",
    "claimThisBusiness": false,
    "location": {
      "lat": 39.0558351,
      "lng": -77.083573
    },
    "locatedIn": "LibertyX Bitcoin ATM",
    "totalScore": 3.9,
    "permanentlyClosed": false,
    "temporarilyClosed": false,
    "placeId": "ChIJRVsozmHOt4kRoe0CJEuKfi0",
    "categories": [
      "Pharmacy",
      "Health and beauty shop",
      "Gourmet grocery store",
      "Supermarket",
      "Wine store"
    ],
    "fid": "0x89b7ce61ce285b45:0x2d7e8a4b2402eda1",
    "cid": "3278209634103651745",
    "reviewsCount": 277,
    "imagesCount": 19,
    "imageCategories": [],
    "scrapedAt": "2025-06-22T05:32:41.684Z",
    "googleFoodUrl": null,
    "hotelAds": [],
    "openingHours": [
      {
        "day": "Monday",
        "hours": "9 AM to 9 PM"
      },
      {
        "day": "Tuesday",
        "hours": "9 AM to 9 PM"
      },
      {
        "day": "Wednesday",
        "hours": "9 AM to 9 PM"
      },
      {
        "day": "Thursday",
        "hours": "9 AM to 9 PM"
      },
      {
        "day": "Friday",
        "hours": "9 AM to 9 PM"
      },
      {
        "day": "Saturday",
        "hours": "9 AM to 9 PM"
      },
      {
        "day": "Sunday",
        "hours": "10 AM to 7 PM"
      }
    ],
    "additionalOpeningHours": {
      "LibertyX Bitcoin ATM": [
        {
          "day": "Monday",
          "hours": "9 AM–10 PM"
        },
        {
          "day": "Tuesday",
          "hours": "9 AM–10 PM"
        },
        {
          "day": "Wednesday",
          "hours": "9 AM–10 PM"
        },
        {
          "day": "Thursday",
          "hours": "9 AM–10 PM"
        },
        {
          "day": "Friday",
          "hours": "9 AM–10 PM"
        },
        {
          "day": "Saturday",
          "hours": "9 AM–10 PM"
        },
        {
          "day": "Sunday",
          "hours": "10 AM–7 PM"
        }
      ]
    },
    "peopleAlsoSearch": [],
    "placesTags": [],
    "reviewsTags": [],
    "additionalInfo": {
      "Service options": [
        {
          "Onsite services": true
        },
        {
          "Delivery": false
        },
        {
          "Same-day delivery": false
        }
      ],
      "Highlights": [
        {
          "Great produce": true
        }
      ],
      "Accessibility": [
        {
          "Wheelchair accessible entrance": true
        },
        {
          "Wheelchair accessible parking lot": true
        }
      ],
      "Offerings": [
        {
          "Food": true
        }
      ],
      "Planning": [
        {
          "Quick visit": true
        }
      ],
      "Payments": [
        {
          "Credit cards": true
        },
        {
          "Debit cards": true
        },
        {
          "NFC mobile payments": true
        },
        {
          "SNAP/EBT": true
        },
        {
          "Credit cards": true
        }
      ]
    },
    "gasPrices": [],
    "url": "https://www.google.com/maps/search/?api=1&query=Rodman's%20Discount%20Store&query_place_id=ChIJRVsozmHOt4kRoe0CJEuKfi0",
    "searchPageUrl": "https://www.google.com/maps/search/independent%20pharmacy%20Silver%20Spring%20MD/@52.48183889042627,-174.12822815167422,11z?hl=en",
    "searchString": "independent pharmacy Silver Spring MD",
    "language": "en",
    "rank": 2,
    "isAdvertisement": false,
    "imageUrl": "https://lh3.googleusercontent.com/gps-cs-s/AC9h4npPifQM_2v5rYcJm7I1ru7JW_cjpYZ7ZwWFvug0jVj9Jkm8hO-r837wLZEm6bkH1M1Y6AMz_liERRRr3j9271qum7CHdALsIbjkMKhT7YHDKrG36gssHyGpBPYtMrMabFV5i3R1Bg=w408-h544-k-no",
    "kgmid": "/g/1hc4bm82j"
  },
  {
    "title": "CVS Pharmacy",
    "price": null,
    "categoryName": "Pharmacy",
    "address": "825 Wayne Ave, Silver Spring, MD 20910, United States",
    "neighborhood": "Downtown Silver Spring",
    "street": "825 Wayne Ave",
    "city": "Silver Spring",
    "postalCode": "20910",
    "state": "Maryland",
    "countryCode": "US",
    "website": "https://www.cvs.com/store-locator/silver-spring-md-pharmacies/825-wayne-ave-silver-spring-md-20910/storeid=3517?WT.mc_id=LS_GOOGLE_RX_3517",
    "phone": "+1 301-562-5414",
    "phoneUnformatted": "+13015625414",
    "claimThisBusiness": false,
    "location": {
      "lat": 38.9965199,
      "lng": -77.0245981
    },
    "totalScore": 4.2,
    "permanentlyClosed": false,
    "temporarilyClosed": false,
    "placeId": "ChIJ98ESibrIt4kRfcbyv7SZwss",
    "categories": [
      "Pharmacy"
    ],
    "fid": "0x89b7c8ba8912c1f7:0xcbc299b4bff2c67d",
    "cid": "14682466736774760061",
    "reviewsCount": 32,
    "imagesCount": 6,
    "imageCategories": [],
    "scrapedAt": "2025-06-22T05:32:47.073Z",
    "googleFoodUrl": null,
    "hotelAds": [],
    "openingHours": [
      {
        "day": "Monday",
        "hours": "9 AM to 1:30 PM, 2 to 7 PM"
      },
      {
        "day": "Tuesday",
        "hours": "9 AM to 1:30 PM, 2 to 7 PM"
      },
      {
        "day": "Wednesday",
        "hours": "9 AM to 1:30 PM, 2 to 7 PM"
      },
      {
        "day": "Thursday",
        "hours": "9 AM to 1:30 PM, 2 to 7 PM"
      },
      {
        "day": "Friday",
        "hours": "9 AM to 1:30 PM, 2 to 7 PM"
      },
      {
        "day": "Saturday",
        "hours": "10 AM to 1:30 PM, 2 to 6 PM"
      },
      {
        "day": "Sunday",
        "hours": "11 AM to 1:30 PM, 2 to 5 PM"
      }
    ],
    "peopleAlsoSearch": [],
    "placesTags": [],
    "reviewsTags": [],
    "additionalInfo": {
      "Service options": [
        {
          "Delivery": true
        },
        {
          "In-store shopping": true
        },
        {
          "On-site services": true
        }
      ],
      "Accessibility": [
        {
          "Wheelchair-accessible car park": true
        },
        {
          "Wheelchair-accessible entrance": true
        }
      ],
      "Offerings": [
        {
          "Naloxone": true
        },
        {
          "Passport photos": true
        }
      ],
      "Crowd": [
        {
          "LGBTQ+ friendly": true
        },
        {
          "Transgender safe space": true
        }
      ],
      "Planning": [
        {
          "Quick visit": true
        }
      ],
      "Payments": [
        {
          "Credit cards": true
        },
        {
          "Debit cards": true
        },
        {
          "NFC mobile payments": true
        },
        {
          "SNAP/EBT": true
        },
        {
          "Credit cards": true
        }
      ]
    },
    "gasPrices": [],
    "url": "https://www.google.com/maps/search/?api=1&query=CVS%20Pharmacy&query_place_id=ChIJ98ESibrIt4kRfcbyv7SZwss",
    "searchPageUrl": "https://www.google.com/maps/search/independent%20pharmacy%20Silver%20Spring%20MD/@45.410355141996405,-102.31720148556776,8z?hl=en",
    "searchString": "independent pharmacy Silver Spring MD",
    "language": "en",
    "rank": 4,
    "isAdvertisement": false,
    "imageUrl": "https://lh3.googleusercontent.com/p/AF1QipMpEcuRrXeG6tT6A7Zk0_jzyaVlPlZguNJm-heN=w408-h272-k-no",
    "kgmid": "/g/11c467tsgy"
  },
  {
    "title": "Kensington Pharmacy",
    "price": null,
    "categoryName": "Pharmacy",
    "address": "3737 University Blvd W, Kensington, MD 20895",
    "neighborhood": null,
    "street": "3737 University Blvd W",
    "city": "Kensington",
    "postalCode": "20895",
    "state": "Maryland",
    "countryCode": "US",
    "website": "http://www.kensingtonrx.com/",
    "phone": "(301) 933-6165",
    "phoneUnformatted": "+13019336165",
    "claimThisBusiness": false,
    "location": {
      "lat": 39.0330824,
      "lng": -77.0739794
    },
    "totalScore": 4.5,
    "permanentlyClosed": false,
    "temporarilyClosed": false,
    "placeId": "ChIJhxZoHcLOt4kRu0A8ZmiNlj4",
    "categories": [
      "Pharmacy"
    ],
    "fid": "0x89b7cec21d681687:0x3e968d68663c40bb",
    "cid": "4509947556389470395",
    "reviewsCount": 55,
    "imagesCount": 8,
    "imageCategories": [],
    "scrapedAt": "2025-06-22T05:32:47.145Z",
    "googleFoodUrl": null,
    "hotelAds": [],
    "openingHours": [
      {
        "day": "Monday",
        "hours": "8 AM to 7 PM"
      },
      {
        "day": "Tuesday",
        "hours": "8 AM to 7 PM"
      },
      {
        "day": "Wednesday",
        "hours": "8 AM to 7 PM"
      },
      {
        "day": "Thursday",
        "hours": "8 AM to 7 PM"
      },
      {
        "day": "Friday",
        "hours": "8 AM to 7 PM"
      },
      {
        "day": "Saturday",
        "hours": "9 AM to 4 PM"
      },
      {
        "day": "Sunday",
        "hours": "Closed"
      }
    ],
    "peopleAlsoSearch": [],
    "placesTags": [],
    "reviewsTags": [],
    "additionalInfo": {
      "From the business": [
        {
          "Small business": true
        }
      ],
      "Service options": [
        {
          "Curbside pickup": true
        },
        {
          "Delivery": true
        },
        {
          "In-store pickup": true
        },
        {
          "In-store shopping": true
        },
        {
          "Same-day delivery": true
        }
      ],
      "Accessibility": [
        {
          "Wheelchair accessible entrance": true
        },
        {
          "Wheelchair accessible parking lot": true
        }
      ],
      "Planning": [
        {
          "Quick visit": true
        }
      ],
      "Payments": [
        {
          "Checks": true
        },
        {
          "Credit cards": true
        },
        {
          "Debit cards": true
        },
        {
          "NFC mobile payments": true
        },
        {
          "Credit cards": true
        }
      ]
    },
    "gasPrices": [],
    "url": "https://www.google.com/maps/search/?api=1&query=Kensington%20Pharmacy&query_place_id=ChIJhxZoHcLOt4kRu0A8ZmiNlj4",
    "searchPageUrl": "https://www.google.com/maps/search/independent%20pharmacy%20Silver%20Spring%20MD/@39.68245004733214,-89.6522977144323,8z?hl=en",
    "searchString": "independent pharmacy Silver Spring MD",
    "language": "en",
    "rank": 7,
    "isAdvertisement": false,
    "imageUrl": "https://lh3.googleusercontent.com/gps-cs-s/AC9h4nqaaojub3eXubVr5jZbouhi7-Orm9fFKZDl2uC2LZMMUMgPQewcSPKh7aB_KtRSQ2PINAKxwyoUxBu63VWUxo7Punue23HgKYY8LT9Zd_MjT0JN0t0MQCSQ8Xq-28Zm6_PcKFIW5A=w426-h240-k-no",
    "kgmid": "/g/1tmxxg_x"
  },
  {
    "title": "CVS Pharmacy",
    "price": null,
    "categoryName": "Pharmacy",
    "address": "10141 Colesville Rd, Silver Spring, MD 20901",
    "neighborhood": "Woodmoor",
    "street": "10141 Colesville Rd",
    "city": "Silver Spring",
    "postalCode": "20901",
    "state": "Maryland",
    "countryCode": "US",
    "website": "https://www.cvs.com/store-locator/silver-spring-md-pharmacies/10141-colesville-road-silver-spring-md-20901/storeid=1468?WT.mc_id=LS_GOOGLE_RX_1468",
    "phone": "(301) 593-5252",
    "phoneUnformatted": "+13015935252",
    "claimThisBusiness": false,
    "location": {
      "lat": 39.0210587,
      "lng": -77.0118465
    },
    "totalScore": 3.1,
    "permanentlyClosed": false,
    "temporarilyClosed": false,
    "placeId": "ChIJywcmyFjPt4kRpqOkIPbmGvk",
    "categories": [
      "Pharmacy"
    ],
    "fid": "0x89b7cf58c82607cb:0xf91ae6f620a4a3a6",
    "cid": "17949913209622537126",
    "reviewsCount": 22,
    "imagesCount": 5,
    "imageCategories": [],
    "scrapedAt": "2025-06-22T05:32:55.669Z",
    "googleFoodUrl": null,
    "hotelAds": [],
    "openingHours": [
      {
        "day": "Monday",
        "hours": "9 AM to 1:30 PM, 2 to 9 PM"
      },
      {
        "day": "Tuesday",
        "hours": "9 AM to 1:30 PM, 2 to 9 PM"
      },
      {
        "day": "Wednesday",
        "hours": "9 AM to 1:30 PM, 2 to 9 PM"
      },
      {
        "day": "Thursday",
        "hours": "9 AM to 1:30 PM, 2 to 9 PM"
      },
      {
        "day": "Friday",
        "hours": "9 AM to 1:30 PM, 2 to 9 PM"
      },
      {
        "day": "Saturday",
        "hours": "9 AM to 1:30 PM, 2 to 6 PM"
      },
      {
        "day": "Sunday",
        "hours": "10 AM to 1:30 PM, 2 to 6 PM"
      }
    ],
    "peopleAlsoSearch": [],
    "placesTags": [],
    "reviewsTags": [],
    "additionalInfo": {
      "Service options": [
        {
          "Delivery": true
        },
        {
          "In-store shopping": true
        }
      ],
      "Accessibility": [
        {
          "Wheelchair accessible entrance": true
        },
        {
          "Wheelchair accessible parking lot": true
        }
      ],
      "Offerings": [
        {
          "Naloxone": true
        },
        {
          "Passport photos": true
        }
      ],
      "Crowd": [
        {
          "LGBTQ+ friendly": true
        },
        {
          "Transgender safespace": true
        }
      ],
      "Planning": [
        {
          "Quick visit": true
        }
      ],
      "Payments": [
        {
          "Credit cards": true
        },
        {
          "Debit cards": true
        },
        {
          "NFC mobile payments": true
        },
        {
          "SNAP/EBT": true
        },
        {
          "Credit cards": true
        }
      ]
    },
    "gasPrices": [],
    "url": "https://www.google.com/maps/search/?api=1&query=CVS%20Pharmacy&query_place_id=ChIJywcmyFjPt4kRpqOkIPbmGvk",
    "searchPageUrl": "https://www.google.com/maps/search/independent%20pharmacy%20Silver%20Spring%20MD/@65.73786228335844,-145.05491807162034,9z?hl=en",
    "searchString": "independent pharmacy Silver Spring MD",
    "language": "en",
    "rank": 8,
    "isAdvertisement": false,
    "imageUrl": "https://lh3.googleusercontent.com/p/AF1QipPN9HBuFqp7N3KLwzm-wp2sI0-rFaWEIR6KBBQ8=w408-h272-k-no",
    "kgmid": "/g/11c46871xr"
  },
  {
    "title": "CVS Pharmacy",
    "price": null,
    "categoryName": "Pharmacy",
    "address": "9520 Georgia Ave, Silver Spring, MD 20910",
    "neighborhood": null,
    "street": "9520 Georgia Ave",
    "city": "Silver Spring",
    "postalCode": "20910",
    "state": "Maryland",
    "countryCode": "US",
    "website": "https://www.cvs.com/store-locator/silver-spring-md-pharmacies/9520-georgia-avenue-silver-spring-md-20910/storeid=1492?WT.mc_id=LS_GOOGLE_RX_1492",
    "phone": "(301) 585-3136",
    "phoneUnformatted": "+13015853136",
    "claimThisBusiness": false,
    "location": {
      "lat": 39.0108148,
      "lng": -77.042144
    },
    "totalScore": 2.6,
    "permanentlyClosed": false,
    "temporarilyClosed": false,
    "placeId": "ChIJ9QqV3zLPt4kRDlSCEHK38qE",
    "categories": [
      "Pharmacy"
    ],
    "fid": "0x89b7cf32df950af5:0xa1f2b7721082540e",
    "cid": "11669591285001507854",
    "reviewsCount": 19,
    "imagesCount": 19,
    "imageCategories": [],
    "scrapedAt": "2025-06-22T05:32:55.669Z",
    "googleFoodUrl": null,
    "hotelAds": [],
    "openingHours": [
      {
        "day": "Monday",
        "hours": "9 AM to 1:30 PM, 2 to 7 PM"
      },
      {
        "day": "Tuesday",
        "hours": "9 AM to 1:30 PM, 2 to 7 PM"
      },
      {
        "day": "Wednesday",
        "hours": "9 AM to 1:30 PM, 2 to 7 PM"
      },
      {
        "day": "Thursday",
        "hours": "9 AM to 1:30 PM, 2 to 7 PM"
      },
      {
        "day": "Friday",
        "hours": "9 AM to 1:30 PM, 2 to 7 PM"
      },
      {
        "day": "Saturday",
        "hours": "10 AM to 1:30 PM, 2 to 6 PM"
      },
      {
        "day": "Sunday",
        "hours": "11 AM to 1:30 PM, 2 to 6 PM"
      }
    ],
    "peopleAlsoSearch": [],
    "placesTags": [],
    "reviewsTags": [],
    "additionalInfo": {
      "Service options": [
        {
          "Delivery": true
        },
        {
          "In-store pickup": true
        },
        {
          "In-store shopping": true
        },
        {
          "Onsite services": true
        }
      ],
      "Accessibility": [
        {
          "Wheelchair accessible entrance": true
        },
        {
          "Wheelchair accessible parking lot": true
        }
      ],
      "Offerings": [
        {
          "Naloxone": true
        }
      ],
      "Crowd": [
        {
          "LGBTQ+ friendly": true
        },
        {
          "Transgender safespace": true
        }
      ],
      "Planning": [
        {
          "Quick visit": true
        }
      ],
      "Payments": [
        {
          "Credit cards": true
        },
        {
          "Debit cards": true
        },
        {
          "SNAP/EBT": true
        },
        {
          "Credit cards": true
        }
      ]
    },
    "gasPrices": [],
    "url": "https://www.google.com/maps/search/?api=1&query=CVS%20Pharmacy&query_place_id=ChIJ9QqV3zLPt4kRDlSCEHK38qE",
    "searchPageUrl": "https://www.google.com/maps/search/independent%20pharmacy%20Silver%20Spring%20MD/@65.73786228335844,-145.05491807162034,9z?hl=en",
    "searchString": "independent pharmacy Silver Spring MD",
    "language": "en",
    "rank": 9,
    "isAdvertisement": false,
    "imageUrl": "https://lh3.googleusercontent.com/p/AF1QipPINamTAxmer2zRLb8blf0WAWpBN0WPpnMbGsQC=w408-h272-k-no",
    "kgmid": "/g/11c463h4rd"
  },
  {
    "title": "Altruix",
    "price": null,
    "categoryName": "Pharmacy",
    "address": "1398 Lamberton Dr Suite 202, Silver Spring, MD 20902",
    "neighborhood": "Wheaton",
    "street": "1398 Lamberton Dr Suite 202",
    "city": "Silver Spring",
    "postalCode": "20902",
    "state": "Maryland",
    "countryCode": "US",
    "website": "https://altruix.com/about-us/our-pharmacies/silver-spring-ltc/",
    "phone": "(301) 960-8003",
    "phoneUnformatted": "+13019608003",
    "claimThisBusiness": false,
    "location": {
      "lat": 39.0398856,
      "lng": -77.0317535
    },
    "totalScore": 4,
    "permanentlyClosed": false,
    "temporarilyClosed": false,
    "placeId": "ChIJN012xJrPt4kRXK744HkDQ0I",
    "categories": [
      "Pharmacy"
    ],
    "fid": "0x89b7cf9ac4764d37:0x42430379e0f8ae5c",
    "cid": "4774663851943177820",
    "reviewsCount": 4,
    "imagesCount": 2,
    "imageCategories": [],
    "scrapedAt": "2025-06-22T05:32:55.669Z",
    "googleFoodUrl": null,
    "hotelAds": [],
    "openingHours": [
      {
        "day": "Monday",
        "hours": "8:30 AM to 5 PM"
      },
      {
        "day": "Tuesday",
        "hours": "8:30 AM to 5 PM"
      },
      {
        "day": "Wednesday",
        "hours": "8:30 AM to 5 PM"
      },
      {
        "day": "Thursday",
        "hours": "8:30 AM to 5 PM"
      },
      {
        "day": "Friday",
        "hours": "8:30 AM to 5 PM"
      },
      {
        "day": "Saturday",
        "hours": "Closed"
      },
      {
        "day": "Sunday",
        "hours": "Closed"
      }
    ],
    "peopleAlsoSearch": [],
    "placesTags": [],
    "reviewsTags": [],
    "additionalInfo": {
      "Service options": [
        {
          "Delivery": true
        }
      ],
      "Accessibility": [
        {
          "Wheelchair accessible entrance": true
        },
        {
          "Wheelchair accessible parking lot": true
        }
      ]
    },
    "gasPrices": [],
    "url": "https://www.google.com/maps/search/?api=1&query=Altruix&query_place_id=ChIJN012xJrPt4kRXK744HkDQ0I",
    "searchPageUrl": "https://www.google.com/maps/search/independent%20pharmacy%20Silver%20Spring%20MD/@65.73786228335844,-145.05491807162034,9z?hl=en",
    "searchString": "independent pharmacy Silver Spring MD",
    "language": "en",
    "rank": 10,
    "isAdvertisement": false,
    "imageUrl": "https://lh3.googleusercontent.com/p/AF1QipM7jYKeAzeKddgV566k8dsVxGGgT4jIfpLtfhNT=w408-h408-k-no",
    "kgmid": "/g/11krhwpw78"
  },
  {
    "title": "INSTACARE PHARMACY",
    "price": null,
    "categoryName": "Pharmacy",
    "address": "12331 Georgia Ave Ste A, Silver Spring, MD 20906",
    "neighborhood": "Glenmont",
    "street": "12331 Georgia Ave Ste A",
    "city": "Silver Spring",
    "postalCode": "20906",
    "state": "Maryland",
    "countryCode": "US",
    "website": "https://www.instacaremeds.com/",
    "phone": "(240) 242-3359",
    "phoneUnformatted": "+12402423359",
    "claimThisBusiness": false,
    "location": {
      "lat": 39.0593678,
      "lng": -77.0499768
    },
    "totalScore": 5,
    "permanentlyClosed": false,
    "temporarilyClosed": false,
    "placeId": "ChIJAQgRngLPt4kRjEZKodw_mTw",
    "categories": [
      "Pharmacy"
    ],
    "fid": "0x89b7cf029e110801:0x3c993fdca14a468c",
    "cid": "4366591530543761036",
    "reviewsCount": 2,
    "imagesCount": 1,
    "imageCategories": [],
    "scrapedAt": "2025-06-22T05:32:55.669Z",
    "googleFoodUrl": null,
    "hotelAds": [],
    "openingHours": [
      {
        "day": "Monday",
        "hours": "9 AM to 5 PM"
      },
      {
        "day": "Tuesday",
        "hours": "9 AM to 5 PM"
      },
      {
        "day": "Wednesday",
        "hours": "9 AM to 5 PM"
      },
      {
        "day": "Thursday",
        "hours": "9 AM to 5 PM"
      },
      {
        "day": "Friday",
        "hours": "9 AM to 5 PM"
      },
      {
        "day": "Saturday",
        "hours": "Closed"
      },
      {
        "day": "Sunday",
        "hours": "Closed"
      }
    ],
    "peopleAlsoSearch": [],
    "placesTags": [],
    "reviewsTags": [],
    "additionalInfo": {
      "Accessibility": [
        {
          "Wheelchair accessible entrance": true
        },
        {
          "Wheelchair accessible parking lot": true
        }
      ],
      "Payments": [
        {
          "Credit cards": true
        }
      ]
    },
    "gasPrices": [],
    "url": "https://www.google.com/maps/search/?api=1&query=INSTACARE%20PHARMACY&query_place_id=ChIJAQgRngLPt4kRjEZKodw_mTw",
    "searchPageUrl": "https://www.google.com/maps/search/independent%20pharmacy%20Silver%20Spring%20MD/@65.73786228335844,-145.05491807162034,9z?hl=en",
    "searchString": "independent pharmacy Silver Spring MD",
    "language": "en",
    "rank": 11,
    "isAdvertisement": false,
    "imageUrl": "https://streetviewpixels-pa.googleapis.com/v1/thumbnail?panoid=P2sWUlal8Yj7245_Sh5MIw&cb_client=search.gws-prod.gps&w=408&h=240&yaw=65.259346&pitch=0&thumbfov=100",
    "kgmid": "/g/11wvcqdb29"
  },
  {
    "title": "Giant Pharmacy",
    "price": "$$",
    "categoryName": "Pharmacy",
    "address": "1280 East-West Hwy, Silver Spring, MD 20910",
    "neighborhood": "Downtown Silver Spring",
    "street": "1280 East-West Hwy",
    "city": "Silver Spring",
    "postalCode": "20910",
    "state": "Maryland",
    "countryCode": "US",
    "website": "https://pharmacy.giantfood.com/md/silver-spring/1280-east-west-hwy?y_source=1_MTE2Mzg1NDQtNzE1LWxvY2F0aW9uLndlYnNpdGU%3D",
    "phone": "(301) 565-0575",
    "phoneUnformatted": "+13015650575",
    "claimThisBusiness": false,
    "location": {
      "lat": 38.9919708,
      "lng": -77.031855
    },
    "totalScore": 2.4,
    "permanentlyClosed": false,
    "temporarilyClosed": false,
    "placeId": "ChIJS5G_v8bIt4kR17wkls9BVvs",
    "categories": [
      "Pharmacy"
    ],
    "fid": "0x89b7c8c6bfbf914b:0xfb5641cf9624bcd7",
    "cid": "18110735311350054103",
    "reviewsCount": 33,
    "imagesCount": 7,
    "imageCategories": [],
    "scrapedAt": "2025-06-22T05:32:55.669Z",
    "googleFoodUrl": null,
    "hotelAds": [],
    "openingHours": [
      {
        "day": "Monday",
        "hours": "9 AM to 9 PM"
      },
      {
        "day": "Tuesday",
        "hours": "9 AM to 9 PM"
      },
      {
        "day": "Wednesday",
        "hours": "9 AM to 9 PM"
      },
      {
        "day": "Thursday",
        "hours": "9 AM to 9 PM"
      },
      {
        "day": "Friday",
        "hours": "9 AM to 9 PM"
      },
      {
        "day": "Saturday",
        "hours": "9 AM to 6 PM"
      },
      {
        "day": "Sunday",
        "hours": "10 AM to 5 PM"
      }
    ],
    "peopleAlsoSearch": [],
    "placesTags": [],
    "reviewsTags": [],
    "additionalInfo": {
      "Service options": [
        {
          "Delivery": true
        },
        {
          "In-store pickup": true
        },
        {
          "Onsite services": true
        }
      ],
      "Accessibility": [
        {
          "Wheelchair accessible entrance": true
        },
        {
          "Wheelchair accessible parking lot": true
        }
      ],
      "Planning": [
        {
          "Quick visit": true
        }
      ],
      "Payments": [
        {
          "Credit cards": true
        },
        {
          "NFC mobile payments": true
        }
      ]
    },
    "gasPrices": [],
    "url": "https://www.google.com/maps/search/?api=1&query=Giant%20Pharmacy&query_place_id=ChIJS5G_v8bIt4kR17wkls9BVvs",
    "searchPageUrl": "https://www.google.com/maps/search/independent%20pharmacy%20Silver%20Spring%20MD/@65.73786228335844,-145.05491807162034,9z?hl=en",
    "searchString": "independent pharmacy Silver Spring MD",
    "language": "en",
    "rank": 12,
    "isAdvertisement": false,
    "imageUrl": "https://lh3.googleusercontent.com/gps-cs-s/AC9h4npB91bKkHGvcbPI9WPQnh_77WsxBYtC9GnMAQRBHrITvPtniyQCJlYaCiUrjHN7XWIayuH6hXO2mywHBsCvw-YOvzsOYIHe_aHg0lHJftsZV7k-iu-z4mSTHSvQd6ADSdfE2ow=w426-h240-k-no",
    "kgmid": "/g/1tl_mm04"
  },
  {
    "title": "Giant Pharmacy",
    "price": "$$",
    "categoryName": "Pharmacy",
    "address": "11221 New Hampshire Ave, Silver Spring, MD 20904",
    "neighborhood": null,
    "street": "11221 New Hampshire Ave",
    "city": "Silver Spring",
    "postalCode": "20904",
    "state": "Maryland",
    "countryCode": "US",
    "website": "https://pharmacy.giantfood.com/md/silver-spring/11221-new-hampshire-ave?y_source=1_MTE2Mzg1NDItNzE1LWxvY2F0aW9uLndlYnNpdGU%3D",
    "phone": "(301) 681-8310",
    "phoneUnformatted": "+13016818310",
    "claimThisBusiness": false,
    "location": {
      "lat": 39.0409949,
      "lng": -76.988914
    },
    "totalScore": 2.4,
    "permanentlyClosed": false,
    "temporarilyClosed": false,
    "placeId": "ChIJ9VgD7p7Ft4kRtJnVXhmr6mo",
    "categories": [
      "Pharmacy"
    ],
    "fid": "0x89b7c59eee0358f5:0x6aeaab195ed599b4",
    "cid": "7704158238024243636",
    "reviewsCount": 40,
    "imagesCount": 5,
    "imageCategories": [],
    "scrapedAt": "2025-06-22T05:32:55.669Z",
    "googleFoodUrl": null,
    "hotelAds": [],
    "openingHours": [
      {
        "day": "Monday",
        "hours": "9 AM to 9 PM"
      },
      {
        "day": "Tuesday",
        "hours": "9 AM to 9 PM"
      },
      {
        "day": "Wednesday",
        "hours": "9 AM to 9 PM"
      },
      {
        "day": "Thursday",
        "hours": "9 AM to 9 PM"
      },
      {
        "day": "Friday",
        "hours": "9 AM to 9 PM"
      },
      {
        "day": "Saturday",
        "hours": "9 AM to 6 PM"
      },
      {
        "day": "Sunday",
        "hours": "10 AM to 5 PM"
      }
    ],
    "peopleAlsoSearch": [],
    "placesTags": [],
    "reviewsTags": [],
    "additionalInfo": {
      "Service options": [
        {
          "Delivery": true
        },
        {
          "In-store pickup": true
        },
        {
          "Onsite services": true
        }
      ],
      "Accessibility": [
        {
          "Wheelchair accessible entrance": true
        },
        {
          "Wheelchair accessible parking lot": true
        }
      ],
      "Planning": [
        {
          "Quick visit": true
        }
      ],
      "Payments": [
        {
          "Credit cards": true
        }
      ]
    },
    "gasPrices": [],
    "url": "https://www.google.com/maps/search/?api=1&query=Giant%20Pharmacy&query_place_id=ChIJ9VgD7p7Ft4kRtJnVXhmr6mo",
    "searchPageUrl": "https://www.google.com/maps/search/independent%20pharmacy%20Silver%20Spring%20MD/@65.73786228335844,-145.05491807162034,9z?hl=en",
    "searchString": "independent pharmacy Silver Spring MD",
    "language": "en",
    "rank": 13,
    "isAdvertisement": false,
    "imageUrl": "https://lh3.googleusercontent.com/p/AF1QipNleGgbI0adxzxY5sHCr4m_SIaUInQk150Pqh4L=w408-h272-k-no",
    "kgmid": "/g/1thtqh2k"
  },
  {
    "title": "CVS Pharmacy",
    "price": null,
    "categoryName": "Pharmacy",
    "address": "3943 San Fernando Rd, Glendale, CA 91204",
    "neighborhood": "Tropico",
    "street": "3943 San Fernando Rd",
    "city": "Glendale",
    "postalCode": "91204",
    "state": "California",
    "countryCode": "US",
    "website": "https://www.cvs.com/store-locator/glendale-ca-pharmacies/3943-san-fernando-rd-glendale-ca-91204/storeid=9787?WT.mc_id=LS_GOOGLE_RX_9787",
    "phone": "(818) 549-2270",
    "phoneUnformatted": "+18185492270",
    "claimThisBusiness": false,
    "location": {
      "lat": 34.1279756,
      "lng": -118.2593351
    },
    "totalScore": 3.3,
    "permanentlyClosed": false,
    "temporarilyClosed": false,
    "placeId": "ChIJq3rLJ-fAwoARUjBgk8JS1tw",
    "categories": [
      "Pharmacy"
    ],
    "fid": "0x80c2c0e727cb7aab:0xdcd652c293603052",
    "cid": "15912997329009913938",
    "reviewsCount": 28,
    "imagesCount": 9,
    "imageCategories": [],
    "scrapedAt": "2025-06-22T05:33:04.420Z",
    "googleFoodUrl": null,
    "hotelAds": [],
    "openingHours": [
      {
        "day": "Monday",
        "hours": "9 AM to 1:30 PM, 2 to 9 PM"
      },
      {
        "day": "Tuesday",
        "hours": "9 AM to 1:30 PM, 2 to 9 PM"
      },
      {
        "day": "Wednesday",
        "hours": "9 AM to 1:30 PM, 2 to 9 PM"
      },
      {
        "day": "Thursday",
        "hours": "9 AM to 1:30 PM, 2 to 9 PM"
      },
      {
        "day": "Friday",
        "hours": "9 AM to 1:30 PM, 2 to 9 PM"
      },
      {
        "day": "Saturday",
        "hours": "9 AM to 1:30 PM, 2 to 6 PM"
      },
      {
        "day": "Sunday",
        "hours": "10 AM to 1:30 PM, 2 to 6 PM"
      }
    ],
    "peopleAlsoSearch": [],
    "placesTags": [],
    "reviewsTags": [],
    "additionalInfo": {
      "Service options": [
        {
          "Delivery": true
        },
        {
          "Drive-through": true
        },
        {
          "In-store shopping": true
        },
        {
          "Onsite services": true
        }
      ],
      "Accessibility": [
        {
          "Wheelchair accessible entrance": true
        },
        {
          "Wheelchair accessible parking lot": true
        }
      ],
      "Offerings": [
        {
          "Naloxone": true
        },
        {
          "Passport photos": true
        }
      ],
      "Crowd": [
        {
          "LGBTQ+ friendly": true
        },
        {
          "Transgender safespace": true
        }
      ],
      "Planning": [
        {
          "Quick visit": true
        }
      ],
      "Payments": [
        {
          "Credit cards": true
        },
        {
          "Debit cards": true
        },
        {
          "NFC mobile payments": true
        },
        {
          "SNAP/EBT": true
        },
        {
          "Credit cards": true
        }
      ]
    },
    "gasPrices": [],
    "url": "https://www.google.com/maps/search/?api=1&query=CVS%20Pharmacy&query_place_id=ChIJq3rLJ-fAwoARUjBgk8JS1tw",
    "searchPageUrl": "https://www.google.com/maps/search/independent%20pharmacy%20Silver%20Spring%20MD/@33.954544952667874,-118.1483311994871,8z?hl=en",
    "searchString": "independent pharmacy Silver Spring MD",
    "language": "en",
    "rank": 1,
    "isAdvertisement": false,
    "imageUrl": "https://lh3.googleusercontent.com/p/AF1QipPsH85-uS-i7uLx4p2gQkRFYf_Fn7n4Pbm6dR82=w408-h272-k-no",
    "kgmid": "/g/11c467rdn0"
  },
  {
    "title": "Altruix",
    "price": null,
    "categoryName": "Pharmacy",
    "address": "600 Jackson St Suite Q, Fredericksburg, VA 22401",
    "neighborhood": null,
    "street": "600 Jackson St Suite Q",
    "city": "Fredericksburg",
    "postalCode": "22401",
    "state": "Virginia",
    "countryCode": "US",
    "website": "https://altruix.com/",
    "phone": "(540) 315-8446",
    "phoneUnformatted": "+15403158446",
    "claimThisBusiness": false,
    "location": {
      "lat": 38.2971998,
      "lng": -77.4622133
    },
    "permanentlyClosed": false,
    "temporarilyClosed": false,
    "placeId": "ChIJlSIZsLXDtokRz0q9wFJIaWg",
    "categories": [
      "Pharmacy"
    ],
    "fid": "0x89b6c3b5b0192295:0x68694852c0bd4acf",
    "cid": "7523624172757273295",
    "reviewsCount": 0,
    "imagesCount": 1,
    "imageCategories": [],
    "scrapedAt": "2025-06-22T05:33:07.206Z",
    "googleFoodUrl": null,
    "hotelAds": [],
    "openingHours": [
      {
        "day": "Monday",
        "hours": "8 AM to 7 PM"
      },
      {
        "day": "Tuesday",
        "hours": "8 AM to 7 PM"
      },
      {
        "day": "Wednesday",
        "hours": "8 AM to 7 PM"
      },
      {
        "day": "Thursday",
        "hours": "8 AM to 7 PM"
      },
      {
        "day": "Friday",
        "hours": "8 AM to 7 PM"
      },
      {
        "day": "Saturday",
        "hours": "Closed"
      },
      {
        "day": "Sunday",
        "hours": "Closed"
      }
    ],
    "peopleAlsoSearch": [],
    "placesTags": [],
    "reviewsTags": [],
    "additionalInfo": {
      "Service options": [
        {
          "Delivery": true
        }
      ],
      "Accessibility": [
        {
          "Wheelchair accessible entrance": true
        },
        {
          "Wheelchair accessible parking lot": true
        }
      ]
    },
    "gasPrices": [],
    "url": "https://www.google.com/maps/search/?api=1&query=Altruix&query_place_id=ChIJlSIZsLXDtokRz0q9wFJIaWg",
    "searchPageUrl": "https://www.google.com/maps/search/independent%20pharmacy%20Silver%20Spring%20MD/@36.81849750000001,-80.15361988608069,8z?hl=en",
    "searchString": "independent pharmacy Silver Spring MD",
    "language": "en",
    "rank": 8,
    "isAdvertisement": false,
    "imageUrl": "https://streetviewpixels-pa.googleapis.com/v1/thumbnail?panoid=2ufxsr-2rfUCP933w_v-VA&cb_client=search.gws-prod.gps&w=408&h=240&yaw=214.95282&pitch=0&thumbfov=100",
    "kgmid": "/g/11wfr26g5m"
  }
]