[
  {
    "title": "BESTCARE PHARMACY",
    "price": null,
    "categoryName": "Pharmacy",
    "address": "1948 Buchholzer Blvd, Akron, OH 44310",
    "neighborhood": "Chapel Hill",
    "street": "1948 Buchholzer Blvd",
    "city": "Akron",
    "postalCode": "44310",
    "state": "Ohio",
    "countryCode": "US",
    "website": "http://thebestcarepharmacy.com/",
    "phone": "(234) 334-0048",
    "phoneUnformatted": "+12343340048",
    "claimThisBusiness": false,
    "location": {
      "lat": 41.1158367,
      "lng": -81.4718111
    },
    "totalScore": 5,
    "permanentlyClosed": false,
    "temporarilyClosed": false,
    "placeId": "ChIJ_WZEvV4pMYgRYnMEM0qhX30",
    "categories": [
      "Pharmacy"
    ],
    "fid": "0x8831295ebd4466fd:0x7d5fa14a33047362",
    "cid": "9034116717584085858",
    "reviewsCount": 12,
    "imagesCount": 3,
    "imageCategories": [],
    "scrapedAt": "2025-06-22T06:24:17.706Z",
    "googleFoodUrl": null,
    "hotelAds": [],
    "openingHours": [
      {
        "day": "Monday",
        "hours": "9 AM to 6 PM"
      },
      {
        "day": "Tuesday",
        "hours": "9 AM to 6 PM"
      },
      {
        "day": "Wednesday",
        "hours": "9 AM to 6 PM"
      },
      {
        "day": "Thursday",
        "hours": "9 AM to 6 PM"
      },
      {
        "day": "Friday",
        "hours": "9 AM to 6 PM"
      },
      {
        "day": "Saturday",
        "hours": "12 to 5 PM"
      },
      {
        "day": "Sunday",
        "hours": "Closed"
      }
    ],
    "peopleAlsoSearch": [],
    "placesTags": [],
    "reviewsTags": [],
    "additionalInfo": {
      "From the business": [
        {
          "Small business": true
        }
      ],
      "Service options": [
        {
          "Delivery": true
        }
      ],
      "Accessibility": [
        {
          "Wheelchair accessible entrance": true
        },
        {
          "Wheelchair accessible parking lot": true
        }
      ],
      "Planning": [
        {
          "Quick visit": true
        }
      ],
      "Payments": [
        {
          "Credit cards": true
        },
        {
          "Debit cards": true
        },
        {
          "NFC mobile payments": true
        },
        {
          "Credit cards": true
        }
      ]
    },
    "gasPrices": [],
    "url": "https://www.google.com/maps/search/?api=1&query=BESTCARE%20PHARMACY&query_place_id=ChIJ_WZEvV4pMYgRYnMEM0qhX30",
    "searchPageUrl": "https://www.google.com/maps/search/independent%20pharmacy%20Akron%20OH/@26.24170998753768,-174.05374354726786,13z?hl=en",
    "searchString": "independent pharmacy Akron OH",
    "language": "en",
    "rank": 1,
    "isAdvertisement": false,
    "imageUrl": "https://lh3.googleusercontent.com/p/AF1QipNBfneJ3MlVHyO-VA5IJLckalQmAaVwbhNMiwUq=w533-h240-k-no",
    "kgmid": "/g/11sh706vr7"
  },
  {
    "title": "Sand Run Pharmacy",
    "price": null,
    "categoryName": "Pharmacy",
    "address": "40 Sand Run Rd, Akron, OH 44313",
    "neighborhood": "Northwest Akron",
    "street": "40 Sand Run Rd",
    "city": "Akron",
    "postalCode": "44313",
    "state": "Ohio",
    "countryCode": "US",
    "website": "http://www.sandrunpharmacy.com/",
    "phone": "(330) 864-2138",
    "phoneUnformatted": "+13308642138",
    "claimThisBusiness": false,
    "location": {
      "lat": 41.1186528,
      "lng": -81.5879891
    },
    "totalScore": 4.9,
    "permanentlyClosed": false,
    "temporarilyClosed": false,
    "placeId": "ChIJ6aTHpUbXMIgRV0wuBmsd0DE",
    "categories": [
      "Pharmacy",
      "Drug store"
    ],
    "fid": "0x8830d746a5c7a4e9:0x31d01d6b062e4c57",
    "cid": "3589401248516688983",
    "reviewsCount": 87,
    "imagesCount": 14,
    "imageCategories": [],
    "scrapedAt": "2025-06-22T06:24:17.708Z",
    "googleFoodUrl": null,
    "hotelAds": [],
    "openingHours": [
      {
        "day": "Monday",
        "hours": "9 AM to 7 PM"
      },
      {
        "day": "Tuesday",
        "hours": "9 AM to 7 PM"
      },
      {
        "day": "Wednesday",
        "hours": "9 AM to 7 PM"
      },
      {
        "day": "Thursday",
        "hours": "9 AM to 7 PM"
      },
      {
        "day": "Friday",
        "hours": "9 AM to 7 PM"
      },
      {
        "day": "Saturday",
        "hours": "9 AM to 2 PM"
      },
      {
        "day": "Sunday",
        "hours": "Closed"
      }
    ],
    "peopleAlsoSearch": [],
    "placesTags": [],
    "reviewsTags": [],
    "additionalInfo": {
      "From the business": [
        {
          "Small business": true
        }
      ],
      "Service options": [
        {
          "Curbside pickup": true
        },
        {
          "Delivery": true
        },
        {
          "In-store pickup": true
        },
        {
          "In-store shopping": true
        },
        {
          "Onsite services": true
        },
        {
          "Same-day delivery": true
        }
      ],
      "Accessibility": [
        {
          "Wheelchair accessible entrance": true
        },
        {
          "Wheelchair accessible parking lot": true
        }
      ],
      "Planning": [
        {
          "Quick visit": true
        }
      ],
      "Payments": [
        {
          "Checks": true
        },
        {
          "Credit cards": true
        },
        {
          "Debit cards": true
        },
        {
          "NFC mobile payments": true
        },
        {
          "Credit cards": true
        }
      ]
    },
    "gasPrices": [],
    "url": "https://www.google.com/maps/search/?api=1&query=Sand%20Run%20Pharmacy&query_place_id=ChIJ6aTHpUbXMIgRV0wuBmsd0DE",
    "searchPageUrl": "https://www.google.com/maps/search/independent%20pharmacy%20Akron%20OH/@26.24170998753768,-174.05374354726786,13z?hl=en",
    "searchString": "independent pharmacy Akron OH",
    "language": "en",
    "rank": 2,
    "isAdvertisement": false,
    "imageUrl": "https://lh3.googleusercontent.com/p/AF1QipML3ojhu44NQIZvWomQc83e4wQOvKr4aC2ooWeU=w408-h544-k-no",
    "kgmid": "/g/1tjgq6_w"
  },
  {
    "title": "Lifeline Pharmacy - Akron",
    "price": null,
    "categoryName": "Pharmacy",
    "address": "1903 Brittain Rd, Akron, OH 44310",
    "neighborhood": "Chapel Hill",
    "street": "1903 Brittain Rd",
    "city": "Akron",
    "postalCode": "44310",
    "state": "Ohio",
    "countryCode": "US",
    "website": "https://www.lifelinepharmacy.us/",
    "phone": "(330) 849-5161",
    "phoneUnformatted": "+13308495161",
    "claimThisBusiness": false,
    "location": {
      "lat": 41.1146649,
      "lng": -81.4653989
    },
    "totalScore": 5,
    "permanentlyClosed": false,
    "temporarilyClosed": false,
    "placeId": "ChIJRZiC8RwpMYgR1-LaxTKMlpA",
    "categories": [
      "Pharmacy"
    ],
    "fid": "0x8831291cf1829845:0x90968c32c5dae2d7",
    "cid": "10418668937663931095",
    "reviewsCount": 3,
    "imagesCount": 10,
    "imageCategories": [],
    "scrapedAt": "2025-06-22T06:24:17.708Z",
    "googleFoodUrl": null,
    "hotelAds": [],
    "openingHours": [
      {
        "day": "Monday",
        "hours": "9 AM to 5:30 PM"
      },
      {
        "day": "Tuesday",
        "hours": "9 AM to 5:30 PM"
      },
      {
        "day": "Wednesday",
        "hours": "9 AM to 5:30 PM"
      },
      {
        "day": "Thursday",
        "hours": "9 AM to 5:30 PM"
      },
      {
        "day": "Friday",
        "hours": "9 AM to 5:30 PM"
      },
      {
        "day": "Saturday",
        "hours": "Closed"
      },
      {
        "day": "Sunday",
        "hours": "Closed"
      }
    ],
    "additionalOpeningHours": {
      "Delivery": [
        {
          "day": "Monday",
          "hours": "9 AM–5 PM"
        },
        {
          "day": "Tuesday",
          "hours": "9 AM–5 PM"
        },
        {
          "day": "Wednesday",
          "hours": "9 AM–5 PM"
        },
        {
          "day": "Thursday",
          "hours": "9 AM–5 PM"
        },
        {
          "day": "Friday",
          "hours": "9 AM–5 PM"
        },
        {
          "day": "Saturday",
          "hours": "Closed"
        },
        {
          "day": "Sunday",
          "hours": "Closed"
        }
      ]
    },
    "peopleAlsoSearch": [],
    "placesTags": [],
    "reviewsTags": [],
    "additionalInfo": {
      "From the business": [
        {
          "Identifies as Asian-owned": true
        },
        {
          "Identifies as veteran-owned": true
        },
        {
          "Small business": true
        }
      ],
      "Service options": [
        {
          "Curbside pickup": true
        },
        {
          "Delivery": true
        },
        {
          "In-store pickup": true
        },
        {
          "In-store shopping": true
        },
        {
          "Same-day delivery": true
        },
        {
          "English": true
        }
      ],
      "Accessibility": [
        {
          "Wheelchair accessible entrance": true
        },
        {
          "Wheelchair accessible parking lot": true
        }
      ],
      "Amenities": [
        {
          "Wi-Fi": true
        },
        {
          "Free Wi-Fi": true
        }
      ],
      "Planning": [
        {
          "Quick visit": true
        }
      ],
      "Payments": [
        {
          "Credit cards": true
        },
        {
          "Debit cards": true
        },
        {
          "NFC mobile payments": true
        },
        {
          "Credit cards": true
        }
      ]
    },
    "gasPrices": [],
    "url": "https://www.google.com/maps/search/?api=1&query=Lifeline%20Pharmacy%20-%20Akron&query_place_id=ChIJRZiC8RwpMYgR1-LaxTKMlpA",
    "searchPageUrl": "https://www.google.com/maps/search/independent%20pharmacy%20Akron%20OH/@26.24170998753768,-174.05374354726786,13z?hl=en",
    "searchString": "independent pharmacy Akron OH",
    "language": "en",
    "rank": 3,
    "isAdvertisement": false,
    "imageUrl": "https://lh3.googleusercontent.com/p/AF1QipOjXMWBKJCrXrtljqT75sLgQaOzM8U9YCCarDeE=w532-h240-k-no",
    "kgmid": "/g/11sknv_8g4"
  },
  {
    "title": "Genoa Healthcare",
    "price": null,
    "categoryName": "Pharmacy",
    "address": "340 S Broadway St, Akron, OH 44308",
    "neighborhood": "Downtown",
    "street": "340 S Broadway St",
    "city": "Akron",
    "postalCode": "44308",
    "state": "Ohio",
    "countryCode": "US",
    "website": "http://www.genoahealthcare.com/",
    "phone": "(330) 253-3600",
    "phoneUnformatted": "+13302533600",
    "claimThisBusiness": false,
    "location": {
      "lat": 41.0758644,
      "lng": -81.5198201
    },
    "totalScore": 4.5,
    "permanentlyClosed": false,
    "temporarilyClosed": false,
    "placeId": "ChIJB3Lg8ibWMIgRc0FjjaLEarI",
    "categories": [
      "Pharmacy"
    ],
    "fid": "0x8830d626f2e07207:0xb26ac4a28d634173",
    "cid": "12856304288718340467",
    "reviewsCount": 10,
    "imagesCount": 1,
    "imageCategories": [],
    "scrapedAt": "2025-06-22T06:24:17.708Z",
    "googleFoodUrl": null,
    "hotelAds": [],
    "openingHours": [
      {
        "day": "Monday",
        "hours": "8:30 AM to 5 PM"
      },
      {
        "day": "Tuesday",
        "hours": "8:30 AM to 5 PM"
      },
      {
        "day": "Wednesday",
        "hours": "8:30 AM to 5 PM"
      },
      {
        "day": "Thursday",
        "hours": "8:30 AM to 5 PM"
      },
      {
        "day": "Friday",
        "hours": "8:30 AM to 5 PM"
      },
      {
        "day": "Saturday",
        "hours": "Closed"
      },
      {
        "day": "Sunday",
        "hours": "Closed"
      }
    ],
    "peopleAlsoSearch": [],
    "placesTags": [],
    "reviewsTags": [],
    "additionalInfo": {
      "Accessibility": [
        {
          "Wheelchair accessible entrance": true
        },
        {
          "Wheelchair accessible parking lot": true
        }
      ],
      "Amenities": [
        {
          "Wi-Fi": true
        },
        {
          "Free Wi-Fi": true
        }
      ],
      "Payments": [
        {
          "Debit cards": true
        },
        {
          "NFC mobile payments": true
        },
        {
          "Credit cards": true
        }
      ]
    },
    "gasPrices": [],
    "url": "https://www.google.com/maps/search/?api=1&query=Genoa%20Healthcare&query_place_id=ChIJB3Lg8ibWMIgRc0FjjaLEarI",
    "searchPageUrl": "https://www.google.com/maps/search/independent%20pharmacy%20Akron%20OH/@26.24170998753768,-174.05374354726786,13z?hl=en",
    "searchString": "independent pharmacy Akron OH",
    "language": "en",
    "rank": 4,
    "isAdvertisement": false,
    "imageUrl": "https://streetviewpixels-pa.googleapis.com/v1/thumbnail?panoid=kk9_0_lDuRhboGDgRMcKFQ&cb_client=search.gws-prod.gps&w=408&h=240&yaw=271.85208&pitch=0&thumbfov=100",
    "kgmid": "/g/11bt_hyfmj"
  },
  {
    "title": "MAC Pharmacy",
    "price": null,
    "categoryName": "Pharmacy",
    "address": "879 E Exchange St, Akron, OH 44306",
    "neighborhood": "University of Akron",
    "street": "879 E Exchange St",
    "city": "Akron",
    "postalCode": "44306",
    "state": "Ohio",
    "countryCode": "US",
    "website": "http://www.macpharmacy.com/",
    "phone": "(330) 375-5040",
    "phoneUnformatted": "+13303755040",
    "claimThisBusiness": false,
    "location": {
      "lat": 41.0718606,
      "lng": -81.4935085
    },
    "totalScore": 4,
    "permanentlyClosed": false,
    "temporarilyClosed": false,
    "placeId": "ChIJvQoDO78pMYgRBCB8IMFFHBQ",
    "categories": [
      "Pharmacy"
    ],
    "fid": "0x883129bf3b030abd:0x141c45c1207c2004",
    "cid": "1449109875882467332",
    "reviewsCount": 42,
    "imagesCount": 8,
    "imageCategories": [],
    "scrapedAt": "2025-06-22T06:24:17.708Z",
    "googleFoodUrl": null,
    "hotelAds": [],
    "openingHours": [
      {
        "day": "Monday",
        "hours": "9 AM to 7 PM"
      },
      {
        "day": "Tuesday",
        "hours": "9 AM to 7 PM"
      },
      {
        "day": "Wednesday",
        "hours": "9 AM to 7 PM"
      },
      {
        "day": "Thursday",
        "hours": "9 AM to 7 PM"
      },
      {
        "day": "Friday",
        "hours": "9 AM to 7 PM"
      },
      {
        "day": "Saturday",
        "hours": "10 AM to 3 PM"
      },
      {
        "day": "Sunday",
        "hours": "10 AM to 3 PM"
      }
    ],
    "additionalOpeningHours": {
      "Delivery": [
        {
          "day": "Monday",
          "hours": "11 AM–6 PM"
        },
        {
          "day": "Tuesday",
          "hours": "11 AM–6 PM"
        },
        {
          "day": "Wednesday",
          "hours": "10 AM–6 PM"
        },
        {
          "day": "Thursday",
          "hours": "10 AM–6 PM"
        },
        {
          "day": "Friday",
          "hours": "10 AM–6 PM"
        },
        {
          "day": "Saturday",
          "hours": "11 AM–2 PM"
        },
        {
          "day": "Sunday",
          "hours": "Closed"
        }
      ]
    },
    "peopleAlsoSearch": [],
    "placesTags": [],
    "reviewsTags": [],
    "additionalInfo": {
      "From the business": [
        {
          "Small business": true
        }
      ],
      "Service options": [
        {
          "Delivery": true
        },
        {
          "In-store pickup": true
        },
        {
          "Same-day delivery": true
        }
      ],
      "Accessibility": [
        {
          "Wheelchair accessible entrance": true
        },
        {
          "Wheelchair accessible parking lot": true
        }
      ],
      "Amenities": [
        {
          "Wi-Fi": true
        },
        {
          "Free Wi-Fi": true
        }
      ],
      "Planning": [
        {
          "Quick visit": true
        }
      ],
      "Payments": [
        {
          "Credit cards": true
        },
        {
          "Credit cards": true
        }
      ]
    },
    "gasPrices": [],
    "url": "https://www.google.com/maps/search/?api=1&query=MAC%20Pharmacy&query_place_id=ChIJvQoDO78pMYgRBCB8IMFFHBQ",
    "searchPageUrl": "https://www.google.com/maps/search/independent%20pharmacy%20Akron%20OH/@26.24170998753768,-174.05374354726786,13z?hl=en",
    "searchString": "independent pharmacy Akron OH",
    "language": "en",
    "rank": 5,
    "isAdvertisement": false,
    "imageUrl": "https://lh3.googleusercontent.com/p/AF1QipMPotPdjU6rNUMjmgFdN6U0N7jLf6VY2jgZMXK2=w408-h306-k-no",
    "kgmid": "/g/1jkyq49p0"
  },
  {
    "title": "PharmaCare Compounding Pharmacy",
    "price": null,
    "categoryName": "Pharmacy",
    "address": "232 West Ave, Tallmadge, OH 44278",
    "neighborhood": null,
    "street": "232 West Ave",
    "city": "Tallmadge",
    "postalCode": "44278",
    "state": "Ohio",
    "countryCode": "US",
    "website": "http://pharmacarerx.com/",
    "phone": "(330) 633-0714",
    "phoneUnformatted": "+13306330714",
    "claimThisBusiness": false,
    "location": {
      "lat": 41.1019927,
      "lng": -81.4507943
    },
    "totalScore": 4.4,
    "permanentlyClosed": false,
    "temporarilyClosed": false,
    "placeId": "ChIJK0qYi-ooMYgRdYiR1ThZYDg",
    "categories": [
      "Pharmacy",
      "Alternative medicine practitioner",
      "Cannabis store",
      "Holistic medicine practitioner",
      "Homeopathic pharmacy",
      "Laboratory",
      "Pharmaceutical lab",
      "Veterinary pharmacy",
      "Vitamin & supplements store"
    ],
    "fid": "0x883128ea8b984a2b:0x38605938d5918875",
    "cid": "4062344964524312693",
    "reviewsCount": 40,
    "imagesCount": 43,
    "imageCategories": [],
    "scrapedAt": "2025-06-22T06:24:17.708Z",
    "googleFoodUrl": null,
    "hotelAds": [],
    "openingHours": [
      {
        "day": "Monday",
        "hours": "9 AM to 5 PM"
      },
      {
        "day": "Tuesday",
        "hours": "9 AM to 5 PM"
      },
      {
        "day": "Wednesday",
        "hours": "9 AM to 5 PM"
      },
      {
        "day": "Thursday",
        "hours": "9 AM to 5 PM"
      },
      {
        "day": "Friday",
        "hours": "9 AM to 5 PM"
      },
      {
        "day": "Saturday",
        "hours": "Closed"
      },
      {
        "day": "Sunday",
        "hours": "Closed"
      }
    ],
    "peopleAlsoSearch": [],
    "placesTags": [],
    "reviewsTags": [],
    "additionalInfo": {
      "From the business": [
        {
          "Small business": true
        }
      ],
      "Service options": [
        {
          "Curbside pickup": true
        },
        {
          "Delivery": true
        },
        {
          "In-store pickup": true
        },
        {
          "In-store shopping": true
        },
        {
          "Same-day delivery": false
        }
      ],
      "Accessibility": [
        {
          "Wheelchair accessible parking lot": true
        },
        {
          "Wheelchair accessible restroom": false
        },
        {
          "Wheelchair accessible seating": false
        }
      ],
      "Crowd": [
        {
          "LGBTQ+ friendly": true
        },
        {
          "Transgender safespace": true
        }
      ],
      "Payments": [
        {
          "Checks": true
        },
        {
          "Credit cards": true
        },
        {
          "Debit cards": true
        },
        {
          "Credit cards": true
        }
      ]
    },
    "gasPrices": [],
    "url": "https://www.google.com/maps/search/?api=1&query=PharmaCare%20Compounding%20Pharmacy&query_place_id=ChIJK0qYi-ooMYgRdYiR1ThZYDg",
    "searchPageUrl": "https://www.google.com/maps/search/independent%20pharmacy%20Akron%20OH/@26.24170998753768,-174.05374354726786,13z?hl=en",
    "searchString": "independent pharmacy Akron OH",
    "language": "en",
    "rank": 6,
    "isAdvertisement": false,
    "imageUrl": "https://lh3.googleusercontent.com/p/AF1QipNr8-e_HX-on1wpnfHHAx3Dx4ajg0T3ClU9wgZ2=w408-h544-k-no",
    "kgmid": "/g/1tp08s6c"
  },
  {
    "title": "Margaret E. Lamb, RPH",
    "price": null,
    "categoryName": "Pharmacy",
    "address": "40 Sand Run Rd, Akron, OH 44313",
    "neighborhood": "Northwest Akron",
    "street": "40 Sand Run Rd",
    "city": "Akron",
    "postalCode": "44313",
    "state": "Ohio",
    "countryCode": "US",
    "phone": "(330) 864-2138",
    "phoneUnformatted": "+13308642138",
    "claimThisBusiness": true,
    "location": {
      "lat": 41.1186528,
      "lng": -81.5879891
    },
    "permanentlyClosed": false,
    "temporarilyClosed": false,
    "placeId": "ChIJ6aTHpUbXMIgRqhAV_tTMjV0",
    "categories": [
      "Pharmacy"
    ],
    "fid": "0x8830d746a5c7a4e9:0x5d8dccd4fe1510aa",
    "cid": "6741269432411426986",
    "reviewsCount": 0,
    "imagesCount": 1,
    "imageCategories": [],
    "scrapedAt": "2025-06-22T06:24:17.708Z",
    "googleFoodUrl": null,
    "hotelAds": [],
    "openingHours": [
      {
        "day": "Monday",
        "hours": "9 AM to 7 PM"
      },
      {
        "day": "Tuesday",
        "hours": "9 AM to 7 PM"
      },
      {
        "day": "Wednesday",
        "hours": "9 AM to 7 PM"
      },
      {
        "day": "Thursday",
        "hours": "9 AM to 7 PM"
      },
      {
        "day": "Friday",
        "hours": "9 AM to 7 PM"
      },
      {
        "day": "Saturday",
        "hours": "9 AM to 2 PM"
      },
      {
        "day": "Sunday",
        "hours": "Closed"
      }
    ],
    "peopleAlsoSearch": [],
    "placesTags": [],
    "reviewsTags": [],
    "additionalInfo": {
      "Accessibility": [
        {
          "Wheelchair accessible entrance": true
        },
        {
          "Wheelchair accessible parking lot": true
        }
      ],
      "Payments": [
        {
          "Credit cards": true
        }
      ]
    },
    "gasPrices": [],
    "url": "https://www.google.com/maps/search/?api=1&query=Margaret%20E.%20Lamb%2C%20RPH&query_place_id=ChIJ6aTHpUbXMIgRqhAV_tTMjV0",
    "searchPageUrl": "https://www.google.com/maps/search/independent%20pharmacy%20Akron%20OH/@26.24170998753768,-174.05374354726786,13z?hl=en",
    "searchString": "independent pharmacy Akron OH",
    "language": "en",
    "rank": 7,
    "isAdvertisement": false,
    "imageUrl": "https://streetviewpixels-pa.googleapis.com/v1/thumbnail?panoid=o356YjWC-wv-zYumxVENAQ&cb_client=search.gws-prod.gps&w=408&h=240&yaw=274.4119&pitch=0&thumbfov=100",
    "kgmid": "/g/1tddsvcj"
  },
  {
    "title": "CVS Pharmacy",
    "price": null,
    "categoryName": "Pharmacy",
    "address": "590 E Market St, Akron, OH 44304",
    "neighborhood": "University of Akron",
    "street": "590 E Market St",
    "city": "Akron",
    "postalCode": "44304",
    "state": "Ohio",
    "countryCode": "US",
    "website": "https://www.cvs.com/store-locator/akron-oh-pharmacies/590-east-market-street-akron-oh-44304/storeid=4800?WT.mc_id=LS_GOOGLE_RX_4800",
    "phone": "(330) 535-2700",
    "phoneUnformatted": "+13305352700",
    "claimThisBusiness": false,
    "location": {
      "lat": 41.077387,
      "lng": -81.4986749
    },
    "totalScore": 3.8,
    "permanentlyClosed": false,
    "temporarilyClosed": false,
    "placeId": "ChIJBXAGA8YpMYgRLLEc2TG5WLI",
    "categories": [
      "Pharmacy"
    ],
    "fid": "0x883129c603067005:0xb258b931d91cb12c",
    "cid": "12851225160448782636",
    "reviewsCount": 80,
    "imagesCount": 9,
    "imageCategories": [],
    "scrapedAt": "2025-06-22T06:24:17.880Z",
    "googleFoodUrl": null,
    "hotelAds": [],
    "openingHours": [
      {
        "day": "Monday",
        "hours": "12 AM to 1:30 PM, 2 PM to 12 AM"
      },
      {
        "day": "Tuesday",
        "hours": "12 AM to 1:30 PM, 2 PM to 12 AM"
      },
      {
        "day": "Wednesday",
        "hours": "12 AM to 1:30 PM, 2 PM to 12 AM"
      },
      {
        "day": "Thursday",
        "hours": "12 AM to 1:30 PM, 2 PM to 12 AM"
      },
      {
        "day": "Friday",
        "hours": "12 AM to 1:30 PM, 2 PM to 12 AM"
      },
      {
        "day": "Saturday",
        "hours": "12 AM to 1:30 PM, 2 PM to 12 AM"
      },
      {
        "day": "Sunday",
        "hours": "12 AM to 1:30 PM, 2 PM to 12 AM"
      }
    ],
    "peopleAlsoSearch": [],
    "placesTags": [],
    "reviewsTags": [],
    "additionalInfo": {
      "Service options": [
        {
          "Delivery": true
        },
        {
          "Drive-through": true
        },
        {
          "In-store shopping": true
        }
      ],
      "Accessibility": [
        {
          "Wheelchair accessible entrance": true
        },
        {
          "Wheelchair accessible parking lot": true
        }
      ],
      "Offerings": [
        {
          "Medication disposal": true
        },
        {
          "Naloxone": true
        },
        {
          "Passport photos": true
        }
      ],
      "Crowd": [
        {
          "LGBTQ+ friendly": true
        },
        {
          "Transgender safespace": true
        }
      ],
      "Planning": [
        {
          "Quick visit": true
        }
      ],
      "Payments": [
        {
          "Credit cards": true
        },
        {
          "Debit cards": true
        },
        {
          "NFC mobile payments": true
        },
        {
          "Credit cards": true
        }
      ]
    },
    "gasPrices": [],
    "url": "https://www.google.com/maps/search/?api=1&query=CVS%20Pharmacy&query_place_id=ChIJBXAGA8YpMYgRLLEc2TG5WLI",
    "searchPageUrl": "https://www.google.com/maps/search/independent%20pharmacy%20Akron%20OH/@17.938125902823707,-65.89574592617555,11z?hl=en",
    "searchString": "independent pharmacy Akron OH",
    "language": "en",
    "rank": 7,
    "isAdvertisement": false,
    "imageUrl": "https://lh3.googleusercontent.com/p/AF1QipOyWqVlEza3GgUsM6vcBsgScV1MtHBK_8wjCs6E=w408-h272-k-no",
    "kgmid": "/g/11c467_rd9"
  },
  {
    "title": "Walgreens Specialty Pharmacy",
    "description": "Department of the Walgreens chain providing prescription medications & other health-related items.",
    "price": "$$",
    "categoryName": "Pharmacy",
    "address": "375 S Main St Suite 108, Akron, OH 44311",
    "neighborhood": "Downtown",
    "street": "375 S Main St Suite 108",
    "city": "Akron",
    "postalCode": "44311",
    "state": "Ohio",
    "countryCode": "US",
    "website": "https://www.walgreens.com/locator/walgreens-375+s+main+st-akron-oh-44311/id=16529",
    "phone": "(330) 622-5396",
    "phoneUnformatted": "+13306225396",
    "claimThisBusiness": false,
    "location": {
      "lat": 41.0755985,
      "lng": -81.5224412
    },
    "totalScore": 4.8,
    "permanentlyClosed": false,
    "temporarilyClosed": false,
    "placeId": "ChIJPeguOSTWMIgRNk1lHlm-rPg",
    "categories": [
      "Pharmacy"
    ],
    "fid": "0x8830d624392ee83d:0xf8acbe591e654d36",
    "cid": "17918906307371683126",
    "reviewsCount": 17,
    "imagesCount": 2,
    "imageCategories": [],
    "scrapedAt": "2025-06-22T06:24:22.859Z",
    "googleFoodUrl": null,
    "hotelAds": [],
    "openingHours": [
      {
        "day": "Monday",
        "hours": "8:30 AM to 1:30 PM, 2 to 5 PM"
      },
      {
        "day": "Tuesday",
        "hours": "8:30 AM to 1:30 PM, 2 to 5 PM"
      },
      {
        "day": "Wednesday",
        "hours": "8:30 AM to 1:30 PM, 2 to 5 PM"
      },
      {
        "day": "Thursday",
        "hours": "8:30 AM to 1:30 PM, 2 to 5 PM"
      },
      {
        "day": "Friday",
        "hours": "8:30 AM to 1:30 PM, 2 to 5 PM"
      },
      {
        "day": "Saturday",
        "hours": "Closed"
      },
      {
        "day": "Sunday",
        "hours": "Closed"
      }
    ],
    "peopleAlsoSearch": [],
    "placesTags": [],
    "reviewsTags": [],
    "additionalInfo": {
      "Service options": [
        {
          "In-store pickup": true
        }
      ],
      "Accessibility": [
        {
          "Wheelchair accessible entrance": true
        },
        {
          "Wheelchair accessible parking lot": true
        }
      ],
      "Planning": [
        {
          "Quick visit": true
        }
      ],
      "Payments": [
        {
          "Credit cards": true
        },
        {
          "Debit cards": true
        },
        {
          "Credit cards": true
        }
      ]
    },
    "gasPrices": [],
    "url": "https://www.google.com/maps/search/?api=1&query=Walgreens%20Specialty%20Pharmacy&query_place_id=ChIJPeguOSTWMIgRNk1lHlm-rPg",
    "searchPageUrl": "https://www.google.com/maps/search/independent%20pharmacy%20Akron%20OH/@67.1273844227615,-164.61850082811145,9z?hl=en",
    "searchString": "independent pharmacy Akron OH",
    "language": "en",
    "rank": 9,
    "isAdvertisement": false,
    "imageUrl": "https://lh3.googleusercontent.com/p/AF1QipNLXZ-rs0AZ2VnPt_LL7aCshXkbH3_XBycrbYqI=w427-h240-k-no",
    "kgmid": "/g/11gbpgpt_1"
  },
  {
    "title": "Acme Fresh Market Pharmacy",
    "price": null,
    "categoryName": "Pharmacy",
    "address": "2420 Wedgewood Dr, Akron, OH 44312",
    "neighborhood": "Ellet",
    "street": "2420 Wedgewood Dr",
    "city": "Akron",
    "postalCode": "44312",
    "state": "Ohio",
    "countryCode": "US",
    "website": "https://www.acmestores.com/",
    "phone": "(330) 784-5411",
    "phoneUnformatted": "+13307845411",
    "claimThisBusiness": false,
    "location": {
      "lat": 41.0478561,
      "lng": -81.4419758
    },
    "totalScore": 3,
    "permanentlyClosed": false,
    "temporarilyClosed": false,
    "placeId": "ChIJAQAAfFkpMYgRTVdvSImiUwo",
    "categories": [
      "Pharmacy"
    ],
    "fid": "0x883129597c000001:0xa53a289486f574d",
    "cid": "744117073955739469",
    "reviewsCount": 9,
    "imagesCount": 3,
    "imageCategories": [],
    "scrapedAt": "2025-06-22T06:24:52.274Z",
    "googleFoodUrl": null,
    "hotelAds": [],
    "openingHours": [
      {
        "day": "Monday",
        "hours": "9 AM to 8 PM"
      },
      {
        "day": "Tuesday",
        "hours": "9 AM to 8 PM"
      },
      {
        "day": "Wednesday",
        "hours": "9 AM to 8 PM"
      },
      {
        "day": "Thursday",
        "hours": "9 AM to 8 PM"
      },
      {
        "day": "Friday",
        "hours": "9 AM to 8 PM"
      },
      {
        "day": "Saturday",
        "hours": "9 AM to 6 PM"
      },
      {
        "day": "Sunday",
        "hours": "9 AM to 6 PM"
      }
    ],
    "peopleAlsoSearch": [],
    "placesTags": [],
    "reviewsTags": [],
    "additionalInfo": {
      "Service options": [
        {
          "In-store pickup": true
        }
      ],
      "Accessibility": [
        {
          "Wheelchair accessible entrance": true
        },
        {
          "Wheelchair accessible parking lot": true
        }
      ],
      "Planning": [
        {
          "Quick visit": true
        }
      ],
      "Payments": [
        {
          "Credit cards": true
        }
      ]
    },
    "gasPrices": [],
    "url": "https://www.google.com/maps/search/?api=1&query=Acme%20Fresh%20Market%20Pharmacy&query_place_id=ChIJAQAAfFkpMYgRTVdvSImiUwo",
    "searchPageUrl": "https://www.google.com/maps/search/independent%20pharmacy%20Akron%20OH/@39.68245004733214,-76.98739394329682,8z?hl=en",
    "searchString": "independent pharmacy Akron OH",
    "language": "en",
    "rank": 11,
    "isAdvertisement": false,
    "imageUrl": "https://lh3.googleusercontent.com/p/AF1QipPG9LwrIkWkqIF2V8DBWc6PUSB92Luey4MURU_d=w408-h408-k-no",
    "kgmid": "/g/11ry6tjd5x"
  },
  {
    "title": "Trust and Heal Pharmacy",
    "price": null,
    "categoryName": "Pharmacy",
    "address": "3285 Kent Rd, Stow, OH 44224",
    "neighborhood": null,
    "street": "3285 Kent Rd",
    "city": "Stow",
    "postalCode": "44224",
    "state": "Ohio",
    "countryCode": "US",
    "phone": "(330) 572-2640",
    "phoneUnformatted": "+13305722640",
    "claimThisBusiness": false,
    "location": {
      "lat": 41.1588617,
      "lng": -81.4431873
    },
    "totalScore": 4.9,
    "permanentlyClosed": false,
    "temporarilyClosed": false,
    "placeId": "ChIJydVvFUYnMYgRCqwaZRO3gQg",
    "categories": [
      "Pharmacy"
    ],
    "fid": "0x88312746156fd5c9:0x881b713651aac0a",
    "cid": "612972318227606538",
    "reviewsCount": 40,
    "imagesCount": 2,
    "imageCategories": [],
    "scrapedAt": "2025-06-22T06:24:52.274Z",
    "googleFoodUrl": null,
    "hotelAds": [],
    "openingHours": [
      {
        "day": "Monday",
        "hours": "9 AM to 5 PM"
      },
      {
        "day": "Tuesday",
        "hours": "9 AM to 5 PM"
      },
      {
        "day": "Wednesday",
        "hours": "9 AM to 5 PM"
      },
      {
        "day": "Thursday",
        "hours": "9 AM to 5 PM"
      },
      {
        "day": "Friday",
        "hours": "9 AM to 5 PM"
      },
      {
        "day": "Saturday",
        "hours": "Closed"
      },
      {
        "day": "Sunday",
        "hours": "Closed"
      }
    ],
    "peopleAlsoSearch": [],
    "placesTags": [],
    "reviewsTags": [],
    "additionalInfo": {
      "From the business": [
        {
          "Small business": true
        }
      ],
      "Service options": [
        {
          "Delivery": true
        },
        {
          "In-store shopping": true
        }
      ],
      "Accessibility": [
        {
          "Wheelchair accessible entrance": true
        },
        {
          "Wheelchair accessible parking lot": true
        }
      ],
      "Payments": [
        {
          "Credit cards": true
        },
        {
          "Debit cards": true
        },
        {
          "NFC mobile payments": true
        },
        {
          "Credit cards": true
        }
      ]
    },
    "gasPrices": [],
    "url": "https://www.google.com/maps/search/?api=1&query=Trust%20and%20Heal%20Pharmacy&query_place_id=ChIJydVvFUYnMYgRCqwaZRO3gQg",
    "searchPageUrl": "https://www.google.com/maps/search/independent%20pharmacy%20Akron%20OH/@39.68245004733214,-76.98739394329682,8z?hl=en",
    "searchString": "independent pharmacy Akron OH",
    "language": "en",
    "rank": 12,
    "isAdvertisement": false,
    "imageUrl": "https://streetviewpixels-pa.googleapis.com/v1/thumbnail?panoid=7Ouepqoq4wWzE-d0uOIyfQ&cb_client=search.gws-prod.gps&w=408&h=240&yaw=330.0764&pitch=0&thumbfov=100",
    "kgmid": "/g/11t_rwkr52"
  },
  {
    "title": "CVS Pharmacy",
    "price": null,
    "categoryName": "Pharmacy",
    "address": "2091 Eastwood Ave, Akron, OH 44305",
    "neighborhood": null,
    "street": "2091 Eastwood Ave",
    "city": "Akron",
    "postalCode": "44305",
    "state": "Ohio",
    "countryCode": "US",
    "website": "https://www.cvs.com/store-locator/akron-oh-pharmacies/2091-eastwood-avenue-akron-oh-44305/storeid=4333?WT.mc_id=LS_GOOGLE_RX_4333",
    "phone": "(330) 630-9066",
    "phoneUnformatted": "+13306309066",
    "claimThisBusiness": false,
    "location": {
      "lat": 41.0846806,
      "lng": -81.442044
    },
    "totalScore": 4.2,
    "permanentlyClosed": false,
    "temporarilyClosed": false,
    "placeId": "ChIJK0La89goMYgRjD8nS8az_5s",
    "categories": [
      "Pharmacy"
    ],
    "fid": "0x883128d8f3da422b:0x9bffb3c64b273f8c",
    "cid": "11240900859185807244",
    "reviewsCount": 23,
    "imagesCount": 9,
    "imageCategories": [],
    "scrapedAt": "2025-06-22T06:24:52.274Z",
    "googleFoodUrl": null,
    "hotelAds": [],
    "openingHours": [
      {
        "day": "Monday",
        "hours": "9 AM to 1:30 PM, 2 to 9 PM"
      },
      {
        "day": "Tuesday",
        "hours": "9 AM to 1:30 PM, 2 to 9 PM"
      },
      {
        "day": "Wednesday",
        "hours": "9 AM to 1:30 PM, 2 to 9 PM"
      },
      {
        "day": "Thursday",
        "hours": "9 AM to 1:30 PM, 2 to 9 PM"
      },
      {
        "day": "Friday",
        "hours": "9 AM to 1:30 PM, 2 to 9 PM"
      },
      {
        "day": "Saturday",
        "hours": "9 AM to 1:30 PM, 2 to 6 PM"
      },
      {
        "day": "Sunday",
        "hours": "10 AM to 1:30 PM, 2 to 6 PM"
      }
    ],
    "peopleAlsoSearch": [],
    "placesTags": [],
    "reviewsTags": [],
    "additionalInfo": {
      "Service options": [
        {
          "Delivery": true
        },
        {
          "Drive-through": true
        },
        {
          "In-store shopping": true
        }
      ],
      "Accessibility": [
        {
          "Wheelchair accessible entrance": true
        },
        {
          "Wheelchair accessible parking lot": true
        }
      ],
      "Offerings": [
        {
          "Naloxone": true
        },
        {
          "Passport photos": true
        }
      ],
      "Crowd": [
        {
          "LGBTQ+ friendly": true
        },
        {
          "Transgender safespace": true
        }
      ],
      "Planning": [
        {
          "Quick visit": true
        }
      ],
      "Payments": [
        {
          "Credit cards": true
        },
        {
          "Debit cards": true
        },
        {
          "NFC mobile payments": true
        },
        {
          "Credit cards": true
        }
      ]
    },
    "gasPrices": [],
    "url": "https://www.google.com/maps/search/?api=1&query=CVS%20Pharmacy&query_place_id=ChIJK0La89goMYgRjD8nS8az_5s",
    "searchPageUrl": "https://www.google.com/maps/search/independent%20pharmacy%20Akron%20OH/@39.68245004733214,-76.98739394329682,8z?hl=en",
    "searchString": "independent pharmacy Akron OH",
    "language": "en",
    "rank": 13,
    "isAdvertisement": false,
    "imageUrl": "https://lh3.googleusercontent.com/p/AF1QipMLQHfOKX2RPhkq4ZM-48ikeqhRMel2OXwgVb2d=w408-h272-k-no",
    "kgmid": "/g/11c462ttqg"
  },
  {
    "title": "CVS Pharmacy",
    "price": null,
    "categoryName": "Pharmacy",
    "address": "1949 W Market St, Akron, OH 44313",
    "neighborhood": "Northwest Akron",
    "street": "1949 W Market St",
    "city": "Akron",
    "postalCode": "44313",
    "state": "Ohio",
    "countryCode": "US",
    "website": "https://www.cvs.com/store-locator/akron-oh-pharmacies/1949-west-market-street-akron-oh-44313/storeid=3306?WT.mc_id=LS_GOOGLE_RX_3306",
    "phone": "(330) 867-5410",
    "phoneUnformatted": "+13308675410",
    "claimThisBusiness": false,
    "location": {
      "lat": 41.1139421,
      "lng": -81.5778745
    },
    "totalScore": 3.3,
    "permanentlyClosed": false,
    "temporarilyClosed": false,
    "placeId": "ChIJbXLl0LjXMIgRCzqdJrX-iSg",
    "categories": [
      "Pharmacy"
    ],
    "fid": "0x8830d7b8d0e5726d:0x2889feb5269d3a0b",
    "cid": "2921145887316851211",
    "reviewsCount": 18,
    "imagesCount": 38,
    "imageCategories": [],
    "scrapedAt": "2025-06-22T06:24:52.274Z",
    "googleFoodUrl": null,
    "hotelAds": [],
    "openingHours": [
      {
        "day": "Monday",
        "hours": "8 AM to 1:30 PM, 2 to 9 PM"
      },
      {
        "day": "Tuesday",
        "hours": "8 AM to 1:30 PM, 2 to 9 PM"
      },
      {
        "day": "Wednesday",
        "hours": "8 AM to 1:30 PM, 2 to 9 PM"
      },
      {
        "day": "Thursday",
        "hours": "8 AM to 1:30 PM, 2 to 9 PM"
      },
      {
        "day": "Friday",
        "hours": "8 AM to 1:30 PM, 2 to 9 PM"
      },
      {
        "day": "Saturday",
        "hours": "9 AM to 1:30 PM, 2 to 6 PM"
      },
      {
        "day": "Sunday",
        "hours": "11 AM to 1:30 PM, 2 to 5 PM"
      }
    ],
    "peopleAlsoSearch": [],
    "placesTags": [],
    "reviewsTags": [],
    "additionalInfo": {
      "Service options": [
        {
          "Delivery": true
        },
        {
          "Drive-through": true
        },
        {
          "In-store shopping": true
        },
        {
          "Onsite services": true
        }
      ],
      "Accessibility": [
        {
          "Wheelchair accessible entrance": true
        },
        {
          "Wheelchair accessible parking lot": true
        }
      ],
      "Crowd": [
        {
          "LGBTQ+ friendly": true
        },
        {
          "Transgender safespace": true
        }
      ],
      "Planning": [
        {
          "Quick visit": true
        }
      ],
      "Payments": [
        {
          "Credit cards": true
        },
        {
          "Debit cards": true
        },
        {
          "NFC mobile payments": true
        },
        {
          "Credit cards": true
        }
      ]
    },
    "gasPrices": [],
    "url": "https://www.google.com/maps/search/?api=1&query=CVS%20Pharmacy&query_place_id=ChIJbXLl0LjXMIgRCzqdJrX-iSg",
    "searchPageUrl": "https://www.google.com/maps/search/independent%20pharmacy%20Akron%20OH/@39.68245004733214,-76.98739394329682,8z?hl=en",
    "searchString": "independent pharmacy Akron OH",
    "language": "en",
    "rank": 14,
    "isAdvertisement": false,
    "imageUrl": "https://lh3.googleusercontent.com/p/AF1QipMsUPE2QnegY0L5LD-pilUOQze92SszBVMI0viG=w408-h272-k-no",
    "kgmid": "/g/11fv4fhtt9"
  },
  {
    "title": "CVS Pharmacy",
    "price": null,
    "categoryName": "Pharmacy",
    "address": "235 E Cuyahoga Falls Ave, Akron, OH 44310",
    "neighborhood": "North Hill",
    "street": "235 E Cuyahoga Falls Ave",
    "city": "Akron",
    "postalCode": "44310",
    "state": "Ohio",
    "countryCode": "US",
    "website": "https://www.cvs.com/store-locator/akron-oh-pharmacies/235-east-cuyahoga-falls-ave-akron-oh-44310/storeid=3041?WT.mc_id=LS_GOOGLE_RX_3041",
    "phone": "(330) 762-6231",
    "phoneUnformatted": "+13307626231",
    "claimThisBusiness": false,
    "location": {
      "lat": 41.1090041,
      "lng": -81.5087475
    },
    "totalScore": 4.2,
    "permanentlyClosed": false,
    "temporarilyClosed": false,
    "placeId": "ChIJqXa_lhgoMYgRcw43Pj_XHM8",
    "categories": [
      "Pharmacy"
    ],
    "fid": "0x8831281896bf76a9:0xcf1cd73f3e370e73",
    "cid": "14924039931825688179",
    "reviewsCount": 11,
    "imagesCount": 9,
    "imageCategories": [],
    "scrapedAt": "2025-06-22T06:24:52.274Z",
    "googleFoodUrl": null,
    "hotelAds": [],
    "openingHours": [
      {
        "day": "Monday",
        "hours": "9 AM to 1:30 PM, 2 to 9 PM"
      },
      {
        "day": "Tuesday",
        "hours": "9 AM to 1:30 PM, 2 to 9 PM"
      },
      {
        "day": "Wednesday",
        "hours": "9 AM to 1:30 PM, 2 to 9 PM"
      },
      {
        "day": "Thursday",
        "hours": "9 AM to 1:30 PM, 2 to 9 PM"
      },
      {
        "day": "Friday",
        "hours": "9 AM to 1:30 PM, 2 to 9 PM"
      },
      {
        "day": "Saturday",
        "hours": "10 AM to 1:30 PM, 2 to 6 PM"
      },
      {
        "day": "Sunday",
        "hours": "10 AM to 1:30 PM, 2 to 6 PM"
      }
    ],
    "peopleAlsoSearch": [],
    "placesTags": [],
    "reviewsTags": [],
    "additionalInfo": {
      "Service options": [
        {
          "Delivery": true
        },
        {
          "Drive-through": true
        },
        {
          "In-store shopping": true
        }
      ],
      "Accessibility": [
        {
          "Wheelchair accessible entrance": true
        },
        {
          "Wheelchair accessible parking lot": true
        }
      ],
      "Offerings": [
        {
          "Naloxone": true
        },
        {
          "Passport photos": true
        }
      ],
      "Crowd": [
        {
          "LGBTQ+ friendly": true
        },
        {
          "Transgender safespace": true
        }
      ],
      "Planning": [
        {
          "Quick visit": true
        }
      ],
      "Payments": [
        {
          "Credit cards": true
        },
        {
          "Debit cards": true
        },
        {
          "NFC mobile payments": true
        },
        {
          "Credit cards": true
        }
      ]
    },
    "gasPrices": [],
    "url": "https://www.google.com/maps/search/?api=1&query=CVS%20Pharmacy&query_place_id=ChIJqXa_lhgoMYgRcw43Pj_XHM8",
    "searchPageUrl": "https://www.google.com/maps/search/independent%20pharmacy%20Akron%20OH/@39.68245004733214,-76.98739394329682,8z?hl=en",
    "searchString": "independent pharmacy Akron OH",
    "language": "en",
    "rank": 15,
    "isAdvertisement": false,
    "imageUrl": "https://lh3.googleusercontent.com/p/AF1QipM2S2qPE1PSVkgHrH_gcqmJCCQfxoolZNPSX6eW=w408-h272-k-no",
    "kgmid": "/g/11c4694hj7"
  },
  {
    "title": "Akron Children's Pharmacy",
    "price": null,
    "categoryName": "Pharmacy",
    "address": "215 W Bowery St Level 3, Akron, OH 44302",
    "neighborhood": "Downtown",
    "street": "215 W Bowery St Level 3",
    "city": "Akron",
    "postalCode": "44302",
    "state": "Ohio",
    "countryCode": "US",
    "website": "https://www.akronchildrens.org/locations/Outpatient-Pharmacy.html?y_source=1_MTM0MDE0OTYtNzE1LWxvY2F0aW9uLndlYnNpdGU%3D",
    "phone": "(330) 543-8322",
    "phoneUnformatted": "+13305438322",
    "claimThisBusiness": false,
    "location": {
      "lat": 41.0785082,
      "lng": -81.5242417
    },
    "totalScore": 5,
    "permanentlyClosed": false,
    "temporarilyClosed": false,
    "placeId": "ChIJy89iTiXWMIgRraaDl1IM6y4",
    "categories": [
      "Pharmacy"
    ],
    "fid": "0x8830d6254e62cfcb:0x2eeb0c529783a6ad",
    "cid": "3380809494140528301",
    "reviewsCount": 7,
    "imagesCount": 3,
    "imageCategories": [],
    "scrapedAt": "2025-06-22T06:24:52.274Z",
    "googleFoodUrl": null,
    "hotelAds": [],
    "openingHours": [
      {
        "day": "Monday",
        "hours": "8:30 AM to 5 PM"
      },
      {
        "day": "Tuesday",
        "hours": "8:30 AM to 5 PM"
      },
      {
        "day": "Wednesday",
        "hours": "8:30 AM to 5 PM"
      },
      {
        "day": "Thursday",
        "hours": "8:30 AM to 5 PM"
      },
      {
        "day": "Friday",
        "hours": "8:30 AM to 5 PM"
      },
      {
        "day": "Saturday",
        "hours": "Closed"
      },
      {
        "day": "Sunday",
        "hours": "Closed"
      }
    ],
    "peopleAlsoSearch": [],
    "placesTags": [],
    "reviewsTags": [],
    "additionalInfo": {
      "Accessibility": [
        {
          "Wheelchair accessible entrance": true
        },
        {
          "Wheelchair accessible parking lot": true
        }
      ],
      "Payments": [
        {
          "Credit cards": true
        }
      ]
    },
    "gasPrices": [],
    "url": "https://www.google.com/maps/search/?api=1&query=Akron%20Children's%20Pharmacy&query_place_id=ChIJy89iTiXWMIgRraaDl1IM6y4",
    "searchPageUrl": "https://www.google.com/maps/search/independent%20pharmacy%20Akron%20OH/@39.68245004733214,-76.98739394329682,8z?hl=en",
    "searchString": "independent pharmacy Akron OH",
    "language": "en",
    "rank": 16,
    "isAdvertisement": false,
    "imageUrl": "https://lh3.googleusercontent.com/p/AF1QipO0KjDUSl5iepD1sYsaqiwY3_PXLP2M9t_C_jnU=w427-h240-k-no",
    "kgmid": "/g/1tr9p1p6"
  },
  {
    "title": "Kleins Pharmacy",
    "price": null,
    "categoryName": "Pharmacy",
    "address": "2015 State Rd, Cuyahoga Falls, OH 44223",
    "neighborhood": null,
    "street": "2015 State Rd",
    "city": "Cuyahoga Falls",
    "postalCode": "44223",
    "state": "Ohio",
    "countryCode": "US",
    "website": "http://www.kleinspharmacy.com/",
    "phone": "(330) 929-9183",
    "phoneUnformatted": "+13309299183",
    "claimThisBusiness": false,
    "location": {
      "lat": 41.134853,
      "lng": -81.508129
    },
    "totalScore": 4.3,
    "permanentlyClosed": false,
    "temporarilyClosed": false,
    "placeId": "ChIJrxC7pPsnMYgRs0filt3A2DM",
    "categories": [
      "Pharmacy"
    ],
    "fid": "0x883127fba4bb10af:0x33d8c0dd96e247b3",
    "cid": "3735947948855543731",
    "reviewsCount": 139,
    "imagesCount": 8,
    "imageCategories": [],
    "scrapedAt": "2025-06-22T06:24:52.274Z",
    "googleFoodUrl": null,
    "hotelAds": [],
    "openingHours": [
      {
        "day": "Monday",
        "hours": "9 AM to 7 PM"
      },
      {
        "day": "Tuesday",
        "hours": "9 AM to 7 PM"
      },
      {
        "day": "Wednesday",
        "hours": "9 AM to 7 PM"
      },
      {
        "day": "Thursday",
        "hours": "9 AM to 7 PM"
      },
      {
        "day": "Friday",
        "hours": "9 AM to 7 PM"
      },
      {
        "day": "Saturday",
        "hours": "9 AM to 1 PM"
      },
      {
        "day": "Sunday",
        "hours": "Closed"
      }
    ],
    "peopleAlsoSearch": [],
    "placesTags": [],
    "reviewsTags": [],
    "additionalInfo": {
      "Service options": [
        {
          "Delivery": true
        },
        {
          "In-store pickup": true
        },
        {
          "Same-day delivery": true
        }
      ],
      "Accessibility": [
        {
          "Wheelchair accessible parking lot": true
        }
      ],
      "Planning": [
        {
          "Quick visit": true
        }
      ],
      "Payments": [
        {
          "Debit cards": true
        },
        {
          "NFC mobile payments": true
        },
        {
          "Credit cards": true
        }
      ]
    },
    "gasPrices": [],
    "url": "https://www.google.com/maps/search/?api=1&query=Kleins%20Pharmacy&query_place_id=ChIJrxC7pPsnMYgRs0filt3A2DM",
    "searchPageUrl": "https://www.google.com/maps/search/independent%20pharmacy%20Akron%20OH/@39.68245004733214,-76.98739394329682,8z?hl=en",
    "searchString": "independent pharmacy Akron OH",
    "language": "en",
    "rank": 17,
    "isAdvertisement": false,
    "imageUrl": "https://lh3.googleusercontent.com/p/AF1QipNGADEwLPSHf0MNWGCgUZWIp66PC5fH3m4DvRef=w426-h240-k-no",
    "kgmid": "/g/1tdrf_xh"
  },
  {
    "title": "Walgreens Pharmacy",
    "description": "Department of the Walgreens chain providing prescription medications & other health-related items.",
    "price": "$$",
    "categoryName": "Pharmacy",
    "address": "834 W Market St, Akron, OH 44303",
    "neighborhood": "Highland Square",
    "street": "834 W Market St",
    "city": "Akron",
    "postalCode": "44303",
    "state": "Ohio",
    "countryCode": "US",
    "website": "https://www.walgreens.com/locator/walgreens-834+w+market+st-akron-oh-44303/id=3278",
    "phone": "(330) 434-4997",
    "phoneUnformatted": "+13304344997",
    "claimThisBusiness": false,
    "location": {
      "lat": 41.0964942,
      "lng": -81.5445668
    },
    "totalScore": 3.2,
    "permanentlyClosed": false,
    "temporarilyClosed": false,
    "placeId": "ChIJyeoZaLHXMIgR53SRWQI6kmg",
    "categories": [
      "Pharmacy"
    ],
    "fid": "0x8830d7b16819eac9:0x68923a02599174e7",
    "cid": "7535148908311311591",
    "reviewsCount": 23,
    "imagesCount": 3,
    "imageCategories": [],
    "scrapedAt": "2025-06-22T06:24:52.274Z",
    "googleFoodUrl": null,
    "hotelAds": [],
    "openingHours": [
      {
        "day": "Monday",
        "hours": "9 AM to 1:30 PM, 2 to 7 PM"
      },
      {
        "day": "Tuesday",
        "hours": "9 AM to 1:30 PM, 2 to 7 PM"
      },
      {
        "day": "Wednesday",
        "hours": "9 AM to 1:30 PM, 2 to 7 PM"
      },
      {
        "day": "Thursday",
        "hours": "9 AM to 1:30 PM, 2 to 7 PM"
      },
      {
        "day": "Friday",
        "hours": "9 AM to 1:30 PM, 2 to 7 PM"
      },
      {
        "day": "Saturday",
        "hours": "9 AM to 1:30 PM, 2 to 6 PM"
      },
      {
        "day": "Sunday",
        "hours": "10 AM to 1:30 PM, 2 to 6 PM"
      }
    ],
    "additionalOpeningHours": {
      "Drive through": [
        {
          "day": "Monday",
          "hours": "9 AM–1:30 PM"
        },
        {
          "day": "Tuesday",
          "hours": "9 AM–1:30 PM"
        },
        {
          "day": "Wednesday",
          "hours": "9 AM–1:30 PM"
        },
        {
          "day": "Thursday",
          "hours": "9 AM–1:30 PM"
        },
        {
          "day": "Friday",
          "hours": "9 AM–1:30 PM"
        },
        {
          "day": "Saturday",
          "hours": "9 AM–1:30 PM"
        },
        {
          "day": "Sunday",
          "hours": "10 AM–1:30 PM"
        }
      ]
    },
    "peopleAlsoSearch": [],
    "placesTags": [],
    "reviewsTags": [],
    "additionalInfo": {
      "Service options": [
        {
          "Drive-through": true
        },
        {
          "In-store pickup": true
        }
      ],
      "Accessibility": [
        {
          "Wheelchair accessible entrance": true
        },
        {
          "Wheelchair accessible parking lot": true
        }
      ],
      "Offerings": [
        {
          "Naloxone": true
        }
      ],
      "Planning": [
        {
          "Quick visit": true
        }
      ],
      "Payments": [
        {
          "Checks": true
        },
        {
          "Credit cards": true
        },
        {
          "Debit cards": true
        }
      ]
    },
    "gasPrices": [],
    "url": "https://www.google.com/maps/search/?api=1&query=Walgreens%20Pharmacy&query_place_id=ChIJyeoZaLHXMIgR53SRWQI6kmg",
    "searchPageUrl": "https://www.google.com/maps/search/independent%20pharmacy%20Akron%20OH/@39.68245004733214,-76.98739394329682,8z?hl=en",
    "searchString": "independent pharmacy Akron OH",
    "language": "en",
    "rank": 18,
    "isAdvertisement": false,
    "imageUrl": "https://lh3.googleusercontent.com/p/AF1QipMwvP5pEmPNqNIvKGA3vTojkKv2LAUdeoHPGXdo=w525-h240-k-no",
    "kgmid": "/g/11cn95rkr_"
  },
  {
    "title": "Walgreens Pharmacy",
    "description": "Department of the Walgreens chain providing prescription medications & other health-related items.",
    "price": "$$",
    "categoryName": "Pharmacy",
    "address": "840 Brittain Rd, Akron, OH 44305",
    "neighborhood": "Goodyear Heights",
    "street": "840 Brittain Rd",
    "city": "Akron",
    "postalCode": "44305",
    "state": "Ohio",
    "countryCode": "US",
    "website": "https://www.walgreens.com/locator/walgreens-840+brittain+rd-akron-oh-44305/id=21311",
    "phone": "(330) 784-3907",
    "phoneUnformatted": "+13307843907",
    "claimThisBusiness": false,
    "location": {
      "lat": 41.0851985,
      "lng": -81.4675738
    },
    "totalScore": 3.6,
    "permanentlyClosed": false,
    "temporarilyClosed": false,
    "placeId": "ChIJUc-uH_4oMYgRW7lZzTne8SQ",
    "categories": [
      "Pharmacy"
    ],
    "fid": "0x883128fe1faecf51:0x24f1de39cd59b95b",
    "cid": "2662153194592385371",
    "reviewsCount": 35,
    "imagesCount": 7,
    "imageCategories": [],
    "scrapedAt": "2025-06-22T06:24:52.274Z",
    "googleFoodUrl": null,
    "hotelAds": [],
    "openingHours": [
      {
        "day": "Monday",
        "hours": "9 AM to 1:30 PM, 2 to 7 PM"
      },
      {
        "day": "Tuesday",
        "hours": "9 AM to 1:30 PM, 2 to 7 PM"
      },
      {
        "day": "Wednesday",
        "hours": "9 AM to 1:30 PM, 2 to 7 PM"
      },
      {
        "day": "Thursday",
        "hours": "9 AM to 1:30 PM, 2 to 7 PM"
      },
      {
        "day": "Friday",
        "hours": "9 AM to 1:30 PM, 2 to 7 PM"
      },
      {
        "day": "Saturday",
        "hours": "9 AM to 1:30 PM, 2 to 6 PM"
      },
      {
        "day": "Sunday",
        "hours": "10 AM to 1:30 PM, 2 to 6 PM"
      }
    ],
    "peopleAlsoSearch": [],
    "placesTags": [],
    "reviewsTags": [],
    "additionalInfo": {
      "Service options": [
        {
          "Drive-through": true
        },
        {
          "In-store pickup": true
        }
      ],
      "Accessibility": [
        {
          "Wheelchair accessible entrance": true
        },
        {
          "Wheelchair accessible parking lot": true
        }
      ],
      "Offerings": [
        {
          "Naloxone": true
        },
        {
          "Passport photos": true
        }
      ],
      "Planning": [
        {
          "Quick visit": true
        }
      ],
      "Payments": [
        {
          "Checks": true
        },
        {
          "Credit cards": true
        },
        {
          "Debit cards": true
        },
        {
          "NFC mobile payments": true
        },
        {
          "Credit cards": true
        }
      ]
    },
    "gasPrices": [],
    "url": "https://www.google.com/maps/search/?api=1&query=Walgreens%20Pharmacy&query_place_id=ChIJUc-uH_4oMYgRW7lZzTne8SQ",
    "searchPageUrl": "https://www.google.com/maps/search/independent%20pharmacy%20Akron%20OH/@39.68245004733214,-76.98739394329682,8z?hl=en",
    "searchString": "independent pharmacy Akron OH",
    "language": "en",
    "rank": 19,
    "isAdvertisement": false,
    "imageUrl": "https://lh3.googleusercontent.com/gps-cs-s/AC9h4noRptDwXeYslDo934Mi5MpsLUC4dN7jF-3oL_yikd1GWIF4EcZ6snWE-1TUkKv8xlnJzqtT7nfPE7e8BE8heUUU-2Qre1jlZBmYSBtWdF8rNF6MA9x-21DQXxIp_lH-WLLf-uqm=w408-h544-k-no",
    "kgmid": "/g/11f65hw2pr"
  }
]