[
  {
    "title": "Coalition Family Health Center & Pharmacy",
    "price": null,
    "categoryName": "Pharmacy",
    "address": "430 S Medical Arts Ct, Gillette, WY 82716",
    "neighborhood": null,
    "street": "430 S Medical Arts Ct",
    "city": "Gillette",
    "postalCode": "82716",
    "state": "Wyoming",
    "countryCode": "US",
    "website": "https://www.coalitionfamilyhealthcenter.com/",
    "phone": "(307) 685-6500",
    "phoneUnformatted": "+13076856500",
    "claimThisBusiness": false,
    "location": {
      "lat": 44.2896875,
      "lng": -105.5204513
    },
    "totalScore": 4.8,
    "permanentlyClosed": false,
    "temporarilyClosed": false,
    "placeId": "ChIJC8-By0GUNFMR9Fee-BCXPLg",
    "categories": [
      "Pharmacy"
    ],
    "fid": "0x53349441cb81cf0b:0xb83c9710f89e57f4",
    "cid": "13275651900727777268",
    "reviewsCount": 24,
    "imagesCount": 3,
    "imageCategories": [],
    "scrapedAt": "2025-06-23T05:43:18.627Z",
    "googleFoodUrl": null,
    "hotelAds": [],
    "openingHours": [
      {
        "day": "Monday",
        "hours": "7:45 AM to 5:30 PM"
      },
      {
        "day": "Tuesday",
        "hours": "7:45 AM to 5:30 PM"
      },
      {
        "day": "Wednesday",
        "hours": "7:45 AM to 5:30 PM"
      },
      {
        "day": "Thursday",
        "hours": "7:45 AM to 5:30 PM"
      },
      {
        "day": "Friday",
        "hours": "7:45 AM to 5:30 PM"
      },
      {
        "day": "Saturday",
        "hours": "7:45 AM to 12 PM"
      },
      {
        "day": "Sunday",
        "hours": "Closed"
      }
    ],
    "peopleAlsoSearch": [],
    "placesTags": [],
    "reviewsTags": [],
    "additionalInfo": {
      "From the business": [
        {
          "Small business": true
        }
      ],
      "Service options": [
        {
          "Delivery": false
        },
        {
          "Same-day delivery": false
        }
      ],
      "Accessibility": [
        {
          "Wheelchair accessible entrance": true
        },
        {
          "Wheelchair accessible parking lot": true
        }
      ],
      "Payments": [
        {
          "NFC mobile payments": true
        }
      ]
    },
    "gasPrices": [],
    "url": "https://www.google.com/maps/search/?api=1&query=Coalition%20Family%20Health%20Center%20%26%20Pharmacy&query_place_id=ChIJC8-By0GUNFMR9Fee-BCXPLg",
    "searchPageUrl": "https://www.google.com/maps/search/independent%20pharmacy%20in%20Gillette,%20WY/@59.485012656044645,-162.31690285675955,9z?hl=en",
    "searchString": "independent pharmacy in Gillette, WY",
    "language": "en",
    "rank": 1,
    "isAdvertisement": false,
    "imageUrl": "https://lh3.googleusercontent.com/gps-cs-s/AC9h4npplqG2jdXqo8sPturhQB6OE4_6s4pEV2wEPNqwd0kzuj5hwaK5mOGEv15TGuubL6C2HFYA3kygFMhy78GLjBhNJOysXUbxG_0yLcHstsug47Ppc6coSnQPmneM88YuigaG97S7iw=w408-h408-k-no",
    "kgmid": "/g/1tjhx9zk"
  },
  {
    "title": "Hoskinson Pharmacy",
    "price": null,
    "categoryName": "Pharmacy",
    "address": "469 WY-50, Gillette, WY 82718",
    "neighborhood": null,
    "street": "469 WY-50",
    "city": "Gillette",
    "postalCode": "82718",
    "state": "Wyoming",
    "countryCode": "US",
    "website": "https://hoskinsonhealth.com/services/pharmacy",
    "phone": "(307) 387-4197",
    "phoneUnformatted": "+13073874197",
    "claimThisBusiness": false,
    "location": {
      "lat": 44.2501733,
      "lng": -105.5483625
    },
    "permanentlyClosed": false,
    "temporarilyClosed": false,
    "placeId": "ChIJHeBjk5-VNFMR1CrXY-piAGA",
    "categories": [
      "Pharmacy"
    ],
    "fid": "0x5334959f9363e01d:0x600062ea63d72ad4",
    "cid": "6917637786477996756",
    "reviewsCount": 0,
    "imagesCount": 4,
    "imageCategories": [],
    "scrapedAt": "2025-06-23T05:43:18.629Z",
    "googleFoodUrl": null,
    "hotelAds": [],
    "openingHours": [
      {
        "day": "Monday",
        "hours": "8 AM to 5 PM"
      },
      {
        "day": "Tuesday",
        "hours": "8 AM to 5 PM"
      },
      {
        "day": "Wednesday",
        "hours": "8 AM to 5 PM"
      },
      {
        "day": "Thursday",
        "hours": "8 AM to 5 PM"
      },
      {
        "day": "Friday",
        "hours": "8 AM to 5 PM"
      },
      {
        "day": "Saturday",
        "hours": "Closed"
      },
      {
        "day": "Sunday",
        "hours": "Closed"
      }
    ],
    "peopleAlsoSearch": [],
    "placesTags": [],
    "reviewsTags": [],
    "additionalInfo": {
      "Service options": [
        {
          "Delivery": true
        },
        {
          "Onsite services": true
        }
      ],
      "Accessibility": [
        {
          "Wheelchair accessible entrance": true
        },
        {
          "Wheelchair accessible parking lot": true
        }
      ],
      "Payments": [
        {
          "Credit cards": true
        }
      ]
    },
    "gasPrices": [],
    "url": "https://www.google.com/maps/search/?api=1&query=Hoskinson%20Pharmacy&query_place_id=ChIJHeBjk5-VNFMR1CrXY-piAGA",
    "searchPageUrl": "https://www.google.com/maps/search/independent%20pharmacy%20in%20Gillette,%20WY/@59.485012656044645,-162.31690285675955,9z?hl=en",
    "searchString": "independent pharmacy in Gillette, WY",
    "language": "en",
    "rank": 2,
    "isAdvertisement": false,
    "imageUrl": "https://lh3.googleusercontent.com/p/AF1QipOcOj5-pMrgt3yCu2YgjpX4n8TevtrGjAbqgNro=w408-h510-k-no",
    "kgmid": "/g/11wqph1mm6"
  },
  {
    "title": "Smith's Pharmacy",
    "price": null,
    "categoryName": "Pharmacy",
    "address": "906 Camel Dr, Gillette, WY 82716",
    "neighborhood": null,
    "street": "906 Camel Dr",
    "city": "Gillette",
    "postalCode": "82716",
    "state": "Wyoming",
    "countryCode": "US",
    "website": "https://www.smithsfoodanddrug.com/rx/pharmacy/details/706/00180?cid=loc_70600180P_gmb",
    "phone": "(307) 682-1217",
    "phoneUnformatted": "+13076821217",
    "claimThisBusiness": false,
    "location": {
      "lat": 44.2808614,
      "lng": -105.4903471
    },
    "totalScore": 4.4,
    "permanentlyClosed": false,
    "temporarilyClosed": false,
    "placeId": "ChIJr7byMyqUNFMRaQ3mb9o5XHc",
    "categories": [
      "Pharmacy",
      "Drug store",
      "Health counselor",
      "Home health care service"
    ],
    "fid": "0x5334942a33f2b6af:0x775c39da6fe60d69",
    "cid": "8600812998713806185",
    "reviewsCount": 20,
    "imagesCount": 10,
    "imageCategories": [],
    "scrapedAt": "2025-06-23T05:43:18.629Z",
    "googleFoodUrl": null,
    "hotelAds": [],
    "openingHours": [
      {
        "day": "Monday",
        "hours": "9 AM to 1 PM, 1:30 to 8 PM"
      },
      {
        "day": "Tuesday",
        "hours": "9 AM to 1 PM, 1:30 to 8 PM"
      },
      {
        "day": "Wednesday",
        "hours": "9 AM to 1 PM, 1:30 to 8 PM"
      },
      {
        "day": "Thursday",
        "hours": "9 AM to 1 PM, 1:30 to 8 PM"
      },
      {
        "day": "Friday",
        "hours": "9 AM to 1 PM, 1:30 to 8 PM"
      },
      {
        "day": "Saturday",
        "hours": "9 AM to 1 PM, 1:30 to 6 PM"
      },
      {
        "day": "Sunday",
        "hours": "10 AM to 1 PM, 1:30 to 5 PM"
      }
    ],
    "additionalOpeningHours": {
      "Drive through": [
        {
          "day": "Monday",
          "hours": "9 AM–1 PM"
        },
        {
          "day": "Tuesday",
          "hours": "9 AM–1 PM"
        },
        {
          "day": "Wednesday",
          "hours": "9 AM–1 PM"
        },
        {
          "day": "Thursday",
          "hours": "9 AM–1 PM"
        },
        {
          "day": "Friday",
          "hours": "9 AM–1 PM"
        },
        {
          "day": "Saturday",
          "hours": "9 AM–1 PM"
        },
        {
          "day": "Sunday",
          "hours": "10 AM–1 PM"
        }
      ]
    },
    "peopleAlsoSearch": [],
    "placesTags": [],
    "reviewsTags": [],
    "additionalInfo": {
      "Service options": [
        {
          "Curbside pickup": true
        },
        {
          "Delivery": true
        },
        {
          "Drive-through": true
        },
        {
          "In-store pickup": true
        },
        {
          "In-store shopping": true
        },
        {
          "Same-day delivery": true
        }
      ],
      "Accessibility": [
        {
          "Wheelchair accessible entrance": true
        },
        {
          "Wheelchair accessible parking lot": true
        },
        {
          "Wheelchair accessible restroom": true
        },
        {
          "Wheelchair accessible seating": true
        }
      ],
      "Offerings": [
        {
          "Passport photos": true
        }
      ],
      "Crowd": [
        {
          "LGBTQ+ friendly": true
        },
        {
          "Transgender safespace": true
        }
      ],
      "Planning": [
        {
          "Quick visit": true
        }
      ],
      "Payments": [
        {
          "Checks": true
        },
        {
          "Credit cards": true
        },
        {
          "Debit cards": true
        },
        {
          "NFC mobile payments": true
        },
        {
          "Credit cards": true
        }
      ]
    },
    "gasPrices": [],
    "url": "https://www.google.com/maps/search/?api=1&query=Smith's%20Pharmacy&query_place_id=ChIJr7byMyqUNFMRaQ3mb9o5XHc",
    "searchPageUrl": "https://www.google.com/maps/search/independent%20pharmacy%20in%20Gillette,%20WY/@59.485012656044645,-162.31690285675955,9z?hl=en",
    "searchString": "independent pharmacy in Gillette, WY",
    "language": "en",
    "rank": 3,
    "isAdvertisement": false,
    "imageUrl": "https://lh3.googleusercontent.com/p/AF1QipOQYRFsqDvE3IOFlaJQGxz10qVT6AbgKxT6G7FA=w426-h240-k-no",
    "kgmid": "/g/11b5pj9dsf"
  },
  {
    "title": "Osco Pharmacy",
    "price": "$$",
    "categoryName": "Pharmacy",
    "address": "2610 S Douglas Hwy, Gillette, WY 82718",
    "neighborhood": null,
    "street": "2610 S Douglas Hwy",
    "city": "Gillette",
    "postalCode": "82718",
    "state": "Wyoming",
    "countryCode": "US",
    "website": "http://www.albertsons.com/",
    "phone": "(307) 687-2996",
    "phoneUnformatted": "+13076872996",
    "claimThisBusiness": false,
    "location": {
      "lat": 44.2705349,
      "lng": -105.4946614
    },
    "totalScore": 3.9,
    "permanentlyClosed": false,
    "temporarilyClosed": false,
    "placeId": "ChIJ0aMW59GVNFMR3rpcENPHBNk",
    "categories": [
      "Pharmacy"
    ],
    "fid": "0x533495d1e716a3d1:0xd904c7d3105cbade",
    "cid": "15637843515463744222",
    "reviewsCount": 11,
    "imagesCount": 1,
    "imageCategories": [],
    "scrapedAt": "2025-06-23T05:43:18.629Z",
    "googleFoodUrl": null,
    "hotelAds": [],
    "openingHours": [
      {
        "day": "Monday",
        "hours": "8 AM to 7 PM"
      },
      {
        "day": "Tuesday",
        "hours": "8 AM to 7 PM"
      },
      {
        "day": "Wednesday",
        "hours": "8 AM to 7 PM"
      },
      {
        "day": "Thursday",
        "hours": "8 AM to 7 PM"
      },
      {
        "day": "Friday",
        "hours": "8 AM to 7 PM"
      },
      {
        "day": "Saturday",
        "hours": "9 AM to 6 PM"
      },
      {
        "day": "Sunday",
        "hours": "Closed"
      }
    ],
    "peopleAlsoSearch": [],
    "placesTags": [],
    "reviewsTags": [],
    "additionalInfo": {
      "Service options": [
        {
          "Drive-through": true
        },
        {
          "In-store pickup": true
        }
      ],
      "Accessibility": [
        {
          "Wheelchair accessible entrance": true
        },
        {
          "Wheelchair accessible parking lot": true
        }
      ],
      "Planning": [
        {
          "Quick visit": true
        }
      ],
      "Payments": [
        {
          "Credit cards": true
        }
      ]
    },
    "gasPrices": [],
    "url": "https://www.google.com/maps/search/?api=1&query=Osco%20Pharmacy&query_place_id=ChIJ0aMW59GVNFMR3rpcENPHBNk",
    "searchPageUrl": "https://www.google.com/maps/search/independent%20pharmacy%20in%20Gillette,%20WY/@59.485012656044645,-162.31690285675955,9z?hl=en",
    "searchString": "independent pharmacy in Gillette, WY",
    "language": "en",
    "rank": 4,
    "isAdvertisement": false,
    "imageUrl": "https://streetviewpixels-pa.googleapis.com/v1/thumbnail?panoid=bXa4VDAB1azZuerdRbHQmA&cb_client=search.gws-prod.gps&w=408&h=240&yaw=173.96509&pitch=0&thumbfov=100",
    "kgmid": "/g/1tj737xp"
  },
  {
    "title": "Walgreens Pharmacy",
    "description": "Department of the Walgreens chain providing prescription medications & other health-related items.",
    "price": null,
    "categoryName": "Pharmacy",
    "address": "2000 S Douglas Hwy, Gillette, WY 82718",
    "neighborhood": null,
    "street": "2000 S Douglas Hwy",
    "city": "Gillette",
    "postalCode": "82718",
    "state": "Wyoming",
    "countryCode": "US",
    "website": "https://www.walgreens.com/locator/walgreens-2000+s+douglas+hwy-gillette-wy-82718/id=7928",
    "phone": "(307) 682-4517",
    "phoneUnformatted": "+13076824517",
    "claimThisBusiness": false,
    "location": {
      "lat": 44.2759876,
      "lng": -105.4950263
    },
    "totalScore": 4.2,
    "permanentlyClosed": false,
    "temporarilyClosed": false,
    "placeId": "ChIJl78kQK2VNFMRkT7DBIEbDOg",
    "categories": [
      "Pharmacy"
    ],
    "fid": "0x533495ad4024bf97:0xe80c1b8104c33e91",
    "cid": "16720769757464444561",
    "reviewsCount": 11,
    "imagesCount": 3,
    "imageCategories": [],
    "scrapedAt": "2025-06-23T05:43:18.629Z",
    "googleFoodUrl": null,
    "hotelAds": [],
    "openingHours": [
      {
        "day": "Monday",
        "hours": "8 AM to 10 PM"
      },
      {
        "day": "Tuesday",
        "hours": "8 AM to 10 PM"
      },
      {
        "day": "Wednesday",
        "hours": "8 AM to 10 PM"
      },
      {
        "day": "Thursday",
        "hours": "8 AM to 10 PM"
      },
      {
        "day": "Friday",
        "hours": "8 AM to 10 PM"
      },
      {
        "day": "Saturday",
        "hours": "9 AM to 1:30 PM, 2 to 6 PM"
      },
      {
        "day": "Sunday",
        "hours": "10 AM to 1:30 PM, 2 to 6 PM"
      }
    ],
    "additionalOpeningHours": {
      "Drive through": [
        {
          "day": "Monday",
          "hours": "8 AM–10 PM"
        },
        {
          "day": "Tuesday",
          "hours": "8 AM–10 PM"
        },
        {
          "day": "Wednesday",
          "hours": "8 AM–10 PM"
        },
        {
          "day": "Thursday",
          "hours": "8 AM–10 PM"
        },
        {
          "day": "Friday",
          "hours": "8 AM–10 PM"
        },
        {
          "day": "Saturday",
          "hours": "9 AM–1:30 PM"
        },
        {
          "day": "Sunday",
          "hours": "10 AM–1:30 PM"
        }
      ]
    },
    "peopleAlsoSearch": [],
    "placesTags": [],
    "reviewsTags": [],
    "additionalInfo": {
      "Service options": [
        {
          "Drive-through": true
        },
        {
          "In-store pickup": true
        }
      ],
      "Accessibility": [
        {
          "Wheelchair accessible entrance": true
        },
        {
          "Wheelchair accessible parking lot": true
        }
      ],
      "Offerings": [
        {
          "Passport photos": true
        }
      ],
      "Planning": [
        {
          "Quick visit": true
        }
      ],
      "Payments": [
        {
          "Checks": true
        },
        {
          "Credit cards": true
        },
        {
          "Debit cards": true
        }
      ]
    },
    "gasPrices": [],
    "url": "https://www.google.com/maps/search/?api=1&query=Walgreens%20Pharmacy&query_place_id=ChIJl78kQK2VNFMRkT7DBIEbDOg",
    "searchPageUrl": "https://www.google.com/maps/search/independent%20pharmacy%20in%20Gillette,%20WY/@59.485012656044645,-162.31690285675955,9z?hl=en",
    "searchString": "independent pharmacy in Gillette, WY",
    "language": "en",
    "rank": 5,
    "isAdvertisement": false,
    "imageUrl": "https://lh3.googleusercontent.com/p/AF1QipNE60T0fEybGqgQY-TG_03DUWyhgJwhtuXSKbMc=w525-h240-k-no",
    "kgmid": "/g/11j0cq5_jr"
  },
  {
    "title": "Albertsons Pharmacy",
    "price": "$$",
    "categoryName": "Pharmacy",
    "address": "2610 S Douglas Hwy, Gillette, WY 82718",
    "neighborhood": null,
    "street": "2610 S Douglas Hwy",
    "city": "Gillette",
    "postalCode": "82718",
    "state": "Wyoming",
    "countryCode": "US",
    "website": "https://local.pharmacy.albertsons.com/wy/gillette/2610-s-douglas-hwy.html",
    "phone": "(307) 687-2996",
    "phoneUnformatted": "+13076872996",
    "claimThisBusiness": false,
    "location": {
      "lat": 44.2704876,
      "lng": -105.4951824
    },
    "totalScore": 4.2,
    "permanentlyClosed": false,
    "temporarilyClosed": false,
    "placeId": "ChIJVcUMcc6VNFMRdPHuKI7eJIQ",
    "categories": [
      "Pharmacy",
      "Drug store",
      "Vitamin & supplements store"
    ],
    "fid": "0x533495ce710cc555:0x8424de8e28eef174",
    "cid": "9521980214321541492",
    "reviewsCount": 5,
    "imagesCount": 4,
    "imageCategories": [],
    "scrapedAt": "2025-06-23T05:43:18.629Z",
    "googleFoodUrl": null,
    "hotelAds": [],
    "openingHours": [
      {
        "day": "Monday",
        "hours": "8 AM to 1:30 PM, 2 to 7 PM"
      },
      {
        "day": "Tuesday",
        "hours": "8 AM to 1:30 PM, 2 to 7 PM"
      },
      {
        "day": "Wednesday",
        "hours": "8 AM to 1:30 PM, 2 to 7 PM"
      },
      {
        "day": "Thursday",
        "hours": "8 AM to 1:30 PM, 2 to 7 PM"
      },
      {
        "day": "Friday",
        "hours": "8 AM to 1:30 PM, 2 to 7 PM"
      },
      {
        "day": "Saturday",
        "hours": "9 AM to 1:30 PM, 2 to 6 PM"
      },
      {
        "day": "Sunday",
        "hours": "10 AM to 1:30 PM, 2 to 4 PM"
      }
    ],
    "peopleAlsoSearch": [],
    "placesTags": [],
    "reviewsTags": [],
    "additionalInfo": {
      "Service options": [
        {
          "Delivery": true
        },
        {
          "Drive-through": true
        },
        {
          "In-store pickup": true
        },
        {
          "In-store shopping": true
        },
        {
          "Same-day delivery": true
        }
      ],
      "Accessibility": [
        {
          "Wheelchair accessible entrance": true
        },
        {
          "Wheelchair accessible parking lot": true
        }
      ],
      "Crowd": [
        {
          "LGBTQ+ friendly": true
        }
      ],
      "Planning": [
        {
          "Appointment required": true
        },
        {
          "Quick visit": true
        }
      ],
      "Payments": [
        {
          "Checks": true
        },
        {
          "Debit cards": true
        },
        {
          "Credit cards": true
        }
      ]
    },
    "gasPrices": [],
    "url": "https://www.google.com/maps/search/?api=1&query=Albertsons%20Pharmacy&query_place_id=ChIJVcUMcc6VNFMRdPHuKI7eJIQ",
    "searchPageUrl": "https://www.google.com/maps/search/independent%20pharmacy%20in%20Gillette,%20WY/@59.485012656044645,-162.31690285675955,9z?hl=en",
    "searchString": "independent pharmacy in Gillette, WY",
    "language": "en",
    "rank": 6,
    "isAdvertisement": false,
    "imageUrl": "https://lh3.googleusercontent.com/p/AF1QipMBgt7rUg8fsq55xu0wUkRU7E1aQ8uz4uxZQwHZ=w426-h240-k-no",
    "kgmid": "/g/11cjkvk94c"
  },
  {
    "title": "Walmart Pharmacy",
    "price": "$",
    "categoryName": "Pharmacy",
    "address": "2300 S Douglas Hwy, Gillette, WY 82718",
    "neighborhood": null,
    "street": "2300 S Douglas Hwy",
    "city": "Gillette",
    "postalCode": "82718",
    "state": "Wyoming",
    "countryCode": "US",
    "website": "https://www.walmart.com/store/1485-gillette-wy/pharmacy/?veh=seo_loc",
    "phone": "(307) 686-5166",
    "phoneUnformatted": "+13076865166",
    "claimThisBusiness": false,
    "location": {
      "lat": 44.272791,
      "lng": -105.497385
    },
    "totalScore": 4.2,
    "permanentlyClosed": false,
    "temporarilyClosed": false,
    "placeId": "ChIJQcYoEdOVNFMRIUBJYie_zdQ",
    "categories": [
      "Pharmacy",
      "Herbal medicine store",
      "Medical supply store",
      "Parapharmacy",
      "Vitamin & supplements store"
    ],
    "fid": "0x533495d31128c641:0xd4cdbf2762494021",
    "cid": "15334122482140004385",
    "reviewsCount": 18,
    "imagesCount": 5,
    "imageCategories": [],
    "scrapedAt": "2025-06-23T05:43:18.630Z",
    "googleFoodUrl": null,
    "hotelAds": [],
    "openingHours": [
      {
        "day": "Monday",
        "hours": "9 AM to 7 PM"
      },
      {
        "day": "Tuesday",
        "hours": "9 AM to 7 PM"
      },
      {
        "day": "Wednesday",
        "hours": "9 AM to 7 PM"
      },
      {
        "day": "Thursday",
        "hours": "9 AM to 7 PM"
      },
      {
        "day": "Friday",
        "hours": "9 AM to 7 PM"
      },
      {
        "day": "Saturday",
        "hours": "9 AM to 7 PM"
      },
      {
        "day": "Sunday",
        "hours": "10 AM to 6 PM"
      }
    ],
    "peopleAlsoSearch": [],
    "placesTags": [],
    "reviewsTags": [],
    "additionalInfo": {
      "Service options": [
        {
          "Curbside pickup": true
        },
        {
          "Delivery": true
        },
        {
          "In-store pickup": true
        },
        {
          "In-store shopping": true
        }
      ],
      "Accessibility": [
        {
          "Wheelchair accessible entrance": true
        },
        {
          "Wheelchair accessible parking lot": true
        },
        {
          "Wheelchair accessible restroom": true
        }
      ],
      "Offerings": [
        {
          "Passport photos": true
        }
      ],
      "Amenities": [
        {
          "Wi-Fi": true
        },
        {
          "Free Wi-Fi": true
        }
      ],
      "Planning": [
        {
          "Quick visit": true
        }
      ],
      "Payments": [
        {
          "Credit cards": true
        },
        {
          "Debit cards": true
        },
        {
          "Credit cards": true
        }
      ]
    },
    "gasPrices": [],
    "url": "https://www.google.com/maps/search/?api=1&query=Walmart%20Pharmacy&query_place_id=ChIJQcYoEdOVNFMRIUBJYie_zdQ",
    "searchPageUrl": "https://www.google.com/maps/search/independent%20pharmacy%20in%20Gillette,%20WY/@59.485012656044645,-162.31690285675955,9z?hl=en",
    "searchString": "independent pharmacy in Gillette, WY",
    "language": "en",
    "rank": 7,
    "isAdvertisement": false,
    "imageUrl": "https://lh3.googleusercontent.com/p/AF1QipMfMCgMCquDSvOSY9AG2sTcM005Hwak9MBAuBxO=w408-h306-k-no",
    "kgmid": "/g/1hd_95pgx"
  },
  {
    "title": "Medical Hill Pharmacy",
    "price": null,
    "categoryName": "Pharmacy",
    "address": "407 S Medical Arts Ct suite a, Gillette, WY 82716",
    "neighborhood": null,
    "street": "407 S Medical Arts Ct suite a",
    "city": "Gillette",
    "postalCode": "82716",
    "state": "Wyoming",
    "countryCode": "US",
    "phone": "(307) 685-2899",
    "phoneUnformatted": "+13076852899",
    "claimThisBusiness": false,
    "location": {
      "lat": 44.2908091,
      "lng": -105.5206975
    },
    "totalScore": 4.6,
    "permanentlyClosed": false,
    "temporarilyClosed": true,
    "placeId": "ChIJC5Z-OUCUNFMRe3s4tkSpWTU",
    "categories": [
      "Pharmacy",
      "Drug store"
    ],
    "fid": "0x53349440397e960b:0x3559a944b6387b7b",
    "cid": "3844289869517454203",
    "reviewsCount": 12,
    "imagesCount": 1,
    "imageCategories": [],
    "scrapedAt": "2025-06-23T05:43:18.630Z",
    "googleFoodUrl": null,
    "hotelAds": [],
    "openingHours": [],
    "peopleAlsoSearch": [],
    "placesTags": [],
    "reviewsTags": [],
    "additionalInfo": {
      "Service options": [
        {
          "Drive-through": true
        },
        {
          "In-store pickup": true
        }
      ],
      "Accessibility": [
        {
          "Wheelchair accessible entrance": true
        },
        {
          "Wheelchair accessible parking lot": true
        }
      ],
      "Amenities": [
        {
          "Wi-Fi": true
        },
        {
          "Free Wi-Fi": true
        }
      ],
      "Planning": [
        {
          "Quick visit": true
        }
      ],
      "Payments": [
        {
          "Checks": true
        },
        {
          "Credit cards": true
        },
        {
          "Debit cards": true
        },
        {
          "Credit cards": true
        }
      ]
    },
    "gasPrices": [],
    "url": "https://www.google.com/maps/search/?api=1&query=Medical%20Hill%20Pharmacy&query_place_id=ChIJC5Z-OUCUNFMRe3s4tkSpWTU",
    "searchPageUrl": "https://www.google.com/maps/search/independent%20pharmacy%20in%20Gillette,%20WY/@59.485012656044645,-162.31690285675955,9z?hl=en",
    "searchString": "independent pharmacy in Gillette, WY",
    "language": "en",
    "rank": 8,
    "isAdvertisement": false,
    "imageUrl": "https://streetviewpixels-pa.googleapis.com/v1/thumbnail?panoid=T2Wvjy6idyUwmdkpiI6wiQ&cb_client=search.gws-prod.gps&w=408&h=240&yaw=149.52838&pitch=0&thumbfov=100",
    "kgmid": "/g/1tgdn6gm"
  }
]