[
  {
    "title": "Huntsville Compounding Pharmacy",
    "price": null,
    "categoryName": "Pharmacy",
    "address": "800 Dr. Joseph E. Lowery Blvd D, Huntsville, AL 35801, United States",
    "neighborhood": null,
    "street": "800 Dr. Joseph E. Lowery Blvd D",
    "city": "Huntsville",
    "postalCode": "35801",
    "state": "Alabama",
    "countryCode": "US",
    "website": "http://www.huntsvillecompounding.com/",
    "phone": "+1 256-425-0123",
    "phoneUnformatted": "+12564250123",
    "claimThisBusiness": false,
    "location": {
      "lat": 34.7207369,
      "lng": -86.5849661
    },
    "totalScore": 3.7,
    "permanentlyClosed": false,
    "temporarilyClosed": false,
    "placeId": "ChIJzcd8VlITYogRLaU60vdNH28",
    "categories": [
      "Pharmacy"
    ],
    "fid": "0x88621352567cc7cd:0x6f1f4df7d23aa52d",
    "cid": "8007204389267350829",
    "reviewsCount": 36,
    "imagesCount": 7,
    "imageCategories": [],
    "scrapedAt": "2025-06-22T04:09:25.565Z",
    "googleFoodUrl": null,
    "hotelAds": [],
    "openingHours": [
      {
        "day": "Monday",
        "hours": "9 AM to 5:30 PM"
      },
      {
        "day": "Tuesday",
        "hours": "9 AM to 5:30 PM"
      },
      {
        "day": "Wednesday",
        "hours": "9 AM to 5:30 PM"
      },
      {
        "day": "Thursday",
        "hours": "9 AM to 5:30 PM"
      },
      {
        "day": "Friday",
        "hours": "9 AM to 5:30 PM"
      },
      {
        "day": "Saturday",
        "hours": "Closed"
      },
      {
        "day": "Sunday",
        "hours": "Closed"
      }
    ],
    "peopleAlsoSearch": [],
    "placesTags": [],
    "reviewsTags": [],
    "additionalInfo": {
      "From the business": [
        {
          "Small Business": true
        }
      ],
      "Service options": [
        {
          "Delivery": true
        },
        {
          "In-store pick-up": true
        },
        {
          "In-store shopping": true
        },
        {
          "Same-day delivery": true
        }
      ],
      "Accessibility": [
        {
          "Wheelchair-accessible car park": true
        },
        {
          "Wheelchair-accessible entrance": true
        }
      ],
      "Payments": [
        {
          "Debit cards": true
        },
        {
          "NFC mobile payments": true
        },
        {
          "Credit cards": true
        }
      ]
    },
    "gasPrices": [],
    "url": "https://www.google.com/maps/search/?api=1&query=Huntsville%20Compounding%20Pharmacy&query_place_id=ChIJzcd8VlITYogRLaU60vdNH28",
    "searchPageUrl": "https://www.google.com/maps/search/independent%20pharmacy%20Huntsville%20AL/@63.653579074253855,-158.8645058997317,9z?hl=en",
    "searchString": "independent pharmacy Huntsville AL",
    "language": "en",
    "rank": 1,
    "isAdvertisement": false,
    "imageUrl": "https://lh3.googleusercontent.com/p/AF1QipN5n-EHB338aG33zL-C7ufDz_Ys4BnEE_CHgBPj=w408-h287-k-no",
    "kgmid": "/g/1tdn4v31"
  },
  {
    "title": "Star Discount Pharmacy - Five Points",
    "price": null,
    "categoryName": "Pharmacy",
    "address": "704 Pratt Ave NE, Huntsville, AL 35801, United States",
    "neighborhood": null,
    "street": "704 Pratt Ave NE",
    "city": "Huntsville",
    "postalCode": "35801",
    "state": "Alabama",
    "countryCode": "US",
    "website": "http://huntsvillestarpharmacy.com/?utm_source=cumulus&utm_medium=onlinepresence&utm_campaign=gbp",
    "phone": "+1 256-534-1118",
    "phoneUnformatted": "+12565341118",
    "claimThisBusiness": false,
    "location": {
      "lat": 34.7384607,
      "lng": -86.5763629
    },
    "totalScore": 4.1,
    "permanentlyClosed": false,
    "temporarilyClosed": false,
    "placeId": "ChIJySFfPrIUYogRezB1CFUWRNQ",
    "categories": [
      "Pharmacy",
      "Drug store"
    ],
    "fid": "0x886214b23e5f21c9:0xd44416550875307b",
    "cid": "15295374788926976123",
    "reviewsCount": 90,
    "imagesCount": 6,
    "imageCategories": [],
    "scrapedAt": "2025-06-22T04:09:25.566Z",
    "googleFoodUrl": null,
    "hotelAds": [],
    "openingHours": [
      {
        "day": "Monday",
        "hours": "8 AM to 9 PM"
      },
      {
        "day": "Tuesday",
        "hours": "8 AM to 9 PM"
      },
      {
        "day": "Wednesday",
        "hours": "8 AM to 9 PM"
      },
      {
        "day": "Thursday",
        "hours": "8 AM to 9 PM"
      },
      {
        "day": "Friday",
        "hours": "8 AM to 9 PM"
      },
      {
        "day": "Saturday",
        "hours": "8 AM to 9 PM"
      },
      {
        "day": "Sunday",
        "hours": "11 AM to 8 PM"
      }
    ],
    "peopleAlsoSearch": [],
    "placesTags": [],
    "reviewsTags": [],
    "additionalInfo": {
      "Service options": [
        {
          "In-store pick-up": true
        }
      ],
      "Accessibility": [
        {
          "Wheelchair-accessible car park": true
        },
        {
          "Wheelchair-accessible entrance": true
        }
      ],
      "Planning": [
        {
          "Quick visit": true
        }
      ],
      "Payments": [
        {
          "Credit cards": true
        },
        {
          "Debit cards": true
        },
        {
          "NFC mobile payments": true
        },
        {
          "Credit cards": true
        }
      ]
    },
    "gasPrices": [],
    "url": "https://www.google.com/maps/search/?api=1&query=Star%20Discount%20Pharmacy%20-%20Five%20Points&query_place_id=ChIJySFfPrIUYogRezB1CFUWRNQ",
    "searchPageUrl": "https://www.google.com/maps/search/independent%20pharmacy%20Huntsville%20AL/@63.653579074253855,-158.8645058997317,9z?hl=en",
    "searchString": "independent pharmacy Huntsville AL",
    "language": "en",
    "rank": 2,
    "isAdvertisement": false,
    "imageUrl": "https://lh3.googleusercontent.com/p/AF1QipMrIdDmD3a8Rb0wX__xwr2z-0A4eJOx28dBgTwY=w426-h240-k-no",
    "kgmid": "/g/1vn9ptt6"
  },
  {
    "title": "Propst Discount Drugs",
    "price": null,
    "categoryName": "Pharmacy",
    "address": "717 Pratt Ave NE, Huntsville, AL 35801, United States",
    "neighborhood": null,
    "street": "717 Pratt Ave NE",
    "city": "Huntsville",
    "postalCode": "35801",
    "state": "Alabama",
    "countryCode": "US",
    "website": "http://propstdiscountdrugs.com/",
    "phone": "+1 256-539-7443",
    "phoneUnformatted": "+12565397443",
    "claimThisBusiness": false,
    "location": {
      "lat": 34.739078,
      "lng": -86.575847
    },
    "totalScore": 4.2,
    "permanentlyClosed": false,
    "temporarilyClosed": false,
    "placeId": "ChIJUdbfJLIUYogRGFPOZu-eU3s",
    "categories": [
      "Pharmacy"
    ],
    "fid": "0x886214b224dfd651:0x7b539eef66ce5318",
    "cid": "8886621240791290648",
    "reviewsCount": 115,
    "imagesCount": 18,
    "imageCategories": [],
    "scrapedAt": "2025-06-22T04:09:25.566Z",
    "googleFoodUrl": null,
    "hotelAds": [],
    "openingHours": [
      {
        "day": "Monday",
        "hours": "8 AM to 9 PM"
      },
      {
        "day": "Tuesday",
        "hours": "8 AM to 9 PM"
      },
      {
        "day": "Wednesday",
        "hours": "8 AM to 9 PM"
      },
      {
        "day": "Thursday",
        "hours": "8 AM to 9 PM"
      },
      {
        "day": "Friday",
        "hours": "8 AM to 9 PM"
      },
      {
        "day": "Saturday",
        "hours": "8 AM to 9 PM"
      },
      {
        "day": "Sunday",
        "hours": "11 AM to 8 PM"
      }
    ],
    "peopleAlsoSearch": [],
    "placesTags": [],
    "reviewsTags": [],
    "additionalInfo": {
      "From the business": [
        {
          "Small Business": true
        }
      ],
      "Service options": [
        {
          "Delivery": true
        },
        {
          "In-store pick-up": true
        },
        {
          "Same-day delivery": true
        }
      ],
      "Accessibility": [
        {
          "Wheelchair-accessible car park": true
        },
        {
          "Wheelchair-accessible entrance": true
        }
      ],
      "Planning": [
        {
          "Quick visit": true
        }
      ],
      "Payments": [
        {
          "Credit cards": true
        },
        {
          "Debit cards": true
        },
        {
          "NFC mobile payments": true
        },
        {
          "Credit cards": true
        }
      ]
    },
    "gasPrices": [],
    "url": "https://www.google.com/maps/search/?api=1&query=Propst%20Discount%20Drugs&query_place_id=ChIJUdbfJLIUYogRGFPOZu-eU3s",
    "searchPageUrl": "https://www.google.com/maps/search/independent%20pharmacy%20Huntsville%20AL/@63.653579074253855,-158.8645058997317,9z?hl=en",
    "searchString": "independent pharmacy Huntsville AL",
    "language": "en",
    "rank": 3,
    "isAdvertisement": false,
    "imageUrl": "https://lh3.googleusercontent.com/p/AF1QipNmaQLthbHSGQUvB9QAPxW813vyWXHYuKu1_zCs=w408-h306-k-no",
    "kgmid": "/g/1tql5hvl"
  },
  {
    "title": "Madison Drugs",
    "price": null,
    "categoryName": "Pharmacy",
    "address": "8 Parade Street #100, Huntsville, AL 35806, United States",
    "neighborhood": "Providence",
    "street": "8 Parade Street #100",
    "city": "Huntsville",
    "postalCode": "35806",
    "state": "Alabama",
    "countryCode": "US",
    "website": "https://www.madisondrugs.com/",
    "phone": "+1 256-837-1778",
    "phoneUnformatted": "+12568371778",
    "claimThisBusiness": false,
    "location": {
      "lat": 34.7540052,
      "lng": -86.6915904
    },
    "totalScore": 4.8,
    "permanentlyClosed": false,
    "temporarilyClosed": false,
    "placeId": "ChIJX7QD1xlpYogRX8vc-n1Eo5k",
    "categories": [
      "Pharmacy",
      "Vitamin & supplements store"
    ],
    "fid": "0x88626919d703b45f:0x99a3447dfadccb5f",
    "cid": "11070767616877185887",
    "reviewsCount": 46,
    "imagesCount": 13,
    "imageCategories": [],
    "scrapedAt": "2025-06-22T04:09:25.567Z",
    "googleFoodUrl": null,
    "hotelAds": [],
    "openingHours": [
      {
        "day": "Monday",
        "hours": "9 AM to 6 PM"
      },
      {
        "day": "Tuesday",
        "hours": "9 AM to 6 PM"
      },
      {
        "day": "Wednesday",
        "hours": "9 AM to 6 PM"
      },
      {
        "day": "Thursday",
        "hours": "9 AM to 6 PM"
      },
      {
        "day": "Friday",
        "hours": "9 AM to 6 PM"
      },
      {
        "day": "Saturday",
        "hours": "Closed"
      },
      {
        "day": "Sunday",
        "hours": "Closed"
      }
    ],
    "peopleAlsoSearch": [],
    "placesTags": [],
    "reviewsTags": [],
    "additionalInfo": {
      "From the business": [
        {
          "Small Business": true
        }
      ],
      "Service options": [
        {
          "In-store pick-up": true
        },
        {
          "In-store shopping": true
        }
      ],
      "Accessibility": [
        {
          "Wheelchair-accessible car park": true
        },
        {
          "Wheelchair-accessible entrance": true
        }
      ],
      "Amenities": [
        {
          "Wi-Fi": true
        },
        {
          "Free Wi-Fi": true
        }
      ],
      "Planning": [
        {
          "Quick visit": true
        }
      ],
      "Payments": [
        {
          "Cheques": true
        },
        {
          "Credit cards": true
        },
        {
          "Debit cards": true
        },
        {
          "NFC mobile payments": true
        },
        {
          "Credit cards": true
        }
      ]
    },
    "gasPrices": [],
    "url": "https://www.google.com/maps/search/?api=1&query=Madison%20Drugs&query_place_id=ChIJX7QD1xlpYogRX8vc-n1Eo5k",
    "searchPageUrl": "https://www.google.com/maps/search/independent%20pharmacy%20Huntsville%20AL/@63.653579074253855,-158.8645058997317,9z?hl=en",
    "searchString": "independent pharmacy Huntsville AL",
    "language": "en",
    "rank": 5,
    "isAdvertisement": false,
    "imageUrl": "https://lh3.googleusercontent.com/gps-cs-s/AC9h4nqzb_rvGCoQpjG-byePv9PX0lYIvq43JheGoX9pILqe2ZL4ZGDzO1HyzkUNDDXuEYGKqi1T97JesewVj1UHOr-_4BLWs-9QBDbGq604FrL9qKK6iAdBCGXTugOyB7fUK8h30Wg=w408-h306-k-no",
    "kgmid": "/g/1tcwgqfy"
  },
  {
    "title": "Chase Pharmacy",
    "price": null,
    "categoryName": "Pharmacy",
    "address": "2700 Winchester Rd NE b, New Market, AL 35761, United States",
    "neighborhood": null,
    "street": "2700 Winchester Rd NE b",
    "city": "New Market",
    "postalCode": "35761",
    "state": "Alabama",
    "countryCode": "US",
    "website": "https://chasepharmacyinc.com/",
    "phone": "+1 256-585-2130",
    "phoneUnformatted": "+12565852130",
    "claimThisBusiness": false,
    "location": {
      "lat": 34.8251462,
      "lng": -86.4749979
    },
    "totalScore": 4.8,
    "permanentlyClosed": false,
    "temporarilyClosed": false,
    "placeId": "ChIJtaUQTfgVYogRrnitnoKkSBk",
    "categories": [
      "Pharmacy",
      "Drug store"
    ],
    "fid": "0x886215f84d10a5b5:0x1948a4829ead78ae",
    "cid": "1821886930186238126",
    "reviewsCount": 40,
    "imagesCount": 17,
    "imageCategories": [],
    "scrapedAt": "2025-06-22T04:09:25.567Z",
    "googleFoodUrl": null,
    "hotelAds": [],
    "openingHours": [
      {
        "day": "Monday",
        "hours": "9 AM to 6:30 PM"
      },
      {
        "day": "Tuesday",
        "hours": "9 AM to 6:30 PM"
      },
      {
        "day": "Wednesday",
        "hours": "9 AM to 6:30 PM"
      },
      {
        "day": "Thursday",
        "hours": "9 AM to 6:30 PM"
      },
      {
        "day": "Friday",
        "hours": "9 AM to 6:30 PM"
      },
      {
        "day": "Saturday",
        "hours": "9 AM to 3 PM"
      },
      {
        "day": "Sunday",
        "hours": "Closed"
      }
    ],
    "peopleAlsoSearch": [],
    "placesTags": [],
    "reviewsTags": [],
    "additionalInfo": {
      "From the business": [
        {
          "Small Business": true
        }
      ],
      "Service options": [
        {
          "Kerbside pickup": true
        },
        {
          "Delivery": true
        },
        {
          "Drive-through": true
        },
        {
          "In-store pick-up": true
        },
        {
          "In-store shopping": true
        },
        {
          "On-site services": true
        },
        {
          "Same-day delivery": true
        }
      ],
      "Accessibility": [
        {
          "Wheelchair-accessible car park": true
        },
        {
          "Wheelchair-accessible entrance": true
        },
        {
          "Wheelchair-accessible toilet": true
        }
      ],
      "Crowd": [
        {
          "LGBTQ+ friendly": true
        },
        {
          "Transgender safe space": true
        }
      ],
      "Planning": [
        {
          "Quick visit": true
        }
      ],
      "Payments": [
        {
          "Cheques": true
        },
        {
          "Credit cards": true
        },
        {
          "Debit cards": true
        },
        {
          "NFC mobile payments": true
        },
        {
          "Credit cards": true
        }
      ]
    },
    "gasPrices": [],
    "url": "https://www.google.com/maps/search/?api=1&query=Chase%20Pharmacy&query_place_id=ChIJtaUQTfgVYogRrnitnoKkSBk",
    "searchPageUrl": "https://www.google.com/maps/search/independent%20pharmacy%20Huntsville%20AL/@63.653579074253855,-158.8645058997317,9z?hl=en",
    "searchString": "independent pharmacy Huntsville AL",
    "language": "en",
    "rank": 6,
    "isAdvertisement": false,
    "imageUrl": "https://lh3.googleusercontent.com/p/AF1QipMi7Ex1KXRb9weNa7PeGDQf5e04p-rZEYy5Hxmt=w408-h266-k-no",
    "kgmid": "/g/1tv3pdt3"
  },
  {
    "title": "Hunnington Pharmacy",
    "price": null,
    "categoryName": "Pharmacy",
    "address": "11220 Memorial Pkwy SW R, Huntsville, AL 35803, United States",
    "neighborhood": null,
    "street": "11220 Memorial Pkwy SW R",
    "city": "Huntsville",
    "postalCode": "35803",
    "state": "Alabama",
    "countryCode": "US",
    "website": "http://huntsvillestarpharmacy.com/locations/hunnington/",
    "phone": "+1 256-882-7979",
    "phoneUnformatted": "+12568827979",
    "claimThisBusiness": false,
    "location": {
      "lat": 34.635768,
      "lng": -86.568666
    },
    "totalScore": 4.8,
    "permanentlyClosed": false,
    "temporarilyClosed": false,
    "placeId": "ChIJLxZkWFgNYogR8LMYiG2gWfs",
    "categories": [
      "Pharmacy",
      "Drug store"
    ],
    "fid": "0x88620d585864162f:0xfb59a06d8818b3f0",
    "cid": "18111683768742360048",
    "reviewsCount": 38,
    "imagesCount": 6,
    "imageCategories": [],
    "scrapedAt": "2025-06-22T04:09:25.567Z",
    "googleFoodUrl": null,
    "hotelAds": [],
    "openingHours": [
      {
        "day": "Monday",
        "hours": "8:30 AM to 6 PM"
      },
      {
        "day": "Tuesday",
        "hours": "8:30 AM to 6 PM"
      },
      {
        "day": "Wednesday",
        "hours": "8:30 AM to 6 PM"
      },
      {
        "day": "Thursday",
        "hours": "8:30 AM to 6 PM"
      },
      {
        "day": "Friday",
        "hours": "8:30 AM to 6 PM"
      },
      {
        "day": "Saturday",
        "hours": "9 AM to 1 PM"
      },
      {
        "day": "Sunday",
        "hours": "Closed"
      }
    ],
    "peopleAlsoSearch": [],
    "placesTags": [],
    "reviewsTags": [],
    "additionalInfo": {
      "From the business": [
        {
          "Small Business": true
        }
      ],
      "Service options": [
        {
          "In-store pick-up": true
        }
      ],
      "Accessibility": [
        {
          "Wheelchair-accessible car park": true
        },
        {
          "Wheelchair-accessible entrance": true
        }
      ],
      "Planning": [
        {
          "Quick visit": true
        }
      ],
      "Payments": [
        {
          "Credit cards": true
        },
        {
          "Debit cards": true
        },
        {
          "Credit cards": true
        }
      ]
    },
    "gasPrices": [],
    "url": "https://www.google.com/maps/search/?api=1&query=Hunnington%20Pharmacy&query_place_id=ChIJLxZkWFgNYogR8LMYiG2gWfs",
    "searchPageUrl": "https://www.google.com/maps/search/independent%20pharmacy%20Huntsville%20AL/@63.653579074253855,-158.8645058997317,9z?hl=en",
    "searchString": "independent pharmacy Huntsville AL",
    "language": "en",
    "rank": 7,
    "isAdvertisement": false,
    "imageUrl": "https://lh3.googleusercontent.com/p/AF1QipOrM61w0gwEDR47oGN5kUeu2KCN_OgoE14FfGu0=w408-h306-k-no",
    "kgmid": "/g/1hc8m057s"
  },
  {
    "title": "Huntsville Hospital Pharmacy",
    "price": null,
    "categoryName": "Pharmacy",
    "address": "101 Sivley Rd SW Second floor, Huntsville, AL 35801, United States",
    "neighborhood": "Medical District",
    "street": "101 Sivley Rd SW Second floor",
    "city": "Huntsville",
    "postalCode": "35801",
    "state": "Alabama",
    "countryCode": "US",
    "website": "https://www.huntsvillehospital.org/pharmacy",
    "phone": "+1 256-265-3400",
    "phoneUnformatted": "+12562653400",
    "claimThisBusiness": false,
    "location": {
      "lat": 34.7208528,
      "lng": -86.5804893
    },
    "totalScore": 3.5,
    "permanentlyClosed": false,
    "temporarilyClosed": false,
    "placeId": "ChIJmSlh25ttYogRr42m4Spj14I",
    "categories": [
      "Pharmacy"
    ],
    "fid": "0x88626d9bdb612999:0x82d7632ae1a68daf",
    "cid": "9428113380748987823",
    "reviewsCount": 6,
    "imagesCount": 1,
    "imageCategories": [],
    "scrapedAt": "2025-06-22T04:09:25.567Z",
    "googleFoodUrl": null,
    "hotelAds": [],
    "openingHours": [
      {
        "day": "Monday",
        "hours": "8 AM to 8 PM"
      },
      {
        "day": "Tuesday",
        "hours": "8 AM to 8 PM"
      },
      {
        "day": "Wednesday",
        "hours": "8 AM to 8 PM"
      },
      {
        "day": "Thursday",
        "hours": "8 AM to 8 PM"
      },
      {
        "day": "Friday",
        "hours": "8 AM to 8 PM"
      },
      {
        "day": "Saturday",
        "hours": "7:30 AM to 4 PM"
      },
      {
        "day": "Sunday",
        "hours": "7:30 AM to 4 PM"
      }
    ],
    "peopleAlsoSearch": [],
    "placesTags": [],
    "reviewsTags": [],
    "additionalInfo": {
      "Service options": [
        {
          "In-store shopping": true
        }
      ],
      "Accessibility": [
        {
          "Wheelchair-accessible car park": true
        },
        {
          "Wheelchair-accessible entrance": true
        }
      ],
      "Payments": [
        {
          "Credit cards": true
        },
        {
          "Debit cards": true
        },
        {
          "Credit cards": true
        }
      ]
    },
    "gasPrices": [],
    "url": "https://www.google.com/maps/search/?api=1&query=Huntsville%20Hospital%20Pharmacy&query_place_id=ChIJmSlh25ttYogRr42m4Spj14I",
    "searchPageUrl": "https://www.google.com/maps/search/independent%20pharmacy%20Huntsville%20AL/@63.653579074253855,-158.8645058997317,9z?hl=en",
    "searchString": "independent pharmacy Huntsville AL",
    "language": "en",
    "rank": 9,
    "isAdvertisement": false,
    "imageUrl": "https://streetviewpixels-pa.googleapis.com/v1/thumbnail?panoid=yeHCOTiCGQCEwahOeEuKNw&cb_client=search.gws-prod.gps&w=408&h=240&yaw=253.24225&pitch=0&thumbfov=100",
    "kgmid": "/g/11q85zv3p1"
  },
  {
    "title": "Kroger Pharmacy",
    "price": "₹₹",
    "categoryName": "Pharmacy",
    "address": "8404 Memorial Pkwy SW, Huntsville, AL 35802, United States",
    "neighborhood": null,
    "street": "8404 Memorial Pkwy SW",
    "city": "Huntsville",
    "postalCode": "35802",
    "state": "Alabama",
    "countryCode": "US",
    "website": "https://www.kroger.com/rx/pharmacy/details/026/00849?cid=loc_02600849P_gmb",
    "phone": "+1 256-881-6481",
    "phoneUnformatted": "+12568816481",
    "claimThisBusiness": false,
    "location": {
      "lat": 34.6565805,
      "lng": -86.5712196
    },
    "totalScore": 4.3,
    "permanentlyClosed": false,
    "temporarilyClosed": false,
    "placeId": "ChIJJ9lsMbgSYogRwNZEEwaPDd4",
    "categories": [
      "Pharmacy",
      "Drug store",
      "Health counselor",
      "Home health care service"
    ],
    "fid": "0x886212b8316cd927:0xde0d8f061344d6c0",
    "cid": "16000602307373094592",
    "reviewsCount": 21,
    "imagesCount": 15,
    "imageCategories": [],
    "scrapedAt": "2025-06-22T04:09:25.567Z",
    "googleFoodUrl": null,
    "hotelAds": [],
    "openingHours": [
      {
        "day": "Monday",
        "hours": "9 AM to 1 PM, 1:30 to 8 PM"
      },
      {
        "day": "Tuesday",
        "hours": "9 AM to 1 PM, 1:30 to 8 PM"
      },
      {
        "day": "Wednesday",
        "hours": "9 AM to 1 PM, 1:30 to 8 PM"
      },
      {
        "day": "Thursday",
        "hours": "9 AM to 1 PM, 1:30 to 8 PM"
      },
      {
        "day": "Friday",
        "hours": "9 AM to 1 PM, 1:30 to 8 PM"
      },
      {
        "day": "Saturday",
        "hours": "9 AM to 1 PM, 1:30 to 6 PM"
      },
      {
        "day": "Sunday",
        "hours": "11 AM to 1 PM, 1:30 to 5 PM"
      }
    ],
    "peopleAlsoSearch": [],
    "placesTags": [],
    "reviewsTags": [],
    "additionalInfo": {
      "Service options": [
        {
          "Kerbside pickup": true
        },
        {
          "Delivery": true
        },
        {
          "In-store pick-up": true
        },
        {
          "In-store shopping": true
        },
        {
          "Same-day delivery": true
        }
      ],
      "Accessibility": [
        {
          "Wheelchair-accessible car park": true
        },
        {
          "Wheelchair-accessible entrance": true
        },
        {
          "Wheelchair-accessible seating": true
        },
        {
          "Wheelchair-accessible toilet": true
        }
      ],
      "Offerings": [
        {
          "Passport photos": true
        }
      ],
      "Crowd": [
        {
          "LGBTQ+ friendly": true
        },
        {
          "Transgender safe space": true
        }
      ],
      "Planning": [
        {
          "Quick visit": true
        }
      ],
      "Payments": [
        {
          "Cheques": true
        },
        {
          "Credit cards": true
        },
        {
          "Debit cards": true
        },
        {
          "NFC mobile payments": true
        },
        {
          "Credit cards": true
        }
      ]
    },
    "gasPrices": [],
    "url": "https://www.google.com/maps/search/?api=1&query=Kroger%20Pharmacy&query_place_id=ChIJJ9lsMbgSYogRwNZEEwaPDd4",
    "searchPageUrl": "https://www.google.com/maps/search/independent%20pharmacy%20Huntsville%20AL/@63.653579074253855,-158.8645058997317,9z?hl=en",
    "searchString": "independent pharmacy Huntsville AL",
    "language": "en",
    "rank": 11,
    "isAdvertisement": false,
    "imageUrl": "https://lh3.googleusercontent.com/p/AF1QipPL0-fCGj3RIcV-Gt61-Xsp4_a9fcu53MU4r4dx=w426-h240-k-no",
    "kgmid": "/g/1tlmp1b5"
  }
]