[
  {
    "title": "Sierra Compounding Pharmacy",
    "price": null,
    "categoryName": "Pharmacy",
    "address": "9738 S Virginia St G, Reno, NV 89511",
    "neighborhood": null,
    "street": "9738 S Virginia St G",
    "city": "Reno",
    "postalCode": "89511",
    "state": "Nevada",
    "countryCode": "US",
    "website": "http://www.sierrafamilypharmacies.com/",
    "phone": "(775) 853-3500",
    "phoneUnformatted": "+17758533500",
    "claimThisBusiness": false,
    "location": {
      "lat": 39.444436,
      "lng": -119.769281
    },
    "totalScore": 4.3,
    "permanentlyClosed": false,
    "temporarilyClosed": false,
    "placeId": "ChIJ7VT2flAVmYAR86rNkmSAYXM",
    "categories": [
      "Pharmacy"
    ],
    "fid": "0x809915507ef654ed:0x7361806492cdaaf3",
    "cid": "8314067556550683379",
    "reviewsCount": 47,
    "imagesCount": 8,
    "imageCategories": [],
    "scrapedAt": "2025-06-22T08:44:12.875Z",
    "googleFoodUrl": null,
    "hotelAds": [],
    "openingHours": [
      {
        "day": "Monday",
        "hours": "9 AM to 1 PM, 2 to 6 PM"
      },
      {
        "day": "Tuesday",
        "hours": "9 AM to 1 PM, 2 to 6 PM"
      },
      {
        "day": "Wednesday",
        "hours": "9 AM to 1 PM, 2 to 6 PM"
      },
      {
        "day": "Thursday",
        "hours": "9 AM to 1 PM, 2 to 6 PM"
      },
      {
        "day": "Friday",
        "hours": "9 AM to 1 PM, 2 to 6 PM"
      },
      {
        "day": "Saturday",
        "hours": "Closed"
      },
      {
        "day": "Sunday",
        "hours": "Closed"
      }
    ],
    "peopleAlsoSearch": [],
    "placesTags": [],
    "reviewsTags": [],
    "additionalInfo": {
      "Service options": [
        {
          "Delivery": true
        },
        {
          "In-store pickup": true
        }
      ],
      "Accessibility": [
        {
          "Wheelchair accessible entrance": true
        },
        {
          "Wheelchair accessible parking lot": true
        }
      ],
      "Amenities": [
        {
          "Wi-Fi": true
        },
        {
          "Free Wi-Fi": true
        }
      ],
      "Planning": [
        {
          "Quick visit": true
        }
      ],
      "Payments": [
        {
          "Credit cards": true
        },
        {
          "Debit cards": true
        },
        {
          "NFC mobile payments": true
        },
        {
          "Credit cards": true
        }
      ]
    },
    "gasPrices": [],
    "url": "https://www.google.com/maps/search/?api=1&query=Sierra%20Compounding%20Pharmacy&query_place_id=ChIJ7VT2flAVmYAR86rNkmSAYXM",
    "searchPageUrl": "https://www.google.com/maps/search/independent%20pharmacy%20Reno%20NV/@69.9064287015676,-143.9041190859444,9z?hl=en",
    "searchString": "independent pharmacy Reno NV",
    "language": "en",
    "rank": 1,
    "isAdvertisement": false,
    "imageUrl": "https://lh3.googleusercontent.com/p/AF1QipN8MYBa3ErxDkBwEk85N5GW_QRDJ26t798QSV7c=w408-h271-k-no",
    "kgmid": "/g/1ts3lfw1"
  },
  {
    "title": "PharMerica – Reno, NV",
    "price": null,
    "categoryName": "Pharmacy",
    "address": "4750 Longley Ln 204 603, Reno, NV 89502",
    "neighborhood": "Mira Loma",
    "street": "4750 Longley Ln 204 603",
    "city": "Reno",
    "postalCode": "89502",
    "state": "Nevada",
    "countryCode": "US",
    "website": "https://pharmerica.com/location/pharmerica-reno-nv/",
    "phone": "(844) 295-3931",
    "phoneUnformatted": "+18442953931",
    "claimThisBusiness": false,
    "location": {
      "lat": 39.4858238,
      "lng": -119.7593189
    },
    "permanentlyClosed": false,
    "temporarilyClosed": false,
    "placeId": "ChIJ24Yz1b4_mYARtwaw1Gtm6K4",
    "categories": [
      "Pharmacy"
    ],
    "fid": "0x80993fbed53386db:0xaee8666bd4b006b7",
    "cid": "12603436170512172727",
    "reviewsCount": 0,
    "imagesCount": 1,
    "imageCategories": [],
    "scrapedAt": "2025-06-22T08:44:12.876Z",
    "googleFoodUrl": null,
    "hotelAds": [],
    "openingHours": [
      {
        "day": "Monday",
        "hours": "Open 24 hours"
      },
      {
        "day": "Tuesday",
        "hours": "Open 24 hours"
      },
      {
        "day": "Wednesday",
        "hours": "Open 24 hours"
      },
      {
        "day": "Thursday",
        "hours": "Open 24 hours"
      },
      {
        "day": "Friday",
        "hours": "Open 24 hours"
      },
      {
        "day": "Saturday",
        "hours": "Open 24 hours"
      },
      {
        "day": "Sunday",
        "hours": "Open 24 hours"
      }
    ],
    "peopleAlsoSearch": [],
    "placesTags": [],
    "reviewsTags": [],
    "additionalInfo": {
      "Accessibility": [
        {
          "Wheelchair accessible entrance": true
        },
        {
          "Wheelchair accessible parking lot": true
        }
      ]
    },
    "gasPrices": [],
    "url": "https://www.google.com/maps/search/?api=1&query=PharMerica%20%E2%80%93%20Reno%2C%20NV&query_place_id=ChIJ24Yz1b4_mYARtwaw1Gtm6K4",
    "searchPageUrl": "https://www.google.com/maps/search/independent%20pharmacy%20Reno%20NV/@69.9064287015676,-143.9041190859444,9z?hl=en",
    "searchString": "independent pharmacy Reno NV",
    "language": "en",
    "rank": 2,
    "isAdvertisement": false,
    "imageUrl": "https://streetviewpixels-pa.googleapis.com/v1/thumbnail?panoid=fBb8u6MSu-P3H9Fh3Ghdvw&cb_client=search.gws-prod.gps&w=408&h=240&yaw=288.21375&pitch=0&thumbfov=100",
    "kgmid": "/g/1tf4f8nj"
  },
  {
    "title": "Sierra Specialty Pharmacy",
    "price": null,
    "categoryName": "Pharmacy",
    "address": "9738 S Virginia St F, Reno, NV 89511",
    "neighborhood": null,
    "street": "9738 S Virginia St F",
    "city": "Reno",
    "postalCode": "89511",
    "state": "Nevada",
    "countryCode": "US",
    "website": "http://sierrafamilypharmacies.com/contact/#specialty",
    "phone": "(775) 853-3502",
    "phoneUnformatted": "+17758533502",
    "claimThisBusiness": false,
    "location": {
      "lat": 39.4440747,
      "lng": -119.7692946
    },
    "totalScore": 5,
    "permanentlyClosed": false,
    "temporarilyClosed": false,
    "placeId": "ChIJq6pqez8VmYARIDGbc_Gdsg4",
    "categories": [
      "Pharmacy"
    ],
    "fid": "0x8099153f7b6aaaab:0xeb29df1739b3120",
    "cid": "1059082522737717536",
    "reviewsCount": 4,
    "imagesCount": 8,
    "imageCategories": [],
    "scrapedAt": "2025-06-22T08:44:12.877Z",
    "googleFoodUrl": null,
    "hotelAds": [],
    "openingHours": [
      {
        "day": "Monday",
        "hours": "9 AM to 6 PM"
      },
      {
        "day": "Tuesday",
        "hours": "9 AM to 6 PM"
      },
      {
        "day": "Wednesday",
        "hours": "9 AM to 6 PM"
      },
      {
        "day": "Thursday",
        "hours": "9 AM to 6 PM"
      },
      {
        "day": "Friday",
        "hours": "9 AM to 6 PM"
      },
      {
        "day": "Saturday",
        "hours": "Closed"
      },
      {
        "day": "Sunday",
        "hours": "Closed"
      }
    ],
    "peopleAlsoSearch": [],
    "placesTags": [],
    "reviewsTags": [],
    "additionalInfo": {
      "Service options": [
        {
          "Delivery": true
        }
      ],
      "Accessibility": [
        {
          "Wheelchair accessible entrance": true
        },
        {
          "Wheelchair accessible parking lot": true
        }
      ],
      "Payments": [
        {
          "Credit cards": true
        },
        {
          "Debit cards": true
        },
        {
          "Credit cards": true
        }
      ]
    },
    "gasPrices": [],
    "url": "https://www.google.com/maps/search/?api=1&query=Sierra%20Specialty%20Pharmacy&query_place_id=ChIJq6pqez8VmYARIDGbc_Gdsg4",
    "searchPageUrl": "https://www.google.com/maps/search/independent%20pharmacy%20Reno%20NV/@69.9064287015676,-143.9041190859444,9z?hl=en",
    "searchString": "independent pharmacy Reno NV",
    "language": "en",
    "rank": 3,
    "isAdvertisement": false,
    "imageUrl": "https://lh3.googleusercontent.com/p/AF1QipPFBhLT-3XnvYVIbrTKDoaWlcWAdlxrFgloqKgV=w408-h303-k-no",
    "kgmid": "/g/11f4lsr2yw"
  },
  {
    "title": "Flying Diamond Pharmacy",
    "price": null,
    "categoryName": "Pharmacy",
    "address": "6140 Mae Anne Ave #1b, Reno, NV 89523",
    "neighborhood": "Northwest Reno",
    "street": "6140 Mae Anne Ave #1b",
    "city": "Reno",
    "postalCode": "89523",
    "state": "Nevada",
    "countryCode": "US",
    "phone": "(775) 787-1144",
    "phoneUnformatted": "+17757871144",
    "claimThisBusiness": true,
    "location": {
      "lat": 39.5284267,
      "lng": -119.8837982
    },
    "totalScore": 3.1,
    "permanentlyClosed": false,
    "temporarilyClosed": false,
    "placeId": "ChIJMYLj0wFEmYARJDecQEqeYuM",
    "categories": [
      "Pharmacy"
    ],
    "fid": "0x80994401d3e38231:0xe3629e4a409c3724",
    "cid": "16384832436076033828",
    "reviewsCount": 8,
    "imagesCount": 1,
    "imageCategories": [],
    "scrapedAt": "2025-06-22T08:44:12.877Z",
    "googleFoodUrl": null,
    "hotelAds": [],
    "openingHours": [
      {
        "day": "Monday",
        "hours": "9 AM to 5 PM"
      },
      {
        "day": "Tuesday",
        "hours": "9 AM to 5 PM"
      },
      {
        "day": "Wednesday",
        "hours": "9 AM to 5 PM"
      },
      {
        "day": "Thursday",
        "hours": "9 AM to 5 PM"
      },
      {
        "day": "Friday",
        "hours": "9 AM to 5 PM"
      },
      {
        "day": "Saturday",
        "hours": "Closed"
      },
      {
        "day": "Sunday",
        "hours": "Closed"
      }
    ],
    "peopleAlsoSearch": [],
    "placesTags": [],
    "reviewsTags": [],
    "additionalInfo": {
      "Accessibility": [
        {
          "Wheelchair accessible entrance": true
        },
        {
          "Wheelchair accessible parking lot": true
        }
      ],
      "Planning": [
        {
          "Quick visit": true
        }
      ],
      "Payments": [
        {
          "Credit cards": true
        },
        {
          "Debit cards": true
        },
        {
          "NFC mobile payments": true
        },
        {
          "Credit cards": true
        }
      ]
    },
    "gasPrices": [],
    "url": "https://www.google.com/maps/search/?api=1&query=Flying%20Diamond%20Pharmacy&query_place_id=ChIJMYLj0wFEmYARJDecQEqeYuM",
    "searchPageUrl": "https://www.google.com/maps/search/independent%20pharmacy%20Reno%20NV/@69.9064287015676,-143.9041190859444,9z?hl=en",
    "searchString": "independent pharmacy Reno NV",
    "language": "en",
    "rank": 4,
    "isAdvertisement": false,
    "imageUrl": "https://streetviewpixels-pa.googleapis.com/v1/thumbnail?panoid=-zrylXX8IepeZsRUibDJAA&cb_client=search.gws-prod.gps&w=408&h=240&yaw=155.77574&pitch=0&thumbfov=100",
    "kgmid": "/g/1thn5rsk"
  },
  {
    "title": "Valley Pharmacy",
    "price": null,
    "categoryName": "Pharmacy",
    "address": "5055 Sun Valley Blvd Suite 210, Sun Valley, NV 89433",
    "neighborhood": null,
    "street": "5055 Sun Valley Blvd Suite 210",
    "city": "Sun Valley",
    "postalCode": "89433",
    "state": "Nevada",
    "countryCode": "US",
    "website": "http://www.valleydrugstore.com/",
    "phone": "(775) 200-0945",
    "phoneUnformatted": "+17752000945",
    "claimThisBusiness": false,
    "location": {
      "lat": 39.5761794,
      "lng": -119.7815296
    },
    "totalScore": 4.9,
    "permanentlyClosed": false,
    "temporarilyClosed": false,
    "placeId": "ChIJxRKTRXw4mYAR3pQp93M-Ld4",
    "categories": [
      "Pharmacy"
    ],
    "fid": "0x8099387c459312c5:0xde2d3e73f72994de",
    "cid": "16009520918160839902",
    "reviewsCount": 154,
    "imagesCount": 13,
    "imageCategories": [],
    "scrapedAt": "2025-06-22T08:44:12.877Z",
    "googleFoodUrl": null,
    "hotelAds": [],
    "openingHours": [
      {
        "day": "Monday",
        "hours": "10 AM to 6 PM"
      },
      {
        "day": "Tuesday",
        "hours": "10 AM to 6 PM"
      },
      {
        "day": "Wednesday",
        "hours": "10 AM to 6 PM"
      },
      {
        "day": "Thursday",
        "hours": "10 AM to 6 PM"
      },
      {
        "day": "Friday",
        "hours": "10 AM to 6 PM"
      },
      {
        "day": "Saturday",
        "hours": "Closed"
      },
      {
        "day": "Sunday",
        "hours": "Closed"
      }
    ],
    "peopleAlsoSearch": [],
    "placesTags": [],
    "reviewsTags": [],
    "additionalInfo": {
      "From the business": [
        {
          "Small business": true
        }
      ],
      "Service options": [
        {
          "Curbside pickup": true
        },
        {
          "Delivery": true
        },
        {
          "In-store pickup": true
        },
        {
          "In-store shopping": true
        },
        {
          "Onsite services": true
        },
        {
          "Same-day delivery": true
        }
      ],
      "Accessibility": [
        {
          "Wheelchair accessible entrance": true
        },
        {
          "Wheelchair accessible parking lot": true
        }
      ],
      "Payments": [
        {
          "Checks": true
        },
        {
          "Credit cards": true
        },
        {
          "Debit cards": true
        },
        {
          "NFC mobile payments": true
        },
        {
          "Credit cards": true
        }
      ]
    },
    "gasPrices": [],
    "url": "https://www.google.com/maps/search/?api=1&query=Valley%20Pharmacy&query_place_id=ChIJxRKTRXw4mYAR3pQp93M-Ld4",
    "searchPageUrl": "https://www.google.com/maps/search/independent%20pharmacy%20Reno%20NV/@69.9064287015676,-143.9041190859444,9z?hl=en",
    "searchString": "independent pharmacy Reno NV",
    "language": "en",
    "rank": 5,
    "isAdvertisement": false,
    "imageUrl": "https://lh3.googleusercontent.com/p/AF1QipO2V7xcligDEUWT9kwqimsRpvDFeDyWf_OFFUF5=w408-h644-k-no",
    "kgmid": "/g/11g9nt720r"
  },
  {
    "title": "Renown Pharmacy – Pringle",
    "price": null,
    "categoryName": "Pharmacy",
    "address": "75 Pringle Way, Reno, NV 89502",
    "neighborhood": null,
    "street": "75 Pringle Way",
    "city": "Reno",
    "postalCode": "89502",
    "state": "Nevada",
    "countryCode": "US",
    "website": "https://www.renown.org/locations/renown-pharmacy-pringle/?utm_source=GMBlisting&utm_medium=organic&utm_campaign=gmb",
    "phone": "(775) 982-7737",
    "phoneUnformatted": "+17759827737",
    "claimThisBusiness": false,
    "location": {
      "lat": 39.5264568,
      "lng": -119.7948043
    },
    "totalScore": 4,
    "permanentlyClosed": false,
    "temporarilyClosed": false,
    "placeId": "ChIJfy2JtGlBmYAR-2xFaF_81pE",
    "categories": [
      "Pharmacy"
    ],
    "fid": "0x80994169b4892d7f:0x91d6fc5f68456cfb",
    "cid": "10508864267217104123",
    "reviewsCount": 25,
    "imagesCount": 3,
    "imageCategories": [],
    "scrapedAt": "2025-06-22T08:44:12.877Z",
    "googleFoodUrl": null,
    "hotelAds": [],
    "openingHours": [
      {
        "day": "Monday",
        "hours": "Open 24 hours"
      },
      {
        "day": "Tuesday",
        "hours": "Open 24 hours"
      },
      {
        "day": "Wednesday",
        "hours": "Open 24 hours"
      },
      {
        "day": "Thursday",
        "hours": "Open 24 hours"
      },
      {
        "day": "Friday",
        "hours": "Open 24 hours"
      },
      {
        "day": "Saturday",
        "hours": "Open 24 hours"
      },
      {
        "day": "Sunday",
        "hours": "Open 24 hours"
      }
    ],
    "peopleAlsoSearch": [],
    "placesTags": [],
    "reviewsTags": [],
    "additionalInfo": {
      "Accessibility": [
        {
          "Wheelchair accessible entrance": true
        },
        {
          "Wheelchair accessible parking lot": true
        }
      ],
      "Payments": [
        {
          "Credit cards": true
        }
      ]
    },
    "gasPrices": [],
    "url": "https://www.google.com/maps/search/?api=1&query=Renown%20Pharmacy%20%E2%80%93%20Pringle&query_place_id=ChIJfy2JtGlBmYAR-2xFaF_81pE",
    "searchPageUrl": "https://www.google.com/maps/search/independent%20pharmacy%20Reno%20NV/@69.9064287015676,-143.9041190859444,9z?hl=en",
    "searchString": "independent pharmacy Reno NV",
    "language": "en",
    "rank": 6,
    "isAdvertisement": false,
    "imageUrl": "https://lh3.googleusercontent.com/p/AF1QipNahEEN7mC4Af0pOHNNYGck6Sn0zySr2-2k1mDX=w427-h240-k-no",
    "kgmid": "/g/11pq2bg1ts"
  },
  {
    "title": "integricare Rx",
    "price": null,
    "categoryName": "Pharmacy",
    "address": "10605 Double R Blvd, Reno, NV 89521",
    "neighborhood": null,
    "street": "10605 Double R Blvd",
    "city": "Reno",
    "postalCode": "89521",
    "state": "Nevada",
    "countryCode": "US",
    "website": "https://www.integricarerx.com/",
    "phone": "(775) 851-7788",
    "phoneUnformatted": "+17758517788",
    "claimThisBusiness": false,
    "location": {
      "lat": 39.4281547,
      "lng": -119.7526611
    },
    "totalScore": 5,
    "permanentlyClosed": false,
    "temporarilyClosed": false,
    "placeId": "ChIJR6i5GP0UmYARIWAj9Fd4Omg",
    "categories": [
      "Pharmacy"
    ],
    "fid": "0x809914fd18b9a847:0x683a7857f4236021",
    "cid": "7510447647747170337",
    "reviewsCount": 3,
    "imagesCount": 1,
    "imageCategories": [],
    "scrapedAt": "2025-06-22T08:44:12.877Z",
    "googleFoodUrl": null,
    "hotelAds": [],
    "openingHours": [
      {
        "day": "Monday",
        "hours": "9:30 AM to 6 PM"
      },
      {
        "day": "Tuesday",
        "hours": "9:30 AM to 6 PM"
      },
      {
        "day": "Wednesday",
        "hours": "9:30 AM to 6 PM"
      },
      {
        "day": "Thursday",
        "hours": "9:30 AM to 6 PM"
      },
      {
        "day": "Friday",
        "hours": "9:30 AM to 6 PM"
      },
      {
        "day": "Saturday",
        "hours": "12 to 4 PM"
      },
      {
        "day": "Sunday",
        "hours": "Closed"
      }
    ],
    "peopleAlsoSearch": [],
    "placesTags": [],
    "reviewsTags": [],
    "additionalInfo": {
      "From the business": [
        {
          "Small business": true
        }
      ],
      "Accessibility": [
        {
          "Wheelchair accessible entrance": true
        },
        {
          "Wheelchair accessible parking lot": true
        }
      ],
      "Payments": [
        {
          "Checks": true
        },
        {
          "Credit cards": true
        },
        {
          "NFC mobile payments": true
        }
      ]
    },
    "gasPrices": [],
    "url": "https://www.google.com/maps/search/?api=1&query=integricare%20Rx&query_place_id=ChIJR6i5GP0UmYARIWAj9Fd4Omg",
    "searchPageUrl": "https://www.google.com/maps/search/independent%20pharmacy%20Reno%20NV/@69.9064287015676,-143.9041190859444,9z?hl=en",
    "searchString": "independent pharmacy Reno NV",
    "language": "en",
    "rank": 7,
    "isAdvertisement": false,
    "imageUrl": "https://streetviewpixels-pa.googleapis.com/v1/thumbnail?panoid=H62NoMZjxftMzJF5zlgqsQ&cb_client=search.gws-prod.gps&w=408&h=240&yaw=247.51389&pitch=0&thumbfov=100",
    "kgmid": "/g/11csbwx7dw"
  },
  {
    "title": "Sierra Pharmacy Services Inc",
    "price": null,
    "categoryName": "Pharmacy",
    "address": "601 Mill St, Reno, NV 89502",
    "neighborhood": "Wells Avenue District",
    "street": "601 Mill St",
    "city": "Reno",
    "postalCode": "89502",
    "state": "Nevada",
    "countryCode": "US",
    "phone": "(775) 786-9585",
    "phoneUnformatted": "+17757869585",
    "claimThisBusiness": true,
    "location": {
      "lat": 39.5260729,
      "lng": -119.8041064
    },
    "totalScore": 3.8,
    "permanentlyClosed": false,
    "temporarilyClosed": false,
    "placeId": "ChIJKceesLNAmYARWqek7kY8Mbo",
    "categories": [
      "Pharmacy"
    ],
    "fid": "0x809940b3b09ec729:0xba313c46eea4a75a",
    "cid": "13416571040262563674",
    "reviewsCount": 4,
    "imagesCount": 1,
    "imageCategories": [],
    "scrapedAt": "2025-06-22T08:44:12.877Z",
    "googleFoodUrl": null,
    "hotelAds": [],
    "openingHours": [
      {
        "day": "Monday",
        "hours": "9 AM to 5 PM"
      },
      {
        "day": "Tuesday",
        "hours": "9 AM to 5 PM"
      },
      {
        "day": "Wednesday",
        "hours": "9 AM to 5 PM"
      },
      {
        "day": "Thursday",
        "hours": "9 AM to 5 PM"
      },
      {
        "day": "Friday",
        "hours": "9 AM to 5 PM"
      },
      {
        "day": "Saturday",
        "hours": "Closed"
      },
      {
        "day": "Sunday",
        "hours": "Closed"
      }
    ],
    "peopleAlsoSearch": [],
    "placesTags": [],
    "reviewsTags": [],
    "additionalInfo": {
      "Accessibility": [
        {
          "Wheelchair accessible entrance": true
        },
        {
          "Wheelchair accessible parking lot": true
        }
      ],
      "Payments": [
        {
          "Credit cards": true
        }
      ]
    },
    "gasPrices": [],
    "url": "https://www.google.com/maps/search/?api=1&query=Sierra%20Pharmacy%20Services%20Inc&query_place_id=ChIJKceesLNAmYARWqek7kY8Mbo",
    "searchPageUrl": "https://www.google.com/maps/search/independent%20pharmacy%20Reno%20NV/@69.9064287015676,-143.9041190859444,9z?hl=en",
    "searchString": "independent pharmacy Reno NV",
    "language": "en",
    "rank": 8,
    "isAdvertisement": false,
    "imageUrl": "https://streetviewpixels-pa.googleapis.com/v1/thumbnail?panoid=s8lsHOOp91tpjE4kXAztHA&cb_client=search.gws-prod.gps&w=408&h=240&yaw=86.44995&pitch=0&thumbfov=100",
    "kgmid": "/g/113fy9mf2"
  },
  {
    "title": "Well Care Pharmacy",
    "price": null,
    "categoryName": "Pharmacy",
    "address": "275 S Wells Ave, Reno, NV 89502",
    "neighborhood": "Wells Avenue District",
    "street": "275 S Wells Ave",
    "city": "Reno",
    "postalCode": "89502",
    "state": "Nevada",
    "countryCode": "US",
    "website": "http://www.mywellcarepharmacy.com/",
    "phone": "(775) 313-0530",
    "phoneUnformatted": "+17753130530",
    "claimThisBusiness": false,
    "location": {
      "lat": 39.5241625,
      "lng": -119.8037699
    },
    "totalScore": 3.4,
    "permanentlyClosed": false,
    "temporarilyClosed": false,
    "placeId": "ChIJrVqNs0FBmYARkgevmod5270",
    "categories": [
      "Pharmacy"
    ],
    "fid": "0x80994141b38d5aad:0xbddb79879aaf0792",
    "cid": "13680661916390721426",
    "reviewsCount": 32,
    "imagesCount": 12,
    "imageCategories": [],
    "scrapedAt": "2025-06-22T08:44:14.400Z",
    "googleFoodUrl": null,
    "hotelAds": [],
    "openingHours": [
      {
        "day": "Monday",
        "hours": "9 AM to 5:30 PM"
      },
      {
        "day": "Tuesday",
        "hours": "9 AM to 5:30 PM"
      },
      {
        "day": "Wednesday",
        "hours": "9 AM to 5:30 PM"
      },
      {
        "day": "Thursday",
        "hours": "9 AM to 5:30 PM"
      },
      {
        "day": "Friday",
        "hours": "9 AM to 5:30 PM"
      },
      {
        "day": "Saturday",
        "hours": "Closed"
      },
      {
        "day": "Sunday",
        "hours": "Closed"
      }
    ],
    "peopleAlsoSearch": [],
    "placesTags": [],
    "reviewsTags": [],
    "additionalInfo": {
      "From the business": [
        {
          "Small business": true
        }
      ],
      "Service options": [
        {
          "Delivery": true
        }
      ],
      "Accessibility": [
        {
          "Wheelchair accessible entrance": true
        },
        {
          "Wheelchair accessible parking lot": true
        }
      ],
      "Payments": [
        {
          "Credit cards": true
        }
      ]
    },
    "gasPrices": [],
    "url": "https://www.google.com/maps/search/?api=1&query=Well%20Care%20Pharmacy&query_place_id=ChIJrVqNs0FBmYARkgevmod5270",
    "searchPageUrl": "https://www.google.com/maps/search/independent%20pharmacy%20Reno%20NV/@55.90929253764349,-156.08076678160276,12z?hl=en",
    "searchString": "independent pharmacy Reno NV",
    "language": "en",
    "rank": 9,
    "isAdvertisement": false,
    "imageUrl": "https://lh3.googleusercontent.com/p/AF1QipNJUKkxYrZ3Ypgoi9fTJHg01KnspPoyTljHAp_n=w408-h306-k-no",
    "kgmid": "/g/11j4dfltl_"
  },
  {
    "title": "Smith's Pharmacy",
    "price": null,
    "categoryName": "Pharmacy",
    "address": "750 S Meadows Pkwy, Reno, NV 89521",
    "neighborhood": null,
    "street": "750 S Meadows Pkwy",
    "city": "Reno",
    "postalCode": "89521",
    "state": "Nevada",
    "countryCode": "US",
    "website": "https://www.smithsfoodanddrug.com/rx/pharmacy/details/706/00378?cid=loc_70600378P_gmb",
    "phone": "(775) 851-8060",
    "phoneUnformatted": "+17758518060",
    "claimThisBusiness": false,
    "location": {
      "lat": 39.4373261,
      "lng": -119.7567835
    },
    "totalScore": 3.1,
    "permanentlyClosed": false,
    "temporarilyClosed": false,
    "placeId": "ChIJZ4L0hxAVmYARslErOydSmNg",
    "categories": [
      "Pharmacy",
      "Drug store",
      "Health counselor",
      "Home health care service"
    ],
    "fid": "0x8099151087f48267:0xd89852273b2b51b2",
    "cid": "15607314837102350770",
    "reviewsCount": 38,
    "imagesCount": 13,
    "imageCategories": [],
    "scrapedAt": "2025-06-22T08:44:21.821Z",
    "googleFoodUrl": null,
    "hotelAds": [],
    "openingHours": [
      {
        "day": "Monday",
        "hours": "9 AM to 1 PM, 1:30 to 8 PM"
      },
      {
        "day": "Tuesday",
        "hours": "9 AM to 1 PM, 1:30 to 8 PM"
      },
      {
        "day": "Wednesday",
        "hours": "9 AM to 1 PM, 1:30 to 8 PM"
      },
      {
        "day": "Thursday",
        "hours": "9 AM to 1 PM, 1:30 to 8 PM"
      },
      {
        "day": "Friday",
        "hours": "9 AM to 1 PM, 1:30 to 8 PM"
      },
      {
        "day": "Saturday",
        "hours": "9 AM to 1 PM, 1:30 to 6 PM"
      },
      {
        "day": "Sunday",
        "hours": "10 AM to 1 PM, 1:30 to 5 PM"
      }
    ],
    "additionalOpeningHours": {
      "Drive through": [
        {
          "day": "Monday",
          "hours": "9 AM–1 PM"
        },
        {
          "day": "Tuesday",
          "hours": "9 AM–1 PM"
        },
        {
          "day": "Wednesday",
          "hours": "9 AM–1 PM"
        },
        {
          "day": "Thursday",
          "hours": "9 AM–1 PM"
        },
        {
          "day": "Friday",
          "hours": "9 AM–1 PM"
        },
        {
          "day": "Saturday",
          "hours": "9 AM–1 PM"
        },
        {
          "day": "Sunday",
          "hours": "10 AM–1 PM"
        }
      ]
    },
    "peopleAlsoSearch": [],
    "placesTags": [],
    "reviewsTags": [],
    "additionalInfo": {
      "Service options": [
        {
          "Curbside pickup": true
        },
        {
          "Delivery": true
        },
        {
          "Drive-through": true
        },
        {
          "In-store pickup": true
        },
        {
          "In-store shopping": true
        },
        {
          "Onsite services": true
        },
        {
          "Same-day delivery": true
        }
      ],
      "Accessibility": [
        {
          "Wheelchair accessible entrance": true
        },
        {
          "Wheelchair accessible parking lot": true
        },
        {
          "Wheelchair accessible restroom": true
        },
        {
          "Wheelchair accessible seating": true
        }
      ],
      "Offerings": [
        {
          "Passport photos": true
        }
      ],
      "Crowd": [
        {
          "LGBTQ+ friendly": true
        },
        {
          "Transgender safespace": true
        }
      ],
      "Planning": [
        {
          "Quick visit": true
        }
      ],
      "Payments": [
        {
          "Checks": true
        },
        {
          "Credit cards": true
        },
        {
          "Debit cards": true
        },
        {
          "NFC mobile payments": true
        },
        {
          "Credit cards": true
        }
      ]
    },
    "gasPrices": [],
    "url": "https://www.google.com/maps/search/?api=1&query=Smith's%20Pharmacy&query_place_id=ChIJZ4L0hxAVmYARslErOydSmNg",
    "searchPageUrl": "https://www.google.com/maps/search/independent%20pharmacy%20Reno%20NV/@33.954544952667874,-114.98210525670324,8z?hl=en",
    "searchString": "independent pharmacy Reno NV",
    "language": "en",
    "rank": 10,
    "isAdvertisement": false,
    "imageUrl": "https://lh3.googleusercontent.com/gps-cs-s/AC9h4nomfy7P8yoD3L2417pQnCP77hu7Yh30z5VbXE46eq8gKjPKkSDZdMHGq7YS0CTSMLkfkBcyaiEptjo5lcCT0Ky4oClI8HbVtJ0HHoZ_VzaQBozCK6noQpigpHUjyaH8FxmekfWH=w408-h306-k-no",
    "kgmid": "/g/1yfj6n1m2"
  },
  {
    "title": "Renown Pharmacy – South Meadows",
    "price": null,
    "categoryName": "Pharmacy",
    "address": "10105 Double R Blvd, Reno, NV 89521",
    "neighborhood": null,
    "street": "10105 Double R Blvd",
    "city": "Reno",
    "postalCode": "89521",
    "state": "Nevada",
    "countryCode": "US",
    "website": "https://www.renown.org/locations/renown-pharmacy---south-meadows",
    "phone": "(775) 982-5366",
    "phoneUnformatted": "+17759825366",
    "claimThisBusiness": false,
    "location": {
      "lat": 39.4360279,
      "lng": -119.7598405
    },
    "totalScore": 4.9,
    "permanentlyClosed": false,
    "temporarilyClosed": false,
    "placeId": "ChIJ-QJQK_IVmYARfEKjfxDbo5Q",
    "categories": [
      "Pharmacy"
    ],
    "fid": "0x809915f22b5002f9:0x94a3db107fa3427c",
    "cid": "10710645202724536956",
    "reviewsCount": 11,
    "imagesCount": 3,
    "imageCategories": [],
    "scrapedAt": "2025-06-22T08:44:21.821Z",
    "googleFoodUrl": null,
    "hotelAds": [],
    "openingHours": [
      {
        "day": "Monday",
        "hours": "8 AM to 5 PM"
      },
      {
        "day": "Tuesday",
        "hours": "8 AM to 5 PM"
      },
      {
        "day": "Wednesday",
        "hours": "8 AM to 5 PM"
      },
      {
        "day": "Thursday",
        "hours": "8 AM to 5 PM"
      },
      {
        "day": "Friday",
        "hours": "8 AM to 5 PM"
      },
      {
        "day": "Saturday",
        "hours": "Closed"
      },
      {
        "day": "Sunday",
        "hours": "Closed"
      }
    ],
    "peopleAlsoSearch": [],
    "placesTags": [],
    "reviewsTags": [],
    "additionalInfo": {
      "Accessibility": [
        {
          "Wheelchair accessible entrance": true
        },
        {
          "Wheelchair accessible parking lot": true
        }
      ],
      "Payments": [
        {
          "Credit cards": true
        }
      ]
    },
    "gasPrices": [],
    "url": "https://www.google.com/maps/search/?api=1&query=Renown%20Pharmacy%20%E2%80%93%20South%20Meadows&query_place_id=ChIJ-QJQK_IVmYARfEKjfxDbo5Q",
    "searchPageUrl": "https://www.google.com/maps/search/independent%20pharmacy%20Reno%20NV/@33.954544952667874,-114.98210525670324,8z?hl=en",
    "searchString": "independent pharmacy Reno NV",
    "language": "en",
    "rank": 11,
    "isAdvertisement": false,
    "imageUrl": "https://lh3.googleusercontent.com/p/AF1QipNxCqdfNeiUrhS3_6Al8nF9B53yjxRiZcggtQ58=w427-h240-k-no",
    "kgmid": "/g/11krkwcbrc"
  },
  {
    "title": "Renown Pharmacy – Locust",
    "price": null,
    "categoryName": "Pharmacy",
    "address": "21 Locust St, Reno, NV 89502",
    "neighborhood": "Wells Avenue District",
    "street": "21 Locust St",
    "city": "Reno",
    "postalCode": "89502",
    "state": "Nevada",
    "countryCode": "US",
    "website": "https://www.renown.org/locations/renown-pharmacy-locust/?utm_source=GMBlisting&utm_medium=organic&utm_campaign=gmb",
    "phone": "(775) 982-5280",
    "phoneUnformatted": "+17759825280",
    "claimThisBusiness": false,
    "location": {
      "lat": 39.528089,
      "lng": -119.800814
    },
    "totalScore": 4.7,
    "permanentlyClosed": false,
    "temporarilyClosed": false,
    "placeId": "ChIJ1_5poOZBmYARrb-bOu_aCX0",
    "categories": [
      "Pharmacy"
    ],
    "fid": "0x809941e6a069fed7:0x7d09daef3a9bbfad",
    "cid": "9009973250546712493",
    "reviewsCount": 22,
    "imagesCount": 2,
    "imageCategories": [],
    "scrapedAt": "2025-06-22T08:44:21.821Z",
    "googleFoodUrl": null,
    "hotelAds": [],
    "openingHours": [
      {
        "day": "Monday",
        "hours": "8 AM to 5 PM"
      },
      {
        "day": "Tuesday",
        "hours": "8 AM to 5 PM"
      },
      {
        "day": "Wednesday",
        "hours": "8 AM to 5 PM"
      },
      {
        "day": "Thursday",
        "hours": "8 AM to 5 PM"
      },
      {
        "day": "Friday",
        "hours": "8 AM to 5 PM"
      },
      {
        "day": "Saturday",
        "hours": "Closed"
      },
      {
        "day": "Sunday",
        "hours": "Closed"
      }
    ],
    "peopleAlsoSearch": [],
    "placesTags": [],
    "reviewsTags": [],
    "additionalInfo": {
      "Service options": [
        {
          "Delivery": true
        }
      ],
      "Accessibility": [
        {
          "Wheelchair accessible entrance": true
        },
        {
          "Wheelchair accessible parking lot": true
        }
      ],
      "Payments": [
        {
          "Credit cards": true
        }
      ]
    },
    "gasPrices": [],
    "url": "https://www.google.com/maps/search/?api=1&query=Renown%20Pharmacy%20%E2%80%93%20Locust&query_place_id=ChIJ1_5poOZBmYARrb-bOu_aCX0",
    "searchPageUrl": "https://www.google.com/maps/search/independent%20pharmacy%20Reno%20NV/@33.954544952667874,-114.98210525670324,8z?hl=en",
    "searchString": "independent pharmacy Reno NV",
    "language": "en",
    "rank": 12,
    "isAdvertisement": false,
    "imageUrl": "https://lh3.googleusercontent.com/p/AF1QipMadAmf1VJLSU5Pq0xMKVFeKYt9gPvLUxJRLdK2=w427-h240-k-no",
    "kgmid": "/g/11mw7p48n_"
  },
  {
    "title": "Walgreens Pharmacy",
    "description": "Department of the Walgreens chain providing prescription medications & other health-related items.",
    "price": null,
    "categoryName": "Pharmacy",
    "address": "750 N Virginia St, Reno, NV 89501",
    "neighborhood": "Downtown",
    "street": "750 N Virginia St",
    "city": "Reno",
    "postalCode": "89501",
    "state": "Nevada",
    "countryCode": "US",
    "website": "https://www.walgreens.com/locator/walgreens-750+n+virginia+st-reno-nv-89501/id=5295",
    "phone": "(775) 337-8703",
    "phoneUnformatted": "+17753378703",
    "claimThisBusiness": false,
    "location": {
      "lat": 39.5347811,
      "lng": -119.8148532
    },
    "totalScore": 4.1,
    "permanentlyClosed": false,
    "temporarilyClosed": false,
    "placeId": "ChIJAQBAnjdHmYARBai9L4UnrqI",
    "categories": [
      "Pharmacy"
    ],
    "fid": "0x809947379e400001:0xa2ae27852fbda805",
    "cid": "11722350333077071877",
    "reviewsCount": 55,
    "imagesCount": 3,
    "imageCategories": [],
    "scrapedAt": "2025-06-22T08:44:21.821Z",
    "googleFoodUrl": null,
    "hotelAds": [],
    "openingHours": [
      {
        "day": "Monday",
        "hours": "8 AM to 1:30 PM, 2 to 10 PM"
      },
      {
        "day": "Tuesday",
        "hours": "8 AM to 1:30 PM, 2 to 10 PM"
      },
      {
        "day": "Wednesday",
        "hours": "8 AM to 1:30 PM, 2 to 10 PM"
      },
      {
        "day": "Thursday",
        "hours": "8 AM to 1:30 PM, 2 to 10 PM"
      },
      {
        "day": "Friday",
        "hours": "8 AM to 1:30 PM, 2 to 10 PM"
      },
      {
        "day": "Saturday",
        "hours": "8 AM to 1:30 PM, 2 to 10 PM"
      },
      {
        "day": "Sunday",
        "hours": "8 AM to 1:30 PM, 2 to 10 PM"
      }
    ],
    "additionalOpeningHours": {
      "Drive through": [
        {
          "day": "Monday",
          "hours": "8 AM–1:30 PM"
        },
        {
          "day": "Tuesday",
          "hours": "8 AM–1:30 PM"
        },
        {
          "day": "Wednesday",
          "hours": "8 AM–1:30 PM"
        },
        {
          "day": "Thursday",
          "hours": "8 AM–1:30 PM"
        },
        {
          "day": "Friday",
          "hours": "8 AM–1:30 PM"
        },
        {
          "day": "Saturday",
          "hours": "8 AM–1:30 PM"
        },
        {
          "day": "Sunday",
          "hours": "8 AM–1:30 PM"
        }
      ]
    },
    "peopleAlsoSearch": [],
    "placesTags": [],
    "reviewsTags": [],
    "additionalInfo": {
      "Service options": [
        {
          "Drive-through": true
        },
        {
          "In-store pickup": true
        }
      ],
      "Accessibility": [
        {
          "Wheelchair accessible entrance": true
        },
        {
          "Wheelchair accessible parking lot": true
        }
      ],
      "Offerings": [
        {
          "Passport photos": true
        }
      ],
      "Planning": [
        {
          "Quick visit": true
        }
      ],
      "Payments": [
        {
          "Credit cards": true
        },
        {
          "Debit cards": true
        }
      ]
    },
    "gasPrices": [],
    "url": "https://www.google.com/maps/search/?api=1&query=Walgreens%20Pharmacy&query_place_id=ChIJAQBAnjdHmYARBai9L4UnrqI",
    "searchPageUrl": "https://www.google.com/maps/search/independent%20pharmacy%20Reno%20NV/@33.954544952667874,-114.98210525670324,8z?hl=en",
    "searchString": "independent pharmacy Reno NV",
    "language": "en",
    "rank": 13,
    "isAdvertisement": false,
    "imageUrl": "https://lh3.googleusercontent.com/p/AF1QipMFcdv0OAZoKoyVFZZSgs1XcQvcwe70zgd-K2kV=w525-h240-k-no",
    "kgmid": "/g/11smrfvsz5"
  },
  {
    "title": "Renown Pharmacy",
    "price": null,
    "categoryName": "Pharmacy",
    "address": "10101 B Double R Blvd, Reno, NV 89521",
    "neighborhood": null,
    "street": "10101 B Double R Blvd",
    "city": "Reno",
    "postalCode": "89521",
    "state": "Nevada",
    "countryCode": "US",
    "claimThisBusiness": true,
    "location": {
      "lat": 39.435909,
      "lng": -119.7611314
    },
    "permanentlyClosed": false,
    "temporarilyClosed": false,
    "placeId": "ChIJJWxAPQAVmYARooWoy--zjTw",
    "categories": [
      "Pharmacy"
    ],
    "fid": "0x809915003d406c25:0x3c8db3efcba885a2",
    "cid": "4363341456487253410",
    "reviewsCount": 0,
    "imagesCount": 1,
    "imageCategories": [],
    "scrapedAt": "2025-06-22T08:44:21.821Z",
    "googleFoodUrl": null,
    "hotelAds": [],
    "openingHours": [],
    "peopleAlsoSearch": [],
    "placesTags": [],
    "reviewsTags": [],
    "gasPrices": [],
    "url": "https://www.google.com/maps/search/?api=1&query=Renown%20Pharmacy&query_place_id=ChIJJWxAPQAVmYARooWoy--zjTw",
    "searchPageUrl": "https://www.google.com/maps/search/independent%20pharmacy%20Reno%20NV/@33.954544952667874,-114.98210525670324,8z?hl=en",
    "searchString": "independent pharmacy Reno NV",
    "language": "en",
    "rank": 14,
    "isAdvertisement": false,
    "imageUrl": "https://streetviewpixels-pa.googleapis.com/v1/thumbnail?panoid=Aiv2RSY7JsCY6Cn3GIsCTg&cb_client=search.gws-prod.gps&w=408&h=240&yaw=91.39169&pitch=0&thumbfov=100",
    "kgmid": "/g/11x714l0tm"
  },
  {
    "title": "Smith's Pharmacy",
    "price": null,
    "categoryName": "Pharmacy",
    "address": "175 Lemmon Dr, Reno, NV 89506",
    "neighborhood": "North Valleys",
    "street": "175 Lemmon Dr",
    "city": "Reno",
    "postalCode": "89506",
    "state": "Nevada",
    "countryCode": "US",
    "website": "https://www.smithsfoodanddrug.com/rx/pharmacy/details/706/00344?cid=loc_70600344P_gmb",
    "phone": "(775) 971-3320",
    "phoneUnformatted": "+17759713320",
    "claimThisBusiness": false,
    "location": {
      "lat": 39.6136782,
      "lng": -119.8521924
    },
    "totalScore": 3.8,
    "permanentlyClosed": false,
    "temporarilyClosed": false,
    "placeId": "ChIJq6udHu1ImYARvlwM3-a5mNc",
    "categories": [
      "Pharmacy",
      "Drug store",
      "Health counselor",
      "Home health care service"
    ],
    "fid": "0x809948ed1e9dabab:0xd798b9e6df0c5cbe",
    "cid": "15535371315850271934",
    "reviewsCount": 23,
    "imagesCount": 11,
    "imageCategories": [],
    "scrapedAt": "2025-06-22T08:44:21.821Z",
    "googleFoodUrl": null,
    "hotelAds": [],
    "openingHours": [
      {
        "day": "Monday",
        "hours": "9 AM to 1 PM, 1:30 to 8 PM"
      },
      {
        "day": "Tuesday",
        "hours": "9 AM to 1 PM, 1:30 to 8 PM"
      },
      {
        "day": "Wednesday",
        "hours": "9 AM to 1 PM, 1:30 to 8 PM"
      },
      {
        "day": "Thursday",
        "hours": "9 AM to 1 PM, 1:30 to 8 PM"
      },
      {
        "day": "Friday",
        "hours": "9 AM to 1 PM, 1:30 to 8 PM"
      },
      {
        "day": "Saturday",
        "hours": "9 AM to 1 PM, 1:30 to 6 PM"
      },
      {
        "day": "Sunday",
        "hours": "10 AM to 1 PM, 1:30 to 5 PM"
      }
    ],
    "additionalOpeningHours": {
      "Drive through": [
        {
          "day": "Monday",
          "hours": "9 AM–1 PM"
        },
        {
          "day": "Tuesday",
          "hours": "9 AM–1 PM"
        },
        {
          "day": "Wednesday",
          "hours": "9 AM–1 PM"
        },
        {
          "day": "Thursday",
          "hours": "9 AM–1 PM"
        },
        {
          "day": "Friday",
          "hours": "9 AM–1 PM"
        },
        {
          "day": "Saturday",
          "hours": "9 AM–1 PM"
        },
        {
          "day": "Sunday",
          "hours": "10 AM–1 PM"
        }
      ]
    },
    "peopleAlsoSearch": [],
    "placesTags": [],
    "reviewsTags": [],
    "additionalInfo": {
      "Service options": [
        {
          "Curbside pickup": true
        },
        {
          "Delivery": true
        },
        {
          "Drive-through": true
        },
        {
          "In-store pickup": true
        },
        {
          "In-store shopping": true
        },
        {
          "Same-day delivery": true
        }
      ],
      "Accessibility": [
        {
          "Wheelchair accessible entrance": true
        },
        {
          "Wheelchair accessible parking lot": true
        },
        {
          "Wheelchair accessible restroom": true
        },
        {
          "Wheelchair accessible seating": true
        }
      ],
      "Amenities": [
        {
          "Wi-Fi": true
        },
        {
          "Free Wi-Fi": true
        }
      ],
      "Crowd": [
        {
          "LGBTQ+ friendly": true
        },
        {
          "Transgender safespace": true
        }
      ],
      "Planning": [
        {
          "Quick visit": true
        }
      ],
      "Payments": [
        {
          "Checks": true
        },
        {
          "Credit cards": true
        },
        {
          "Debit cards": true
        },
        {
          "NFC mobile payments": true
        },
        {
          "Credit cards": true
        }
      ]
    },
    "gasPrices": [],
    "url": "https://www.google.com/maps/search/?api=1&query=Smith's%20Pharmacy&query_place_id=ChIJq6udHu1ImYARvlwM3-a5mNc",
    "searchPageUrl": "https://www.google.com/maps/search/independent%20pharmacy%20Reno%20NV/@33.954544952667874,-114.98210525670324,8z?hl=en",
    "searchString": "independent pharmacy Reno NV",
    "language": "en",
    "rank": 15,
    "isAdvertisement": false,
    "imageUrl": "https://lh3.googleusercontent.com/p/AF1QipNuL_lofF2an5duXOWU4aJL-zGUzaEV2GOeOK9N=w426-h240-k-no",
    "kgmid": "/g/1yfh_jrlh"
  },
  {
    "title": "Walgreens Pharmacy",
    "description": "Department of the Walgreens chain providing prescription medications & other health-related items.",
    "price": "$$",
    "categoryName": "Pharmacy",
    "address": "12645 S Virginia St, Reno, NV 89511",
    "neighborhood": null,
    "street": "12645 S Virginia St",
    "city": "Reno",
    "postalCode": "89511",
    "state": "Nevada",
    "countryCode": "US",
    "website": "https://www.walgreens.com/locator/walgreens-12645+s+virginia+st-reno-nv-89511/id=2662",
    "phone": "(775) 853-9887",
    "phoneUnformatted": "+17758539887",
    "claimThisBusiness": false,
    "location": {
      "lat": 39.4177045,
      "lng": -119.7563999
    },
    "totalScore": 2.5,
    "permanentlyClosed": false,
    "temporarilyClosed": false,
    "placeId": "ChIJyzA7rO8UmYARavDugpdTGXk",
    "categories": [
      "Pharmacy"
    ],
    "fid": "0x809914efac3b30cb:0x7919539782eef06a",
    "cid": "8726097663208910954",
    "reviewsCount": 26,
    "imagesCount": 3,
    "imageCategories": [],
    "scrapedAt": "2025-06-22T08:44:21.821Z",
    "googleFoodUrl": null,
    "hotelAds": [],
    "openingHours": [
      {
        "day": "Monday",
        "hours": "9 AM to 1:30 PM, 2 to 8 PM"
      },
      {
        "day": "Tuesday",
        "hours": "9 AM to 1:30 PM, 2 to 8 PM"
      },
      {
        "day": "Wednesday",
        "hours": "9 AM to 1:30 PM, 2 to 8 PM"
      },
      {
        "day": "Thursday",
        "hours": "9 AM to 1:30 PM, 2 to 8 PM"
      },
      {
        "day": "Friday",
        "hours": "9 AM to 1:30 PM, 2 to 8 PM"
      },
      {
        "day": "Saturday",
        "hours": "9 AM to 1:30 PM, 2 to 6 PM"
      },
      {
        "day": "Sunday",
        "hours": "10 AM to 1:30 PM, 2 to 6 PM"
      }
    ],
    "additionalOpeningHours": {
      "Drive through": [
        {
          "day": "Monday",
          "hours": "9 AM–1:30 PM"
        },
        {
          "day": "Tuesday",
          "hours": "9 AM–1:30 PM"
        },
        {
          "day": "Wednesday",
          "hours": "9 AM–1:30 PM"
        },
        {
          "day": "Thursday",
          "hours": "9 AM–1:30 PM"
        },
        {
          "day": "Friday",
          "hours": "9 AM–1:30 PM"
        },
        {
          "day": "Saturday",
          "hours": "9 AM–1:30 PM"
        },
        {
          "day": "Sunday",
          "hours": "10 AM–1:30 PM"
        }
      ]
    },
    "peopleAlsoSearch": [],
    "placesTags": [],
    "reviewsTags": [],
    "additionalInfo": {
      "Service options": [
        {
          "Drive-through": true
        },
        {
          "In-store pickup": true
        }
      ],
      "Accessibility": [
        {
          "Wheelchair accessible entrance": true
        },
        {
          "Wheelchair accessible parking lot": true
        }
      ],
      "Offerings": [
        {
          "Naloxone": true
        }
      ],
      "Planning": [
        {
          "Quick visit": true
        }
      ],
      "Payments": [
        {
          "Checks": true
        },
        {
          "Credit cards": true
        },
        {
          "Debit cards": true
        }
      ]
    },
    "gasPrices": [],
    "url": "https://www.google.com/maps/search/?api=1&query=Walgreens%20Pharmacy&query_place_id=ChIJyzA7rO8UmYARavDugpdTGXk",
    "searchPageUrl": "https://www.google.com/maps/search/independent%20pharmacy%20Reno%20NV/@33.954544952667874,-114.98210525670324,8z?hl=en",
    "searchString": "independent pharmacy Reno NV",
    "language": "en",
    "rank": 16,
    "isAdvertisement": false,
    "imageUrl": "https://lh3.googleusercontent.com/p/AF1QipPU-NKEyhnZrjdK0ewN3Hq8g2pvxCmYLuXbm2IG=w525-h240-k-no",
    "kgmid": "/g/11cn93hgw4"
  },
  {
    "title": "Walgreens Pharmacy",
    "description": "Department of the Walgreens chain providing prescription medications & other health-related items.",
    "price": "$$",
    "categoryName": "Pharmacy",
    "address": "3495 S Virginia St, Reno, NV 89502",
    "neighborhood": null,
    "street": "3495 S Virginia St",
    "city": "Reno",
    "postalCode": "89502",
    "state": "Nevada",
    "countryCode": "US",
    "website": "https://www.walgreens.com/locator/walgreens-3495+s+virginia+st-reno-nv-89502/id=4789",
    "phone": "(775) 824-0802",
    "phoneUnformatted": "+17758240802",
    "claimThisBusiness": false,
    "location": {
      "lat": 39.4916762,
      "lng": -119.7976403
    },
    "totalScore": 3.1,
    "permanentlyClosed": false,
    "temporarilyClosed": false,
    "placeId": "ChIJi2ARp31AmYARkcFd18Uq5yo",
    "categories": [
      "Pharmacy"
    ],
    "fid": "0x8099407da711608b:0x2ae72ac5d75dc191",
    "cid": "3091486698423304593",
    "reviewsCount": 29,
    "imagesCount": 4,
    "imageCategories": [],
    "scrapedAt": "2025-06-22T08:44:21.821Z",
    "googleFoodUrl": null,
    "hotelAds": [],
    "openingHours": [
      {
        "day": "Monday",
        "hours": "9 AM to 1:30 PM, 2 to 9 PM"
      },
      {
        "day": "Tuesday",
        "hours": "9 AM to 1:30 PM, 2 to 9 PM"
      },
      {
        "day": "Wednesday",
        "hours": "9 AM to 1:30 PM, 2 to 9 PM"
      },
      {
        "day": "Thursday",
        "hours": "9 AM to 1:30 PM, 2 to 9 PM"
      },
      {
        "day": "Friday",
        "hours": "9 AM to 1:30 PM, 2 to 9 PM"
      },
      {
        "day": "Saturday",
        "hours": "9 AM to 1:30 PM, 2 to 6 PM"
      },
      {
        "day": "Sunday",
        "hours": "10 AM to 1:30 PM, 2 to 6 PM"
      }
    ],
    "additionalOpeningHours": {
      "Drive through": [
        {
          "day": "Monday",
          "hours": "9 AM–1:30 PM"
        },
        {
          "day": "Tuesday",
          "hours": "9 AM–1:30 PM"
        },
        {
          "day": "Wednesday",
          "hours": "9 AM–1:30 PM"
        },
        {
          "day": "Thursday",
          "hours": "9 AM–1:30 PM"
        },
        {
          "day": "Friday",
          "hours": "9 AM–1:30 PM"
        },
        {
          "day": "Saturday",
          "hours": "9 AM–1:30 PM"
        },
        {
          "day": "Sunday",
          "hours": "10 AM–1:30 PM"
        }
      ]
    },
    "peopleAlsoSearch": [],
    "placesTags": [],
    "reviewsTags": [],
    "additionalInfo": {
      "Service options": [
        {
          "Curbside pickup": true
        },
        {
          "Delivery": true
        },
        {
          "Drive-through": true
        },
        {
          "In-store pickup": true
        }
      ],
      "Accessibility": [
        {
          "Wheelchair accessible entrance": true
        },
        {
          "Wheelchair accessible parking lot": true
        }
      ],
      "Offerings": [
        {
          "Naloxone": true
        },
        {
          "Passport photos": true
        }
      ],
      "Planning": [
        {
          "Quick visit": true
        }
      ],
      "Payments": [
        {
          "Credit cards": true
        },
        {
          "Debit cards": true
        }
      ]
    },
    "gasPrices": [],
    "url": "https://www.google.com/maps/search/?api=1&query=Walgreens%20Pharmacy&query_place_id=ChIJi2ARp31AmYARkcFd18Uq5yo",
    "searchPageUrl": "https://www.google.com/maps/search/independent%20pharmacy%20Reno%20NV/@33.954544952667874,-114.98210525670324,8z?hl=en",
    "searchString": "independent pharmacy Reno NV",
    "language": "en",
    "rank": 17,
    "isAdvertisement": false,
    "imageUrl": "https://lh3.googleusercontent.com/p/AF1QipMuCyktYJ0VKsa1MSM-9Cvw3bhxHZguajXHiyr_=w525-h240-k-no",
    "kgmid": "/g/11cn95fcg7"
  },
  {
    "title": "Raley's O-N-E Market Pharmacy",
    "price": "$$",
    "categoryName": "Pharmacy",
    "address": "18144 Wedge Pkwy, Reno, NV 89511",
    "neighborhood": null,
    "street": "18144 Wedge Pkwy",
    "city": "Reno",
    "postalCode": "89511",
    "state": "Nevada",
    "countryCode": "US",
    "website": "http://www.raleys.com/",
    "phone": "(775) 850-8920",
    "phoneUnformatted": "+17758508920",
    "claimThisBusiness": false,
    "location": {
      "lat": 39.395109,
      "lng": -119.7657421
    },
    "totalScore": 2.4,
    "permanentlyClosed": false,
    "temporarilyClosed": false,
    "placeId": "ChIJ1TqKc6IUmYARg8RwOB5Bu8Q",
    "categories": [
      "Pharmacy"
    ],
    "fid": "0x809914a2738a3ad5:0xc4bb411e3870c483",
    "cid": "14175995850130506883",
    "reviewsCount": 17,
    "imagesCount": 3,
    "imageCategories": [],
    "scrapedAt": "2025-06-22T08:44:21.821Z",
    "googleFoodUrl": null,
    "hotelAds": [],
    "openingHours": [
      {
        "day": "Monday",
        "hours": "10 AM to 1:30 PM, 2 to 7:30 PM"
      },
      {
        "day": "Tuesday",
        "hours": "10 AM to 1:30 PM, 2 to 7:30 PM"
      },
      {
        "day": "Wednesday",
        "hours": "10 AM to 1:30 PM, 2 to 7:30 PM"
      },
      {
        "day": "Thursday",
        "hours": "10 AM to 1:30 PM, 2 to 7:30 PM"
      },
      {
        "day": "Friday",
        "hours": "10 AM to 1:30 PM, 2 to 7:30 PM"
      },
      {
        "day": "Saturday",
        "hours": "9 AM to 1:30 PM, 2 to 5:30 PM"
      },
      {
        "day": "Sunday",
        "hours": "Closed"
      }
    ],
    "peopleAlsoSearch": [],
    "placesTags": [],
    "reviewsTags": [],
    "additionalInfo": {
      "Service options": [
        {
          "Delivery": true
        },
        {
          "In-store pickup": true
        },
        {
          "In-store shopping": true
        }
      ],
      "Accessibility": [
        {
          "Wheelchair accessible entrance": true
        },
        {
          "Wheelchair accessible parking lot": true
        }
      ],
      "Amenities": [
        {
          "Wi-Fi": true
        },
        {
          "Free Wi-Fi": true
        }
      ],
      "Planning": [
        {
          "Quick visit": true
        }
      ],
      "Payments": [
        {
          "Checks": true
        },
        {
          "Credit cards": true
        },
        {
          "Debit cards": true
        },
        {
          "NFC mobile payments": true
        },
        {
          "Credit cards": true
        }
      ]
    },
    "gasPrices": [],
    "url": "https://www.google.com/maps/search/?api=1&query=Raley's%20O-N-E%20Market%20Pharmacy&query_place_id=ChIJ1TqKc6IUmYARg8RwOB5Bu8Q",
    "searchPageUrl": "https://www.google.com/maps/search/independent%20pharmacy%20Reno%20NV/@33.954544952667874,-114.98210525670324,8z?hl=en",
    "searchString": "independent pharmacy Reno NV",
    "language": "en",
    "rank": 18,
    "isAdvertisement": false,
    "imageUrl": "https://lh3.googleusercontent.com/gps-cs-s/AC9h4nrBuI7O_LaNjFyYflorJQkDtQxGO5byMOug5AVkRHSbX7RuilnUwzjchJa2pCiqpwC0wBPlq3CUKOIcqUOqNB2BtZ_PG5BU6OCMd3SldD71w4-THlhxdGCVlNrWaqr_SdT2pkYC=w408-h408-k-no",
    "kgmid": "/g/12hkz8fzr"
  },
  {
    "title": "CVS Pharmacy",
    "price": null,
    "categoryName": "Pharmacy",
    "address": "299 E Plumb Ln SUITE 170, Reno, NV 89502",
    "neighborhood": "Wells Avenue District",
    "street": "299 E Plumb Ln SUITE 170",
    "city": "Reno",
    "postalCode": "89502",
    "state": "Nevada",
    "countryCode": "US",
    "website": "https://www.cvs.com/store-locator/reno-nv-pharmacies/285-e-plumb-ln-reno-nv-89502/storeid=8793?WT.mc_id=LS_GOOGLE_RX_8793",
    "phone": "(775) 786-1884",
    "phoneUnformatted": "+17757861884",
    "claimThisBusiness": false,
    "location": {
      "lat": 39.506603,
      "lng": -119.8022792
    },
    "totalScore": 3.6,
    "permanentlyClosed": false,
    "temporarilyClosed": false,
    "placeId": "ChIJG7_MSJdAmYARimYxFwj64fU",
    "categories": [
      "Pharmacy"
    ],
    "fid": "0x8099409748ccbf1b:0xf5e1fa081731668a",
    "cid": "17717717321708037770",
    "reviewsCount": 35,
    "imagesCount": 21,
    "imageCategories": [],
    "scrapedAt": "2025-06-22T08:44:21.822Z",
    "googleFoodUrl": null,
    "hotelAds": [],
    "openingHours": [
      {
        "day": "Monday",
        "hours": "9 AM to 7:45 PM, 8 PM to 12 AM"
      },
      {
        "day": "Tuesday",
        "hours": "9 AM to 1:30 PM, 2 to 8 PM"
      },
      {
        "day": "Wednesday",
        "hours": "9 AM to 1:30 PM, 2 to 8 PM"
      },
      {
        "day": "Thursday",
        "hours": "9 AM to 1:30 PM, 2 to 8 PM"
      },
      {
        "day": "Friday",
        "hours": "9 AM to 1:30 PM, 2 to 8 PM"
      },
      {
        "day": "Saturday",
        "hours": "10 AM to 1:30 PM, 2 to 6 PM"
      },
      {
        "day": "Sunday",
        "hours": "10 AM to 1:30 PM, 2 to 6 PM"
      }
    ],
    "peopleAlsoSearch": [],
    "placesTags": [],
    "reviewsTags": [],
    "additionalInfo": {
      "Service options": [
        {
          "Delivery": true
        },
        {
          "Drive-through": true
        },
        {
          "In-store shopping": true
        }
      ],
      "Accessibility": [
        {
          "Wheelchair accessible entrance": true
        },
        {
          "Wheelchair accessible parking lot": true
        }
      ],
      "Offerings": [
        {
          "Naloxone": true
        },
        {
          "Passport photos": true
        }
      ],
      "Crowd": [
        {
          "LGBTQ+ friendly": true
        },
        {
          "Transgender safespace": true
        }
      ],
      "Planning": [
        {
          "Quick visit": true
        }
      ],
      "Payments": [
        {
          "Credit cards": true
        },
        {
          "Debit cards": true
        },
        {
          "NFC mobile payments": true
        },
        {
          "SNAP/EBT": true
        },
        {
          "Credit cards": true
        }
      ]
    },
    "gasPrices": [],
    "url": "https://www.google.com/maps/search/?api=1&query=CVS%20Pharmacy&query_place_id=ChIJG7_MSJdAmYARimYxFwj64fU",
    "searchPageUrl": "https://www.google.com/maps/search/independent%20pharmacy%20Reno%20NV/@33.954544952667874,-114.98210525670324,8z?hl=en",
    "searchString": "independent pharmacy Reno NV",
    "language": "en",
    "rank": 19,
    "isAdvertisement": false,
    "imageUrl": "https://lh3.googleusercontent.com/p/AF1QipOmoWEDdEC65tSfniAcyoQc0dq7xFnsP_XtA_r3=w408-h272-k-no",
    "kgmid": "/g/11c45_td7k"
  },
  {
    "title": "Village Pharmacy",
    "price": null,
    "categoryName": "Pharmacy",
    "address": "898 Tanager St, Incline Village, NV 89451",
    "neighborhood": null,
    "street": "898 Tanager St",
    "city": "Incline Village",
    "postalCode": "89451",
    "state": "Nevada",
    "countryCode": "US",
    "phone": "(775) 831-1133",
    "phoneUnformatted": "+17758311133",
    "claimThisBusiness": false,
    "location": {
      "lat": 39.2486183,
      "lng": -119.9528862
    },
    "totalScore": 4.9,
    "permanentlyClosed": false,
    "temporarilyClosed": false,
    "placeId": "ChIJtSXksRdwmYAR_mAmEqTHAUI",
    "categories": [
      "Pharmacy",
      "Wellness center"
    ],
    "fid": "0x80997017b1e425b5:0x4201c7a4122660fe",
    "cid": "4756302188973023486",
    "reviewsCount": 26,
    "imagesCount": 4,
    "imageCategories": [],
    "scrapedAt": "2025-06-22T08:44:21.822Z",
    "googleFoodUrl": null,
    "hotelAds": [],
    "openingHours": [
      {
        "day": "Monday",
        "hours": "9 AM to 5 PM"
      },
      {
        "day": "Tuesday",
        "hours": "9 AM to 5 PM"
      },
      {
        "day": "Wednesday",
        "hours": "9 AM to 5 PM"
      },
      {
        "day": "Thursday",
        "hours": "9 AM to 5 PM"
      },
      {
        "day": "Friday",
        "hours": "9 AM to 5 PM"
      },
      {
        "day": "Saturday",
        "hours": "Closed"
      },
      {
        "day": "Sunday",
        "hours": "Closed"
      }
    ],
    "peopleAlsoSearch": [],
    "placesTags": [],
    "reviewsTags": [],
    "additionalInfo": {
      "From the business": [
        {
          "Small business": true
        }
      ],
      "Service options": [
        {
          "Delivery": true
        },
        {
          "Same-day delivery": true
        }
      ],
      "Accessibility": [
        {
          "Wheelchair accessible entrance": true
        },
        {
          "Wheelchair accessible parking lot": true
        }
      ],
      "Offerings": [
        {
          "Medication disposal": true
        }
      ],
      "Planning": [
        {
          "Quick visit": true
        }
      ],
      "Payments": [
        {
          "Credit cards": true
        },
        {
          "Debit cards": true
        },
        {
          "NFC mobile payments": true
        },
        {
          "Credit cards": true
        }
      ]
    },
    "gasPrices": [],
    "url": "https://www.google.com/maps/search/?api=1&query=Village%20Pharmacy&query_place_id=ChIJtSXksRdwmYAR_mAmEqTHAUI",
    "searchPageUrl": "https://www.google.com/maps/search/independent%20pharmacy%20Reno%20NV/@33.954544952667874,-114.98210525670324,8z?hl=en",
    "searchString": "independent pharmacy Reno NV",
    "language": "en",
    "rank": 20,
    "isAdvertisement": false,
    "imageUrl": "https://lh3.googleusercontent.com/gps-cs-s/AC9h4nqsn2XWyMFqiJOOy2_TFJ1-yHClMZjpXPixdK4jTvEfeTl2FufUCB_5MbPVlP9ri4lK6FbcV4GjUQZlEIc48Lpca3cNwSglh8hJM-57wWYnkRX2zY_oMnVLYHuGr2J_n5EGsUr0=w408-h306-k-no",
    "kgmid": "/g/1trqhggl"
  }
]