[
  {
    "title": "Pharmacare Hilo",
    "price": null,
    "categoryName": "Pharmacy",
    "address": "162 Kinoole St STE 201, Hilo, HI 96720",
    "neighborhood": null,
    "street": "162 Kinoole St STE 201",
    "city": "Hilo",
    "postalCode": "96720",
    "state": "Hawaii",
    "countryCode": "US",
    "website": "https://www.pharmacarehawaii.com/locations/hilo-office",
    "claimThisBusiness": true,
    "location": {
      "lat": 19.7239825,
      "lng": -155.0884846
    },
    "totalScore": 5,
    "permanentlyClosed": false,
    "temporarilyClosed": false,
    "placeId": "ChIJe7fUSwBLUnkRHySHPQfWFqU",
    "categories": [
      "Pharmacy"
    ],
    "fid": "0x79524b004bd4b77b:0xa516d6073d87241f",
    "cid": "11895930792331125791",
    "reviewsCount": 2,
    "imagesCount": 1,
    "imageCategories": [],
    "scrapedAt": "2025-06-22T07:34:48.914Z",
    "googleFoodUrl": null,
    "hotelAds": [],
    "openingHours": [],
    "peopleAlsoSearch": [],
    "placesTags": [],
    "reviewsTags": [],
    "additionalInfo": {
      "Accessibility": [
        {
          "Wheelchair accessible entrance": true
        },
        {
          "Wheelchair accessible parking lot": true
        }
      ],
      "Payments": [
        {
          "Credit cards": true
        }
      ]
    },
    "gasPrices": [],
    "url": "https://www.google.com/maps/search/?api=1&query=Pharmacare%20Hilo&query_place_id=ChIJe7fUSwBLUnkRHySHPQfWFqU",
    "searchPageUrl": "https://www.google.com/maps/search/independent%20pharmacy%20Hilo%20HI/@52.537401959029296,-171.52329474216714,9z?hl=en",
    "searchString": "independent pharmacy Hilo HI",
    "language": "en",
    "rank": 1,
    "isAdvertisement": false,
    "imageUrl": "https://streetviewpixels-pa.googleapis.com/v1/thumbnail?panoid=QxcplIvhJFoNGkrPgzuJaw&cb_client=search.gws-prod.gps&w=408&h=240&yaw=221.19579&pitch=0&thumbfov=100",
    "kgmid": "/g/11lv4br99m"
  },
  {
    "title": "PharMerica – Hilo, HI",
    "price": null,
    "categoryName": "Pharmacy",
    "address": "688 Kinoole St, Hilo, HI 96720",
    "neighborhood": null,
    "street": "688 Kinoole St",
    "city": "Hilo",
    "postalCode": "96720",
    "state": "Hawaii",
    "countryCode": "US",
    "website": "http://www.pharmerica.com/",
    "phone": "(800) 423-5815",
    "phoneUnformatted": "+18004235815",
    "claimThisBusiness": false,
    "location": {
      "lat": 19.7177228,
      "lng": -155.084604
    },
    "permanentlyClosed": false,
    "temporarilyClosed": false,
    "placeId": "ChIJr1oBmVBLUnkRD6PnLu0H12w",
    "categories": [
      "Pharmacy"
    ],
    "fid": "0x79524b5099015aaf:0x6cd707ed2ee7a30f",
    "cid": "7842745991364584207",
    "reviewsCount": 0,
    "imagesCount": 1,
    "imageCategories": [],
    "scrapedAt": "2025-06-22T07:34:48.915Z",
    "googleFoodUrl": null,
    "hotelAds": [],
    "openingHours": [
      {
        "day": "Monday",
        "hours": "Open 24 hours"
      },
      {
        "day": "Tuesday",
        "hours": "Open 24 hours"
      },
      {
        "day": "Wednesday",
        "hours": "Open 24 hours"
      },
      {
        "day": "Thursday",
        "hours": "Open 24 hours"
      },
      {
        "day": "Friday",
        "hours": "Open 24 hours"
      },
      {
        "day": "Saturday",
        "hours": "Open 24 hours"
      },
      {
        "day": "Sunday",
        "hours": "Open 24 hours"
      }
    ],
    "peopleAlsoSearch": [],
    "placesTags": [],
    "reviewsTags": [],
    "additionalInfo": {
      "Accessibility": [
        {
          "Wheelchair accessible entrance": true
        },
        {
          "Wheelchair accessible parking lot": true
        }
      ],
      "Payments": [
        {
          "Credit cards": true
        }
      ]
    },
    "gasPrices": [],
    "url": "https://www.google.com/maps/search/?api=1&query=PharMerica%20%E2%80%93%20Hilo%2C%20HI&query_place_id=ChIJr1oBmVBLUnkRD6PnLu0H12w",
    "searchPageUrl": "https://www.google.com/maps/search/independent%20pharmacy%20Hilo%20HI/@52.537401959029296,-171.52329474216714,9z?hl=en",
    "searchString": "independent pharmacy Hilo HI",
    "language": "en",
    "rank": 2,
    "isAdvertisement": false,
    "imageUrl": "https://streetviewpixels-pa.googleapis.com/v1/thumbnail?panoid=Z3UD0ldUA7LykivDdsTj6Q&cb_client=search.gws-prod.gps&w=408&h=240&yaw=229.80481&pitch=0&thumbfov=100",
    "kgmid": "/g/1tc_8whn"
  },
  {
    "title": "Shiigi Drug Co",
    "price": null,
    "categoryName": "Pharmacy",
    "address": "333 Kilauea Ave # 4, Hilo, HI 96720",
    "neighborhood": null,
    "street": "333 Kilauea Ave # 4",
    "city": "Hilo",
    "postalCode": "96720",
    "state": "Hawaii",
    "countryCode": "US",
    "website": "http://www.shiigidrug.com/",
    "phone": "(808) 935-0001",
    "phoneUnformatted": "+18089350001",
    "claimThisBusiness": false,
    "location": {
      "lat": 19.720684,
      "lng": -155.0833569
    },
    "totalScore": 4.3,
    "permanentlyClosed": false,
    "temporarilyClosed": false,
    "placeId": "ChIJ31zh21lLUnkRlBVVGxQg24E",
    "categories": [
      "Pharmacy"
    ],
    "fid": "0x79524b59dbe15cdf:0x81db20141b551594",
    "cid": "9357107921522333076",
    "reviewsCount": 16,
    "imagesCount": 1,
    "imageCategories": [],
    "scrapedAt": "2025-06-22T07:34:48.915Z",
    "googleFoodUrl": null,
    "hotelAds": [],
    "openingHours": [
      {
        "day": "Monday",
        "hours": "9 AM to 5 PM"
      },
      {
        "day": "Tuesday",
        "hours": "9 AM to 5 PM"
      },
      {
        "day": "Wednesday",
        "hours": "9 AM to 5 PM"
      },
      {
        "day": "Thursday",
        "hours": "9 AM to 5 PM"
      },
      {
        "day": "Friday",
        "hours": "9 AM to 5 PM"
      },
      {
        "day": "Saturday",
        "hours": "9 AM to 1 PM"
      },
      {
        "day": "Sunday",
        "hours": "Closed"
      }
    ],
    "peopleAlsoSearch": [],
    "placesTags": [],
    "reviewsTags": [],
    "additionalInfo": {
      "From the business": [
        {
          "Small business": true
        }
      ],
      "Service options": [
        {
          "Delivery": true
        },
        {
          "Same-day delivery": true
        }
      ],
      "Accessibility": [
        {
          "Wheelchair accessible entrance": true
        },
        {
          "Wheelchair accessible parking lot": true
        }
      ],
      "Planning": [
        {
          "Quick visit": true
        }
      ],
      "Payments": [
        {
          "Credit cards": true
        },
        {
          "Debit cards": true
        },
        {
          "NFC mobile payments": true
        },
        {
          "Credit cards": true
        }
      ]
    },
    "gasPrices": [],
    "url": "https://www.google.com/maps/search/?api=1&query=Shiigi%20Drug%20Co&query_place_id=ChIJ31zh21lLUnkRlBVVGxQg24E",
    "searchPageUrl": "https://www.google.com/maps/search/independent%20pharmacy%20Hilo%20HI/@52.537401959029296,-171.52329474216714,9z?hl=en",
    "searchString": "independent pharmacy Hilo HI",
    "language": "en",
    "rank": 3,
    "isAdvertisement": false,
    "imageUrl": "https://streetviewpixels-pa.googleapis.com/v1/thumbnail?panoid=aoq-PliB9OXiwIoCfYYtcQ&cb_client=search.gws-prod.gps&w=408&h=240&yaw=39.29669&pitch=0&thumbfov=100",
    "kgmid": "/g/1td65j5n"
  },
  {
    "title": "Medipharm Pharmacy",
    "price": null,
    "categoryName": "Pharmacy",
    "address": "891 Ululani St #113, Hilo, HI 96720",
    "neighborhood": null,
    "street": "891 Ululani St #113",
    "city": "Hilo",
    "postalCode": "96720",
    "state": "Hawaii",
    "countryCode": "US",
    "website": "https://www.mygnp.com/pharmacies/medipharm-pharmacy-hilo-hi-96720/?utm_source=google&utm_medium=local&utm_campaign=localmaps&utm_content=1241645",
    "phone": "(808) 969-9163",
    "phoneUnformatted": "+18089699163",
    "claimThisBusiness": false,
    "location": {
      "lat": 19.7166201,
      "lng": -155.0849724
    },
    "totalScore": 4.9,
    "permanentlyClosed": false,
    "temporarilyClosed": false,
    "placeId": "ChIJGQe74lVLUnkR0B5BsP_Lh_8",
    "categories": [
      "Pharmacy",
      "Drug store"
    ],
    "fid": "0x79524b55e2bb0719:0xff87cbffb0411ed0",
    "cid": "18412909900561718992",
    "reviewsCount": 8,
    "imagesCount": 2,
    "imageCategories": [],
    "scrapedAt": "2025-06-22T07:34:48.915Z",
    "googleFoodUrl": null,
    "hotelAds": [],
    "openingHours": [
      {
        "day": "Monday",
        "hours": "8:30 AM to 4 PM"
      },
      {
        "day": "Tuesday",
        "hours": "8:30 AM to 4 PM"
      },
      {
        "day": "Wednesday",
        "hours": "8:30 AM to 4 PM"
      },
      {
        "day": "Thursday",
        "hours": "8:30 AM to 4 PM"
      },
      {
        "day": "Friday",
        "hours": "8:30 AM to 4 PM"
      },
      {
        "day": "Saturday",
        "hours": "Closed"
      },
      {
        "day": "Sunday",
        "hours": "Closed"
      }
    ],
    "peopleAlsoSearch": [],
    "placesTags": [],
    "reviewsTags": [],
    "additionalInfo": {
      "Service options": [
        {
          "Delivery": true
        },
        {
          "In-store shopping": true
        },
        {
          "Onsite services": true
        }
      ],
      "Accessibility": [
        {
          "Wheelchair accessible entrance": true
        },
        {
          "Wheelchair accessible parking lot": true
        }
      ],
      "Payments": [
        {
          "Credit cards": true
        }
      ]
    },
    "gasPrices": [],
    "url": "https://www.google.com/maps/search/?api=1&query=Medipharm%20Pharmacy&query_place_id=ChIJGQe74lVLUnkR0B5BsP_Lh_8",
    "searchPageUrl": "https://www.google.com/maps/search/independent%20pharmacy%20Hilo%20HI/@52.537401959029296,-171.52329474216714,9z?hl=en",
    "searchString": "independent pharmacy Hilo HI",
    "language": "en",
    "rank": 4,
    "isAdvertisement": false,
    "imageUrl": "https://lh3.googleusercontent.com/gps-cs-s/AC9h4noWXvgkma_VW9X_z8Do33CG99N1q9u4CW1n8ydIUH0HebQVEltgv18KaNMd8MK6MzL4e5HBTRA8hDCZsuVoKzhdG633WFnUvNr2WPGov-4zpFTyGcUVnDeRg8YqjB_2Gr_3VHs=w408-h272-k-no",
    "kgmid": "/g/11cm1jyk3n"
  },
  {
    "title": "East Hawaii Health - Pharmacy",
    "price": null,
    "categoryName": "Pharmacy",
    "address": "1190 Waianuenue Ave, Hilo, HI 96720",
    "neighborhood": null,
    "street": "1190 Waianuenue Ave",
    "city": "Hilo",
    "postalCode": "96720",
    "state": "Hawaii",
    "countryCode": "US",
    "website": "https://www.hilomedicalcenter.org/pharmacy/",
    "phone": "(808) 932-3770",
    "phoneUnformatted": "+18089323770",
    "claimThisBusiness": false,
    "location": {
      "lat": 19.71836,
      "lng": -155.11311
    },
    "totalScore": 5,
    "permanentlyClosed": false,
    "temporarilyClosed": false,
    "placeId": "ChIJLyl5HeO1U3kRuTxVVd3UTlc",
    "categories": [
      "Pharmacy"
    ],
    "fid": "0x7953b5e31d79292f:0x574ed4dd55553cb9",
    "cid": "6291199776567671993",
    "reviewsCount": 2,
    "imagesCount": 1,
    "imageCategories": [],
    "scrapedAt": "2025-06-22T07:34:48.915Z",
    "googleFoodUrl": null,
    "hotelAds": [],
    "openingHours": [
      {
        "day": "Monday",
        "hours": "8 AM to 8 PM"
      },
      {
        "day": "Tuesday",
        "hours": "8 AM to 8 PM"
      },
      {
        "day": "Wednesday",
        "hours": "8 AM to 8 PM"
      },
      {
        "day": "Thursday",
        "hours": "8 AM to 8 PM"
      },
      {
        "day": "Friday",
        "hours": "8 AM to 8 PM"
      },
      {
        "day": "Saturday",
        "hours": "8:30 AM to 4:30 PM"
      },
      {
        "day": "Sunday",
        "hours": "8:30 AM to 4:30 PM"
      }
    ],
    "peopleAlsoSearch": [],
    "placesTags": [],
    "reviewsTags": [],
    "additionalInfo": {
      "Service options": [
        {
          "Delivery": true
        }
      ],
      "Accessibility": [
        {
          "Wheelchair accessible entrance": true
        },
        {
          "Wheelchair accessible parking lot": true
        }
      ],
      "Payments": [
        {
          "Credit cards": true
        }
      ]
    },
    "gasPrices": [],
    "url": "https://www.google.com/maps/search/?api=1&query=East%20Hawaii%20Health%20-%20Pharmacy&query_place_id=ChIJLyl5HeO1U3kRuTxVVd3UTlc",
    "searchPageUrl": "https://www.google.com/maps/search/independent%20pharmacy%20Hilo%20HI/@52.537401959029296,-171.52329474216714,9z?hl=en",
    "searchString": "independent pharmacy Hilo HI",
    "language": "en",
    "rank": 5,
    "isAdvertisement": false,
    "imageUrl": "https://lh3.googleusercontent.com/p/AF1QipPAcASus8AA-fUrla-kftOPmXBxT22YbRC6KRBR=w504-h240-k-no",
    "kgmid": "/g/11kbns1rjr"
  },
  {
    "title": "Longs Drugs Pharmacy",
    "description": "Drugstore chain selling a variety of beauty & health products, plus some grocery & household items.",
    "price": null,
    "categoryName": "Pharmacy",
    "address": "555 Kilauea Ave, Hilo, HI 96720",
    "neighborhood": null,
    "street": "555 Kilauea Ave",
    "city": "Hilo",
    "postalCode": "96720",
    "state": "Hawaii",
    "countryCode": "US",
    "website": "https://www.cvs.com/store-locator/hilo-hi-pharmacies/555-kilauea-ave-hilo-hi-96720/storeid=9620?WT.mc_id=LS_GOOGLE_RX_9620",
    "phone": "(808) 935-9075",
    "phoneUnformatted": "+18089359075",
    "claimThisBusiness": false,
    "location": {
      "lat": 19.7191552,
      "lng": -155.0808633
    },
    "locatedIn": "CVS Photo",
    "totalScore": 3.7,
    "permanentlyClosed": false,
    "temporarilyClosed": false,
    "placeId": "ChIJo8Bef1lLUnkRhCi-oRjdc_U",
    "categories": [
      "Pharmacy"
    ],
    "fid": "0x79524b597f5ec0a3:0xf573dd18a1be2884",
    "cid": "17686723259476617348",
    "reviewsCount": 191,
    "imagesCount": 61,
    "imageCategories": [],
    "scrapedAt": "2025-06-22T07:34:48.915Z",
    "googleFoodUrl": null,
    "hotelAds": [],
    "openingHours": [
      {
        "day": "Monday",
        "hours": "12 AM to 1:30 PM, 2 PM to 12 AM"
      },
      {
        "day": "Tuesday",
        "hours": "12 AM to 1:30 PM, 2 PM to 12 AM"
      },
      {
        "day": "Wednesday",
        "hours": "12 AM to 1:30 PM, 2 PM to 12 AM"
      },
      {
        "day": "Thursday",
        "hours": "12 AM to 1:30 PM, 2 PM to 12 AM"
      },
      {
        "day": "Friday",
        "hours": "12 AM to 1:30 PM, 2 PM to 12 AM"
      },
      {
        "day": "Saturday",
        "hours": "12 AM to 1:30 PM, 2 PM to 12 AM"
      },
      {
        "day": "Sunday",
        "hours": "12 AM to 1:30 PM, 2 PM to 12 AM"
      }
    ],
    "additionalOpeningHours": {
      "CVS Photo": [
        {
          "day": "Monday",
          "hours": "Open 24 hours"
        },
        {
          "day": "Tuesday",
          "hours": "Open 24 hours"
        },
        {
          "day": "Wednesday",
          "hours": "Open 24 hours"
        },
        {
          "day": "Thursday",
          "hours": "Open 24 hours"
        },
        {
          "day": "Friday",
          "hours": "Open 24 hours"
        },
        {
          "day": "Saturday",
          "hours": "Open 24 hours"
        },
        {
          "day": "Sunday",
          "hours": "Open 24 hours"
        }
      ]
    },
    "peopleAlsoSearch": [],
    "placesTags": [],
    "reviewsTags": [],
    "additionalInfo": {
      "Service options": [
        {
          "Delivery": true
        },
        {
          "Drive-through": true
        },
        {
          "In-store shopping": true
        },
        {
          "Onsite services": true
        }
      ],
      "Accessibility": [
        {
          "Wheelchair accessible entrance": true
        },
        {
          "Wheelchair accessible parking lot": true
        }
      ],
      "Offerings": [
        {
          "Medication disposal": true
        },
        {
          "Passport photos": true
        }
      ],
      "Crowd": [
        {
          "LGBTQ+ friendly": true
        },
        {
          "Transgender safespace": true
        }
      ],
      "Planning": [
        {
          "Quick visit": true
        }
      ],
      "Payments": [
        {
          "Credit cards": true
        },
        {
          "Debit cards": true
        },
        {
          "Credit cards": true
        }
      ],
      "Parking": [
        {
          "Free parking lot": true
        }
      ]
    },
    "gasPrices": [],
    "url": "https://www.google.com/maps/search/?api=1&query=Longs%20Drugs%20Pharmacy&query_place_id=ChIJo8Bef1lLUnkRhCi-oRjdc_U",
    "searchPageUrl": "https://www.google.com/maps/search/independent%20pharmacy%20Hilo%20HI/@52.537401959029296,-171.52329474216714,9z?hl=en",
    "searchString": "independent pharmacy Hilo HI",
    "language": "en",
    "rank": 6,
    "isAdvertisement": false,
    "imageUrl": "https://lh3.googleusercontent.com/p/AF1QipPPBZUgiQwwdo4e4vmhv3-SUUY4ES-qXmvnIqMq=w408-h272-k-no",
    "kgmid": "/g/1tdgq0gn"
  },
  {
    "title": "CVS Pharmacy",
    "description": "Drugstore chain selling a variety of beauty & health products, plus some grocery & household items.",
    "price": null,
    "categoryName": "Pharmacy",
    "address": "391 Makaala St, Hilo, HI 96720",
    "neighborhood": null,
    "street": "391 Makaala St",
    "city": "Hilo",
    "postalCode": "96720",
    "state": "Hawaii",
    "countryCode": "US",
    "website": "https://www.cvs.com/store-locator/hilo-hi-pharmacies/391-e-makaala-st-hilo-hi-96720/storeid=17599?WT.mc_id=LS_GOOGLE_RX_17599",
    "phone": "(808) 920-8606",
    "phoneUnformatted": "+18089208606",
    "claimThisBusiness": false,
    "location": {
      "lat": 19.7010308,
      "lng": -155.0599936
    },
    "totalScore": 4.5,
    "permanentlyClosed": false,
    "temporarilyClosed": false,
    "placeId": "ChIJnZY1nHJLUnkRMfOPh4zFw1w",
    "categories": [
      "Pharmacy"
    ],
    "fid": "0x79524b729c35969d:0x5cc3c58c878ff331",
    "cid": "6684403479308399409",
    "reviewsCount": 22,
    "imagesCount": 7,
    "imageCategories": [],
    "scrapedAt": "2025-06-22T07:34:48.915Z",
    "googleFoodUrl": null,
    "hotelAds": [],
    "openingHours": [
      {
        "day": "Monday",
        "hours": "9 AM to 1:30 PM, 2 to 7 PM"
      },
      {
        "day": "Tuesday",
        "hours": "9 AM to 1:30 PM, 2 to 7 PM"
      },
      {
        "day": "Wednesday",
        "hours": "9 AM to 1:30 PM, 2 to 7 PM"
      },
      {
        "day": "Thursday",
        "hours": "9 AM to 1:30 PM, 2 to 7 PM"
      },
      {
        "day": "Friday",
        "hours": "9 AM to 1:30 PM, 2 to 7 PM"
      },
      {
        "day": "Saturday",
        "hours": "10 AM to 1:30 PM, 2 to 6 PM"
      },
      {
        "day": "Sunday",
        "hours": "11 AM to 1:30 PM, 2 to 5 PM"
      }
    ],
    "peopleAlsoSearch": [],
    "placesTags": [],
    "reviewsTags": [],
    "additionalInfo": {
      "Service options": [
        {
          "Delivery": true
        },
        {
          "In-store shopping": true
        },
        {
          "Onsite services": true
        }
      ],
      "Accessibility": [
        {
          "Wheelchair accessible entrance": true
        },
        {
          "Wheelchair accessible parking lot": true
        }
      ],
      "Crowd": [
        {
          "LGBTQ+ friendly": true
        },
        {
          "Transgender safespace": true
        }
      ],
      "Planning": [
        {
          "Quick visit": true
        }
      ],
      "Payments": [
        {
          "Credit cards": true
        },
        {
          "Debit cards": true
        },
        {
          "Credit cards": true
        }
      ]
    },
    "gasPrices": [],
    "url": "https://www.google.com/maps/search/?api=1&query=CVS%20Pharmacy&query_place_id=ChIJnZY1nHJLUnkRMfOPh4zFw1w",
    "searchPageUrl": "https://www.google.com/maps/search/independent%20pharmacy%20Hilo%20HI/@52.537401959029296,-171.52329474216714,9z?hl=en",
    "searchString": "independent pharmacy Hilo HI",
    "language": "en",
    "rank": 8,
    "isAdvertisement": false,
    "imageUrl": "https://lh3.googleusercontent.com/p/AF1QipPiBoGSJ_mhWpo9jwsGfs7OuzvlxUFGMzOmZr0R=w408-h272-k-no",
    "kgmid": "/g/1tf_hm5t"
  },
  {
    "title": "KTA Super Stores - Puainako Pharmacy",
    "description": "Longtime supermarket providing local produce, seafood & meats, plus baked goods.",
    "price": null,
    "categoryName": "Pharmacy",
    "address": "50 E Puainako St, Hilo, HI 96720",
    "neighborhood": null,
    "street": "50 E Puainako St",
    "city": "Hilo",
    "postalCode": "96720",
    "state": "Hawaii",
    "countryCode": "US",
    "website": "https://www.ktasuperstores.com/kta-puainako-hilo",
    "phone": "(808) 959-8700",
    "phoneUnformatted": "+18089598700",
    "claimThisBusiness": false,
    "location": {
      "lat": 19.6939844,
      "lng": -155.0668536
    },
    "totalScore": 4.7,
    "permanentlyClosed": false,
    "temporarilyClosed": false,
    "placeId": "ChIJ6V1EsRZLUnkRc1ZTQ4bLVQo",
    "categories": [
      "Pharmacy",
      "Drug store"
    ],
    "fid": "0x79524b16b1445de9:0xa55cb8643535673",
    "cid": "744725090915276403",
    "reviewsCount": 19,
    "imagesCount": 12,
    "imageCategories": [],
    "scrapedAt": "2025-06-22T07:34:48.916Z",
    "googleFoodUrl": null,
    "hotelAds": [],
    "openingHours": [
      {
        "day": "Monday",
        "hours": "8 AM to 6 PM"
      },
      {
        "day": "Tuesday",
        "hours": "8 AM to 6 PM"
      },
      {
        "day": "Wednesday",
        "hours": "8 AM to 6 PM"
      },
      {
        "day": "Thursday",
        "hours": "8 AM to 6 PM"
      },
      {
        "day": "Friday",
        "hours": "8 AM to 6 PM"
      },
      {
        "day": "Saturday",
        "hours": "8 AM to 3 PM"
      },
      {
        "day": "Sunday",
        "hours": "Closed"
      }
    ],
    "additionalOpeningHours": {
      "Pickup": [
        {
          "day": "Monday",
          "hours": "12–2 PM"
        },
        {
          "day": "Tuesday",
          "hours": "Closed"
        },
        {
          "day": "Wednesday",
          "hours": "12–2 PM"
        },
        {
          "day": "Thursday",
          "hours": "Closed"
        },
        {
          "day": "Friday",
          "hours": "12–2 PM"
        },
        {
          "day": "Saturday",
          "hours": "Closed"
        },
        {
          "day": "Sunday",
          "hours": "Closed"
        }
      ]
    },
    "peopleAlsoSearch": [],
    "placesTags": [],
    "reviewsTags": [],
    "additionalInfo": {
      "Service options": [
        {
          "Delivery": true
        },
        {
          "In-store pickup": true
        },
        {
          "In-store shopping": true
        },
        {
          "Onsite services": true
        },
        {
          "Same-day delivery": true
        }
      ],
      "Accessibility": [
        {
          "Wheelchair accessible entrance": true
        },
        {
          "Wheelchair accessible parking lot": true
        }
      ],
      "Planning": [
        {
          "Quick visit": true
        }
      ],
      "Payments": [
        {
          "Checks": true
        },
        {
          "Credit cards": true
        },
        {
          "Debit cards": true
        }
      ]
    },
    "gasPrices": [],
    "url": "https://www.google.com/maps/search/?api=1&query=KTA%20Super%20Stores%20-%20Puainako%20Pharmacy&query_place_id=ChIJ6V1EsRZLUnkRc1ZTQ4bLVQo",
    "searchPageUrl": "https://www.google.com/maps/search/independent%20pharmacy%20Hilo%20HI/@52.537401959029296,-171.52329474216714,9z?hl=en",
    "searchString": "independent pharmacy Hilo HI",
    "language": "en",
    "rank": 9,
    "isAdvertisement": false,
    "imageUrl": "https://lh3.googleusercontent.com/p/AF1QipOjfWVasF3_BNVXOq-uiGEtS4d2yNLk3xr5_nOK=w426-h240-k-no",
    "kgmid": "/g/11clv9vdrk"
  },
  {
    "title": "KTA Pharmacy - Ponahawai",
    "price": null,
    "categoryName": "Pharmacy",
    "address": "670 Ponahawai St suite 211, Hilo, HI 96720",
    "neighborhood": null,
    "street": "670 Ponahawai St suite 211",
    "city": "Hilo",
    "postalCode": "96720",
    "state": "Hawaii",
    "countryCode": "US",
    "website": "https://www.ktasuperstores.com/",
    "phone": "(808) 865-0505",
    "phoneUnformatted": "+18088650505",
    "claimThisBusiness": false,
    "location": {
      "lat": 19.7141591,
      "lng": -155.0964745
    },
    "totalScore": 5,
    "permanentlyClosed": false,
    "temporarilyClosed": false,
    "placeId": "ChIJ9UL4cFq1U3kREE1rFLV_3q8",
    "categories": [
      "Pharmacy"
    ],
    "fid": "0x7953b55a70f842f5:0xafde7fb5146b4d10",
    "cid": "12672706817175538960",
    "reviewsCount": 1,
    "imagesCount": 11,
    "imageCategories": [],
    "scrapedAt": "2025-06-22T07:34:48.916Z",
    "googleFoodUrl": null,
    "hotelAds": [],
    "openingHours": [
      {
        "day": "Monday",
        "hours": "7 AM to 5 PM"
      },
      {
        "day": "Tuesday",
        "hours": "7 AM to 5 PM"
      },
      {
        "day": "Wednesday",
        "hours": "7 AM to 5 PM"
      },
      {
        "day": "Thursday",
        "hours": "7 AM to 5 PM"
      },
      {
        "day": "Friday",
        "hours": "7 AM to 5 PM"
      },
      {
        "day": "Saturday",
        "hours": "Closed"
      },
      {
        "day": "Sunday",
        "hours": "Closed"
      }
    ],
    "peopleAlsoSearch": [],
    "placesTags": [],
    "reviewsTags": [],
    "additionalInfo": {
      "Service options": [
        {
          "In-store shopping": true
        },
        {
          "Onsite services": true
        },
        {
          "English": true
        }
      ],
      "Accessibility": [
        {
          "Wheelchair accessible entrance": true
        },
        {
          "Wheelchair accessible parking lot": true
        },
        {
          "Wheelchair accessible seating": true
        }
      ],
      "Planning": [
        {
          "Quick visit": true
        }
      ],
      "Payments": [
        {
          "Credit cards": true
        },
        {
          "Debit cards": true
        },
        {
          "Credit cards": true
        }
      ],
      "Parking": [
        {
          "Free parking lot": true
        }
      ]
    },
    "gasPrices": [],
    "url": "https://www.google.com/maps/search/?api=1&query=KTA%20Pharmacy%20-%20Ponahawai&query_place_id=ChIJ9UL4cFq1U3kREE1rFLV_3q8",
    "searchPageUrl": "https://www.google.com/maps/search/independent%20pharmacy%20Hilo%20HI/@52.537401959029296,-171.52329474216714,9z?hl=en",
    "searchString": "independent pharmacy Hilo HI",
    "language": "en",
    "rank": 10,
    "isAdvertisement": false,
    "imageUrl": "https://lh3.googleusercontent.com/gps-cs-s/AC9h4nrk5e3JI8iwRwkUxIFIcAsM6Ib4FTFRR5bMZ2U7bWqbaBDD1Ib8xCq5XD6yrQuEVdhm8zRr5uuYnUlyauDhTf4-8BwwCYtPrl-8iLdl7RZpIfpTqLoIzbhkOvuifjqPeKoEY4n-yA=w408-h724-k-no",
    "kgmid": "/g/11lf83c648"
  },
  {
    "title": "Safeway Pharmacy",
    "price": "$$",
    "categoryName": "Pharmacy",
    "address": "381 E Maka'Ala St, Hilo, HI 96720",
    "neighborhood": null,
    "street": "381 E Maka'Ala St",
    "city": "Hilo",
    "postalCode": "96720",
    "state": "Hawaii",
    "countryCode": "US",
    "website": "https://local.pharmacy.safeway.com/safeway/hi/hilo/381-e-maka-ala-st.html",
    "phone": "(808) 339-3800",
    "phoneUnformatted": "+18083393800",
    "claimThisBusiness": false,
    "location": {
      "lat": 19.7007792,
      "lng": -155.0607109
    },
    "totalScore": 4.1,
    "permanentlyClosed": false,
    "temporarilyClosed": false,
    "placeId": "ChIJjblZsXJLUnkRcw87OSLyZ9o",
    "categories": [
      "Pharmacy",
      "Drug store",
      "Vitamin & supplements store"
    ],
    "fid": "0x79524b72b159b98d:0xda67f222393b0f73",
    "cid": "15737813651672469363",
    "reviewsCount": 16,
    "imagesCount": 6,
    "imageCategories": [],
    "scrapedAt": "2025-06-22T07:34:48.916Z",
    "googleFoodUrl": null,
    "hotelAds": [],
    "openingHours": [
      {
        "day": "Monday",
        "hours": "8 AM to 12:15 PM, 1 to 8 PM"
      },
      {
        "day": "Tuesday",
        "hours": "8 AM to 12:15 PM, 1 to 8 PM"
      },
      {
        "day": "Wednesday",
        "hours": "8 AM to 12:15 PM, 1 to 8 PM"
      },
      {
        "day": "Thursday",
        "hours": "8 AM to 12:15 PM, 1 to 8 PM"
      },
      {
        "day": "Friday",
        "hours": "8 AM to 12:15 PM, 1 to 8 PM"
      },
      {
        "day": "Saturday",
        "hours": "9 AM to 12:15 PM, 1 to 5 PM"
      },
      {
        "day": "Sunday",
        "hours": "9 AM to 12:15 PM, 1 to 5 PM"
      }
    ],
    "peopleAlsoSearch": [],
    "placesTags": [],
    "reviewsTags": [],
    "additionalInfo": {
      "Service options": [
        {
          "Delivery": true
        },
        {
          "In-store pickup": true
        },
        {
          "In-store shopping": true
        },
        {
          "Same-day delivery": true
        }
      ],
      "Accessibility": [
        {
          "Wheelchair accessible entrance": true
        },
        {
          "Wheelchair accessible parking lot": true
        }
      ],
      "Amenities": [
        {
          "Wi-Fi": true
        },
        {
          "Free Wi-Fi": true
        }
      ],
      "Crowd": [
        {
          "LGBTQ+ friendly": true
        }
      ],
      "Planning": [
        {
          "Appointment required": true
        },
        {
          "Quick visit": true
        }
      ],
      "Payments": [
        {
          "Checks": true
        },
        {
          "Debit cards": true
        },
        {
          "Credit cards": true
        }
      ]
    },
    "gasPrices": [],
    "url": "https://www.google.com/maps/search/?api=1&query=Safeway%20Pharmacy&query_place_id=ChIJjblZsXJLUnkRcw87OSLyZ9o",
    "searchPageUrl": "https://www.google.com/maps/search/independent%20pharmacy%20Hilo%20HI/@52.537401959029296,-171.52329474216714,9z?hl=en",
    "searchString": "independent pharmacy Hilo HI",
    "language": "en",
    "rank": 11,
    "isAdvertisement": false,
    "imageUrl": "https://lh3.googleusercontent.com/gps-cs-s/AC9h4np9C0tKjvZkZfSmOef8WSfTEjCcJfCN3HYxobjSrU7LiNiBzQLiltc3DYLqMzlJtXvzZsobB4tIRhJilVe8ft1_a1uLEzstEIxF02qtwXTIAshCmpukltfjsgP0x4_AbIVTcyQ=w408-h544-k-no",
    "kgmid": "/g/1pv10zt34"
  },
  {
    "title": "Longs Drugs",
    "price": null,
    "categoryName": "Drug store",
    "address": "111 Puainako St, Hilo, HI 96720",
    "neighborhood": null,
    "street": "111 Puainako St",
    "city": "Hilo",
    "postalCode": "96720",
    "state": "Hawaii",
    "countryCode": "US",
    "website": "https://www.cvs.com/store-locator/hilo-hi-pharmacies/111-e-puainako-st-hilo-hi-96720/storeid=9227?WT.mc_id=LS_GOOGLE_FS_9227",
    "phone": "(808) 959-4508",
    "phoneUnformatted": "+18089594508",
    "claimThisBusiness": false,
    "location": {
      "lat": 19.6958957,
      "lng": -155.0620839
    },
    "locatedIn": "CVS Photo",
    "totalScore": 4,
    "permanentlyClosed": false,
    "temporarilyClosed": false,
    "placeId": "ChIJe_fLwBJLUnkRBKBCdStVahs",
    "categories": [
      "Drug store",
      "Beauty supply store",
      "Beer store",
      "Convenience store",
      "Cosmetics store",
      "Greeting card shop",
      "Liquor store",
      "Perfume store",
      "Stationery store",
      "Vitamin & supplements store"
    ],
    "fid": "0x79524b12c0cbf77b:0x1b6a552b7542a004",
    "cid": "1975485031694639108",
    "reviewsCount": 67,
    "imagesCount": 15,
    "imageCategories": [],
    "scrapedAt": "2025-06-22T07:34:48.916Z",
    "googleFoodUrl": null,
    "hotelAds": [],
    "openingHours": [
      {
        "day": "Monday",
        "hours": "7 AM to 12 AM"
      },
      {
        "day": "Tuesday",
        "hours": "7 AM to 12 AM"
      },
      {
        "day": "Wednesday",
        "hours": "7 AM to 12 AM"
      },
      {
        "day": "Thursday",
        "hours": "7 AM to 12 AM"
      },
      {
        "day": "Friday",
        "hours": "7 AM to 12 AM"
      },
      {
        "day": "Saturday",
        "hours": "7 AM to 12 AM"
      },
      {
        "day": "Sunday",
        "hours": "7 AM to 12 AM"
      }
    ],
    "additionalOpeningHours": {
      "CVS Photo": [
        {
          "day": "Monday",
          "hours": "7 AM–12 AM"
        },
        {
          "day": "Tuesday",
          "hours": "7 AM–12 AM"
        },
        {
          "day": "Wednesday",
          "hours": "7 AM–12 AM"
        },
        {
          "day": "Thursday",
          "hours": "7 AM–12 AM"
        },
        {
          "day": "Friday",
          "hours": "7 AM–12 AM"
        },
        {
          "day": "Saturday",
          "hours": "7 AM–12 AM"
        },
        {
          "day": "Sunday",
          "hours": "7 AM–12 AM"
        }
      ]
    },
    "peopleAlsoSearch": [],
    "placesTags": [],
    "reviewsTags": [],
    "additionalInfo": {
      "Service options": [
        {
          "Delivery": true
        },
        {
          "In-store shopping": true
        },
        {
          "Onsite services": true
        },
        {
          "Same-day delivery": false
        }
      ],
      "Accessibility": [
        {
          "Wheelchair accessible entrance": true
        },
        {
          "Wheelchair accessible parking lot": true
        }
      ],
      "Crowd": [
        {
          "LGBTQ+ friendly": true
        },
        {
          "Transgender safespace": true
        }
      ],
      "Planning": [
        {
          "Quick visit": true
        }
      ],
      "Payments": [
        {
          "Credit cards": true
        },
        {
          "Debit cards": true
        },
        {
          "Credit cards": true
        }
      ]
    },
    "gasPrices": [],
    "url": "https://www.google.com/maps/search/?api=1&query=Longs%20Drugs&query_place_id=ChIJe_fLwBJLUnkRBKBCdStVahs",
    "searchPageUrl": "https://www.google.com/maps/search/independent%20pharmacy%20Hilo%20HI/@52.537401959029296,-171.52329474216714,9z?hl=en",
    "searchString": "independent pharmacy Hilo HI",
    "language": "en",
    "rank": 12,
    "isAdvertisement": false,
    "imageUrl": "https://lh3.googleusercontent.com/gps-cs-s/AC9h4npVB_rheAHMpo7o4y01MvZayVUujEnfcqvSV4uS0klADwBVfPIJsvPcwzV0fffqByC_eZ73v38udrXceqh3YPSeG30m0c6Q8hs_8sbPaTGMO8w89n01OLpw1AV-QWoPU3VPQXas=w408-h725-k-no",
    "kgmid": "/g/1tfmnln2"
  },
  {
    "title": "Walmart Pharmacy",
    "price": "$",
    "categoryName": "Pharmacy",
    "address": "325 Makaala St, Hilo, HI 96720",
    "neighborhood": null,
    "street": "325 Makaala St",
    "city": "Hilo",
    "postalCode": "96720",
    "state": "Hawaii",
    "countryCode": "US",
    "website": "https://www.walmart.com/store/2473-hilo-hi/pharmacy/?veh=seo_loc",
    "phone": "(808) 969-1062",
    "phoneUnformatted": "+18089691062",
    "claimThisBusiness": false,
    "location": {
      "lat": 19.7002862,
      "lng": -155.061914
    },
    "totalScore": 4.1,
    "permanentlyClosed": false,
    "temporarilyClosed": false,
    "placeId": "ChIJv3qkMG1LUnkRjJpRC4YMRJ4",
    "categories": [
      "Pharmacy",
      "Herbal medicine store",
      "Medical supply store",
      "Parapharmacy",
      "Vitamin & supplements store"
    ],
    "fid": "0x79524b6d30a47abf:0x9e440c860b519a8c",
    "cid": "11404253926263986828",
    "reviewsCount": 9,
    "imagesCount": 5,
    "imageCategories": [],
    "scrapedAt": "2025-06-22T07:34:48.916Z",
    "googleFoodUrl": null,
    "hotelAds": [],
    "openingHours": [
      {
        "day": "Monday",
        "hours": "9 AM to 7 PM"
      },
      {
        "day": "Tuesday",
        "hours": "9 AM to 7 PM"
      },
      {
        "day": "Wednesday",
        "hours": "9 AM to 7 PM"
      },
      {
        "day": "Thursday",
        "hours": "9 AM to 7 PM"
      },
      {
        "day": "Friday",
        "hours": "9 AM to 7 PM"
      },
      {
        "day": "Saturday",
        "hours": "9 AM to 7 PM"
      },
      {
        "day": "Sunday",
        "hours": "10 AM to 6 PM"
      }
    ],
    "peopleAlsoSearch": [],
    "placesTags": [],
    "reviewsTags": [],
    "additionalInfo": {
      "Service options": [
        {
          "Curbside pickup": true
        },
        {
          "In-store pickup": true
        },
        {
          "In-store shopping": true
        },
        {
          "Onsite services": true
        }
      ],
      "Accessibility": [
        {
          "Wheelchair accessible entrance": true
        },
        {
          "Wheelchair accessible parking lot": true
        },
        {
          "Wheelchair accessible restroom": true
        }
      ],
      "Offerings": [
        {
          "Passport photos": true
        }
      ],
      "Amenities": [
        {
          "Wi-Fi": true
        },
        {
          "Free Wi-Fi": true
        }
      ],
      "Planning": [
        {
          "Quick visit": true
        }
      ],
      "Payments": [
        {
          "Credit cards": true
        },
        {
          "Debit cards": true
        },
        {
          "Credit cards": true
        }
      ]
    },
    "gasPrices": [],
    "url": "https://www.google.com/maps/search/?api=1&query=Walmart%20Pharmacy&query_place_id=ChIJv3qkMG1LUnkRjJpRC4YMRJ4",
    "searchPageUrl": "https://www.google.com/maps/search/independent%20pharmacy%20Hilo%20HI/@52.537401959029296,-171.52329474216714,9z?hl=en",
    "searchString": "independent pharmacy Hilo HI",
    "language": "en",
    "rank": 13,
    "isAdvertisement": false,
    "imageUrl": "https://lh3.googleusercontent.com/p/AF1QipOtda3LJALbM1_cumyIkXDLtBSZ3JpB7JbQ-2HT=w408-h306-k-no",
    "kgmid": "/g/1hdzhr1rm"
  },
  {
    "title": "Island Family Pharmacy",
    "price": null,
    "categoryName": "Pharmacy",
    "address": "600 Plantation Island Dr S #3, St. Augustine, FL 32080",
    "neighborhood": null,
    "street": "600 Plantation Island Dr S #3",
    "city": "St. Augustine",
    "postalCode": "32080",
    "state": "Florida",
    "countryCode": "US",
    "website": "https://www.mygnp.com/pharmacies/island-family-pharmacy-st-augustine-fl-32080/?utm_source=google&utm_medium=local&utm_campaign=localmaps&utm_content=1005102",
    "phone": "(904) 461-1081",
    "phoneUnformatted": "+19044611081",
    "claimThisBusiness": false,
    "location": {
      "lat": 29.8622849,
      "lng": -81.2926701
    },
    "totalScore": 4.8,
    "permanentlyClosed": false,
    "temporarilyClosed": false,
    "placeId": "ChIJG4-fP46d5ogR4GwBBRrUGYk",
    "categories": [
      "Pharmacy",
      "Drug store"
    ],
    "fid": "0x88e69d8e3f9f8f1b:0x8919d41a05016ce0",
    "cid": "9879160465832111328",
    "reviewsCount": 66,
    "imagesCount": 8,
    "imageCategories": [],
    "scrapedAt": "2025-06-22T07:35:18.376Z",
    "googleFoodUrl": null,
    "hotelAds": [],
    "openingHours": [
      {
        "day": "Monday",
        "hours": "9 AM to 6 PM"
      },
      {
        "day": "Tuesday",
        "hours": "9 AM to 6 PM"
      },
      {
        "day": "Wednesday",
        "hours": "9 AM to 6 PM"
      },
      {
        "day": "Thursday",
        "hours": "9 AM to 6 PM"
      },
      {
        "day": "Friday",
        "hours": "9 AM to 6 PM"
      },
      {
        "day": "Saturday",
        "hours": "9 AM to 1 PM"
      },
      {
        "day": "Sunday",
        "hours": "Closed"
      }
    ],
    "peopleAlsoSearch": [],
    "placesTags": [],
    "reviewsTags": [],
    "additionalInfo": {
      "Service options": [
        {
          "Delivery": true
        },
        {
          "Drive-through": true
        },
        {
          "In-store pickup": true
        },
        {
          "In-store shopping": true
        },
        {
          "Onsite services": true
        },
        {
          "Same-day delivery": true
        }
      ],
      "Accessibility": [
        {
          "Wheelchair accessible entrance": true
        },
        {
          "Wheelchair accessible parking lot": true
        }
      ],
      "Planning": [
        {
          "Quick visit": true
        }
      ],
      "Payments": [
        {
          "Credit cards": true
        },
        {
          "Debit cards": true
        },
        {
          "Credit cards": true
        }
      ]
    },
    "gasPrices": [],
    "url": "https://www.google.com/maps/search/?api=1&query=Island%20Family%20Pharmacy&query_place_id=ChIJG4-fP46d5ogR4GwBBRrUGYk",
    "searchPageUrl": "https://www.google.com/maps/search/independent%20pharmacy%20Hilo%20HI/@39.68245004733214,-83.31984582886456,8z?hl=en",
    "searchString": "independent pharmacy Hilo HI",
    "language": "en",
    "rank": 11,
    "isAdvertisement": false,
    "imageUrl": "https://lh3.googleusercontent.com/p/AF1QipNSUvUAZowieAnbq4APviWHEYGzhGUeUlKA82Xr=w408-h306-k-no",
    "kgmid": "/g/1ptytkjys"
  },
  {
    "title": "Island Family Pharmacy",
    "price": null,
    "categoryName": "Pharmacy",
    "address": "125 A1A Beach Blvd, St. Augustine, FL 32080",
    "neighborhood": null,
    "street": "125 A1A Beach Blvd",
    "city": "St. Augustine",
    "postalCode": "32080",
    "state": "Florida",
    "countryCode": "US",
    "website": "https://islandfamilypharmacy.com/",
    "phone": "(904) 461-1081",
    "phoneUnformatted": "+19044611081",
    "claimThisBusiness": false,
    "location": {
      "lat": 29.8603211,
      "lng": -81.2809526
    },
    "totalScore": 5,
    "permanentlyClosed": true,
    "temporarilyClosed": false,
    "placeId": "ChIJG4-fP46d5ogRGSs-x2RJvi8",
    "categories": [
      "Pharmacy"
    ],
    "fid": "0x88e69d8e3f9f8f1b:0x2fbe4964c73e2b19",
    "cid": "3440267862545935129",
    "reviewsCount": 1,
    "imagesCount": 1,
    "imageCategories": [],
    "scrapedAt": "2025-06-22T07:35:42.568Z",
    "googleFoodUrl": null,
    "hotelAds": [],
    "openingHours": [],
    "peopleAlsoSearch": [],
    "placesTags": [],
    "reviewsTags": [],
    "additionalInfo": {
      "Accessibility": [
        {
          "Wheelchair accessible entrance": true
        },
        {
          "Wheelchair accessible parking lot": true
        }
      ],
      "Planning": [
        {
          "Quick visit": true
        }
      ],
      "Payments": [
        {
          "Debit cards": true
        },
        {
          "NFC mobile payments": true
        },
        {
          "Credit cards": true
        }
      ]
    },
    "gasPrices": [],
    "url": "https://www.google.com/maps/search/?api=1&query=Island%20Family%20Pharmacy&query_place_id=ChIJG4-fP46d5ogRGSs-x2RJvi8",
    "searchPageUrl": "https://www.google.com/maps/search/independent%20pharmacy%20Hilo%20HI/@31.09059240533574,-80.15361988608069,8z?hl=en",
    "searchString": "independent pharmacy Hilo HI",
    "language": "en",
    "rank": 2,
    "isAdvertisement": false,
    "imageUrl": "https://streetviewpixels-pa.googleapis.com/v1/thumbnail?panoid=mw0A31gZNH4TVvr_YlYGPg&cb_client=search.gws-prod.gps&w=408&h=240&yaw=188.48982&pitch=0&thumbfov=100",
    "kgmid": "/g/1tfqrrzt"
  },
  {
    "title": "Elix Rx",
    "price": null,
    "categoryName": "Pharmacy",
    "address": "1090 Keolu Dr suite 112/113, Kailua, HI 96734",
    "neighborhood": null,
    "street": "1090 Keolu Dr suite 112/113",
    "city": "Kailua",
    "postalCode": "96734",
    "state": "Hawaii",
    "countryCode": "US",
    "website": "https://elixrx.com/",
    "phone": "(808) 260-9894",
    "phoneUnformatted": "+18082609894",
    "claimThisBusiness": false,
    "location": {
      "lat": 21.376606,
      "lng": -157.730045
    },
    "totalScore": 4.5,
    "permanentlyClosed": false,
    "temporarilyClosed": false,
    "placeId": "ChIJKfltDJMUAHwRSUllsYhBcPw",
    "categories": [
      "Pharmacy",
      "Drug store"
    ],
    "fid": "0x7c0014930c6df929:0xfc704188b1654949",
    "cid": "18190110950296996169",
    "reviewsCount": 38,
    "imagesCount": 15,
    "imageCategories": [],
    "scrapedAt": "2025-06-22T07:36:13.054Z",
    "googleFoodUrl": null,
    "hotelAds": [],
    "openingHours": [
      {
        "day": "Monday",
        "hours": "9 AM to 5 PM"
      },
      {
        "day": "Tuesday",
        "hours": "9 AM to 5 PM"
      },
      {
        "day": "Wednesday",
        "hours": "9 AM to 5 PM"
      },
      {
        "day": "Thursday",
        "hours": "9 AM to 5 PM"
      },
      {
        "day": "Friday",
        "hours": "9 AM to 5 PM"
      },
      {
        "day": "Saturday",
        "hours": "9 AM to 1 PM"
      },
      {
        "day": "Sunday",
        "hours": "Closed"
      }
    ],
    "peopleAlsoSearch": [],
    "placesTags": [],
    "reviewsTags": [],
    "additionalInfo": {
      "Service options": [
        {
          "Delivery": true
        },
        {
          "In-store pickup": true
        },
        {
          "In-store shopping": true
        },
        {
          "Onsite services": true
        },
        {
          "Same-day delivery": true
        }
      ],
      "Accessibility": [
        {
          "Wheelchair accessible entrance": true
        },
        {
          "Wheelchair accessible parking lot": true
        }
      ],
      "Planning": [
        {
          "Quick visit": true
        }
      ],
      "Payments": [
        {
          "Checks": true
        },
        {
          "Credit cards": true
        },
        {
          "Debit cards": true
        },
        {
          "NFC mobile payments": true
        },
        {
          "Credit cards": true
        }
      ]
    },
    "gasPrices": [],
    "url": "https://www.google.com/maps/search/?api=1&query=Elix%20Rx&query_place_id=ChIJKfltDJMUAHwRSUllsYhBcPw",
    "searchPageUrl": "https://www.google.com/maps/search/independent%20pharmacy%20Hilo%20HI/@21.362194516217112,-157.94533183601516,11z?hl=en",
    "searchString": "independent pharmacy Hilo HI",
    "language": "en",
    "rank": 1,
    "isAdvertisement": false,
    "imageUrl": "https://lh3.googleusercontent.com/p/AF1QipNEVapZ9zQ_Cx-H_d-Lpld6TnvRZAgrkNtqpY3p=w408-h544-k-no",
    "kgmid": "/g/11b7r_qv9f"
  },
  {
    "title": "The Honolulu Pharmacy",
    "price": null,
    "categoryName": "Pharmacy",
    "address": "1188 Bishop St STE 2303, Honolulu, HI 96813",
    "neighborhood": "Downtown",
    "street": "1188 Bishop St STE 2303",
    "city": "Honolulu",
    "postalCode": "96813",
    "state": "Hawaii",
    "countryCode": "US",
    "website": "http://www.thehonolulupharmacy.com/",
    "phone": "(808) 533-8887",
    "phoneUnformatted": "+18085338887",
    "claimThisBusiness": true,
    "location": {
      "lat": 21.3105847,
      "lng": -157.8590595
    },
    "totalScore": 5,
    "permanentlyClosed": false,
    "temporarilyClosed": false,
    "placeId": "ChIJN1iEuXVuAHwRqb_cYQ-19lk",
    "categories": [
      "Pharmacy"
    ],
    "fid": "0x7c006e75b9845837:0x59f6b50f61dcbfa9",
    "cid": "6482567791317401513",
    "reviewsCount": 2,
    "imagesCount": 1,
    "imageCategories": [],
    "scrapedAt": "2025-06-22T07:36:13.054Z",
    "googleFoodUrl": null,
    "hotelAds": [],
    "openingHours": [
      {
        "day": "Monday",
        "hours": "8:30 AM to 5 PM"
      },
      {
        "day": "Tuesday",
        "hours": "8:30 AM to 5 PM"
      },
      {
        "day": "Wednesday",
        "hours": "8:30 AM to 5 PM"
      },
      {
        "day": "Thursday",
        "hours": "8:30 AM to 5 PM"
      },
      {
        "day": "Friday",
        "hours": "8:30 AM to 5 PM"
      },
      {
        "day": "Saturday",
        "hours": "Closed"
      },
      {
        "day": "Sunday",
        "hours": "Closed"
      }
    ],
    "peopleAlsoSearch": [],
    "placesTags": [],
    "reviewsTags": [],
    "additionalInfo": {
      "Accessibility": [
        {
          "Wheelchair accessible entrance": true
        },
        {
          "Wheelchair accessible parking lot": true
        }
      ],
      "Planning": [
        {
          "Quick visit": true
        }
      ],
      "Payments": [
        {
          "Credit cards": true
        },
        {
          "Debit cards": true
        },
        {
          "Credit cards": true
        }
      ]
    },
    "gasPrices": [],
    "url": "https://www.google.com/maps/search/?api=1&query=The%20Honolulu%20Pharmacy&query_place_id=ChIJN1iEuXVuAHwRqb_cYQ-19lk",
    "searchPageUrl": "https://www.google.com/maps/search/independent%20pharmacy%20Hilo%20HI/@21.362194516217112,-157.94533183601516,11z?hl=en",
    "searchString": "independent pharmacy Hilo HI",
    "language": "en",
    "rank": 2,
    "isAdvertisement": false,
    "imageUrl": "https://streetviewpixels-pa.googleapis.com/v1/thumbnail?panoid=2ea3VqWfM0JuTN6ZWG8z0Q&cb_client=search.gws-prod.gps&w=408&h=240&yaw=302.535&pitch=0&thumbfov=100",
    "kgmid": "/g/11bx4kk89b"
  },
  {
    "title": "Safeway Pharmacy",
    "price": null,
    "categoryName": "Pharmacy",
    "address": "350 Northgate Dr one, San Rafael, CA 94903",
    "neighborhood": null,
    "street": "350 Northgate Dr one",
    "city": "San Rafael",
    "postalCode": "94903",
    "state": "California",
    "countryCode": "US",
    "website": "https://www.safeway.com/pharmacy/covid-19.html",
    "phone": "(415) 472-8221",
    "phoneUnformatted": "+14154728221",
    "claimThisBusiness": true,
    "location": {
      "lat": 38.0080358,
      "lng": -122.5477131
    },
    "totalScore": 5,
    "permanentlyClosed": false,
    "temporarilyClosed": false,
    "placeId": "ChIJGdqCWYWXhYARnckSGxNszo0",
    "categories": [
      "Pharmacy"
    ],
    "fid": "0x808597855982da19:0x8dce6c131b12c99d",
    "cid": "10218223433864628637",
    "reviewsCount": 2,
    "imagesCount": 2,
    "imageCategories": [],
    "scrapedAt": "2025-06-22T07:36:21.979Z",
    "googleFoodUrl": null,
    "hotelAds": [],
    "openingHours": [],
    "peopleAlsoSearch": [],
    "placesTags": [],
    "reviewsTags": [],
    "additionalInfo": {
      "Service options": [
        {
          "In-store pickup": true
        },
        {
          "Onsite services": true
        }
      ],
      "Accessibility": [
        {
          "Wheelchair accessible entrance": true
        },
        {
          "Wheelchair accessible parking lot": true
        }
      ],
      "Planning": [
        {
          "Quick visit": true
        }
      ],
      "Payments": [
        {
          "Credit cards": true
        }
      ]
    },
    "gasPrices": [],
    "url": "https://www.google.com/maps/search/?api=1&query=Safeway%20Pharmacy&query_place_id=ChIJGdqCWYWXhYARnckSGxNszo0",
    "searchPageUrl": "https://www.google.com/maps/search/independent%20pharmacy%20Hilo%20HI/@39.68245004733214,-121.31455714227097,8z?hl=en",
    "searchString": "independent pharmacy Hilo HI",
    "language": "en",
    "rank": 8,
    "isAdvertisement": false,
    "imageUrl": "https://lh3.googleusercontent.com/gps-cs-s/AC9h4nr77_TsWb6LsbgTRzlQ8PEZY6PQYwkxNqHDljWmwmyuCeLv2e6gfAKRItDTOd6otTBmJu5XAuqXb2k3EcLVNAApSih32qngBS1wkoZff-iG_xOWOj1Bb7ok8-xzw0IV44EXV7t6=w408-h408-k-no",
    "kgmid": "/g/11mx3ydg2h"
  }
]