[
  {
    "title": "Suncrest Pharmacy",
    "price": null,
    "categoryName": "Pharmacy",
    "address": "3121 University Ave, Morgantown, WV 26505",
    "neighborhood": "Suncrest",
    "street": "3121 University Ave",
    "city": "Morgantown",
    "postalCode": "26505",
    "state": "West Virginia",
    "countryCode": "US",
    "phone": "(304) 599-2159",
    "phoneUnformatted": "+13045992159",
    "claimThisBusiness": true,
    "location": {
      "lat": 39.6540606,
      "lng": -79.9709951
    },
    "totalScore": 5,
    "permanentlyClosed": false,
    "temporarilyClosed": false,
    "placeId": "ChIJmTWsiKN7NYgREvjliIYPIWk",
    "categories": [
      "Pharmacy"
    ],
    "fid": "0x88357ba388ac3599:0x69210f8688e5f812",
    "cid": "7575353118710691858",
    "reviewsCount": 10,
    "imagesCount": 1,
    "imageCategories": [],
    "scrapedAt": "2025-06-23T06:34:10.113Z",
    "googleFoodUrl": null,
    "hotelAds": [],
    "openingHours": [
      {
        "day": "Monday",
        "hours": "9 AM to 5 PM"
      },
      {
        "day": "Tuesday",
        "hours": "9 AM to 5 PM"
      },
      {
        "day": "Wednesday",
        "hours": "9 AM to 5 PM"
      },
      {
        "day": "Thursday",
        "hours": "9 AM to 5 PM"
      },
      {
        "day": "Friday",
        "hours": "9 AM to 5 PM"
      },
      {
        "day": "Saturday",
        "hours": "9 AM to 12 AM"
      },
      {
        "day": "Sunday",
        "hours": "Closed"
      }
    ],
    "peopleAlsoSearch": [],
    "placesTags": [],
    "reviewsTags": [],
    "additionalInfo": {
      "Service options": [
        {
          "Delivery": true
        },
        {
          "Same-day delivery": true
        }
      ],
      "Accessibility": [
        {
          "Wheelchair accessible entrance": true
        },
        {
          "Wheelchair accessible parking lot": true
        }
      ],
      "Planning": [
        {
          "Quick visit": true
        }
      ],
      "Payments": [
        {
          "Credit cards": true
        },
        {
          "Debit cards": true
        },
        {
          "NFC mobile payments": true
        },
        {
          "Credit cards": true
        }
      ]
    },
    "gasPrices": [],
    "url": "https://www.google.com/maps/search/?api=1&query=Suncrest%20Pharmacy&query_place_id=ChIJmTWsiKN7NYgREvjliIYPIWk",
    "searchPageUrl": "https://www.google.com/maps/search/independent%20pharmacies%20in%20Morgantown,%20WV%20in%20Morgantown,%20WV/@51.90806533695677,179.14194857624523,11z?hl=en",
    "searchString": "independent pharmacies in Morgantown, WV in Morgantown, WV",
    "language": "en",
    "rank": 1,
    "isAdvertisement": false,
    "imageUrl": "https://streetviewpixels-pa.googleapis.com/v1/thumbnail?panoid=f11cObCBF6b4WoSOCavdzQ&cb_client=search.gws-prod.gps&w=408&h=240&yaw=179.84886&pitch=0&thumbfov=100",
    "kgmid": "/g/1v3lqm55"
  },
  {
    "title": "Waterfront Family Pharmacy",
    "price": null,
    "categoryName": "Pharmacy",
    "address": "215 Don Knotts Blvd #120, Morgantown, WV 26501",
    "neighborhood": null,
    "street": "215 Don Knotts Blvd #120",
    "city": "Morgantown",
    "postalCode": "26501",
    "state": "West Virginia",
    "countryCode": "US",
    "website": "http://www.waterfrontfamilypharmacy.com/",
    "phone": "(304) 225-7979",
    "phoneUnformatted": "+13042257979",
    "claimThisBusiness": false,
    "location": {
      "lat": 39.6119023,
      "lng": -79.9705057
    },
    "totalScore": 4.8,
    "permanentlyClosed": false,
    "temporarilyClosed": false,
    "placeId": "ChIJJeu0Kmd8NYgRhjr45K9vI0U",
    "categories": [
      "Pharmacy",
      "Drug store",
      "Gift shop",
      "Medical supply store"
    ],
    "fid": "0x88357c672ab4eb25:0x45236fafe4f83a86",
    "cid": "4981948414053333638",
    "reviewsCount": 42,
    "imagesCount": 16,
    "imageCategories": [],
    "scrapedAt": "2025-06-23T06:34:10.115Z",
    "googleFoodUrl": null,
    "hotelAds": [],
    "openingHours": [
      {
        "day": "Monday",
        "hours": "8 AM to 8 PM"
      },
      {
        "day": "Tuesday",
        "hours": "8 AM to 8 PM"
      },
      {
        "day": "Wednesday",
        "hours": "8 AM to 8 PM"
      },
      {
        "day": "Thursday",
        "hours": "8 AM to 8 PM"
      },
      {
        "day": "Friday",
        "hours": "8 AM to 8 PM"
      },
      {
        "day": "Saturday",
        "hours": "8 AM to 4 PM"
      },
      {
        "day": "Sunday",
        "hours": "8 AM to 4 PM"
      }
    ],
    "peopleAlsoSearch": [],
    "placesTags": [],
    "reviewsTags": [],
    "additionalInfo": {
      "From the business": [
        {
          "Small business": true
        }
      ],
      "Service options": [
        {
          "Delivery": true
        },
        {
          "In-store pickup": true
        },
        {
          "In-store shopping": true
        },
        {
          "Onsite services": true
        }
      ],
      "Accessibility": [
        {
          "Wheelchair accessible entrance": true
        },
        {
          "Wheelchair accessible parking lot": true
        }
      ],
      "Planning": [
        {
          "Quick visit": true
        }
      ],
      "Payments": [
        {
          "Credit cards": true
        },
        {
          "Debit cards": true
        },
        {
          "Credit cards": true
        }
      ]
    },
    "gasPrices": [],
    "url": "https://www.google.com/maps/search/?api=1&query=Waterfront%20Family%20Pharmacy&query_place_id=ChIJJeu0Kmd8NYgRhjr45K9vI0U",
    "searchPageUrl": "https://www.google.com/maps/search/independent%20pharmacies%20in%20Morgantown,%20WV%20in%20Morgantown,%20WV/@51.90806533695677,179.14194857624523,11z?hl=en",
    "searchString": "independent pharmacies in Morgantown, WV in Morgantown, WV",
    "language": "en",
    "rank": 2,
    "isAdvertisement": false,
    "imageUrl": "https://lh3.googleusercontent.com/p/AF1QipMpouBG4bBJY2kv--rkbeBG1LOsnAXRtIoG56l1=w408-h306-k-no",
    "kgmid": "/g/1tdpb86l"
  },
  {
    "title": "Pierpont Landing Pharmacy",
    "price": null,
    "categoryName": "Pharmacy",
    "address": "7000 Mid Atlantic Dr Rd, Morgantown, WV 26508",
    "neighborhood": null,
    "street": "7000 Mid Atlantic Dr Rd",
    "city": "Morgantown",
    "postalCode": "26508",
    "state": "West Virginia",
    "countryCode": "US",
    "website": "http://pierpontlandingpharmacy.com/",
    "phone": "(304) 594-9955",
    "phoneUnformatted": "+13045949955",
    "claimThisBusiness": false,
    "location": {
      "lat": 39.6474341,
      "lng": -79.8908876
    },
    "totalScore": 4.2,
    "permanentlyClosed": false,
    "temporarilyClosed": false,
    "placeId": "ChIJCRuo-OtkNYgRGrSsjJCGDfs",
    "categories": [
      "Pharmacy"
    ],
    "fid": "0x883564ebf8a81b09:0xfb0d86908cacb41a",
    "cid": "18090263233610691610",
    "reviewsCount": 37,
    "imagesCount": 1,
    "imageCategories": [],
    "scrapedAt": "2025-06-23T06:34:10.115Z",
    "googleFoodUrl": null,
    "hotelAds": [],
    "openingHours": [
      {
        "day": "Monday",
        "hours": "9 AM to 7 PM"
      },
      {
        "day": "Tuesday",
        "hours": "9 AM to 7 PM"
      },
      {
        "day": "Wednesday",
        "hours": "9 AM to 7 PM"
      },
      {
        "day": "Thursday",
        "hours": "9 AM to 7 PM"
      },
      {
        "day": "Friday",
        "hours": "9 AM to 7 PM"
      },
      {
        "day": "Saturday",
        "hours": "9 AM to 3 PM"
      },
      {
        "day": "Sunday",
        "hours": "11 AM to 3 PM"
      }
    ],
    "peopleAlsoSearch": [],
    "placesTags": [],
    "reviewsTags": [],
    "additionalInfo": {
      "From the business": [
        {
          "Small business": true
        }
      ],
      "Service options": [
        {
          "Delivery": true
        },
        {
          "Drive-through": true
        },
        {
          "In-store pickup": true
        }
      ],
      "Accessibility": [
        {
          "Wheelchair accessible entrance": true
        },
        {
          "Wheelchair accessible parking lot": true
        }
      ],
      "Planning": [
        {
          "Quick visit": true
        }
      ],
      "Payments": [
        {
          "Credit cards": true
        },
        {
          "Debit cards": true
        },
        {
          "NFC mobile payments": true
        },
        {
          "Credit cards": true
        }
      ]
    },
    "gasPrices": [],
    "url": "https://www.google.com/maps/search/?api=1&query=Pierpont%20Landing%20Pharmacy&query_place_id=ChIJCRuo-OtkNYgRGrSsjJCGDfs",
    "searchPageUrl": "https://www.google.com/maps/search/independent%20pharmacies%20in%20Morgantown,%20WV%20in%20Morgantown,%20WV/@51.90806533695677,179.14194857624523,11z?hl=en",
    "searchString": "independent pharmacies in Morgantown, WV in Morgantown, WV",
    "language": "en",
    "rank": 3,
    "isAdvertisement": false,
    "imageUrl": "https://streetviewpixels-pa.googleapis.com/v1/thumbnail?panoid=Q55orLKufAXkZe9FcO31Iw&cb_client=search.gws-prod.gps&w=408&h=240&yaw=111.04334&pitch=0&thumbfov=100",
    "kgmid": "/g/1tfrbv9w"
  },
  {
    "title": "Mountaineer Pharmacy",
    "price": null,
    "categoryName": "Pharmacy",
    "address": "390 Birch St, Morgantown, WV 26505",
    "neighborhood": "Evansdale",
    "street": "390 Birch St",
    "city": "Morgantown",
    "postalCode": "26505",
    "state": "West Virginia",
    "countryCode": "US",
    "website": "http://www.mountaineerpharmacy.com/",
    "phone": "(304) 285-7348",
    "phoneUnformatted": "+13042857348",
    "claimThisBusiness": false,
    "location": {
      "lat": 39.6489869,
      "lng": -79.9699794
    },
    "totalScore": 4.2,
    "permanentlyClosed": false,
    "temporarilyClosed": false,
    "placeId": "ChIJt5t8VJ97NYgRnFHkmdGABTQ",
    "categories": [
      "Pharmacy"
    ],
    "fid": "0x88357b9f547c9bb7:0x340580d199e4519c",
    "cid": "3748543902574203292",
    "reviewsCount": 20,
    "imagesCount": 7,
    "imageCategories": [],
    "scrapedAt": "2025-06-23T06:34:10.115Z",
    "googleFoodUrl": null,
    "hotelAds": [],
    "openingHours": [
      {
        "day": "Monday",
        "hours": "8 AM to 8 PM"
      },
      {
        "day": "Tuesday",
        "hours": "8 AM to 8 PM"
      },
      {
        "day": "Wednesday",
        "hours": "8 AM to 8 PM"
      },
      {
        "day": "Thursday",
        "hours": "8 AM to 8 PM"
      },
      {
        "day": "Friday",
        "hours": "8 AM to 8 PM"
      },
      {
        "day": "Saturday",
        "hours": "8 AM to 6 PM"
      },
      {
        "day": "Sunday",
        "hours": "10 AM to 6 PM"
      }
    ],
    "peopleAlsoSearch": [],
    "placesTags": [],
    "reviewsTags": [],
    "additionalInfo": {
      "From the business": [
        {
          "Small business": true
        }
      ],
      "Service options": [
        {
          "Delivery": true
        }
      ],
      "Accessibility": [
        {
          "Wheelchair accessible entrance": true
        },
        {
          "Wheelchair accessible parking lot": true
        }
      ],
      "Offerings": [
        {
          "Medication disposal": true
        }
      ],
      "Payments": [
        {
          "Credit cards": true
        }
      ]
    },
    "gasPrices": [],
    "url": "https://www.google.com/maps/search/?api=1&query=Mountaineer%20Pharmacy&query_place_id=ChIJt5t8VJ97NYgRnFHkmdGABTQ",
    "searchPageUrl": "https://www.google.com/maps/search/independent%20pharmacies%20in%20Morgantown,%20WV%20in%20Morgantown,%20WV/@51.90806533695677,179.14194857624523,11z?hl=en",
    "searchString": "independent pharmacies in Morgantown, WV in Morgantown, WV",
    "language": "en",
    "rank": 4,
    "isAdvertisement": false,
    "imageUrl": "https://lh3.googleusercontent.com/gps-cs-s/AC9h4noVmiC8pUllFXkyeMPOCZ0bdsFNB2JKa6hnLu4RvPGfMsfW2xKm1qDcDIQ5JNq_aqehYyFuXiPvJsMdc1verHflsMUfxy2P5wLSN21Tyvnvk9Q8SZ7mdDkxnhMcFThbwfSFxCYooQ=w408-h306-k-no",
    "kgmid": "/g/11bw44qc_9"
  },
  {
    "title": "Omnicare of morgantown",
    "price": null,
    "categoryName": "Pharmacy",
    "address": "102 Corporate Drive, Morgantown, WV 26501",
    "neighborhood": null,
    "street": "102 Corporate Drive",
    "city": "Morgantown",
    "postalCode": "26501",
    "state": "West Virginia",
    "countryCode": "US",
    "phone": "(304) 292-3080",
    "phoneUnformatted": "+13042923080",
    "claimThisBusiness": true,
    "location": {
      "lat": 39.639154,
      "lng": -80.02658
    },
    "totalScore": 3,
    "permanentlyClosed": false,
    "temporarilyClosed": false,
    "placeId": "ChIJjZQw8Ut5NYgRb9tvGJeJX8c",
    "categories": [
      "Pharmacy"
    ],
    "fid": "0x8835794bf130948d:0xc75f8997186fdb6f",
    "cid": "14366352618378222447",
    "reviewsCount": 1,
    "imagesCount": 1,
    "imageCategories": [],
    "scrapedAt": "2025-06-23T06:34:10.115Z",
    "googleFoodUrl": null,
    "hotelAds": [],
    "openingHours": [],
    "peopleAlsoSearch": [],
    "placesTags": [],
    "reviewsTags": [],
    "additionalInfo": {
      "Accessibility": [
        {
          "Wheelchair accessible entrance": true
        },
        {
          "Wheelchair accessible parking lot": true
        }
      ]
    },
    "gasPrices": [],
    "url": "https://www.google.com/maps/search/?api=1&query=Omnicare%20of%20morgantown&query_place_id=ChIJjZQw8Ut5NYgRb9tvGJeJX8c",
    "searchPageUrl": "https://www.google.com/maps/search/independent%20pharmacies%20in%20Morgantown,%20WV%20in%20Morgantown,%20WV/@51.90806533695677,179.14194857624523,11z?hl=en",
    "searchString": "independent pharmacies in Morgantown, WV in Morgantown, WV",
    "language": "en",
    "rank": 5,
    "isAdvertisement": false,
    "imageUrl": "https://streetviewpixels-pa.googleapis.com/v1/thumbnail?panoid=G19vMgpqgm2vTaG7R-sVIQ&cb_client=search.gws-prod.gps&w=408&h=240&yaw=189.43822&pitch=0&thumbfov=100",
    "kgmid": "/g/11hcjbv2w7"
  },
  {
    "title": "MedExpress Pharmacy",
    "price": null,
    "categoryName": "Pharmacy",
    "address": "215 Don Knotts Blvd, Morgantown, WV 26501",
    "neighborhood": null,
    "street": "215 Don Knotts Blvd",
    "city": "Morgantown",
    "postalCode": "26501",
    "state": "West Virginia",
    "countryCode": "US",
    "phone": "(304) 291-3627",
    "phoneUnformatted": "+13042913627",
    "claimThisBusiness": true,
    "location": {
      "lat": 39.6120189,
      "lng": -79.9705763
    },
    "totalScore": 5,
    "permanentlyClosed": false,
    "temporarilyClosed": false,
    "placeId": "ChIJsyPLxGZ8NYgRUlsI__44PaM",
    "categories": [
      "Pharmacy"
    ],
    "fid": "0x88357c66c4cb23b3:0xa33d38feff085b52",
    "cid": "11762620469613189970",
    "reviewsCount": 2,
    "imagesCount": 1,
    "imageCategories": [],
    "scrapedAt": "2025-06-23T06:34:10.115Z",
    "googleFoodUrl": null,
    "hotelAds": [],
    "openingHours": [
      {
        "day": "Monday",
        "hours": "8 AM to 8 PM"
      },
      {
        "day": "Tuesday",
        "hours": "8 AM to 8 PM"
      },
      {
        "day": "Wednesday",
        "hours": "8 AM to 8 PM"
      },
      {
        "day": "Thursday",
        "hours": "8 AM to 8 PM"
      },
      {
        "day": "Friday",
        "hours": "8 AM to 8 PM"
      },
      {
        "day": "Saturday",
        "hours": "8 AM to 8 PM"
      },
      {
        "day": "Sunday",
        "hours": "8 AM to 8 PM"
      }
    ],
    "peopleAlsoSearch": [],
    "placesTags": [],
    "reviewsTags": [],
    "additionalInfo": {
      "Accessibility": [
        {
          "Wheelchair accessible entrance": true
        },
        {
          "Wheelchair accessible parking lot": true
        }
      ],
      "Planning": [
        {
          "Quick visit": true
        }
      ],
      "Payments": [
        {
          "Credit cards": true
        }
      ]
    },
    "gasPrices": [],
    "url": "https://www.google.com/maps/search/?api=1&query=MedExpress%20Pharmacy&query_place_id=ChIJsyPLxGZ8NYgRUlsI__44PaM",
    "searchPageUrl": "https://www.google.com/maps/search/independent%20pharmacies%20in%20Morgantown,%20WV%20in%20Morgantown,%20WV/@51.90806533695677,179.14194857624523,11z?hl=en",
    "searchString": "independent pharmacies in Morgantown, WV in Morgantown, WV",
    "language": "en",
    "rank": 6,
    "isAdvertisement": false,
    "imageUrl": "https://streetviewpixels-pa.googleapis.com/v1/thumbnail?panoid=XC9PM_1ANacDAt-E80dxig&cb_client=search.gws-prod.gps&w=408&h=240&yaw=281.46426&pitch=0&thumbfov=100",
    "kgmid": "/g/11cjhrbrk8"
  },
  {
    "title": "American Rx Pharmacy",
    "price": null,
    "categoryName": "Pharmacy",
    "address": "889 Venture Dr # 2, Morgantown, WV 26508",
    "neighborhood": null,
    "street": "889 Venture Dr # 2",
    "city": "Morgantown",
    "postalCode": "26508",
    "state": "West Virginia",
    "countryCode": "US",
    "phone": "(304) 292-2787",
    "phoneUnformatted": "+13042922787",
    "claimThisBusiness": false,
    "location": {
      "lat": 39.6505,
      "lng": -79.8962674
    },
    "totalScore": 4.3,
    "permanentlyClosed": false,
    "temporarilyClosed": true,
    "placeId": "ChIJ4YDx0elkNYgRcVjd6tUN6QE",
    "categories": [
      "Pharmacy"
    ],
    "fid": "0x883564e9d1f180e1:0x1e90dd5eadd5871",
    "cid": "137656476031080561",
    "reviewsCount": 6,
    "imagesCount": 3,
    "imageCategories": [],
    "scrapedAt": "2025-06-23T06:34:10.116Z",
    "googleFoodUrl": null,
    "hotelAds": [],
    "openingHours": [],
    "peopleAlsoSearch": [],
    "placesTags": [],
    "reviewsTags": [],
    "additionalInfo": {
      "From the business": [
        {
          "Small business": true
        }
      ]
    },
    "gasPrices": [],
    "url": "https://www.google.com/maps/search/?api=1&query=American%20Rx%20Pharmacy&query_place_id=ChIJ4YDx0elkNYgRcVjd6tUN6QE",
    "searchPageUrl": "https://www.google.com/maps/search/independent%20pharmacies%20in%20Morgantown,%20WV%20in%20Morgantown,%20WV/@51.90806533695677,179.14194857624523,11z?hl=en",
    "searchString": "independent pharmacies in Morgantown, WV in Morgantown, WV",
    "language": "en",
    "rank": 7,
    "isAdvertisement": false,
    "imageUrl": "https://lh3.googleusercontent.com/p/AF1QipNndyeQOQIiZxJEwNcirb4oLQql4xDaIt-2iEh0=w426-h240-k-no",
    "kgmid": "/g/1tdvqd8_"
  },
  {
    "title": "CVS Pharmacy",
    "price": null,
    "categoryName": "Pharmacy",
    "address": "1000 Pineview Dr, Morgantown, WV 26505",
    "neighborhood": null,
    "street": "1000 Pineview Dr",
    "city": "Morgantown",
    "postalCode": "26505",
    "state": "West Virginia",
    "countryCode": "US",
    "website": "https://www.cvs.com/store-locator/morgantown-wv-pharmacies/1000-pineview-drive-morgantown-wv-26505/storeid=10124?WT.mc_id=LS_GOOGLE_RX_10124",
    "phone": "(304) 598-7535",
    "phoneUnformatted": "+13045987535",
    "claimThisBusiness": false,
    "location": {
      "lat": 39.6583819,
      "lng": -79.9536319
    },
    "totalScore": 3.4,
    "permanentlyClosed": false,
    "temporarilyClosed": false,
    "placeId": "ChIJDwtN9g97NYgR4joSC2W4KBE",
    "categories": [
      "Pharmacy"
    ],
    "fid": "0x88357b0ff64d0b0f:0x1128b8650b123ae2",
    "cid": "1236440841830152930",
    "reviewsCount": 19,
    "imagesCount": 8,
    "imageCategories": [],
    "scrapedAt": "2025-06-23T06:34:10.116Z",
    "googleFoodUrl": null,
    "hotelAds": [],
    "openingHours": [
      {
        "day": "Monday",
        "hours": "9 AM to 1:30 PM, 2 to 9 PM"
      },
      {
        "day": "Tuesday",
        "hours": "9 AM to 1:30 PM, 2 to 9 PM"
      },
      {
        "day": "Wednesday",
        "hours": "9 AM to 1:30 PM, 2 to 9 PM"
      },
      {
        "day": "Thursday",
        "hours": "9 AM to 1:30 PM, 2 to 9 PM"
      },
      {
        "day": "Friday",
        "hours": "9 AM to 1:30 PM, 2 to 9 PM"
      },
      {
        "day": "Saturday",
        "hours": "9 AM to 1:30 PM, 2 to 9 PM"
      },
      {
        "day": "Sunday",
        "hours": "10 AM to 1:30 PM, 2 to 9 PM"
      }
    ],
    "peopleAlsoSearch": [],
    "placesTags": [],
    "reviewsTags": [],
    "additionalInfo": {
      "Service options": [
        {
          "Delivery": true
        },
        {
          "Drive-through": true
        },
        {
          "In-store pickup": true
        },
        {
          "In-store shopping": true
        },
        {
          "Onsite services": true
        }
      ],
      "Accessibility": [
        {
          "Wheelchair accessible entrance": true
        },
        {
          "Wheelchair accessible parking lot": true
        }
      ],
      "Offerings": [
        {
          "Naloxone": true
        },
        {
          "Passport photos": true
        }
      ],
      "Crowd": [
        {
          "LGBTQ+ friendly": true
        },
        {
          "Transgender safespace": true
        }
      ],
      "Planning": [
        {
          "Quick visit": true
        }
      ],
      "Payments": [
        {
          "Credit cards": true
        },
        {
          "Debit cards": true
        },
        {
          "NFC mobile payments": true
        },
        {
          "SNAP/EBT": true
        },
        {
          "Credit cards": true
        }
      ]
    },
    "gasPrices": [],
    "url": "https://www.google.com/maps/search/?api=1&query=CVS%20Pharmacy&query_place_id=ChIJDwtN9g97NYgR4joSC2W4KBE",
    "searchPageUrl": "https://www.google.com/maps/search/independent%20pharmacies%20in%20Morgantown,%20WV%20in%20Morgantown,%20WV/@51.90806533695677,179.14194857624523,11z?hl=en",
    "searchString": "independent pharmacies in Morgantown, WV in Morgantown, WV",
    "language": "en",
    "rank": 8,
    "isAdvertisement": false,
    "imageUrl": "https://lh3.googleusercontent.com/p/AF1QipNu-H8hvXG1GJWjW1Ur1VjYtMepbpXJ2w3Ss91X=w408-h275-k-no",
    "kgmid": "/g/11c467fl6g"
  },
  {
    "title": "CVS Pharmacy",
    "price": null,
    "categoryName": "Pharmacy",
    "address": "496 High St, Morgantown, WV 26505",
    "neighborhood": null,
    "street": "496 High St",
    "city": "Morgantown",
    "postalCode": "26505",
    "state": "West Virginia",
    "countryCode": "US",
    "website": "https://www.cvs.com/store-locator/morgantown-wv-pharmacies/496-high-st-morgantown-wv-26505/storeid=10364?WT.mc_id=LS_GOOGLE_RX_10364",
    "phone": "(304) 284-0499",
    "phoneUnformatted": "+13042840499",
    "claimThisBusiness": false,
    "location": {
      "lat": 39.631884,
      "lng": -79.9537208
    },
    "totalScore": 4.2,
    "permanentlyClosed": false,
    "temporarilyClosed": false,
    "placeId": "ChIJza0wuXx7NYgR8TRF9LWE49I",
    "categories": [
      "Pharmacy"
    ],
    "fid": "0x88357b7cb930adcd:0xd2e384b5f44534f1",
    "cid": "15196135484700308721",
    "reviewsCount": 20,
    "imagesCount": 9,
    "imageCategories": [],
    "scrapedAt": "2025-06-23T06:34:10.116Z",
    "googleFoodUrl": null,
    "hotelAds": [],
    "openingHours": [
      {
        "day": "Monday",
        "hours": "10 AM to 1:30 PM, 2 to 8 PM"
      },
      {
        "day": "Tuesday",
        "hours": "10 AM to 1:30 PM, 2 to 8 PM"
      },
      {
        "day": "Wednesday",
        "hours": "10 AM to 1:30 PM, 2 to 8 PM"
      },
      {
        "day": "Thursday",
        "hours": "10 AM to 1:30 PM, 2 to 8 PM"
      },
      {
        "day": "Friday",
        "hours": "10 AM to 1:30 PM, 2 to 8 PM"
      },
      {
        "day": "Saturday",
        "hours": "10 AM to 1:30 PM, 2 to 6 PM"
      },
      {
        "day": "Sunday",
        "hours": "11 AM to 1:30 PM, 2 to 5 PM"
      }
    ],
    "peopleAlsoSearch": [],
    "placesTags": [],
    "reviewsTags": [],
    "additionalInfo": {
      "Service options": [
        {
          "Delivery": true
        },
        {
          "In-store pickup": true
        },
        {
          "In-store shopping": true
        },
        {
          "Onsite services": true
        }
      ],
      "Accessibility": [
        {
          "Wheelchair accessible entrance": true
        },
        {
          "Wheelchair accessible parking lot": true
        }
      ],
      "Offerings": [
        {
          "Naloxone": true
        }
      ],
      "Crowd": [
        {
          "LGBTQ+ friendly": true
        },
        {
          "Transgender safespace": true
        }
      ],
      "Planning": [
        {
          "Quick visit": true
        }
      ],
      "Payments": [
        {
          "Credit cards": true
        },
        {
          "Debit cards": true
        },
        {
          "NFC mobile payments": true
        },
        {
          "Credit cards": true
        }
      ]
    },
    "gasPrices": [],
    "url": "https://www.google.com/maps/search/?api=1&query=CVS%20Pharmacy&query_place_id=ChIJza0wuXx7NYgR8TRF9LWE49I",
    "searchPageUrl": "https://www.google.com/maps/search/independent%20pharmacies%20in%20Morgantown,%20WV%20in%20Morgantown,%20WV/@51.90806533695677,179.14194857624523,11z?hl=en",
    "searchString": "independent pharmacies in Morgantown, WV in Morgantown, WV",
    "language": "en",
    "rank": 9,
    "isAdvertisement": false,
    "imageUrl": "https://lh3.googleusercontent.com/p/AF1QipNZhblY2ecFLLFmGrRpauLFXGDm3oaFW0DNwV5Q=w408-h272-k-no",
    "kgmid": "/g/11ckqn8xmg"
  },
  {
    "title": "WVU Medical Center Pharmacy",
    "price": null,
    "categoryName": "Pharmacy",
    "address": "1 Medical Center Dr, Morgantown, WV 26505",
    "neighborhood": "Evansdale",
    "street": "1 Medical Center Dr",
    "city": "Morgantown",
    "postalCode": "26505",
    "state": "West Virginia",
    "countryCode": "US",
    "website": "https://wvumedicine.org/ruby-memorial-hospital/services/wvu-specialty-clinics/pharmacies/medical-center-pharmacy/",
    "phone": "(304) 598-4848",
    "phoneUnformatted": "+13045984848",
    "claimThisBusiness": false,
    "location": {
      "lat": 39.6534472,
      "lng": -79.9574781
    },
    "totalScore": 4,
    "permanentlyClosed": false,
    "temporarilyClosed": false,
    "placeId": "ChIJpak8qMd7NYgR_HfR3z6M5mI",
    "categories": [
      "Pharmacy"
    ],
    "fid": "0x88357bc7a83ca9a5:0x62e68c3edfd177fc",
    "cid": "7126537662031296508",
    "reviewsCount": 33,
    "imagesCount": 7,
    "imageCategories": [],
    "scrapedAt": "2025-06-23T06:34:10.116Z",
    "googleFoodUrl": null,
    "hotelAds": [],
    "openingHours": [
      {
        "day": "Monday",
        "hours": "7:30 AM to 6 PM"
      },
      {
        "day": "Tuesday",
        "hours": "7:30 AM to 6 PM"
      },
      {
        "day": "Wednesday",
        "hours": "7:30 AM to 6 PM"
      },
      {
        "day": "Thursday",
        "hours": "7:30 AM to 6 PM"
      },
      {
        "day": "Friday",
        "hours": "7:30 AM to 6 PM"
      },
      {
        "day": "Saturday",
        "hours": "10 AM to 2 PM"
      },
      {
        "day": "Sunday",
        "hours": "Closed"
      }
    ],
    "peopleAlsoSearch": [],
    "placesTags": [],
    "reviewsTags": [],
    "additionalInfo": {
      "Service options": [
        {
          "Delivery": true
        }
      ],
      "Accessibility": [
        {
          "Wheelchair accessible entrance": true
        },
        {
          "Wheelchair accessible parking lot": true
        }
      ],
      "Offerings": [
        {
          "Medication disposal": true
        }
      ],
      "Payments": [
        {
          "Credit cards": true
        },
        {
          "Debit cards": true
        },
        {
          "NFC mobile payments": true
        },
        {
          "Credit cards": true
        }
      ]
    },
    "gasPrices": [],
    "url": "https://www.google.com/maps/search/?api=1&query=WVU%20Medical%20Center%20Pharmacy&query_place_id=ChIJpak8qMd7NYgR_HfR3z6M5mI",
    "searchPageUrl": "https://www.google.com/maps/search/independent%20pharmacies%20in%20Morgantown,%20WV%20in%20Morgantown,%20WV/@51.90806533695677,179.14194857624523,11z?hl=en",
    "searchString": "independent pharmacies in Morgantown, WV in Morgantown, WV",
    "language": "en",
    "rank": 10,
    "isAdvertisement": false,
    "imageUrl": "https://lh3.googleusercontent.com/gps-cs-s/AC9h4nrudJgckWFlkspJJD5z8YQ-TF8gpBQ8TromXIOOq1f5eMmNrXyS1QxvhL_rsY-Oe8uLiyXZoLO7OC74-67iu9s2CntblNQJTAO-29q5ZhvKMBn3ThFRa0_jtY7OaHNr31ONfV08kA=w426-h240-k-no",
    "kgmid": "/g/1tv24t8j"
  }
]