[
  {
    "title": "Coast to Coast Compounding",
    "price": null,
    "categoryName": "Pharmacy",
    "address": "780 Simms St STE 103, Golden, CO 80401",
    "neighborhood": "Daniels",
    "street": "780 Simms St STE 103",
    "city": "Golden",
    "postalCode": "80401",
    "state": "Colorado",
    "countryCode": "US",
    "website": "https://ctocrx.com/",
    "phone": "(303) 237-4478",
    "phoneUnformatted": "+13032374478",
    "claimThisBusiness": false,
    "location": {
      "lat": 39.7287175,
      "lng": -105.1275135
    },
    "totalScore": 4.3,
    "permanentlyClosed": false,
    "temporarilyClosed": false,
    "placeId": "ChIJl82xxgKEa4cR1xrhBHapWTM",
    "categories": [
      "Pharmacy",
      "Women's health clinic",
      "Pharmaceutical company",
      "Veterinary pharmacy"
    ],
    "fid": "0x876b8402c6b1cd97:0x3359a97604e11ad7",
    "cid": "3700174893214669527",
    "reviewsCount": 47,
    "imagesCount": 117,
    "imageCategories": [],
    "scrapedAt": "2025-06-22T04:20:53.851Z",
    "googleFoodUrl": null,
    "hotelAds": [],
    "openingHours": [
      {
        "day": "Monday",
        "hours": "9:30 AM to 5:30 PM"
      },
      {
        "day": "Tuesday",
        "hours": "9:30 AM to 5:30 PM"
      },
      {
        "day": "Wednesday",
        "hours": "9:30 AM to 5:30 PM"
      },
      {
        "day": "Thursday",
        "hours": "9:30 AM to 5:30 PM"
      },
      {
        "day": "Friday",
        "hours": "9:30 AM to 5:30 PM"
      },
      {
        "day": "Saturday",
        "hours": "Closed"
      },
      {
        "day": "Sunday",
        "hours": "Closed"
      }
    ],
    "peopleAlsoSearch": [],
    "placesTags": [],
    "reviewsTags": [],
    "additionalInfo": {
      "From the business": [
        {
          "Identifies as women-owned": true
        },
        {
          "Small business": true
        }
      ],
      "Service options": [
        {
          "Delivery": true
        },
        {
          "In-store pickup": true
        },
        {
          "In-store shopping": true
        },
        {
          "English": true
        }
      ],
      "Accessibility": [
        {
          "Wheelchair accessible entrance": true
        },
        {
          "Wheelchair accessible parking lot": true
        }
      ],
      "Amenities": [
        {
          "Gender-neutral restroom": true
        }
      ],
      "Crowd": [
        {
          "LGBTQ+ friendly": true
        },
        {
          "Transgender safespace": true
        }
      ],
      "Payments": [
        {
          "Checks": true
        },
        {
          "Credit cards": true
        },
        {
          "Debit cards": true
        },
        {
          "NFC mobile payments": true
        },
        {
          "Credit cards": true
        }
      ]
    },
    "gasPrices": [],
    "url": "https://www.google.com/maps/search/?api=1&query=Coast%20to%20Coast%20Compounding&query_place_id=ChIJl82xxgKEa4cR1xrhBHapWTM",
    "searchPageUrl": "https://www.google.com/maps/search/independent%20pharmacy%20Lakewood%20CO/@-10.854439234915702,-171.0091333514526,13z?hl=en",
    "searchString": "independent pharmacy Lakewood CO",
    "language": "en",
    "rank": 1,
    "isAdvertisement": false,
    "imageUrl": "https://lh3.googleusercontent.com/gps-cs-s/AC9h4noFXDZ2q-_uw0-sawLIPFhjlZaMP0_mfi8khZL4ddIInBnsZqkpfj7jNVeYN4kSOGIS46kptLUasC2sFgTl_z5d-_bZXyEGopzSSTLught8D2amq4Hy4HNPuDTQMMcWWcnBrup_2g=w408-h306-k-no",
    "kgmid": "/g/1pv0_mj5q"
  },
  {
    "title": "Alpine Pharmacy",
    "price": null,
    "categoryName": "Pharmacy",
    "address": "393 S Harlan St Ste 100, Lakewood, CO 80226",
    "neighborhood": "South Alameda",
    "street": "393 S Harlan St Ste 100",
    "city": "Lakewood",
    "postalCode": "80226",
    "state": "Colorado",
    "countryCode": "US",
    "website": "https://www.alpinepharmacy.com/",
    "phone": "(303) 339-0868",
    "phoneUnformatted": "+13033390868",
    "claimThisBusiness": false,
    "location": {
      "lat": 39.7098098,
      "lng": -105.0642828
    },
    "totalScore": 5,
    "permanentlyClosed": false,
    "temporarilyClosed": false,
    "placeId": "ChIJk-Bgi8SGa4cR3kjOWl8OudA",
    "categories": [
      "Pharmacy"
    ],
    "fid": "0x876b86c48b60e093:0xd0b90e5f5ace48de",
    "cid": "15040068233288632542",
    "reviewsCount": 9,
    "imagesCount": 12,
    "imageCategories": [],
    "scrapedAt": "2025-06-22T04:20:53.852Z",
    "googleFoodUrl": null,
    "hotelAds": [],
    "openingHours": [
      {
        "day": "Monday",
        "hours": "8 AM to 8 PM"
      },
      {
        "day": "Tuesday",
        "hours": "8 AM to 8 PM"
      },
      {
        "day": "Wednesday",
        "hours": "8 AM to 8 PM"
      },
      {
        "day": "Thursday",
        "hours": "8 AM to 8 PM"
      },
      {
        "day": "Friday",
        "hours": "8 AM to 8 PM"
      },
      {
        "day": "Saturday",
        "hours": "9 AM to 5:30 PM"
      },
      {
        "day": "Sunday",
        "hours": "9 AM to 5:30 PM"
      }
    ],
    "peopleAlsoSearch": [],
    "placesTags": [],
    "reviewsTags": [],
    "additionalInfo": {
      "From the business": [
        {
          "Small business": true
        }
      ],
      "Service options": [
        {
          "Delivery": true
        },
        {
          "Same-day delivery": true
        },
        {
          "In-store shopping": false
        },
        {
          "Onsite services": false
        },
        {
          "English": true
        }
      ],
      "Accessibility": [
        {
          "Wheelchair accessible parking lot": true
        },
        {
          "Wheelchair accessible entrance": false
        }
      ],
      "Payments": [
        {
          "Credit cards": true
        }
      ]
    },
    "gasPrices": [],
    "url": "https://www.google.com/maps/search/?api=1&query=Alpine%20Pharmacy&query_place_id=ChIJk-Bgi8SGa4cR3kjOWl8OudA",
    "searchPageUrl": "https://www.google.com/maps/search/independent%20pharmacy%20Lakewood%20CO/@-10.854439234915702,-171.0091333514526,13z?hl=en",
    "searchString": "independent pharmacy Lakewood CO",
    "language": "en",
    "rank": 2,
    "isAdvertisement": false,
    "imageUrl": "https://lh3.googleusercontent.com/p/AF1QipM6ho7xxKFFwIoePhM3yq-x9KlwUs-Idb8kVx06=w408-h612-k-no",
    "kgmid": "/g/11fz9l7sqq"
  },
  {
    "title": "Union Square Pharmacy Inc",
    "price": null,
    "categoryName": "Pharmacy",
    "address": "8015 W Alameda Ave STE 100, Lakewood, CO 80226",
    "neighborhood": "West Alameda Heights",
    "street": "8015 W Alameda Ave STE 100",
    "city": "Lakewood",
    "postalCode": "80226",
    "state": "Colorado",
    "countryCode": "US",
    "website": "http://www.unionsquarepharmacy.com/",
    "phone": "(303) 274-7877",
    "phoneUnformatted": "+13032747877",
    "claimThisBusiness": true,
    "location": {
      "lat": 39.7115307,
      "lng": -105.0865913
    },
    "totalScore": 4.3,
    "permanentlyClosed": false,
    "temporarilyClosed": false,
    "placeId": "ChIJPZ4jXSSBa4cRADYVzDCmWZU",
    "categories": [
      "Pharmacy"
    ],
    "fid": "0x876b81245d239e3d:0x9559a630cc153600",
    "cid": "10761815513091094016",
    "reviewsCount": 34,
    "imagesCount": 3,
    "imageCategories": [],
    "scrapedAt": "2025-06-22T04:20:53.852Z",
    "googleFoodUrl": null,
    "hotelAds": [],
    "openingHours": [
      {
        "day": "Monday",
        "hours": "9 AM to 6 PM"
      },
      {
        "day": "Tuesday",
        "hours": "9 AM to 5 PM"
      },
      {
        "day": "Wednesday",
        "hours": "9 AM to 5 PM"
      },
      {
        "day": "Thursday",
        "hours": "9 AM to 5 PM"
      },
      {
        "day": "Friday",
        "hours": "9 AM to 6 PM"
      },
      {
        "day": "Saturday",
        "hours": "9 AM to 12 PM"
      },
      {
        "day": "Sunday",
        "hours": "Closed"
      }
    ],
    "peopleAlsoSearch": [],
    "placesTags": [],
    "reviewsTags": [],
    "additionalInfo": {
      "Service options": [
        {
          "Delivery": true
        },
        {
          "Same-day delivery": true
        }
      ],
      "Accessibility": [
        {
          "Wheelchair accessible entrance": true
        },
        {
          "Wheelchair accessible parking lot": true
        }
      ],
      "Planning": [
        {
          "Quick visit": true
        }
      ],
      "Payments": [
        {
          "Credit cards": true
        },
        {
          "Debit cards": true
        },
        {
          "NFC mobile payments": true
        },
        {
          "Credit cards": true
        }
      ]
    },
    "gasPrices": [],
    "url": "https://www.google.com/maps/search/?api=1&query=Union%20Square%20Pharmacy%20Inc&query_place_id=ChIJPZ4jXSSBa4cRADYVzDCmWZU",
    "searchPageUrl": "https://www.google.com/maps/search/independent%20pharmacy%20Lakewood%20CO/@-10.854439234915702,-171.0091333514526,13z?hl=en",
    "searchString": "independent pharmacy Lakewood CO",
    "language": "en",
    "rank": 3,
    "isAdvertisement": false,
    "imageUrl": "https://lh3.googleusercontent.com/gps-cs-s/AC9h4npmYUMXPCE0AA3mmCaCfPjfYQqvIenBiLYjUcsp0ENDly1HiwZ961fEP0PTLd8xzlMtMYTpYfL9brkKFZVNj7G6xt4YdxgggOYuxLYQ9ULL7c0CZqHTmqm8cTutAYBlVe7F_nTX=w408-h544-k-no",
    "kgmid": "/g/1tq6dzsc"
  },
  {
    "title": "Blue Spruce Pharmacy @ Jefferson Center",
    "price": null,
    "categoryName": "Pharmacy",
    "address": "9485 W Colfax Ave, Lakewood, CO 80215",
    "neighborhood": "Morse Park",
    "street": "9485 W Colfax Ave",
    "city": "Lakewood",
    "postalCode": "80215",
    "state": "Colorado",
    "countryCode": "US",
    "website": "http://www.jcmh.org/bluespruce",
    "phone": "(303) 432-5925",
    "phoneUnformatted": "+13034325925",
    "claimThisBusiness": false,
    "location": {
      "lat": 39.7406,
      "lng": -105.103031
    },
    "totalScore": 4,
    "permanentlyClosed": false,
    "temporarilyClosed": false,
    "placeId": "ChIJkRt-hL-Ga4cRCrEeZbJAWd0",
    "categories": [
      "Pharmacy",
      "Mental health clinic"
    ],
    "fid": "0x876b86bf847e1b91:0xdd5940b2651eb10a",
    "cid": "15949850690254188810",
    "reviewsCount": 109,
    "imagesCount": 3,
    "imageCategories": [],
    "scrapedAt": "2025-06-22T04:20:53.971Z",
    "googleFoodUrl": null,
    "hotelAds": [],
    "openingHours": [
      {
        "day": "Monday",
        "hours": "8 AM to 5 PM"
      },
      {
        "day": "Tuesday",
        "hours": "8 AM to 5 PM"
      },
      {
        "day": "Wednesday",
        "hours": "8 AM to 5 PM"
      },
      {
        "day": "Thursday",
        "hours": "8 AM to 5 PM"
      },
      {
        "day": "Friday",
        "hours": "8 AM to 5 PM"
      },
      {
        "day": "Saturday",
        "hours": "Closed"
      },
      {
        "day": "Sunday",
        "hours": "Closed"
      }
    ],
    "peopleAlsoSearch": [],
    "placesTags": [],
    "reviewsTags": [],
    "additionalInfo": {
      "Service options": [
        {
          "Delivery": true
        }
      ],
      "Accessibility": [
        {
          "Wheelchair accessible entrance": true
        },
        {
          "Wheelchair accessible parking lot": true
        },
        {
          "Wheelchair accessible restroom": true
        }
      ],
      "Payments": [
        {
          "Checks": true
        },
        {
          "Credit cards": true
        },
        {
          "Debit cards": true
        }
      ]
    },
    "gasPrices": [],
    "url": "https://www.google.com/maps/search/?api=1&query=Blue%20Spruce%20Pharmacy%20%40%20Jefferson%20Center&query_place_id=ChIJkRt-hL-Ga4cRCrEeZbJAWd0",
    "searchPageUrl": "https://www.google.com/maps/search/independent%20pharmacy%20Lakewood%20CO/@39.68245004733214,-105.48342742835163,8z?hl=en",
    "searchString": "independent pharmacy Lakewood CO",
    "language": "en",
    "rank": 4,
    "isAdvertisement": false,
    "imageUrl": "https://lh3.googleusercontent.com/gps-cs-s/AC9h4nrh2FmcnsOpLkaa4bUQfE5BfGlTWcsnv2bWw3bEzO_-F7RwAbpvmExLIbFLpXlXZpipG61GVmeOUxMfGPkPTeDR_wziyEUdfnfYLAY4z0JT9aT0ROwNOpQKmi-277Kt8T5EgTM8=w408-h544-k-no",
    "kgmid": "/g/1tf60sbx"
  },
  {
    "title": "Continued Care Pharmacy",
    "price": null,
    "categoryName": "Pharmacy",
    "address": "3895 Upham St #80, Wheat Ridge, CO 80033",
    "neighborhood": "Barths",
    "street": "3895 Upham St #80",
    "city": "Wheat Ridge",
    "postalCode": "80033",
    "state": "Colorado",
    "countryCode": "US",
    "website": "http://continuedcarerx.com/",
    "phone": "(888) 557-4318",
    "phoneUnformatted": "+18885574318",
    "claimThisBusiness": true,
    "location": {
      "lat": 39.771085,
      "lng": -105.0787755
    },
    "totalScore": 1,
    "permanentlyClosed": false,
    "temporarilyClosed": false,
    "placeId": "ChIJeeOLeYKHa4cRrsN4cnfyI_k",
    "categories": [
      "Pharmacy"
    ],
    "fid": "0x876b8782798be379:0xf923f2777278c3ae",
    "cid": "17952459134464476078",
    "reviewsCount": 1,
    "imagesCount": 2,
    "imageCategories": [],
    "scrapedAt": "2025-06-22T04:20:53.971Z",
    "googleFoodUrl": null,
    "hotelAds": [],
    "openingHours": [],
    "peopleAlsoSearch": [],
    "placesTags": [],
    "reviewsTags": [],
    "additionalInfo": {
      "Accessibility": [
        {
          "Wheelchair accessible entrance": true
        },
        {
          "Wheelchair accessible parking lot": true
        }
      ],
      "Payments": [
        {
          "Credit cards": true
        }
      ]
    },
    "gasPrices": [],
    "url": "https://www.google.com/maps/search/?api=1&query=Continued%20Care%20Pharmacy&query_place_id=ChIJeeOLeYKHa4cRrsN4cnfyI_k",
    "searchPageUrl": "https://www.google.com/maps/search/independent%20pharmacy%20Lakewood%20CO/@39.68245004733214,-105.48342742835163,8z?hl=en",
    "searchString": "independent pharmacy Lakewood CO",
    "language": "en",
    "rank": 5,
    "isAdvertisement": false,
    "imageUrl": "https://lh3.googleusercontent.com/p/AF1QipP2KcbKs0gxtxlNAghFog7U1iUe0tdxQ04DPJKY=w408-h280-k-no",
    "kgmid": "/g/11gj0w6hk4"
  },
  {
    "title": "Dillon Co",
    "price": null,
    "categoryName": "Pharmacy",
    "address": "1927 S Wadsworth Blvd, Lakewood, CO 80227",
    "neighborhood": "Carmody",
    "street": "1927 S Wadsworth Blvd",
    "city": "Lakewood",
    "postalCode": "80227",
    "state": "Colorado",
    "countryCode": "US",
    "phone": "(303) 985-8797",
    "phoneUnformatted": "+13039858797",
    "claimThisBusiness": true,
    "location": {
      "lat": 39.6815258,
      "lng": -105.0833245
    },
    "totalScore": 3,
    "permanentlyClosed": false,
    "temporarilyClosed": false,
    "placeId": "ChIJKePgmauBa4cRWgS9gGMFyCM",
    "categories": [
      "Pharmacy"
    ],
    "fid": "0x876b81ab99e0e329:0x23c8056380bd045a",
    "cid": "2578316711589381210",
    "reviewsCount": 1,
    "imagesCount": 2,
    "imageCategories": [],
    "scrapedAt": "2025-06-22T04:20:53.972Z",
    "googleFoodUrl": null,
    "hotelAds": [],
    "openingHours": [
      {
        "day": "Monday",
        "hours": "5 AM to 12 AM"
      },
      {
        "day": "Tuesday",
        "hours": "5 AM to 12 AM"
      },
      {
        "day": "Wednesday",
        "hours": "5 AM to 12 AM"
      },
      {
        "day": "Thursday",
        "hours": "5 AM to 12 AM"
      },
      {
        "day": "Friday",
        "hours": "5 AM to 12 AM"
      },
      {
        "day": "Saturday",
        "hours": "5 AM to 12 AM"
      },
      {
        "day": "Sunday",
        "hours": "5 AM to 12 AM"
      }
    ],
    "peopleAlsoSearch": [],
    "placesTags": [],
    "reviewsTags": [],
    "additionalInfo": {
      "Service options": [
        {
          "In-store pickup": true
        }
      ],
      "Accessibility": [
        {
          "Wheelchair accessible entrance": true
        },
        {
          "Wheelchair accessible parking lot": true
        }
      ],
      "Planning": [
        {
          "Quick visit": true
        }
      ],
      "Payments": [
        {
          "Credit cards": true
        }
      ]
    },
    "gasPrices": [],
    "url": "https://www.google.com/maps/search/?api=1&query=Dillon%20Co&query_place_id=ChIJKePgmauBa4cRWgS9gGMFyCM",
    "searchPageUrl": "https://www.google.com/maps/search/independent%20pharmacy%20Lakewood%20CO/@39.68245004733214,-105.48342742835163,8z?hl=en",
    "searchString": "independent pharmacy Lakewood CO",
    "language": "en",
    "rank": 6,
    "isAdvertisement": false,
    "imageUrl": "https://lh3.googleusercontent.com/gps-cs-s/AC9h4np26ZSz5oWFqHOEq5cnoNw1nipAozdF4k6ibBUuA1LxVkuzQ1oFH-O6x-roauLxaSq-xofu6r0GfrWg_qiVmJknjPqHJCCCfGdla-rX1y06uwkxXU3NGguSuz_iEd1U70xKoME=w408-h306-k-no",
    "kgmid": "/g/1261gx1c6"
  },
  {
    "title": "Blue Spruce Pharmacy @ Jefferson Center",
    "price": null,
    "categoryName": "Pharmacy",
    "address": "4851 Independence St #199, Wheat Ridge, CO 80033",
    "neighborhood": "Arvada Plaza Area",
    "street": "4851 Independence St #199",
    "city": "Wheat Ridge",
    "postalCode": "80033",
    "state": "Colorado",
    "countryCode": "US",
    "website": "https://www.jcmh.org/bluespruce",
    "phone": "(303) 432-5725",
    "phoneUnformatted": "+13034325725",
    "claimThisBusiness": false,
    "location": {
      "lat": 39.784764,
      "lng": -105.106052
    },
    "totalScore": 4.8,
    "permanentlyClosed": false,
    "temporarilyClosed": false,
    "placeId": "ChIJ93U55RSGa4cRMSrPIgzcLo0",
    "categories": [
      "Pharmacy"
    ],
    "fid": "0x876b8614e53975f7:0x8d2edc0c22cf2a31",
    "cid": "10173310552958249521",
    "reviewsCount": 26,
    "imagesCount": 3,
    "imageCategories": [],
    "scrapedAt": "2025-06-22T04:20:53.972Z",
    "googleFoodUrl": null,
    "hotelAds": [],
    "openingHours": [
      {
        "day": "Monday",
        "hours": "8:30 AM to 5 PM"
      },
      {
        "day": "Tuesday",
        "hours": "8:30 AM to 5 PM"
      },
      {
        "day": "Wednesday",
        "hours": "8:30 AM to 5 PM"
      },
      {
        "day": "Thursday",
        "hours": "8:30 AM to 5 PM"
      },
      {
        "day": "Friday",
        "hours": "8:30 AM to 5 PM"
      },
      {
        "day": "Saturday",
        "hours": "Closed"
      },
      {
        "day": "Sunday",
        "hours": "Closed"
      }
    ],
    "peopleAlsoSearch": [],
    "placesTags": [],
    "reviewsTags": [],
    "additionalInfo": {
      "Service options": [
        {
          "Delivery": true
        }
      ],
      "Accessibility": [
        {
          "Wheelchair accessible entrance": true
        },
        {
          "Wheelchair accessible parking lot": true
        }
      ],
      "Planning": [
        {
          "Quick visit": true
        }
      ],
      "Payments": [
        {
          "Checks": true
        },
        {
          "Credit cards": true
        },
        {
          "Debit cards": true
        }
      ]
    },
    "gasPrices": [],
    "url": "https://www.google.com/maps/search/?api=1&query=Blue%20Spruce%20Pharmacy%20%40%20Jefferson%20Center&query_place_id=ChIJ93U55RSGa4cRMSrPIgzcLo0",
    "searchPageUrl": "https://www.google.com/maps/search/independent%20pharmacy%20Lakewood%20CO/@39.68245004733214,-105.48342742835163,8z?hl=en",
    "searchString": "independent pharmacy Lakewood CO",
    "language": "en",
    "rank": 7,
    "isAdvertisement": false,
    "imageUrl": "https://lh3.googleusercontent.com/p/AF1QipN24zXFXXvqOCsVUWcUOU8UNM32XluNd2XostCN=w408-h306-k-no",
    "kgmid": "/g/11cp7kbyyd"
  },
  {
    "title": "Flora Pharmacy - Ken Caryl",
    "price": null,
    "categoryName": "Pharmacy",
    "address": "7456 S Simms St suite 3, Littleton, CO 80127",
    "neighborhood": null,
    "street": "7456 S Simms St suite 3",
    "city": "Littleton",
    "postalCode": "80127",
    "state": "Colorado",
    "countryCode": "US",
    "website": "https://rxflora.com/?utm_source=google&utm_medium=wix_google_business_profile&utm_campaign=6609893268828305011",
    "phone": "(303) 289-5222",
    "phoneUnformatted": "+13032895222",
    "claimThisBusiness": false,
    "location": {
      "lat": 39.5822196,
      "lng": -105.1283167
    },
    "totalScore": 5,
    "permanentlyClosed": false,
    "temporarilyClosed": false,
    "placeId": "ChIJ29aB4p95a4cRD1WXCYqt3gM",
    "categories": [
      "Pharmacy"
    ],
    "fid": "0x876b799fe281d6db:0x3dead8a0997550f",
    "cid": "278851035321554191",
    "reviewsCount": 49,
    "imagesCount": 17,
    "imageCategories": [],
    "scrapedAt": "2025-06-22T04:20:53.972Z",
    "googleFoodUrl": null,
    "hotelAds": [],
    "openingHours": [
      {
        "day": "Monday",
        "hours": "9 AM to 7 PM"
      },
      {
        "day": "Tuesday",
        "hours": "9 AM to 7 PM"
      },
      {
        "day": "Wednesday",
        "hours": "9 AM to 7 PM"
      },
      {
        "day": "Thursday",
        "hours": "9 AM to 7 PM"
      },
      {
        "day": "Friday",
        "hours": "9 AM to 7 PM"
      },
      {
        "day": "Saturday",
        "hours": "10 AM to 2 PM"
      },
      {
        "day": "Sunday",
        "hours": "Closed"
      }
    ],
    "peopleAlsoSearch": [],
    "placesTags": [],
    "reviewsTags": [],
    "additionalInfo": {
      "From the business": [
        {
          "Small business": true
        }
      ],
      "Service options": [
        {
          "Curbside pickup": true
        },
        {
          "Delivery": true
        },
        {
          "In-store pickup": true
        },
        {
          "In-store shopping": true
        },
        {
          "Onsite services": true
        },
        {
          "Same-day delivery": true
        }
      ],
      "Accessibility": [
        {
          "Wheelchair accessible entrance": true
        },
        {
          "Wheelchair accessible parking lot": true
        },
        {
          "Wheelchair accessible seating": true
        }
      ],
      "Crowd": [
        {
          "LGBTQ+ friendly": true
        },
        {
          "Transgender safespace": true
        }
      ],
      "Planning": [
        {
          "Quick visit": true
        }
      ],
      "Payments": [
        {
          "Credit cards": true
        },
        {
          "Debit cards": true
        },
        {
          "NFC mobile payments": true
        },
        {
          "Credit cards": true
        }
      ]
    },
    "gasPrices": [],
    "url": "https://www.google.com/maps/search/?api=1&query=Flora%20Pharmacy%20-%20Ken%20Caryl&query_place_id=ChIJ29aB4p95a4cRD1WXCYqt3gM",
    "searchPageUrl": "https://www.google.com/maps/search/independent%20pharmacy%20Lakewood%20CO/@39.68245004733214,-105.48342742835163,8z?hl=en",
    "searchString": "independent pharmacy Lakewood CO",
    "language": "en",
    "rank": 8,
    "isAdvertisement": false,
    "imageUrl": "https://lh3.googleusercontent.com/p/AF1QipMOZz1Xni3QebIQ7Spah7jzv0n0yytrfMk3SY5s=w408-h272-k-no",
    "kgmid": "/g/11tsg7tk46"
  },
  {
    "title": "Pharmacy | Kaiser Permanente Lakewood Medical Office",
    "price": null,
    "categoryName": "Pharmacy",
    "address": "8383 W Alameda Ave #1, Lakewood, CO 80226",
    "neighborhood": "West Alameda Heights",
    "street": "8383 W Alameda Ave #1",
    "city": "Lakewood",
    "postalCode": "80226",
    "state": "Colorado",
    "countryCode": "US",
    "website": "https://healthy.kaiserpermanente.org/colorado-denver-boulder-mountain-northern/facilities/Lakewood-Medical-Offices-100519?stop_mobi=yes?utm_source=GMB_listing",
    "phone": "(303) 239-7400",
    "phoneUnformatted": "+13032397400",
    "claimThisBusiness": false,
    "location": {
      "lat": 39.7117159,
      "lng": -105.090358
    },
    "totalScore": 3.7,
    "permanentlyClosed": false,
    "temporarilyClosed": false,
    "placeId": "ChIJl8lJuRuBa4cROHvlSN318Ew",
    "categories": [
      "Pharmacy"
    ],
    "fid": "0x876b811bb949c997:0x4cf0f5dd48e57b38",
    "cid": "5544201472052656952",
    "reviewsCount": 27,
    "imagesCount": 1,
    "imageCategories": [],
    "scrapedAt": "2025-06-22T04:20:53.972Z",
    "googleFoodUrl": null,
    "hotelAds": [],
    "openingHours": [
      {
        "day": "Monday",
        "hours": "7:30 AM to 9 PM"
      },
      {
        "day": "Tuesday",
        "hours": "7:30 AM to 9 PM"
      },
      {
        "day": "Wednesday",
        "hours": "7:30 AM to 9 PM"
      },
      {
        "day": "Thursday",
        "hours": "7:30 AM to 9 PM"
      },
      {
        "day": "Friday",
        "hours": "7:30 AM to 9 PM"
      },
      {
        "day": "Saturday",
        "hours": "8 AM to 6 PM"
      },
      {
        "day": "Sunday",
        "hours": "8 AM to 6 PM"
      }
    ],
    "peopleAlsoSearch": [],
    "placesTags": [],
    "reviewsTags": [],
    "additionalInfo": {
      "Service options": [
        {
          "Delivery": true
        },
        {
          "In-store pickup": true
        }
      ],
      "Accessibility": [
        {
          "Wheelchair accessible entrance": true
        },
        {
          "Wheelchair accessible parking lot": true
        }
      ],
      "Payments": [
        {
          "Credit cards": true
        }
      ]
    },
    "gasPrices": [],
    "url": "https://www.google.com/maps/search/?api=1&query=Pharmacy%20%7C%20Kaiser%20Permanente%20Lakewood%20Medical%20Office&query_place_id=ChIJl8lJuRuBa4cROHvlSN318Ew",
    "searchPageUrl": "https://www.google.com/maps/search/independent%20pharmacy%20Lakewood%20CO/@39.68245004733214,-105.48342742835163,8z?hl=en",
    "searchString": "independent pharmacy Lakewood CO",
    "language": "en",
    "rank": 9,
    "isAdvertisement": false,
    "imageUrl": "https://streetviewpixels-pa.googleapis.com/v1/thumbnail?panoid=t-y3M2ub9u1J6rokMhmAoA&cb_client=search.gws-prod.gps&w=408&h=240&yaw=124.28233&pitch=0&thumbfov=100",
    "kgmid": "/g/11h4chl726"
  },
  {
    "title": "Alto Pharmacy",
    "price": null,
    "categoryName": "Pharmacy",
    "address": "929 Broadway, Denver, CO 80203",
    "neighborhood": "Central",
    "street": "929 Broadway",
    "city": "Denver",
    "postalCode": "80203",
    "state": "Colorado",
    "countryCode": "US",
    "website": "http://alto.com/",
    "phone": "(800) 874-5881",
    "phoneUnformatted": "+18008745881",
    "claimThisBusiness": false,
    "location": {
      "lat": 39.7312139,
      "lng": -104.9879907
    },
    "totalScore": 4.1,
    "permanentlyClosed": false,
    "temporarilyClosed": false,
    "placeId": "ChIJ-XHmnwd_bIcREqGKkAZfv6U",
    "categories": [
      "Pharmacy"
    ],
    "fid": "0x876c7f079fe671f9:0xa5bf5f06908aa112",
    "cid": "11943369218609291538",
    "reviewsCount": 344,
    "imagesCount": 6,
    "imageCategories": [],
    "scrapedAt": "2025-06-22T04:20:53.972Z",
    "googleFoodUrl": null,
    "hotelAds": [],
    "openingHours": [
      {
        "day": "Monday",
        "hours": "9 AM to 6 PM"
      },
      {
        "day": "Tuesday",
        "hours": "9 AM to 6 PM"
      },
      {
        "day": "Wednesday",
        "hours": "9 AM to 6 PM"
      },
      {
        "day": "Thursday",
        "hours": "9 AM to 6 PM"
      },
      {
        "day": "Friday",
        "hours": "9 AM to 6 PM"
      },
      {
        "day": "Saturday",
        "hours": "9 AM to 3 PM"
      },
      {
        "day": "Sunday",
        "hours": "9 AM to 3 PM"
      }
    ],
    "additionalOpeningHours": {
      "Online service hours": [
        {
          "day": "Monday",
          "hours": "7 AM–10 PM"
        },
        {
          "day": "Tuesday",
          "hours": "7 AM–10 PM"
        },
        {
          "day": "Wednesday",
          "hours": "7 AM–10 PM"
        },
        {
          "day": "Thursday",
          "hours": "7 AM–10 PM"
        },
        {
          "day": "Friday",
          "hours": "7 AM–10 PM"
        },
        {
          "day": "Saturday",
          "hours": "8 AM–7 PM"
        },
        {
          "day": "Sunday",
          "hours": "8 AM–7 PM"
        }
      ]
    },
    "peopleAlsoSearch": [],
    "placesTags": [],
    "reviewsTags": [],
    "additionalInfo": {
      "Service options": [
        {
          "Delivery": true
        },
        {
          "In-store pickup": true
        },
        {
          "Same-day delivery": true
        }
      ],
      "Accessibility": [
        {
          "Wheelchair accessible entrance": true
        },
        {
          "Wheelchair accessible parking lot": true
        }
      ],
      "Crowd": [
        {
          "LGBTQ+ friendly": true
        },
        {
          "Transgender safespace": true
        }
      ],
      "Payments": [
        {
          "Credit cards": true
        },
        {
          "Debit cards": true
        },
        {
          "NFC mobile payments": true
        },
        {
          "Credit cards": true
        }
      ]
    },
    "gasPrices": [],
    "url": "https://www.google.com/maps/search/?api=1&query=Alto%20Pharmacy&query_place_id=ChIJ-XHmnwd_bIcREqGKkAZfv6U",
    "searchPageUrl": "https://www.google.com/maps/search/independent%20pharmacy%20Lakewood%20CO/@39.68245004733214,-105.48342742835163,8z?hl=en",
    "searchString": "independent pharmacy Lakewood CO",
    "language": "en",
    "rank": 10,
    "isAdvertisement": false,
    "imageUrl": "https://lh3.googleusercontent.com/p/AF1QipODjbH7eO61B4J44-fXdRkfwndWbPLTjAuaFZ4n=w408-h408-k-no",
    "kgmid": "/g/11h24mw2kn"
  }
]