[
  {
    "title": "The Medicine Shoppe Pharmacy",
    "price": null,
    "categoryName": "Pharmacy",
    "address": "6523 Parallel Pkwy, Kansas City, KS 66102",
    "neighborhood": "Coronado",
    "street": "6523 Parallel Pkwy",
    "city": "Kansas City",
    "postalCode": "66102",
    "state": "Kansas",
    "countryCode": "US",
    "website": "https://www.medicineshoppe.com/find-a-pharmacy",
    "phone": "(913) 788-3344",
    "phoneUnformatted": "+19137883344",
    "claimThisBusiness": false,
    "location": {
      "lat": 39.1282286,
      "lng": -94.7303294
    },
    "totalScore": 4.9,
    "permanentlyClosed": false,
    "temporarilyClosed": false,
    "placeId": "ChIJO1UMqLOMwIcRyCvEJ7jh6Ys",
    "categories": [
      "Pharmacy"
    ],
    "fid": "0x87c08cb3a80c553b:0x8be9e1b827c42bc8",
    "cid": "10081837421902965704",
    "reviewsCount": 29,
    "imagesCount": 1,
    "imageCategories": [],
    "scrapedAt": "2025-06-22T08:02:47.121Z",
    "googleFoodUrl": null,
    "hotelAds": [],
    "openingHours": [
      {
        "day": "Monday",
        "hours": "9 AM to 6 PM"
      },
      {
        "day": "Tuesday",
        "hours": "9 AM to 6 PM"
      },
      {
        "day": "Wednesday",
        "hours": "9 AM to 6 PM"
      },
      {
        "day": "Thursday",
        "hours": "9 AM to 6 PM"
      },
      {
        "day": "Friday",
        "hours": "9 AM to 6 PM"
      },
      {
        "day": "Saturday",
        "hours": "10 AM to 1 PM"
      },
      {
        "day": "Sunday",
        "hours": "Closed"
      }
    ],
    "peopleAlsoSearch": [],
    "placesTags": [],
    "reviewsTags": [],
    "additionalInfo": {
      "Service options": [
        {
          "Delivery": true
        },
        {
          "Drive-through": true
        },
        {
          "In-store pickup": true
        },
        {
          "Same-day delivery": true
        }
      ],
      "Accessibility": [
        {
          "Wheelchair accessible entrance": true
        },
        {
          "Wheelchair accessible parking lot": true
        }
      ],
      "Planning": [
        {
          "Quick visit": true
        }
      ],
      "Payments": [
        {
          "Credit cards": true
        },
        {
          "Debit cards": true
        },
        {
          "NFC mobile payments": true
        },
        {
          "Credit cards": true
        }
      ]
    },
    "gasPrices": [],
    "url": "https://www.google.com/maps/search/?api=1&query=The%20Medicine%20Shoppe%20Pharmacy&query_place_id=ChIJO1UMqLOMwIcRyCvEJ7jh6Ys",
    "searchPageUrl": "https://www.google.com/maps/search/independent%20pharmacy%20Kansas%20City%20KS/@52.48183889042627,-172.53573190334848,11z?hl=en",
    "searchString": "independent pharmacy Kansas City KS",
    "language": "en",
    "rank": 1,
    "isAdvertisement": false,
    "imageUrl": "https://streetviewpixels-pa.googleapis.com/v1/thumbnail?panoid=occUjVROpsJ8R1KoMk5QCw&cb_client=search.gws-prod.gps&w=408&h=240&yaw=186.31456&pitch=0&thumbfov=100",
    "kgmid": "/g/1tfb2j36"
  },
  {
    "title": "Pharmacy of Grace",
    "price": null,
    "categoryName": "Pharmacy",
    "address": "721 N 31 St #100, Kansas City, KS 66102",
    "neighborhood": "Kensington",
    "street": "721 N 31 St #100",
    "city": "Kansas City",
    "postalCode": "66102",
    "state": "Kansas",
    "countryCode": "US",
    "website": "https://pharmacyofgrace.org/",
    "phone": "(913) 953-8260",
    "phoneUnformatted": "+19139538260",
    "claimThisBusiness": false,
    "location": {
      "lat": 39.1137371,
      "lng": -94.6636857
    },
    "totalScore": 5,
    "permanentlyClosed": false,
    "temporarilyClosed": false,
    "placeId": "ChIJG74d93nzwIcRgrSinlAj4Q4",
    "categories": [
      "Pharmacy"
    ],
    "fid": "0x87c0f379f71dbe1b:0xee123509ea2b482",
    "cid": "1072177015456707714",
    "reviewsCount": 34,
    "imagesCount": 29,
    "imageCategories": [],
    "scrapedAt": "2025-06-22T08:02:47.122Z",
    "googleFoodUrl": null,
    "hotelAds": [],
    "openingHours": [
      {
        "day": "Monday",
        "hours": "8 AM to 12:30 PM, 1 to 4 PM"
      },
      {
        "day": "Tuesday",
        "hours": "8 AM to 12:30 PM, 1 to 4 PM"
      },
      {
        "day": "Wednesday",
        "hours": "8 AM to 12:30 PM, 1 to 4 PM"
      },
      {
        "day": "Thursday",
        "hours": "8 AM to 12:30 PM, 1 to 4 PM"
      },
      {
        "day": "Friday",
        "hours": "8 AM to 12:30 PM, 1 to 4 PM"
      },
      {
        "day": "Saturday",
        "hours": "Closed"
      },
      {
        "day": "Sunday",
        "hours": "Closed"
      }
    ],
    "peopleAlsoSearch": [],
    "placesTags": [],
    "reviewsTags": [],
    "additionalInfo": {
      "From the business": [
        {
          "Small business": true
        }
      ],
      "Service options": [
        {
          "In-store shopping": true
        }
      ],
      "Accessibility": [
        {
          "Wheelchair accessible entrance": true
        },
        {
          "Wheelchair accessible parking lot": true
        },
        {
          "Wheelchair accessible restroom": true
        },
        {
          "Wheelchair accessible seating": true
        }
      ],
      "Payments": [
        {
          "Credit cards": true
        },
        {
          "Debit cards": true
        },
        {
          "NFC mobile payments": true
        },
        {
          "Credit cards": true
        }
      ],
      "Parking": [
        {
          "Free parking lot": true
        }
      ]
    },
    "gasPrices": [],
    "url": "https://www.google.com/maps/search/?api=1&query=Pharmacy%20of%20Grace&query_place_id=ChIJG74d93nzwIcRgrSinlAj4Q4",
    "searchPageUrl": "https://www.google.com/maps/search/independent%20pharmacy%20Kansas%20City%20KS/@52.48183889042627,-172.53573190334848,11z?hl=en",
    "searchString": "independent pharmacy Kansas City KS",
    "language": "en",
    "rank": 2,
    "isAdvertisement": false,
    "imageUrl": "https://lh3.googleusercontent.com/p/AF1QipO8M5BJS7JYB4Quy0JlXGgPX0_eLAIy6BZvLaEc=w425-h240-k-no",
    "kgmid": "/g/11t86wv8mm"
  },
  {
    "title": "O'Brien Pharmacy",
    "price": null,
    "categoryName": "Pharmacy",
    "address": "5453 W 61st Pl, Mission, KS 66205",
    "neighborhood": null,
    "street": "5453 W 61st Pl",
    "city": "Mission",
    "postalCode": "66205",
    "state": "Kansas",
    "countryCode": "US",
    "website": "https://www.obrienrx.com/",
    "phone": "(913) 322-0001",
    "phoneUnformatted": "+19133220001",
    "claimThisBusiness": false,
    "location": {
      "lat": 39.0171242,
      "lng": -94.6477517
    },
    "totalScore": 4.6,
    "permanentlyClosed": false,
    "temporarilyClosed": false,
    "placeId": "ChIJ38FmrSvswIcRfV7dUGQrD1Y",
    "categories": [
      "Pharmacy",
      "Homeopathic pharmacy",
      "Nutritionist",
      "Pain control clinic"
    ],
    "fid": "0x87c0ec2bad66c1df:0x560f2b6450dd5e7d",
    "cid": "6201222921765871229",
    "reviewsCount": 37,
    "imagesCount": 14,
    "imageCategories": [],
    "scrapedAt": "2025-06-22T08:02:47.122Z",
    "googleFoodUrl": null,
    "hotelAds": [],
    "openingHours": [
      {
        "day": "Monday",
        "hours": "10 AM to 6 PM"
      },
      {
        "day": "Tuesday",
        "hours": "10 AM to 6 PM"
      },
      {
        "day": "Wednesday",
        "hours": "10 AM to 6 PM"
      },
      {
        "day": "Thursday",
        "hours": "10 AM to 6 PM"
      },
      {
        "day": "Friday",
        "hours": "10 AM to 6 PM"
      },
      {
        "day": "Saturday",
        "hours": "Closed"
      },
      {
        "day": "Sunday",
        "hours": "Closed"
      }
    ],
    "peopleAlsoSearch": [],
    "placesTags": [],
    "reviewsTags": [],
    "additionalInfo": {
      "From the business": [
        {
          "Identifies as women-owned": true
        },
        {
          "Small business": true
        }
      ],
      "Service options": [
        {
          "Delivery": true
        },
        {
          "In-store pickup": true
        },
        {
          "In-store shopping": true
        },
        {
          "Onsite services": true
        },
        {
          "Same-day delivery": true
        }
      ],
      "Accessibility": [
        {
          "Wheelchair accessible entrance": true
        },
        {
          "Wheelchair accessible parking lot": true
        }
      ],
      "Payments": [
        {
          "Credit cards": true
        },
        {
          "Debit cards": true
        },
        {
          "Credit cards": true
        }
      ]
    },
    "gasPrices": [],
    "url": "https://www.google.com/maps/search/?api=1&query=O'Brien%20Pharmacy&query_place_id=ChIJ38FmrSvswIcRfV7dUGQrD1Y",
    "searchPageUrl": "https://www.google.com/maps/search/independent%20pharmacy%20Kansas%20City%20KS/@52.48183889042627,-172.53573190334848,11z?hl=en",
    "searchString": "independent pharmacy Kansas City KS",
    "language": "en",
    "rank": 3,
    "isAdvertisement": false,
    "imageUrl": "https://lh3.googleusercontent.com/p/AF1QipMBs1yUQIPBboQmyjSnkbucSu0zL5g0v79Iy3Pb=w408-h272-k-no",
    "kgmid": "/g/1v1vdqdm"
  },
  {
    "title": "Albers Medical Pharmacy",
    "price": null,
    "categoryName": "Pharmacy",
    "address": "4400 Broadway St #106, Kansas City, MO 64111",
    "neighborhood": "Plaza Westport",
    "street": "4400 Broadway St #106",
    "city": "Kansas City",
    "postalCode": "64111",
    "state": "Missouri",
    "countryCode": "US",
    "website": "http://www.alberspharmacy.com/",
    "phone": "(816) 931-0100",
    "phoneUnformatted": "+18169310100",
    "claimThisBusiness": false,
    "location": {
      "lat": 39.047298,
      "lng": -94.591809
    },
    "totalScore": 4.6,
    "permanentlyClosed": false,
    "temporarilyClosed": false,
    "placeId": "ChIJ5XUrQsbvwIcRVtEjwoETRyI",
    "categories": [
      "Pharmacy"
    ],
    "fid": "0x87c0efc6422b75e5:0x22471381c223d156",
    "cid": "2469964368664842582",
    "reviewsCount": 41,
    "imagesCount": 4,
    "imageCategories": [],
    "scrapedAt": "2025-06-22T08:02:47.122Z",
    "googleFoodUrl": null,
    "hotelAds": [],
    "openingHours": [
      {
        "day": "Monday",
        "hours": "8:30 AM to 5:30 PM"
      },
      {
        "day": "Tuesday",
        "hours": "8:30 AM to 5:30 PM"
      },
      {
        "day": "Wednesday",
        "hours": "8:30 AM to 5:30 PM"
      },
      {
        "day": "Thursday",
        "hours": "8:30 AM to 5:30 PM"
      },
      {
        "day": "Friday",
        "hours": "8:30 AM to 5:30 PM"
      },
      {
        "day": "Saturday",
        "hours": "9 AM to 12:30 PM"
      },
      {
        "day": "Sunday",
        "hours": "Closed"
      }
    ],
    "peopleAlsoSearch": [],
    "placesTags": [],
    "reviewsTags": [],
    "additionalInfo": {
      "From the business": [
        {
          "Small business": true
        }
      ],
      "Service options": [
        {
          "Delivery": true
        },
        {
          "In-store pickup": true
        },
        {
          "Onsite services": true
        },
        {
          "Same-day delivery": true
        }
      ],
      "Accessibility": [
        {
          "Wheelchair accessible entrance": true
        },
        {
          "Wheelchair accessible parking lot": true
        }
      ],
      "Planning": [
        {
          "Quick visit": true
        }
      ],
      "Payments": [
        {
          "Credit cards": true
        },
        {
          "Debit cards": true
        },
        {
          "NFC mobile payments": true
        },
        {
          "Credit cards": true
        }
      ]
    },
    "gasPrices": [],
    "url": "https://www.google.com/maps/search/?api=1&query=Albers%20Medical%20Pharmacy&query_place_id=ChIJ5XUrQsbvwIcRVtEjwoETRyI",
    "searchPageUrl": "https://www.google.com/maps/search/independent%20pharmacy%20Kansas%20City%20KS/@52.48183889042627,-172.53573190334848,11z?hl=en",
    "searchString": "independent pharmacy Kansas City KS",
    "language": "en",
    "rank": 4,
    "isAdvertisement": false,
    "imageUrl": "https://lh3.googleusercontent.com/gps-cs-s/AC9h4np3xDLVHqg7rfTunGgoEa0HSJiPoQoWqsaBwqk5xXdGtuW9tdGydbU2nUN8aS-ehAHnxfHOba6PuwImRh9qRhYOJcXRz56bQnUQDJHqUIERx23ewtk8yEBYWFOMudc8gFTUZRMe=w426-h240-k-no",
    "kgmid": "/g/1tg6l1wm"
  },
  {
    "title": "The Medicine Shoppe",
    "price": null,
    "categoryName": "Pharmacy",
    "address": "2040 Hutton Rd, Kansas City, KS 66109",
    "neighborhood": "I-435 West KC-KS",
    "street": "2040 Hutton Rd",
    "city": "Kansas City",
    "postalCode": "66109",
    "state": "Kansas",
    "countryCode": "US",
    "website": "http://kansascity.medicineshoppe.com/",
    "phone": "(913) 627-9200",
    "phoneUnformatted": "+19136279200",
    "claimThisBusiness": false,
    "location": {
      "lat": 39.1299179,
      "lng": -94.8364284
    },
    "totalScore": 4.9,
    "permanentlyClosed": false,
    "temporarilyClosed": false,
    "placeId": "ChIJ-ZDup2yPwIcRzUUwwX2SDek",
    "categories": [
      "Pharmacy"
    ],
    "fid": "0x87c08f6ca7ee90f9:0xe90d927dc13045cd",
    "cid": "16793239654344181197",
    "reviewsCount": 13,
    "imagesCount": 1,
    "imageCategories": [],
    "scrapedAt": "2025-06-22T08:02:47.396Z",
    "googleFoodUrl": null,
    "hotelAds": [],
    "openingHours": [
      {
        "day": "Monday",
        "hours": "9 AM to 6 PM"
      },
      {
        "day": "Tuesday",
        "hours": "9 AM to 6 PM"
      },
      {
        "day": "Wednesday",
        "hours": "9 AM to 6 PM"
      },
      {
        "day": "Thursday",
        "hours": "9 AM to 6 PM"
      },
      {
        "day": "Friday",
        "hours": "9 AM to 6 PM"
      },
      {
        "day": "Saturday",
        "hours": "8 AM to 1 PM"
      },
      {
        "day": "Sunday",
        "hours": "Closed"
      }
    ],
    "peopleAlsoSearch": [],
    "placesTags": [],
    "reviewsTags": [],
    "additionalInfo": {
      "Service options": [
        {
          "Delivery": true
        },
        {
          "In-store shopping": true
        },
        {
          "Same-day delivery": true
        }
      ],
      "Accessibility": [
        {
          "Wheelchair accessible entrance": true
        },
        {
          "Wheelchair accessible parking lot": true
        }
      ],
      "Crowd": [
        {
          "LGBTQ+ friendly": true
        },
        {
          "Transgender safespace": true
        }
      ],
      "Payments": [
        {
          "Credit cards": true
        },
        {
          "Debit cards": true
        },
        {
          "NFC mobile payments": true
        }
      ]
    },
    "gasPrices": [],
    "url": "https://www.google.com/maps/search/?api=1&query=The%20Medicine%20Shoppe&query_place_id=ChIJ-ZDup2yPwIcRzUUwwX2SDek",
    "searchPageUrl": "https://www.google.com/maps/search/independent%20pharmacy%20Kansas%20City%20KS/@58.095490516641576,-158.8645058997317,9z?hl=en",
    "searchString": "independent pharmacy Kansas City KS",
    "language": "en",
    "rank": 3,
    "isAdvertisement": false,
    "imageUrl": "https://streetviewpixels-pa.googleapis.com/v1/thumbnail?panoid=giNS1TEr9WltnN-QKoX66g&cb_client=search.gws-prod.gps&w=408&h=240&yaw=185.3829&pitch=0&thumbfov=100",
    "kgmid": "/g/11j3tx0qpp"
  },
  {
    "title": "Iman's Pharmacy",
    "price": null,
    "categoryName": "Pharmacy",
    "address": "2360 E 12th St, Kansas City, MO 64127, United States",
    "neighborhood": "Northeast Kansas City",
    "street": "2360 E 12th St",
    "city": "Kansas City",
    "postalCode": "64127",
    "state": "Missouri",
    "countryCode": "US",
    "phone": "+1 816-569-6310",
    "phoneUnformatted": "+18165696310",
    "claimThisBusiness": false,
    "location": {
      "lat": 39.0991903,
      "lng": -94.5540803
    },
    "totalScore": 4.9,
    "permanentlyClosed": false,
    "temporarilyClosed": false,
    "placeId": "ChIJmaLiscj7wIcRzZ7WJZ7r_IE",
    "categories": [
      "Pharmacy"
    ],
    "fid": "0x87c0fbc8b1e2a299:0x81fceb9e25d69ecd",
    "cid": "9366620389495971533",
    "reviewsCount": 28,
    "imagesCount": 4,
    "imageCategories": [],
    "scrapedAt": "2025-06-22T08:02:52.561Z",
    "googleFoodUrl": null,
    "hotelAds": [],
    "openingHours": [
      {
        "day": "Monday",
        "hours": "10 AM to 6 PM"
      },
      {
        "day": "Tuesday",
        "hours": "10 AM to 6 PM"
      },
      {
        "day": "Wednesday",
        "hours": "10 AM to 6 PM"
      },
      {
        "day": "Thursday",
        "hours": "10 AM to 6 PM"
      },
      {
        "day": "Friday",
        "hours": "10 AM to 1 PM, 2:30 to 6 PM"
      },
      {
        "day": "Saturday",
        "hours": "11 AM to 4 PM"
      },
      {
        "day": "Sunday",
        "hours": "Closed"
      }
    ],
    "peopleAlsoSearch": [],
    "placesTags": [],
    "reviewsTags": [],
    "additionalInfo": {
      "From the business": [
        {
          "Small Business": true
        }
      ],
      "Service options": [
        {
          "Kerbside pickup": true
        },
        {
          "Delivery": true
        },
        {
          "In-store pick-up": true
        },
        {
          "In-store shopping": true
        },
        {
          "On-site services": true
        },
        {
          "Same-day delivery": true
        }
      ],
      "Accessibility": [
        {
          "Wheelchair-accessible car park": true
        },
        {
          "Wheelchair-accessible entrance": true
        }
      ],
      "Planning": [
        {
          "Quick visit": true
        }
      ],
      "Payments": [
        {
          "Credit cards": true
        },
        {
          "Debit cards": true
        },
        {
          "NFC mobile payments": true
        },
        {
          "Credit cards": true
        }
      ]
    },
    "gasPrices": [],
    "url": "https://www.google.com/maps/search/?api=1&query=Iman's%20Pharmacy&query_place_id=ChIJmaLiscj7wIcRzZ7WJZ7r_IE",
    "searchPageUrl": "https://www.google.com/maps/search/independent%20pharmacy%20Kansas%20City%20KS/@59.485012656044645,-154.26130995702792,9z?hl=en",
    "searchString": "independent pharmacy Kansas City KS",
    "language": "en",
    "rank": 4,
    "isAdvertisement": false,
    "imageUrl": "https://lh3.googleusercontent.com/p/AF1QipMJfpUdUa5CCZQiLI6-IGCeLnLccDckGcTku3iH=w408-h306-k-no",
    "kgmid": "/g/11hdp7ry7x"
  },
  {
    "title": "AuBurn Pharmacy",
    "price": null,
    "categoryName": "Pharmacy",
    "address": "13351 Mission Rd, Leawood, KS 66209, United States",
    "neighborhood": "Market Square Center",
    "street": "13351 Mission Rd",
    "city": "Leawood",
    "postalCode": "66209",
    "state": "Kansas",
    "countryCode": "US",
    "website": "http://auburnpharmacies.com/leawood-kansas/",
    "phone": "+1 913-469-9315",
    "phoneUnformatted": "+19134699315",
    "claimThisBusiness": false,
    "location": {
      "lat": 38.8850152,
      "lng": -94.6281101
    },
    "totalScore": 4.9,
    "permanentlyClosed": false,
    "temporarilyClosed": false,
    "placeId": "ChIJ20CJcxLCwIcRn5HDu7wCSO8",
    "categories": [
      "Pharmacy",
      "Beauty supply store",
      "Drug store"
    ],
    "fid": "0x87c0c212738940db:0xef4802bcbbc3919f",
    "cid": "17242034183015207327",
    "reviewsCount": 19,
    "imagesCount": 8,
    "imageCategories": [],
    "scrapedAt": "2025-06-22T08:02:59.500Z",
    "googleFoodUrl": null,
    "hotelAds": [],
    "openingHours": [
      {
        "day": "Monday",
        "hours": "9 AM to 7 PM"
      },
      {
        "day": "Tuesday",
        "hours": "9 AM to 7 PM"
      },
      {
        "day": "Wednesday",
        "hours": "9 AM to 7 PM"
      },
      {
        "day": "Thursday",
        "hours": "9 AM to 7 PM"
      },
      {
        "day": "Friday",
        "hours": "9 AM to 7 PM"
      },
      {
        "day": "Saturday",
        "hours": "9 AM to 4 PM"
      },
      {
        "day": "Sunday",
        "hours": "Closed"
      }
    ],
    "peopleAlsoSearch": [],
    "placesTags": [],
    "reviewsTags": [],
    "additionalInfo": {
      "Service options": [
        {
          "Delivery": true
        },
        {
          "In-store pick-up": true
        },
        {
          "In-store shopping": true
        },
        {
          "Same-day delivery": true
        }
      ],
      "Accessibility": [
        {
          "Wheelchair-accessible car park": true
        },
        {
          "Wheelchair-accessible entrance": true
        }
      ],
      "Planning": [
        {
          "Quick visit": true
        }
      ],
      "Payments": [
        {
          "Credit cards": true
        },
        {
          "Debit cards": true
        }
      ]
    },
    "gasPrices": [],
    "url": "https://www.google.com/maps/search/?api=1&query=AuBurn%20Pharmacy&query_place_id=ChIJ20CJcxLCwIcRn5HDu7wCSO8",
    "searchPageUrl": "https://www.google.com/maps/search/independent%20pharmacy%20Kansas%20City%20KS/@51.81411644999999,-177.3132206483257,11z?hl=en",
    "searchString": "independent pharmacy Kansas City KS",
    "language": "en",
    "rank": 5,
    "isAdvertisement": false,
    "imageUrl": "https://lh3.googleusercontent.com/gps-cs-s/AC9h4no4eohZ1BbX-cNxRGeB8xpxaS9UNNqnfacsuwVOfbN53KO0sCkNfGAnYeNNSiabmzucaZAi4ieKRk8j7QlSXJ50-Obv0us2asRerFzU3ataw2IVZxCl3SArS8jm5Vukjo7vgCM-fA=w408-h306-k-no",
    "kgmid": "/g/12631qn6x"
  },
  {
    "title": "Pharmacy, The University of Kansas Hospital Cambridge Tower A",
    "price": null,
    "categoryName": "Pharmacy",
    "address": "3825 Cambridge St Level 1, Kansas City, KS 66103",
    "neighborhood": "Rosedale",
    "street": "3825 Cambridge St Level 1",
    "city": "Kansas City",
    "postalCode": "66103",
    "state": "Kansas",
    "countryCode": "US",
    "website": "https://www.kansashealthsystem.com/pharmacy-services?utm_source=gmb&utm_medium=web&utm_term=&utm_content=&utm_campaign=kyruus_brandify",
    "phone": "(913) 574-3100",
    "phoneUnformatted": "+19135743100",
    "claimThisBusiness": false,
    "location": {
      "lat": 39.0582205,
      "lng": -94.6077561
    },
    "totalScore": 3.4,
    "permanentlyClosed": false,
    "temporarilyClosed": false,
    "placeId": "ChIJ_UKK-CvuwIcR5brloUwEJXk",
    "categories": [
      "Pharmacy"
    ],
    "fid": "0x87c0ee2bf88a42fd:0x7925044ca1e5bae5",
    "cid": "8729388179907787493",
    "reviewsCount": 15,
    "imagesCount": 12,
    "imageCategories": [],
    "scrapedAt": "2025-06-22T08:03:08.193Z",
    "googleFoodUrl": null,
    "hotelAds": [],
    "openingHours": [
      {
        "day": "Monday",
        "hours": "9 AM to 5:30 PM"
      },
      {
        "day": "Tuesday",
        "hours": "9 AM to 5:30 PM"
      },
      {
        "day": "Wednesday",
        "hours": "9 AM to 5:30 PM"
      },
      {
        "day": "Thursday",
        "hours": "9 AM to 5:30 PM"
      },
      {
        "day": "Friday",
        "hours": "9 AM to 5:30 PM"
      },
      {
        "day": "Saturday",
        "hours": "9 AM to 5 PM"
      },
      {
        "day": "Sunday",
        "hours": "9 AM to 5 PM"
      }
    ],
    "peopleAlsoSearch": [],
    "placesTags": [],
    "reviewsTags": [],
    "additionalInfo": {
      "Accessibility": [
        {
          "Wheelchair accessible entrance": true
        },
        {
          "Wheelchair accessible parking lot": true
        }
      ],
      "Payments": [
        {
          "Credit cards": true
        }
      ]
    },
    "gasPrices": [],
    "url": "https://www.google.com/maps/search/?api=1&query=Pharmacy%2C%20The%20University%20of%20Kansas%20Hospital%20Cambridge%20Tower%20A&query_place_id=ChIJ_UKK-CvuwIcR5brloUwEJXk",
    "searchPageUrl": "https://www.google.com/maps/search/independent%20pharmacy%20Kansas%20City%20KS/@57.40072944694004,-133.54692821486086,9z?hl=en",
    "searchString": "independent pharmacy Kansas City KS",
    "language": "en",
    "rank": 4,
    "isAdvertisement": false,
    "imageUrl": "https://lh3.googleusercontent.com/gps-cs-s/AC9h4noIcmVYftaO2qyRN1feW9Q3GvohBf7ekEXh9ck48mcy1E-lekURjo-WRVVR2yfxaJmGJepy1Xbaj4WOvSL4vL1yu20VGYXX_zKMSboSrC-MWUdasQOsPBOsGFQrf9AGyyfBI74Nqw=w408-h443-k-no",
    "kgmid": "/g/11bw7dfz8g"
  },
  {
    "title": "Pharmacy, The University of Kansas Hospital",
    "price": null,
    "categoryName": "Pharmacy",
    "address": "4000 Cambridge St Level G, Suite, BH.G400, Kansas City, KS 66160",
    "neighborhood": "Rosedale",
    "street": "4000 Cambridge St Level G, Suite, BH.G400",
    "city": "Kansas City",
    "postalCode": "66160",
    "state": "KS",
    "countryCode": "US",
    "website": "https://www.kansashealthsystem.com/pharmacy-services?utm_source=gmb&utm_medium=web&utm_term=&utm_content=&utm_campaign=kyruus_brandify",
    "phone": "(913) 588-2361",
    "phoneUnformatted": "+19135882361",
    "claimThisBusiness": false,
    "location": {
      "lat": 39.056753,
      "lng": -94.6088515
    },
    "totalScore": 4.6,
    "permanentlyClosed": false,
    "temporarilyClosed": false,
    "placeId": "ChIJ0eNq3wzvwIcRqbI62E_A8IM",
    "categories": [
      "Pharmacy"
    ],
    "fid": "0x87c0ef0cdf6ae3d1:0x83f0c04fd83ab2a9",
    "cid": "9507310262541791913",
    "reviewsCount": 37,
    "imagesCount": 5,
    "imageCategories": [],
    "scrapedAt": "2025-06-22T08:03:08.193Z",
    "googleFoodUrl": null,
    "hotelAds": [],
    "openingHours": [
      {
        "day": "Monday",
        "hours": "6 AM to 9 PM"
      },
      {
        "day": "Tuesday",
        "hours": "6 AM to 9 PM"
      },
      {
        "day": "Wednesday",
        "hours": "6 AM to 9 PM"
      },
      {
        "day": "Thursday",
        "hours": "6 AM to 9 PM"
      },
      {
        "day": "Friday",
        "hours": "6 AM to 9 PM"
      },
      {
        "day": "Saturday",
        "hours": "9 AM to 5 PM"
      },
      {
        "day": "Sunday",
        "hours": "9 AM to 5 PM"
      }
    ],
    "peopleAlsoSearch": [],
    "placesTags": [],
    "reviewsTags": [],
    "additionalInfo": {
      "Service options": [
        {
          "Delivery": true
        },
        {
          "In-store pickup": true
        }
      ],
      "Accessibility": [
        {
          "Wheelchair accessible entrance": true
        },
        {
          "Wheelchair accessible parking lot": true
        }
      ],
      "Payments": [
        {
          "Credit cards": true
        }
      ]
    },
    "gasPrices": [],
    "url": "https://www.google.com/maps/search/?api=1&query=Pharmacy%2C%20The%20University%20of%20Kansas%20Hospital&query_place_id=ChIJ0eNq3wzvwIcRqbI62E_A8IM",
    "searchPageUrl": "https://www.google.com/maps/search/independent%20pharmacy%20Kansas%20City%20KS/@57.40072944694004,-133.54692821486086,9z?hl=en",
    "searchString": "independent pharmacy Kansas City KS",
    "language": "en",
    "rank": 6,
    "isAdvertisement": false,
    "imageUrl": "https://lh3.googleusercontent.com/p/AF1QipMnxYHT-WHWNwUhkyLlolA9aZaCExhr11hf8gtp=w408-h307-k-no",
    "kgmid": "/g/11gm835ynz"
  },
  {
    "title": "KC CARE Health Center - Pharmacy",
    "price": null,
    "categoryName": "Pharmacy",
    "address": "3507 Broadway Blvd, Kansas City, MO 64111",
    "neighborhood": "Hanover Place",
    "street": "3507 Broadway Blvd",
    "city": "Kansas City",
    "postalCode": "64111",
    "state": "Missouri",
    "countryCode": "US",
    "website": "https://kccare.org/services/pharmacy/",
    "phone": "(816) 777-2709",
    "phoneUnformatted": "+18167772709",
    "claimThisBusiness": false,
    "location": {
      "lat": 39.0635912,
      "lng": -94.5900837
    },
    "totalScore": 3.9,
    "permanentlyClosed": false,
    "temporarilyClosed": false,
    "placeId": "ChIJhZDpQNTvwIcRDLUkbMkTKro",
    "categories": [
      "Pharmacy"
    ],
    "fid": "0x87c0efd440e99085:0xba2a13c96c24b50c",
    "cid": "13414556195900142860",
    "reviewsCount": 14,
    "imagesCount": 5,
    "imageCategories": [],
    "scrapedAt": "2025-06-22T08:03:08.193Z",
    "googleFoodUrl": null,
    "hotelAds": [],
    "openingHours": [
      {
        "day": "Monday",
        "hours": "9 AM to 12:30 PM, 1 to 5:30 PM"
      },
      {
        "day": "Tuesday",
        "hours": "9 AM to 12:30 PM, 1 to 5:30 PM"
      },
      {
        "day": "Wednesday",
        "hours": "9 AM to 12:30 PM, 1 to 5:30 PM"
      },
      {
        "day": "Thursday",
        "hours": "9 AM to 12:30 PM, 1 to 5:30 PM"
      },
      {
        "day": "Friday",
        "hours": "9 AM to 12:30 PM, 1 to 5:30 PM"
      },
      {
        "day": "Saturday",
        "hours": "Closed"
      },
      {
        "day": "Sunday",
        "hours": "Closed"
      }
    ],
    "peopleAlsoSearch": [],
    "placesTags": [],
    "reviewsTags": [],
    "additionalInfo": {
      "Service options": [
        {
          "In-store pickup": true
        }
      ],
      "Accessibility": [
        {
          "Wheelchair accessible entrance": true
        },
        {
          "Wheelchair accessible parking lot": true
        },
        {
          "Wheelchair accessible restroom": true
        }
      ],
      "Amenities": [
        {
          "Gender-neutral restroom": true
        },
        {
          "Wi-Fi": true
        },
        {
          "Free Wi-Fi": true
        }
      ],
      "Crowd": [
        {
          "LGBTQ+ friendly": true
        },
        {
          "Transgender safespace": true
        }
      ],
      "Payments": [
        {
          "Credit cards": true
        }
      ]
    },
    "gasPrices": [],
    "url": "https://www.google.com/maps/search/?api=1&query=KC%20CARE%20Health%20Center%20-%20Pharmacy&query_place_id=ChIJhZDpQNTvwIcRDLUkbMkTKro",
    "searchPageUrl": "https://www.google.com/maps/search/independent%20pharmacy%20Kansas%20City%20KS/@57.40072944694004,-133.54692821486086,9z?hl=en",
    "searchString": "independent pharmacy Kansas City KS",
    "language": "en",
    "rank": 7,
    "isAdvertisement": false,
    "imageUrl": "https://lh3.googleusercontent.com/p/AF1QipNx07TArsBwvTspjg1MGH7ZUWFcDk5l1HfnYPPA=w408-h272-k-no",
    "kgmid": "/g/11kjptcblf"
  },
  {
    "title": "Georgetown Pharmacy",
    "price": null,
    "categoryName": "Pharmacy",
    "address": "5605 Merriam Dr, Merriam, KS 66203",
    "neighborhood": null,
    "street": "5605 Merriam Dr",
    "city": "Merriam",
    "postalCode": "66203",
    "state": "Kansas",
    "countryCode": "US",
    "website": "http://www.ghccusa.com/",
    "phone": "(800) 279-3026",
    "phoneUnformatted": "+18002793026",
    "claimThisBusiness": true,
    "location": {
      "lat": 39.0275097,
      "lng": -94.6927597
    },
    "totalScore": 4.8,
    "permanentlyClosed": false,
    "temporarilyClosed": false,
    "placeId": "ChIJrx7fvgXtwIcRIqOlOvvG0oc",
    "categories": [
      "Pharmacy"
    ],
    "fid": "0x87c0ed05bedf1eaf:0x87d2c6fb3aa5a322",
    "cid": "9787103722552533794",
    "reviewsCount": 21,
    "imagesCount": 3,
    "imageCategories": [],
    "scrapedAt": "2025-06-22T08:03:08.193Z",
    "googleFoodUrl": null,
    "hotelAds": [],
    "openingHours": [
      {
        "day": "Monday",
        "hours": "9 AM to 6 PM"
      },
      {
        "day": "Tuesday",
        "hours": "9 AM to 6 PM"
      },
      {
        "day": "Wednesday",
        "hours": "9 AM to 6 PM"
      },
      {
        "day": "Thursday",
        "hours": "9 AM to 6 PM"
      },
      {
        "day": "Friday",
        "hours": "9 AM to 6 PM"
      },
      {
        "day": "Saturday",
        "hours": "9 AM to 1 PM"
      },
      {
        "day": "Sunday",
        "hours": "Closed"
      }
    ],
    "peopleAlsoSearch": [],
    "placesTags": [],
    "reviewsTags": [],
    "additionalInfo": {
      "Service options": [
        {
          "Delivery": true
        },
        {
          "Same-day delivery": true
        }
      ],
      "Accessibility": [
        {
          "Wheelchair accessible entrance": true
        },
        {
          "Wheelchair accessible parking lot": true
        }
      ],
      "Planning": [
        {
          "Quick visit": true
        }
      ],
      "Payments": [
        {
          "Credit cards": true
        },
        {
          "Debit cards": true
        },
        {
          "NFC mobile payments": true
        },
        {
          "Credit cards": true
        }
      ]
    },
    "gasPrices": [],
    "url": "https://www.google.com/maps/search/?api=1&query=Georgetown%20Pharmacy&query_place_id=ChIJrx7fvgXtwIcRIqOlOvvG0oc",
    "searchPageUrl": "https://www.google.com/maps/search/independent%20pharmacy%20Kansas%20City%20KS/@57.40072944694004,-133.54692821486086,9z?hl=en",
    "searchString": "independent pharmacy Kansas City KS",
    "language": "en",
    "rank": 9,
    "isAdvertisement": false,
    "imageUrl": "https://lh3.googleusercontent.com/gps-cs-s/AC9h4nrKyw2np6ptPtuAMl6ZNTGw5LgiAYlQPRod1ht0f3n_NwXEjTvtfrOALNmeYqL3Sm9vuez4BruhaaJu_Gt1QAjBgxUMhWCP7VSw1VFFZQ-gl-gfNu1GtDomMs0RH_ldTDmsMsekSw=w426-h240-k-no",
    "kgmid": "/g/1th82gg_"
  },
  {
    "title": "Kollhoff Pharmacy & Compounding",
    "price": null,
    "categoryName": "Pharmacy",
    "address": "407 S Washington St, Junction City, KS 66441",
    "neighborhood": null,
    "street": "407 S Washington St",
    "city": "Junction City",
    "postalCode": "66441",
    "state": "Kansas",
    "countryCode": "US",
    "website": "http://www.kollhoffpharmacy.com/",
    "phone": "(785) 238-1000",
    "phoneUnformatted": "+17852381000",
    "claimThisBusiness": false,
    "location": {
      "lat": 39.01956,
      "lng": -96.829219
    },
    "totalScore": 4.6,
    "permanentlyClosed": false,
    "temporarilyClosed": false,
    "placeId": "ChIJoyAhf0lJvIcRehXpl1zqogg",
    "categories": [
      "Pharmacy"
    ],
    "fid": "0x87bc49497f2120a3:0x8a2ea5c97e9157a",
    "cid": "622317381937075578",
    "reviewsCount": 55,
    "imagesCount": 25,
    "imageCategories": [],
    "scrapedAt": "2025-06-22T08:04:26.565Z",
    "googleFoodUrl": null,
    "hotelAds": [],
    "openingHours": [
      {
        "day": "Monday",
        "hours": "9 AM to 6 PM"
      },
      {
        "day": "Tuesday",
        "hours": "9 AM to 6 PM"
      },
      {
        "day": "Wednesday",
        "hours": "9 AM to 6 PM"
      },
      {
        "day": "Thursday",
        "hours": "9 AM to 6 PM"
      },
      {
        "day": "Friday",
        "hours": "9 AM to 6 PM"
      },
      {
        "day": "Saturday",
        "hours": "Closed"
      },
      {
        "day": "Sunday",
        "hours": "Closed"
      }
    ],
    "peopleAlsoSearch": [],
    "placesTags": [],
    "reviewsTags": [],
    "additionalInfo": {
      "From the business": [
        {
          "Identifies as women-owned": true
        },
        {
          "Small business": true
        }
      ],
      "Service options": [
        {
          "Delivery": true
        },
        {
          "Drive-through": true
        },
        {
          "In-store pickup": true
        },
        {
          "Onsite services": true
        },
        {
          "Same-day delivery": true
        }
      ],
      "Accessibility": [
        {
          "Wheelchair accessible entrance": true
        },
        {
          "Wheelchair accessible parking lot": true
        }
      ],
      "Crowd": [
        {
          "LGBTQ+ friendly": true
        }
      ],
      "Planning": [
        {
          "Quick visit": true
        }
      ],
      "Payments": [
        {
          "Credit cards": true
        },
        {
          "Debit cards": true
        },
        {
          "NFC mobile payments": true
        },
        {
          "Credit cards": true
        }
      ]
    },
    "gasPrices": [],
    "url": "https://www.google.com/maps/search/?api=1&query=Kollhoff%20Pharmacy%20%26%20Compounding&query_place_id=ChIJoyAhf0lJvIcRehXpl1zqogg",
    "searchPageUrl": "https://www.google.com/maps/search/independent%20pharmacy%20Kansas%20City%20KS/@42.54640259466427,-105.48342742835163,8z?hl=en",
    "searchString": "independent pharmacy Kansas City KS",
    "language": "en",
    "rank": 4,
    "isAdvertisement": false,
    "imageUrl": "https://lh3.googleusercontent.com/p/AF1QipNfG8xaoMsfZ82aU0Feuc67FdzD8L-PwHf1TlT3=w408-h303-k-no",
    "kgmid": "/g/1s04dqdjx"
  },
  {
    "title": "Rockhill Pharmacy",
    "price": null,
    "categoryName": "Pharmacy",
    "address": "4240 SW Trafficway, Kansas City, MO 64111",
    "neighborhood": "Volker",
    "street": "4240 SW Trafficway",
    "city": "Kansas City",
    "postalCode": "64111",
    "state": "Missouri",
    "countryCode": "US",
    "website": "https://www.rockhillpharmacy.com/",
    "phone": "(816) 799-0123",
    "phoneUnformatted": "+18167990123",
    "claimThisBusiness": false,
    "location": {
      "lat": 39.0511146,
      "lng": -94.5977768
    },
    "totalScore": 5,
    "permanentlyClosed": false,
    "temporarilyClosed": false,
    "placeId": "ChIJiRfdYs7vwIcRAfvXJ_TUFgc",
    "categories": [
      "Pharmacy"
    ],
    "fid": "0x87c0efce62dd1789:0x716d4f427d7fb01",
    "cid": "510829752858704641",
    "reviewsCount": 5,
    "imagesCount": 2,
    "imageCategories": [],
    "scrapedAt": "2025-06-22T08:04:50.752Z",
    "googleFoodUrl": null,
    "hotelAds": [],
    "openingHours": [
      {
        "day": "Monday",
        "hours": "9 AM to 5 PM"
      },
      {
        "day": "Tuesday",
        "hours": "9 AM to 5 PM"
      },
      {
        "day": "Wednesday",
        "hours": "9 AM to 5 PM"
      },
      {
        "day": "Thursday",
        "hours": "9 AM to 5 PM"
      },
      {
        "day": "Friday",
        "hours": "9 AM to 5 PM"
      },
      {
        "day": "Saturday",
        "hours": "9 AM to 3 PM"
      },
      {
        "day": "Sunday",
        "hours": "Closed"
      }
    ],
    "peopleAlsoSearch": [],
    "placesTags": [],
    "reviewsTags": [],
    "additionalInfo": {
      "From the business": [
        {
          "Small business": true
        }
      ],
      "Service options": [
        {
          "Delivery": true
        },
        {
          "Same-day delivery": true
        }
      ],
      "Accessibility": [
        {
          "Wheelchair accessible entrance": true
        },
        {
          "Wheelchair accessible parking lot": true
        }
      ],
      "Payments": [
        {
          "Credit cards": true
        },
        {
          "Debit cards": true
        }
      ]
    },
    "gasPrices": [],
    "url": "https://www.google.com/maps/search/?api=1&query=Rockhill%20Pharmacy&query_place_id=ChIJiRfdYs7vwIcRAfvXJ_TUFgc",
    "searchPageUrl": "https://www.google.com/maps/search/independent%20pharmacy%20Kansas%20City%20KS/@39.1137371,-94.6636857,12.636636781469024z?hl=en",
    "searchString": "independent pharmacy Kansas City KS",
    "language": "en",
    "rank": 7,
    "isAdvertisement": false,
    "imageUrl": "https://lh3.googleusercontent.com/p/AF1QipNIghuMPIjM6ua4d60EyoggiN0t2EeO-6xZintX=w408-h272-k-no",
    "kgmid": "/g/11ckqr7sjg"
  },
  {
    "title": "CVS Pharmacy",
    "price": null,
    "categoryName": "Pharmacy",
    "address": "4645 Shawnee Dr, Kansas City, KS 66106",
    "neighborhood": "Turner",
    "street": "4645 Shawnee Dr",
    "city": "Kansas City",
    "postalCode": "66106",
    "state": "Kansas",
    "countryCode": "US",
    "website": "https://www.cvs.com/store-locator/kansas-city-ks-pharmacies/4645-shawnee-dr-kansas-city-ks-66106/storeid=8608?WT.mc_id=LS_GOOGLE_RX_8608",
    "phone": "(913) 236-4000",
    "phoneUnformatted": "+19132364000",
    "claimThisBusiness": false,
    "location": {
      "lat": 39.0495235,
      "lng": -94.6854897
    },
    "totalScore": 4.5,
    "permanentlyClosed": false,
    "temporarilyClosed": false,
    "placeId": "ChIJmeFpT53twIcR0R1I8CuB0ao",
    "categories": [
      "Pharmacy"
    ],
    "fid": "0x87c0ed9d4f69e199:0xaad1812bf0481dd1",
    "cid": "12308761282295111121",
    "reviewsCount": 10,
    "imagesCount": 8,
    "imageCategories": [],
    "scrapedAt": "2025-06-22T08:04:50.752Z",
    "googleFoodUrl": null,
    "hotelAds": [],
    "openingHours": [
      {
        "day": "Monday",
        "hours": "9 AM to 1:30 PM, 2 to 8 PM"
      },
      {
        "day": "Tuesday",
        "hours": "9 AM to 1:30 PM, 2 to 8 PM"
      },
      {
        "day": "Wednesday",
        "hours": "9 AM to 1:30 PM, 2 to 8 PM"
      },
      {
        "day": "Thursday",
        "hours": "9 AM to 1:30 PM, 2 to 8 PM"
      },
      {
        "day": "Friday",
        "hours": "9 AM to 1:30 PM, 2 to 8 PM"
      },
      {
        "day": "Saturday",
        "hours": "9 AM to 1:30 PM, 2 to 6 PM"
      },
      {
        "day": "Sunday",
        "hours": "10 AM to 1:30 PM, 2 to 6 PM"
      }
    ],
    "peopleAlsoSearch": [],
    "placesTags": [],
    "reviewsTags": [],
    "additionalInfo": {
      "Service options": [
        {
          "Delivery": true
        },
        {
          "Drive-through": true
        },
        {
          "In-store shopping": true
        }
      ],
      "Accessibility": [
        {
          "Wheelchair accessible entrance": true
        },
        {
          "Wheelchair accessible parking lot": true
        }
      ],
      "Offerings": [
        {
          "Naloxone": true
        },
        {
          "Passport photos": true
        }
      ],
      "Crowd": [
        {
          "LGBTQ+ friendly": true
        },
        {
          "Transgender safespace": true
        }
      ],
      "Planning": [
        {
          "Quick visit": true
        }
      ],
      "Payments": [
        {
          "Credit cards": true
        },
        {
          "Debit cards": true
        },
        {
          "NFC mobile payments": true
        },
        {
          "SNAP/EBT": true
        },
        {
          "Credit cards": true
        }
      ]
    },
    "gasPrices": [],
    "url": "https://www.google.com/maps/search/?api=1&query=CVS%20Pharmacy&query_place_id=ChIJmeFpT53twIcR0R1I8CuB0ao",
    "searchPageUrl": "https://www.google.com/maps/search/independent%20pharmacy%20Kansas%20City%20KS/@39.1137371,-94.6636857,12.636636781469024z?hl=en",
    "searchString": "independent pharmacy Kansas City KS",
    "language": "en",
    "rank": 8,
    "isAdvertisement": false,
    "imageUrl": "https://lh3.googleusercontent.com/p/AF1QipORsItxOn5RuO_gdyqxWR2fqxkuvCkzFQ6ed4DJ=w408-h272-k-no",
    "kgmid": "/g/11c466t_qr"
  },
  {
    "title": "Spalitto's Pharmacy",
    "price": null,
    "categoryName": "Pharmacy",
    "address": "3801 Independence Ave, Kansas City, MO 64124",
    "neighborhood": "Northeast Kansas City",
    "street": "3801 Independence Ave",
    "city": "Kansas City",
    "postalCode": "64124",
    "state": "Missouri",
    "countryCode": "US",
    "website": "http://www.spalittospharmacy.com/",
    "phone": "(816) 231-4717",
    "phoneUnformatted": "+18162314717",
    "claimThisBusiness": false,
    "location": {
      "lat": 39.1055003,
      "lng": -94.5369434
    },
    "totalScore": 4.8,
    "permanentlyClosed": false,
    "temporarilyClosed": false,
    "placeId": "ChIJGW501PX6wIcRLogb8BQ6VUk",
    "categories": [
      "Pharmacy",
      "Drug store"
    ],
    "fid": "0x87c0faf5d4746e19:0x49553a14f01b882e",
    "cid": "5284193599391238190",
    "reviewsCount": 115,
    "imagesCount": 13,
    "imageCategories": [],
    "scrapedAt": "2025-06-22T08:04:50.752Z",
    "googleFoodUrl": null,
    "hotelAds": [],
    "openingHours": [
      {
        "day": "Monday",
        "hours": "8 AM to 6 PM"
      },
      {
        "day": "Tuesday",
        "hours": "8 AM to 6 PM"
      },
      {
        "day": "Wednesday",
        "hours": "8 AM to 6 PM"
      },
      {
        "day": "Thursday",
        "hours": "8 AM to 6 PM"
      },
      {
        "day": "Friday",
        "hours": "8 AM to 6 PM"
      },
      {
        "day": "Saturday",
        "hours": "Closed"
      },
      {
        "day": "Sunday",
        "hours": "Closed"
      }
    ],
    "peopleAlsoSearch": [],
    "placesTags": [],
    "reviewsTags": [],
    "additionalInfo": {
      "From the business": [
        {
          "Small business": true
        }
      ],
      "Service options": [
        {
          "Delivery": true
        },
        {
          "In-store pickup": true
        },
        {
          "Same-day delivery": true
        }
      ],
      "Accessibility": [
        {
          "Wheelchair accessible entrance": true
        },
        {
          "Wheelchair accessible parking lot": true
        }
      ],
      "Planning": [
        {
          "Quick visit": true
        }
      ],
      "Payments": [
        {
          "Checks": true
        },
        {
          "Credit cards": true
        },
        {
          "Debit cards": true
        },
        {
          "Credit cards": true
        }
      ]
    },
    "gasPrices": [],
    "url": "https://www.google.com/maps/search/?api=1&query=Spalitto's%20Pharmacy&query_place_id=ChIJGW501PX6wIcRLogb8BQ6VUk",
    "searchPageUrl": "https://www.google.com/maps/search/independent%20pharmacy%20Kansas%20City%20KS/@39.1137371,-94.6636857,12.636636781469024z?hl=en",
    "searchString": "independent pharmacy Kansas City KS",
    "language": "en",
    "rank": 9,
    "isAdvertisement": false,
    "imageUrl": "https://lh3.googleusercontent.com/gps-cs-s/AC9h4nonvAnzi3a234K9bNsK7hNXrbvq4Nx1WUraz-hQbATWMjZXrv45YuYRyv8FX3RiznwtxFoMlk1yDVIYFjyvoh_Z65Frg1wBMlWyUNd_XSfgKJ4wuth2ZR9HTlbFJVTbylByz61g=w426-h240-k-no",
    "kgmid": "/g/1tj85c8p"
  },
  {
    "title": "CVS Pharmacy",
    "description": "Drugstore chain selling a variety of beauty & health products, plus some grocery & household items.",
    "price": null,
    "categoryName": "Pharmacy",
    "address": "10900 Stadium Pkwy, Kansas City, KS 66111",
    "neighborhood": "I-435 West KC-KS",
    "street": "10900 Stadium Pkwy",
    "city": "Kansas City",
    "postalCode": "66111",
    "state": "Kansas",
    "countryCode": "US",
    "website": "https://www.cvs.com/store-locator/kansas-city-ks-pharmacies/10900-stadium-pkwy-kansas-city-ks-66111/storeid=17299?WT.mc_id=LS_GOOGLE_RX_17299",
    "phone": "(913) 905-0317",
    "phoneUnformatted": "+19139050317",
    "claimThisBusiness": false,
    "location": {
      "lat": 39.1276457,
      "lng": -94.8313066
    },
    "totalScore": 3.5,
    "permanentlyClosed": false,
    "temporarilyClosed": false,
    "placeId": "ChIJvcF5_8eOwIcRd-vnV1SuTm4",
    "categories": [
      "Pharmacy"
    ],
    "fid": "0x87c08ec7ff79c1bd:0x6e4eae5457e7eb77",
    "cid": "7948482069630806903",
    "reviewsCount": 39,
    "imagesCount": 5,
    "imageCategories": [],
    "scrapedAt": "2025-06-22T08:04:50.825Z",
    "googleFoodUrl": null,
    "hotelAds": [],
    "openingHours": [
      {
        "day": "Monday",
        "hours": "9 AM to 1:30 PM, 2 to 8 PM"
      },
      {
        "day": "Tuesday",
        "hours": "9 AM to 1:30 PM, 2 to 8 PM"
      },
      {
        "day": "Wednesday",
        "hours": "9 AM to 1:30 PM, 2 to 8 PM"
      },
      {
        "day": "Thursday",
        "hours": "9 AM to 1:30 PM, 2 to 8 PM"
      },
      {
        "day": "Friday",
        "hours": "9 AM to 1:30 PM, 2 to 8 PM"
      },
      {
        "day": "Saturday",
        "hours": "9 AM to 1:30 PM, 2 to 6 PM"
      },
      {
        "day": "Sunday",
        "hours": "10 AM to 1:30 PM, 2 to 5 PM"
      }
    ],
    "peopleAlsoSearch": [],
    "placesTags": [],
    "reviewsTags": [],
    "additionalInfo": {
      "Service options": [
        {
          "Delivery": true
        },
        {
          "In-store shopping": true
        }
      ],
      "Accessibility": [
        {
          "Wheelchair accessible entrance": true
        },
        {
          "Wheelchair accessible parking lot": true
        }
      ],
      "Offerings": [
        {
          "Naloxone": true
        }
      ],
      "Crowd": [
        {
          "LGBTQ+ friendly": true
        },
        {
          "Transgender safespace": true
        }
      ],
      "Planning": [
        {
          "Quick visit": true
        }
      ],
      "Payments": [
        {
          "Credit cards": true
        },
        {
          "Debit cards": true
        },
        {
          "Credit cards": true
        }
      ]
    },
    "gasPrices": [],
    "url": "https://www.google.com/maps/search/?api=1&query=CVS%20Pharmacy&query_place_id=ChIJvcF5_8eOwIcRd-vnV1SuTm4",
    "searchPageUrl": "https://www.google.com/maps/search/independent%20pharmacy%20Kansas%20City%20KS/@39.1282286,-94.7303294,12.636340019210367z?hl=en",
    "searchString": "independent pharmacy Kansas City KS",
    "language": "en",
    "rank": 4,
    "isAdvertisement": false,
    "imageUrl": "https://lh3.googleusercontent.com/p/AF1QipPcWbk9GFDp7WyeVDVvcH_P296l_0X0RoDCHUk6=w408-h272-k-no",
    "kgmid": "/g/1tl_m762"
  },
  {
    "title": "Ken's Sunflower Pharmacy",
    "price": null,
    "categoryName": "Pharmacy",
    "address": "7222 W 80th St, Overland Park, KS 66204",
    "neighborhood": "South Lakes",
    "street": "7222 W 80th St",
    "city": "Overland Park",
    "postalCode": "66204",
    "state": "Kansas",
    "countryCode": "US",
    "website": "https://www.mygnp.com/pharmacies/the-medicine-shoppe-overland-park-ks-66204/?utm_source=google&utm_medium=local&utm_campaign=localmaps&utm_content=1716109",
    "phone": "(913) 341-7244",
    "phoneUnformatted": "+19133417244",
    "claimThisBusiness": false,
    "location": {
      "lat": 38.9843471,
      "lng": -94.6698011
    },
    "totalScore": 4.9,
    "permanentlyClosed": false,
    "temporarilyClosed": false,
    "placeId": "ChIJ45A8kXPswIcRx3rGhqZIbmY",
    "categories": [
      "Pharmacy",
      "Drug store"
    ],
    "fid": "0x87c0ec73913c90e3:0x666e48a686c67ac7",
    "cid": "7380916719369747143",
    "reviewsCount": 123,
    "imagesCount": 12,
    "imageCategories": [],
    "scrapedAt": "2025-06-22T08:04:51.251Z",
    "googleFoodUrl": null,
    "hotelAds": [],
    "openingHours": [
      {
        "day": "Monday",
        "hours": "9 AM to 6 PM"
      },
      {
        "day": "Tuesday",
        "hours": "9 AM to 6 PM"
      },
      {
        "day": "Wednesday",
        "hours": "9 AM to 6 PM"
      },
      {
        "day": "Thursday",
        "hours": "9 AM to 6 PM"
      },
      {
        "day": "Friday",
        "hours": "9 AM to 6 PM"
      },
      {
        "day": "Saturday",
        "hours": "10 AM to 1 PM"
      },
      {
        "day": "Sunday",
        "hours": "Closed"
      }
    ],
    "peopleAlsoSearch": [],
    "placesTags": [],
    "reviewsTags": [],
    "additionalInfo": {
      "Service options": [
        {
          "Delivery": true
        },
        {
          "In-store pickup": true
        },
        {
          "In-store shopping": true
        },
        {
          "Onsite services": true
        },
        {
          "Same-day delivery": true
        }
      ],
      "Accessibility": [
        {
          "Wheelchair accessible entrance": true
        },
        {
          "Wheelchair accessible parking lot": true
        }
      ],
      "Amenities": [
        {
          "Wi-Fi": true
        },
        {
          "Free Wi-Fi": true
        }
      ],
      "Planning": [
        {
          "Quick visit": true
        }
      ],
      "Payments": [
        {
          "Credit cards": true
        },
        {
          "Debit cards": true
        },
        {
          "NFC mobile payments": true
        },
        {
          "Credit cards": true
        }
      ]
    },
    "gasPrices": [],
    "url": "https://www.google.com/maps/search/?api=1&query=Ken's%20Sunflower%20Pharmacy&query_place_id=ChIJ45A8kXPswIcRx3rGhqZIbmY",
    "searchPageUrl": "https://www.google.com/maps/search/independent%20pharmacy%20Kansas%20City%20KS/@39.0171242,-94.6477517,12.638611340997107z?hl=en",
    "searchString": "independent pharmacy Kansas City KS",
    "language": "en",
    "rank": 5,
    "isAdvertisement": false,
    "imageUrl": "https://lh3.googleusercontent.com/gps-cs-s/AC9h4nrkS1_WBuuxpfWBEKDAJpQC14h9ZwGQ31xEEimCNwRZXb9S5PlpJmE0wBZ4OWchviKKLzqWtjVhqP9rx108grjI_nzwoMALqMpRMOV0FEvWmxCQfvM5UspxAdpSCMRLsRJOAER6=w426-h240-k-no",
    "kgmid": "/g/1tjbsplx"
  },
  {
    "title": "CVS",
    "description": "Drugstore chain selling a variety of beauty & health products, plus some grocery & household items.",
    "price": null,
    "categoryName": "Drug store",
    "address": "315 W 75th St, Kansas City, MO 64114",
    "neighborhood": "South Kansas City",
    "street": "315 W 75th St",
    "city": "Kansas City",
    "postalCode": "64114",
    "state": "Missouri",
    "countryCode": "US",
    "website": "https://www.cvs.com/store-locator/kansas-city-mo-pharmacies/315-w-75th-street-kansas-city-mo-64114/storeid=8590?WT.mc_id=LS_GOOGLE_FS_8590",
    "phone": "(816) 361-4639",
    "phoneUnformatted": "+18163614639",
    "claimThisBusiness": false,
    "location": {
      "lat": 38.9917558,
      "lng": -94.5926743
    },
    "locatedIn": "CVS Pharmacy",
    "totalScore": 2.4,
    "permanentlyClosed": false,
    "temporarilyClosed": false,
    "placeId": "ChIJDzRysTrvwIcR6-Low-qsYDY",
    "categories": [
      "Drug store",
      "Beauty supply store",
      "Beer store",
      "Convenience store",
      "Cosmetics store",
      "Greeting card shop",
      "Liquor store",
      "Perfume store",
      "Stationery store",
      "Vitamin & supplements store"
    ],
    "fid": "0x87c0ef3ab172340f:0x3660aceac3e8e2eb",
    "cid": "3918321800121475819",
    "reviewsCount": 132,
    "imagesCount": 37,
    "imageCategories": [],
    "scrapedAt": "2025-06-22T08:04:51.251Z",
    "googleFoodUrl": null,
    "hotelAds": [],
    "openingHours": [
      {
        "day": "Monday",
        "hours": "8 AM to 10 PM"
      },
      {
        "day": "Tuesday",
        "hours": "8 AM to 10 PM"
      },
      {
        "day": "Wednesday",
        "hours": "8 AM to 10 PM"
      },
      {
        "day": "Thursday",
        "hours": "8 AM to 10 PM"
      },
      {
        "day": "Friday",
        "hours": "8 AM to 10 PM"
      },
      {
        "day": "Saturday",
        "hours": "8 AM to 10 PM"
      },
      {
        "day": "Sunday",
        "hours": "8 AM to 10 PM"
      }
    ],
    "additionalOpeningHours": {
      "CVS Pharmacy": [
        {
          "day": "Monday",
          "hours": "9 AM–1:30 PM"
        },
        {
          "day": "Tuesday",
          "hours": "9 AM–1:30 PM"
        },
        {
          "day": "Wednesday",
          "hours": "9 AM–1:30 PM"
        },
        {
          "day": "Thursday",
          "hours": "9 AM–1:30 PM"
        },
        {
          "day": "Friday",
          "hours": "9 AM–1:30 PM"
        },
        {
          "day": "Saturday",
          "hours": "9 AM–1:30 PM"
        },
        {
          "day": "Sunday",
          "hours": "10 AM–1:30 PM"
        }
      ],
      "CVS Photo": [
        {
          "day": "Monday",
          "hours": "8 AM–10 PM"
        },
        {
          "day": "Tuesday",
          "hours": "8 AM–10 PM"
        },
        {
          "day": "Wednesday",
          "hours": "8 AM–10 PM"
        },
        {
          "day": "Thursday",
          "hours": "8 AM–10 PM"
        },
        {
          "day": "Friday",
          "hours": "8 AM–10 PM"
        },
        {
          "day": "Saturday",
          "hours": "8 AM–10 PM"
        },
        {
          "day": "Sunday",
          "hours": "8 AM–10 PM"
        }
      ],
      "LibertyX Bitcoin ATM": [
        {
          "day": "Monday",
          "hours": "8 AM–10 PM"
        },
        {
          "day": "Tuesday",
          "hours": "8 AM–10 PM"
        },
        {
          "day": "Wednesday",
          "hours": "8 AM–10 PM"
        },
        {
          "day": "Thursday",
          "hours": "8 AM–10 PM"
        },
        {
          "day": "Friday",
          "hours": "8 AM–10 PM"
        },
        {
          "day": "Saturday",
          "hours": "8 AM–10 PM"
        },
        {
          "day": "Sunday",
          "hours": "8 AM–10 PM"
        }
      ],
      "MinuteClinic at CVS": [
        {
          "day": "Monday",
          "hours": "8 AM–7 PM"
        },
        {
          "day": "Tuesday",
          "hours": "8 AM–7 PM"
        },
        {
          "day": "Wednesday",
          "hours": "8 AM–7 PM"
        },
        {
          "day": "Thursday",
          "hours": "8 AM–7 PM"
        },
        {
          "day": "Friday",
          "hours": "8 AM–7 PM"
        },
        {
          "day": "Saturday",
          "hours": "8 AM–4:30 PM"
        },
        {
          "day": "Sunday",
          "hours": "9 AM–4:30 PM"
        }
      ]
    },
    "peopleAlsoSearch": [],
    "placesTags": [],
    "reviewsTags": [],
    "additionalInfo": {
      "Service options": [
        {
          "Delivery": true
        },
        {
          "Drive-through": true
        },
        {
          "In-store pickup": true
        },
        {
          "In-store shopping": true
        },
        {
          "Same-day delivery": false
        }
      ],
      "Accessibility": [
        {
          "Wheelchair accessible entrance": true
        },
        {
          "Wheelchair accessible parking lot": true
        }
      ],
      "Offerings": [
        {
          "Passport photos": true
        }
      ],
      "Crowd": [
        {
          "LGBTQ+ friendly": true
        },
        {
          "Transgender safespace": true
        }
      ],
      "Planning": [
        {
          "Quick visit": true
        }
      ],
      "Payments": [
        {
          "Credit cards": true
        },
        {
          "Debit cards": true
        },
        {
          "Credit cards": true
        }
      ]
    },
    "gasPrices": [],
    "url": "https://www.google.com/maps/search/?api=1&query=CVS&query_place_id=ChIJDzRysTrvwIcR6-Low-qsYDY",
    "searchPageUrl": "https://www.google.com/maps/search/independent%20pharmacy%20Kansas%20City%20KS/@39.0171242,-94.6477517,12.638611340997107z?hl=en",
    "searchString": "independent pharmacy Kansas City KS",
    "language": "en",
    "rank": 14,
    "isAdvertisement": false,
    "imageUrl": "https://lh3.googleusercontent.com/gps-cs-s/AC9h4npnVHC3nKvbJKBwKiRS15cBJr9KdE6mMINY3QwUqfgib7HQENvllEPaoIddVy-yRCzTfFYVlHnt1z5nw3Uxko5l0eYzXZP0oKVwJGpeO-GJsdTE8BM8rT2yAlXhk1gutPM8yyjB=w426-h240-k-no",
    "kgmid": "/g/1tm8l2z2"
  },
  {
    "title": "CenterWell Pharmacy",
    "price": null,
    "categoryName": "Pharmacy",
    "address": "301 E Armour Blvd Suite 2-East, Kansas City, MO 64111",
    "neighborhood": "Hanover Place",
    "street": "301 E Armour Blvd Suite 2-East",
    "city": "Kansas City",
    "postalCode": "64111",
    "state": "Missouri",
    "countryCode": "US",
    "website": "https://www.centerwellpharmacy.com/retail-locations?cm_mmc=BusinessListing_Centerwell_Pharmacy-_-Midtown",
    "phone": "(816) 788-7929",
    "phoneUnformatted": "+18167887929",
    "claimThisBusiness": false,
    "location": {
      "lat": 39.0633014,
      "lng": -94.5816355
    },
    "totalScore": 3.4,
    "permanentlyClosed": false,
    "temporarilyClosed": false,
    "placeId": "ChIJ-8QGc9LvwIcRHeuuisoKjYw",
    "categories": [
      "Pharmacy"
    ],
    "fid": "0x87c0efd27306c4fb:0x8c8d0aca8aaeeb1d",
    "cid": "10127763002052504349",
    "reviewsCount": 15,
    "imagesCount": 30,
    "imageCategories": [],
    "scrapedAt": "2025-06-22T08:04:51.252Z",
    "googleFoodUrl": null,
    "hotelAds": [],
    "openingHours": [
      {
        "day": "Monday",
        "hours": "8:30 AM to 5 PM"
      },
      {
        "day": "Tuesday",
        "hours": "8:30 AM to 5 PM"
      },
      {
        "day": "Wednesday",
        "hours": "8:30 AM to 5 PM"
      },
      {
        "day": "Thursday",
        "hours": "8:30 AM to 5 PM"
      },
      {
        "day": "Friday",
        "hours": "8:30 AM to 5 PM"
      },
      {
        "day": "Saturday",
        "hours": "Closed"
      },
      {
        "day": "Sunday",
        "hours": "Closed"
      }
    ],
    "peopleAlsoSearch": [],
    "placesTags": [],
    "reviewsTags": [],
    "additionalInfo": {
      "Service options": [
        {
          "Delivery": true
        }
      ],
      "Accessibility": [
        {
          "Wheelchair accessible entrance": true
        },
        {
          "Wheelchair accessible parking lot": true
        }
      ],
      "Payments": [
        {
          "Credit cards": true
        },
        {
          "Debit cards": true
        },
        {
          "Credit cards": true
        }
      ]
    },
    "gasPrices": [],
    "url": "https://www.google.com/maps/search/?api=1&query=CenterWell%20Pharmacy&query_place_id=ChIJ-8QGc9LvwIcRHeuuisoKjYw",
    "searchPageUrl": "https://www.google.com/maps/search/independent%20pharmacy%20Kansas%20City%20KS/@39.0171242,-94.6477517,12.638611340997107z?hl=en",
    "searchString": "independent pharmacy Kansas City KS",
    "language": "en",
    "rank": 15,
    "isAdvertisement": false,
    "imageUrl": "https://lh3.googleusercontent.com/p/AF1QipOeHszyKEgzJCxarLv1OOv0VKVaf3KZEpHXKWlm=w408-h272-k-no",
    "kgmid": "/g/11kk589_36"
  }
]