[
  {
    "title": "Chattanooga Compounding Pharmacy Inc",
    "price": null,
    "categoryName": "Pharmacy",
    "address": "7032 E Brainerd Rd suite A & B, 7032 E Brainerd Rd B, Chattanooga, TN 37421",
    "neighborhood": "Concord Audobon",
    "street": "7032 E Brainerd Rd suite A & B, 7032 E Brainerd Rd B",
    "city": "Chattanooga",
    "postalCode": "37421",
    "state": "TN",
    "countryCode": "US",
    "website": "http://www.ccpharmacy.us/",
    "phone": "(423) 899-3278",
    "phoneUnformatted": "+14238993278",
    "claimThisBusiness": false,
    "location": {
      "lat": 35.017761,
      "lng": -85.1722915
    },
    "totalScore": 4.8,
    "permanentlyClosed": false,
    "temporarilyClosed": false,
    "placeId": "ChIJZ8byDghlYIgR-LINXzZ6D4w",
    "categories": [
      "Pharmacy"
    ],
    "fid": "0x886065080ef2c667:0x8c0f7a365f0db2f8",
    "cid": "10092419663902126840",
    "reviewsCount": 20,
    "imagesCount": 8,
    "imageCategories": [],
    "scrapedAt": "2025-06-22T06:40:21.811Z",
    "googleFoodUrl": null,
    "hotelAds": [],
    "openingHours": [
      {
        "day": "Monday",
        "hours": "9 AM to 6 PM"
      },
      {
        "day": "Tuesday",
        "hours": "9 AM to 6 PM"
      },
      {
        "day": "Wednesday",
        "hours": "9 AM to 6 PM"
      },
      {
        "day": "Thursday",
        "hours": "9 AM to 6 PM"
      },
      {
        "day": "Friday",
        "hours": "9 AM to 6 PM"
      },
      {
        "day": "Saturday",
        "hours": "Closed"
      },
      {
        "day": "Sunday",
        "hours": "Closed"
      }
    ],
    "peopleAlsoSearch": [],
    "placesTags": [],
    "reviewsTags": [],
    "additionalInfo": {
      "From the business": [
        {
          "Small business": true
        }
      ],
      "Service options": [
        {
          "Curbside pickup": true
        },
        {
          "In-store pickup": true
        },
        {
          "In-store shopping": true
        },
        {
          "Same-day delivery": false
        }
      ],
      "Accessibility": [
        {
          "Wheelchair accessible entrance": true
        },
        {
          "Wheelchair accessible parking lot": true
        },
        {
          "Wheelchair accessible seating": true
        }
      ],
      "Payments": [
        {
          "Credit cards": true
        },
        {
          "Debit cards": true
        },
        {
          "NFC mobile payments": true
        },
        {
          "Credit cards": true
        }
      ]
    },
    "gasPrices": [],
    "url": "https://www.google.com/maps/search/?api=1&query=Chattanooga%20Compounding%20Pharmacy%20Inc&query_place_id=ChIJZ8byDghlYIgR-LINXzZ6D4w",
    "searchPageUrl": "https://www.google.com/maps/search/independent%20pharmacy%20Chattanooga%20TN/@51.839717812945175,-179.97595653707245,14z?hl=en",
    "searchString": "independent pharmacy Chattanooga TN",
    "language": "en",
    "rank": 1,
    "isAdvertisement": false,
    "imageUrl": "https://lh3.googleusercontent.com/p/AF1QipMOc0tC2rBXRiecIZ2X_bIF6VdXXBpBTLONjnyo=w408-h292-k-no",
    "kgmid": "/g/11j823tyyv"
  },
  {
    "title": "A+ Pharmacy",
    "price": null,
    "categoryName": "Pharmacy",
    "address": "4767 TN-58 Ste 101, Chattanooga, TN 37416",
    "neighborhood": null,
    "street": "4767 TN-58 Ste 101",
    "city": "Chattanooga",
    "postalCode": "37416",
    "state": "Tennessee",
    "countryCode": "US",
    "phone": "(423) 541-7600",
    "phoneUnformatted": "+14235417600",
    "claimThisBusiness": false,
    "location": {
      "lat": 35.088915,
      "lng": -85.1888131
    },
    "totalScore": 4.5,
    "permanentlyClosed": false,
    "temporarilyClosed": false,
    "placeId": "ChIJA1qLdh5jYIgRSCovK7b3lf4",
    "categories": [
      "Pharmacy"
    ],
    "fid": "0x8860631e768b5a03:0xfe95f7b62b2f2a48",
    "cid": "18344841018944203336",
    "reviewsCount": 22,
    "imagesCount": null,
    "imageCategories": [],
    "scrapedAt": "2025-06-22T06:40:21.813Z",
    "googleFoodUrl": null,
    "hotelAds": [],
    "openingHours": [
      {
        "day": "Monday",
        "hours": "9 AM to 6 PM"
      },
      {
        "day": "Tuesday",
        "hours": "9 AM to 6 PM"
      },
      {
        "day": "Wednesday",
        "hours": "9 AM to 6 PM"
      },
      {
        "day": "Thursday",
        "hours": "9 AM to 6 PM"
      },
      {
        "day": "Friday",
        "hours": "9 AM to 6 PM"
      },
      {
        "day": "Saturday",
        "hours": "12 to 5 PM"
      },
      {
        "day": "Sunday",
        "hours": "Closed"
      }
    ],
    "peopleAlsoSearch": [],
    "placesTags": [],
    "reviewsTags": [],
    "additionalInfo": {
      "From the business": [
        {
          "Small business": true
        }
      ],
      "Service options": [
        {
          "Delivery": true
        },
        {
          "Drive-through": true
        },
        {
          "In-store pickup": true
        },
        {
          "In-store shopping": true
        },
        {
          "Same-day delivery": true
        }
      ],
      "Accessibility": [
        {
          "Wheelchair accessible entrance": true
        },
        {
          "Wheelchair accessible parking lot": true
        }
      ],
      "Planning": [
        {
          "Quick visit": true
        }
      ],
      "Payments": [
        {
          "Credit cards": true
        },
        {
          "Debit cards": true
        },
        {
          "NFC mobile payments": true
        },
        {
          "Credit cards": true
        }
      ]
    },
    "gasPrices": [],
    "url": "https://www.google.com/maps/search/?api=1&query=A%2B%20Pharmacy&query_place_id=ChIJA1qLdh5jYIgRSCovK7b3lf4",
    "searchPageUrl": "https://www.google.com/maps/search/independent%20pharmacy%20Chattanooga%20TN/@51.839717812945175,-179.97595653707245,14z?hl=en",
    "searchString": "independent pharmacy Chattanooga TN",
    "language": "en",
    "rank": 2,
    "isAdvertisement": false,
    "kgmid": "/g/11fq117z76"
  },
  {
    "title": "Hamilton Discount Pharmacy",
    "price": null,
    "categoryName": "Pharmacy",
    "address": "6851 Shallowford Rd, Chattanooga, TN 37421",
    "neighborhood": null,
    "street": "6851 Shallowford Rd",
    "city": "Chattanooga",
    "postalCode": "37421",
    "state": "Tennessee",
    "countryCode": "US",
    "website": "https://www.mygnp.com/pharmacies/hamilton-discount-pharmacy-chattanooga-tn-37421/",
    "phone": "(423) 892-5955",
    "phoneUnformatted": "+14238925955",
    "claimThisBusiness": false,
    "location": {
      "lat": 35.0455613,
      "lng": -85.1631733
    },
    "totalScore": 4.7,
    "permanentlyClosed": false,
    "temporarilyClosed": false,
    "placeId": "ChIJZbQiYpFjYIgRb3f9jh-o9AA",
    "categories": [
      "Pharmacy"
    ],
    "fid": "0x886063916222b465:0xf4a81f8efd776f",
    "cid": "68864747813828463",
    "reviewsCount": 41,
    "imagesCount": 8,
    "imageCategories": [],
    "scrapedAt": "2025-06-22T06:40:21.813Z",
    "googleFoodUrl": null,
    "hotelAds": [],
    "openingHours": [
      {
        "day": "Monday",
        "hours": "9:30 AM to 6 PM"
      },
      {
        "day": "Tuesday",
        "hours": "9:30 AM to 6 PM"
      },
      {
        "day": "Wednesday",
        "hours": "9:30 AM to 6 PM"
      },
      {
        "day": "Thursday",
        "hours": "9:30 AM to 6 PM"
      },
      {
        "day": "Friday",
        "hours": "9:30 AM to 6 PM"
      },
      {
        "day": "Saturday",
        "hours": "9:30 AM to 12 PM"
      },
      {
        "day": "Sunday",
        "hours": "Closed"
      }
    ],
    "peopleAlsoSearch": [],
    "placesTags": [],
    "reviewsTags": [],
    "additionalInfo": {
      "Service options": [
        {
          "Curbside pickup": true
        },
        {
          "Delivery": true
        },
        {
          "Drive-through": true
        },
        {
          "In-store pickup": true
        },
        {
          "In-store shopping": true
        },
        {
          "Onsite services": true
        },
        {
          "Same-day delivery": true
        }
      ],
      "Accessibility": [
        {
          "Wheelchair accessible entrance": true
        },
        {
          "Wheelchair accessible parking lot": true
        }
      ],
      "Amenities": [
        {
          "Wi-Fi": true
        },
        {
          "Free Wi-Fi": true
        }
      ],
      "Planning": [
        {
          "Quick visit": true
        }
      ],
      "Payments": [
        {
          "Credit cards": true
        },
        {
          "Debit cards": true
        },
        {
          "NFC mobile payments": true
        },
        {
          "Credit cards": true
        }
      ]
    },
    "gasPrices": [],
    "url": "https://www.google.com/maps/search/?api=1&query=Hamilton%20Discount%20Pharmacy&query_place_id=ChIJZbQiYpFjYIgRb3f9jh-o9AA",
    "searchPageUrl": "https://www.google.com/maps/search/independent%20pharmacy%20Chattanooga%20TN/@51.839717812945175,-179.97595653707245,14z?hl=en",
    "searchString": "independent pharmacy Chattanooga TN",
    "language": "en",
    "rank": 3,
    "isAdvertisement": false,
    "imageUrl": "https://lh3.googleusercontent.com/p/AF1QipO-NWpIayDBkZUWLmH1sV7cTaME0rCpceJ6SNHv=w408-h306-k-no",
    "kgmid": "/g/1v7pz64d"
  },
  {
    "title": "Brainerd Pharmacy",
    "price": null,
    "categoryName": "Pharmacy",
    "address": "3602 Brainerd Rd, Chattanooga, TN 37411",
    "neighborhood": null,
    "street": "3602 Brainerd Rd",
    "city": "Chattanooga",
    "postalCode": "37411",
    "state": "Tennessee",
    "countryCode": "US",
    "website": "https://www.mygnp.com/pharmacies/brainerd-pharmacy-chattanooga-tn-37411/",
    "phone": "(423) 305-1858",
    "phoneUnformatted": "+14233051858",
    "claimThisBusiness": false,
    "location": {
      "lat": 35.0236542,
      "lng": -85.2460304
    },
    "totalScore": 4.7,
    "permanentlyClosed": false,
    "temporarilyClosed": false,
    "placeId": "ChIJta0JrjBnYIgRagnJX2WOByo",
    "categories": [
      "Pharmacy"
    ],
    "fid": "0x88606730ae09adb5:0x2a078e655fc9096a",
    "cid": "3028545840479799658",
    "reviewsCount": 35,
    "imagesCount": 52,
    "imageCategories": [],
    "scrapedAt": "2025-06-22T06:40:21.813Z",
    "googleFoodUrl": null,
    "hotelAds": [],
    "openingHours": [
      {
        "day": "Monday",
        "hours": "9:30 AM to 6 PM"
      },
      {
        "day": "Tuesday",
        "hours": "9:30 AM to 6 PM"
      },
      {
        "day": "Wednesday",
        "hours": "9:30 AM to 6 PM"
      },
      {
        "day": "Thursday",
        "hours": "9:30 AM to 6 PM"
      },
      {
        "day": "Friday",
        "hours": "9:30 AM to 6 PM"
      },
      {
        "day": "Saturday",
        "hours": "10 AM to 2 PM"
      },
      {
        "day": "Sunday",
        "hours": "Closed"
      }
    ],
    "peopleAlsoSearch": [],
    "placesTags": [],
    "reviewsTags": [],
    "additionalInfo": {
      "From the business": [
        {
          "Small business": true
        }
      ],
      "Service options": [
        {
          "Delivery": true
        },
        {
          "Drive-through": true
        },
        {
          "In-store pickup": true
        },
        {
          "In-store shopping": true
        }
      ],
      "Accessibility": [
        {
          "Wheelchair accessible entrance": true
        },
        {
          "Wheelchair accessible parking lot": true
        }
      ],
      "Planning": [
        {
          "Quick visit": true
        }
      ],
      "Payments": [
        {
          "Credit cards": true
        },
        {
          "Debit cards": true
        },
        {
          "Credit cards": true
        }
      ]
    },
    "gasPrices": [],
    "url": "https://www.google.com/maps/search/?api=1&query=Brainerd%20Pharmacy&query_place_id=ChIJta0JrjBnYIgRagnJX2WOByo",
    "searchPageUrl": "https://www.google.com/maps/search/independent%20pharmacy%20Chattanooga%20TN/@51.839717812945175,-179.97595653707245,14z?hl=en",
    "searchString": "independent pharmacy Chattanooga TN",
    "language": "en",
    "rank": 4,
    "isAdvertisement": false,
    "imageUrl": "https://lh3.googleusercontent.com/p/AF1QipMyn70DwNzrun22Qr9mVG_7A-_brmIJ2ChdtVJz=w426-h240-k-no",
    "kgmid": "/g/11cm0wt06r"
  },
  {
    "title": "MedRock Pharmacy TN",
    "price": null,
    "categoryName": "Pharmacy",
    "address": "6116 Shallowford Rd #105, Chattanooga, TN 37421",
    "neighborhood": "Shepherd",
    "street": "6116 Shallowford Rd #105",
    "city": "Chattanooga",
    "postalCode": "37421",
    "state": "Tennessee",
    "countryCode": "US",
    "website": "http://medrockpharmacy.com/",
    "phone": "(423) 933-1610",
    "phoneUnformatted": "+14239331610",
    "claimThisBusiness": false,
    "location": {
      "lat": 35.0509118,
      "lng": -85.183065
    },
    "totalScore": 4.7,
    "permanentlyClosed": false,
    "temporarilyClosed": false,
    "placeId": "ChIJpxclrj9jYIgRQoArEkjCZPI",
    "categories": [
      "Pharmacy"
    ],
    "fid": "0x8860633fae2517a7:0xf264c248122b8042",
    "cid": "17466298869647900738",
    "reviewsCount": 39,
    "imagesCount": 4,
    "imageCategories": [],
    "scrapedAt": "2025-06-22T06:40:21.814Z",
    "googleFoodUrl": null,
    "hotelAds": [],
    "openingHours": [
      {
        "day": "Monday",
        "hours": "9 AM to 6 PM"
      },
      {
        "day": "Tuesday",
        "hours": "9 AM to 6 PM"
      },
      {
        "day": "Wednesday",
        "hours": "9 AM to 6 PM"
      },
      {
        "day": "Thursday",
        "hours": "9 AM to 6 PM"
      },
      {
        "day": "Friday",
        "hours": "9 AM to 6 PM"
      },
      {
        "day": "Saturday",
        "hours": "9 AM to 1 PM"
      },
      {
        "day": "Sunday",
        "hours": "Closed"
      }
    ],
    "peopleAlsoSearch": [],
    "placesTags": [],
    "reviewsTags": [],
    "additionalInfo": {
      "Service options": [
        {
          "Curbside pickup": true
        },
        {
          "Delivery": true
        },
        {
          "In-store pickup": true
        },
        {
          "Same-day delivery": true
        }
      ],
      "Accessibility": [
        {
          "Wheelchair accessible entrance": true
        },
        {
          "Wheelchair accessible parking lot": true
        },
        {
          "Wheelchair accessible seating": true
        }
      ],
      "Payments": [
        {
          "Credit cards": true
        },
        {
          "Debit cards": true
        },
        {
          "Credit cards": true
        }
      ]
    },
    "gasPrices": [],
    "url": "https://www.google.com/maps/search/?api=1&query=MedRock%20Pharmacy%20TN&query_place_id=ChIJpxclrj9jYIgRQoArEkjCZPI",
    "searchPageUrl": "https://www.google.com/maps/search/independent%20pharmacy%20Chattanooga%20TN/@51.839717812945175,-179.97595653707245,14z?hl=en",
    "searchString": "independent pharmacy Chattanooga TN",
    "language": "en",
    "rank": 5,
    "isAdvertisement": false,
    "imageUrl": "https://lh3.googleusercontent.com/p/AF1QipOP7Y6WSFeW75zmQIq21GB4CnnAFShLF1hXnh7l=w408-h725-k-no",
    "kgmid": "/g/11s6ywwgw8"
  },
  {
    "title": "Designer Drugs Pharmacy",
    "price": null,
    "categoryName": "Pharmacy",
    "address": "7304 Jarnigan Rd, Chattanooga, TN 37421",
    "neighborhood": "Twin Brook",
    "street": "7304 Jarnigan Rd",
    "city": "Chattanooga",
    "postalCode": "37421",
    "state": "Tennessee",
    "countryCode": "US",
    "website": "http://www.designerdrugs.us/",
    "phone": "(423) 954-2585",
    "phoneUnformatted": "+14239542585",
    "claimThisBusiness": false,
    "location": {
      "lat": 35.028611,
      "lng": -85.15818
    },
    "totalScore": 4.6,
    "permanentlyClosed": false,
    "temporarilyClosed": false,
    "placeId": "ChIJOxawJ3hkYIgRyXmSP1IoKz0",
    "categories": [
      "Pharmacy"
    ],
    "fid": "0x8860647827b0163b:0x3d2b28523f9279c9",
    "cid": "4407660994031155657",
    "reviewsCount": 175,
    "imagesCount": 56,
    "imageCategories": [],
    "scrapedAt": "2025-06-22T06:40:21.814Z",
    "googleFoodUrl": null,
    "hotelAds": [],
    "openingHours": [
      {
        "day": "Monday",
        "hours": "9 AM to 6 PM"
      },
      {
        "day": "Tuesday",
        "hours": "9 AM to 6 PM"
      },
      {
        "day": "Wednesday",
        "hours": "9 AM to 6 PM"
      },
      {
        "day": "Thursday",
        "hours": "9 AM to 6 PM"
      },
      {
        "day": "Friday",
        "hours": "9 AM to 6 PM"
      },
      {
        "day": "Saturday",
        "hours": "Closed"
      },
      {
        "day": "Sunday",
        "hours": "Closed"
      }
    ],
    "peopleAlsoSearch": [],
    "placesTags": [],
    "reviewsTags": [],
    "additionalInfo": {
      "From the business": [
        {
          "Small business": true
        }
      ],
      "Service options": [
        {
          "Curbside pickup": true
        },
        {
          "Delivery": true
        },
        {
          "Drive-through": true
        },
        {
          "In-store shopping": true
        },
        {
          "Onsite services": true
        },
        {
          "Same-day delivery": true
        }
      ],
      "Accessibility": [
        {
          "Wheelchair accessible entrance": true
        },
        {
          "Wheelchair accessible parking lot": true
        }
      ],
      "Planning": [
        {
          "Quick visit": true
        }
      ],
      "Payments": [
        {
          "Credit cards": true
        },
        {
          "Debit cards": true
        },
        {
          "NFC mobile payments": true
        },
        {
          "Credit cards": true
        }
      ]
    },
    "gasPrices": [],
    "url": "https://www.google.com/maps/search/?api=1&query=Designer%20Drugs%20Pharmacy&query_place_id=ChIJOxawJ3hkYIgRyXmSP1IoKz0",
    "searchPageUrl": "https://www.google.com/maps/search/independent%20pharmacy%20Chattanooga%20TN/@51.839717812945175,-179.97595653707245,14z?hl=en",
    "searchString": "independent pharmacy Chattanooga TN",
    "language": "en",
    "rank": 6,
    "isAdvertisement": false,
    "imageUrl": "https://lh3.googleusercontent.com/p/AF1QipMhFX5pPQcZ5qH758jykpLCdcmN3pZfJOUhRMZw=w408-h415-k-no",
    "kgmid": "/g/1tl4drvw"
  },
  {
    "title": "Max Discount Pharmacy",
    "price": null,
    "categoryName": "Pharmacy",
    "address": "4531 TN-58 #105, Chattanooga, TN 37416",
    "neighborhood": null,
    "street": "4531 TN-58 #105",
    "city": "Chattanooga",
    "postalCode": "37416",
    "state": "Tennessee",
    "countryCode": "US",
    "website": "https://www.mygnp.com/pharmacies/max-discount-pharmacy-chattanooga-tn-37416/",
    "phone": "(423) 803-5990",
    "phoneUnformatted": "+14238035990",
    "claimThisBusiness": false,
    "location": {
      "lat": 35.0855104,
      "lng": -85.1961056
    },
    "totalScore": 4.8,
    "permanentlyClosed": false,
    "temporarilyClosed": false,
    "placeId": "ChIJh9a7v4VhYIgRchsmimgCyhQ",
    "categories": [
      "Pharmacy"
    ],
    "fid": "0x88606185bfbbd687:0x14ca02688a261b72",
    "cid": "1498012474071718770",
    "reviewsCount": 46,
    "imagesCount": 18,
    "imageCategories": [],
    "scrapedAt": "2025-06-22T06:40:21.814Z",
    "googleFoodUrl": null,
    "hotelAds": [],
    "openingHours": [
      {
        "day": "Monday",
        "hours": "9 AM to 7 PM"
      },
      {
        "day": "Tuesday",
        "hours": "9 AM to 7 PM"
      },
      {
        "day": "Wednesday",
        "hours": "9 AM to 7 PM"
      },
      {
        "day": "Thursday",
        "hours": "9 AM to 7 PM"
      },
      {
        "day": "Friday",
        "hours": "9 AM to 7 PM"
      },
      {
        "day": "Saturday",
        "hours": "9 AM to 2 PM"
      },
      {
        "day": "Sunday",
        "hours": "Closed"
      }
    ],
    "peopleAlsoSearch": [],
    "placesTags": [],
    "reviewsTags": [],
    "additionalInfo": {
      "Service options": [
        {
          "Curbside pickup": true
        },
        {
          "Delivery": true
        },
        {
          "In-store pickup": true
        },
        {
          "In-store shopping": true
        },
        {
          "Same-day delivery": true
        }
      ],
      "Accessibility": [
        {
          "Wheelchair accessible entrance": true
        },
        {
          "Wheelchair accessible parking lot": true
        }
      ],
      "Planning": [
        {
          "Quick visit": true
        }
      ],
      "Payments": [
        {
          "Credit cards": true
        },
        {
          "Debit cards": true
        },
        {
          "NFC mobile payments": true
        },
        {
          "Credit cards": true
        }
      ]
    },
    "gasPrices": [],
    "url": "https://www.google.com/maps/search/?api=1&query=Max%20Discount%20Pharmacy&query_place_id=ChIJh9a7v4VhYIgRchsmimgCyhQ",
    "searchPageUrl": "https://www.google.com/maps/search/independent%20pharmacy%20Chattanooga%20TN/@51.839717812945175,-179.97595653707245,14z?hl=en",
    "searchString": "independent pharmacy Chattanooga TN",
    "language": "en",
    "rank": 7,
    "isAdvertisement": false,
    "imageUrl": "https://lh3.googleusercontent.com/p/AF1QipPWMDC7okPwGuBroO0H3gr8wNMhGrDEZz9mjxTW=w408-h306-k-no",
    "kgmid": "/g/11ddxw8frm"
  },
  {
    "title": "Eastside Pharmacy Rx",
    "price": null,
    "categoryName": "Pharmacy",
    "address": "6857 Lee Hwy, Chattanooga, TN 37421",
    "neighborhood": "Shepherd",
    "street": "6857 Lee Hwy",
    "city": "Chattanooga",
    "postalCode": "37421",
    "state": "Tennessee",
    "countryCode": "US",
    "phone": "(423) 386-5066",
    "phoneUnformatted": "+14233865066",
    "claimThisBusiness": false,
    "location": {
      "lat": 35.0420495,
      "lng": -85.1674872
    },
    "totalScore": 4.4,
    "permanentlyClosed": false,
    "temporarilyClosed": false,
    "placeId": "ChIJAcPLoZJjYIgRLVMFQ2rZmoo",
    "categories": [
      "Pharmacy"
    ],
    "fid": "0x88606392a1cbc301:0x8a9ad96a4305532d",
    "cid": "9987534174061679405",
    "reviewsCount": 17,
    "imagesCount": 1,
    "imageCategories": [],
    "scrapedAt": "2025-06-22T06:40:21.814Z",
    "googleFoodUrl": null,
    "hotelAds": [],
    "openingHours": [
      {
        "day": "Monday",
        "hours": "9 AM to 5 PM"
      },
      {
        "day": "Tuesday",
        "hours": "9 AM to 5 PM"
      },
      {
        "day": "Wednesday",
        "hours": "9 AM to 5 PM"
      },
      {
        "day": "Thursday",
        "hours": "9 AM to 5 PM"
      },
      {
        "day": "Friday",
        "hours": "9 AM to 5 PM"
      },
      {
        "day": "Saturday",
        "hours": "Closed"
      },
      {
        "day": "Sunday",
        "hours": "Closed"
      }
    ],
    "peopleAlsoSearch": [],
    "placesTags": [],
    "reviewsTags": [],
    "additionalInfo": {
      "Service options": [
        {
          "Curbside pickup": true
        }
      ],
      "Accessibility": [
        {
          "Assistive hearing loop": true
        },
        {
          "Wheelchair accessible entrance": true
        },
        {
          "Wheelchair accessible parking lot": true
        },
        {
          "Wheelchair accessible restroom": true
        },
        {
          "Wheelchair accessible seating": true
        }
      ],
      "Planning": [
        {
          "Quick visit": true
        }
      ],
      "Payments": [
        {
          "Credit cards": true
        },
        {
          "Debit cards": true
        }
      ],
      "Parking": [
        {
          "Free parking lot": true
        }
      ]
    },
    "gasPrices": [],
    "url": "https://www.google.com/maps/search/?api=1&query=Eastside%20Pharmacy%20Rx&query_place_id=ChIJAcPLoZJjYIgRLVMFQ2rZmoo",
    "searchPageUrl": "https://www.google.com/maps/search/independent%20pharmacy%20Chattanooga%20TN/@51.839717812945175,-179.97595653707245,14z?hl=en",
    "searchString": "independent pharmacy Chattanooga TN",
    "language": "en",
    "rank": 8,
    "isAdvertisement": false,
    "imageUrl": "https://streetviewpixels-pa.googleapis.com/v1/thumbnail?panoid=-hY_-epYP2c-WpeyK18OHw&cb_client=search.gws-prod.gps&w=408&h=240&yaw=298.2851&pitch=0&thumbfov=100",
    "kgmid": "/g/11gglt86gm"
  },
  {
    "title": "River City Pharmacy",
    "price": null,
    "categoryName": "Pharmacy",
    "address": "5564 Little Debbie Pkwy Suite 102, Collegedale, TN 37363",
    "neighborhood": "Ooltewah",
    "street": "5564 Little Debbie Pkwy Suite 102",
    "city": "Collegedale",
    "postalCode": "37363",
    "state": "Tennessee",
    "countryCode": "US",
    "website": "http://www.rivercitychattrx.com/",
    "phone": "(423) 521-7279",
    "phoneUnformatted": "+14235217279",
    "claimThisBusiness": false,
    "location": {
      "lat": 35.0819038,
      "lng": -85.0671931
    },
    "totalScore": 4.9,
    "permanentlyClosed": false,
    "temporarilyClosed": false,
    "placeId": "ChIJ2xJIhwh9YIgR6f79VVgl-0A",
    "categories": [
      "Pharmacy"
    ],
    "fid": "0x88607d08874812db:0x40fb255855fdfee9",
    "cid": "4682377298911821545",
    "reviewsCount": 52,
    "imagesCount": 21,
    "imageCategories": [],
    "scrapedAt": "2025-06-22T06:40:21.814Z",
    "googleFoodUrl": null,
    "hotelAds": [],
    "openingHours": [
      {
        "day": "Monday",
        "hours": "9 AM to 6 PM"
      },
      {
        "day": "Tuesday",
        "hours": "9 AM to 6 PM"
      },
      {
        "day": "Wednesday",
        "hours": "9 AM to 6 PM"
      },
      {
        "day": "Thursday",
        "hours": "9 AM to 6 PM"
      },
      {
        "day": "Friday",
        "hours": "9 AM to 6 PM"
      },
      {
        "day": "Saturday",
        "hours": "9 AM to 1 PM"
      },
      {
        "day": "Sunday",
        "hours": "Closed"
      }
    ],
    "peopleAlsoSearch": [],
    "placesTags": [],
    "reviewsTags": [],
    "additionalInfo": {
      "From the business": [
        {
          "Small business": true
        }
      ],
      "Service options": [
        {
          "Delivery": true
        },
        {
          "In-store pickup": true
        },
        {
          "Onsite services": true
        },
        {
          "Same-day delivery": true
        }
      ],
      "Accessibility": [
        {
          "Wheelchair accessible entrance": true
        },
        {
          "Wheelchair accessible parking lot": true
        }
      ],
      "Planning": [
        {
          "Quick visit": true
        }
      ],
      "Payments": [
        {
          "Credit cards": true
        },
        {
          "Debit cards": true
        },
        {
          "NFC mobile payments": true
        },
        {
          "Credit cards": true
        }
      ]
    },
    "gasPrices": [],
    "url": "https://www.google.com/maps/search/?api=1&query=River%20City%20Pharmacy&query_place_id=ChIJ2xJIhwh9YIgR6f79VVgl-0A",
    "searchPageUrl": "https://www.google.com/maps/search/independent%20pharmacy%20Chattanooga%20TN/@51.839717812945175,-179.97595653707245,14z?hl=en",
    "searchString": "independent pharmacy Chattanooga TN",
    "language": "en",
    "rank": 9,
    "isAdvertisement": false,
    "imageUrl": "https://lh3.googleusercontent.com/p/AF1QipOZI9XcF-GvHODSGONchqRqu3YBRc1jmtc9OGmc=w408-h544-k-no",
    "kgmid": "/g/11f1kj8q56"
  },
  {
    "title": "Genoa Healthcare",
    "price": null,
    "categoryName": "Pharmacy",
    "address": "601 Cumberland St A, Chattanooga, TN 37404",
    "neighborhood": "Bushtown",
    "street": "601 Cumberland St A",
    "city": "Chattanooga",
    "postalCode": "37404",
    "state": "Tennessee",
    "countryCode": "US",
    "website": "http://www.genoahealthcare.com/",
    "phone": "(423) 954-7694",
    "phoneUnformatted": "+14239547694",
    "claimThisBusiness": false,
    "location": {
      "lat": 35.0468988,
      "lng": -85.2794063
    },
    "totalScore": 4.8,
    "permanentlyClosed": false,
    "temporarilyClosed": false,
    "placeId": "ChIJp5iWaRteYIgRZ7BgRe7cvoc",
    "categories": [
      "Pharmacy",
      "Pharmaceutical company"
    ],
    "fid": "0x88605e1b699698a7:0x87bedcee4560b067",
    "cid": "9781498356619587687",
    "reviewsCount": 5,
    "imagesCount": 4,
    "imageCategories": [],
    "scrapedAt": "2025-06-22T06:40:21.814Z",
    "googleFoodUrl": null,
    "hotelAds": [],
    "openingHours": [
      {
        "day": "Monday",
        "hours": "8:30 AM to 12:30 PM, 1 to 5 PM"
      },
      {
        "day": "Tuesday",
        "hours": "8:30 AM to 12:30 PM, 1 to 5 PM"
      },
      {
        "day": "Wednesday",
        "hours": "8:30 AM to 12:30 PM, 1 to 5 PM"
      },
      {
        "day": "Thursday",
        "hours": "8:30 AM to 12:30 PM, 1 to 5 PM"
      },
      {
        "day": "Friday",
        "hours": "8:30 AM to 12:30 PM, 1 to 5 PM"
      },
      {
        "day": "Saturday",
        "hours": "Closed"
      },
      {
        "day": "Sunday",
        "hours": "Closed"
      }
    ],
    "peopleAlsoSearch": [],
    "placesTags": [],
    "reviewsTags": [],
    "additionalInfo": {
      "Accessibility": [
        {
          "Wheelchair accessible entrance": true
        },
        {
          "Wheelchair accessible parking lot": true
        }
      ],
      "Payments": [
        {
          "Credit cards": true
        }
      ]
    },
    "gasPrices": [],
    "url": "https://www.google.com/maps/search/?api=1&query=Genoa%20Healthcare&query_place_id=ChIJp5iWaRteYIgRZ7BgRe7cvoc",
    "searchPageUrl": "https://www.google.com/maps/search/independent%20pharmacy%20Chattanooga%20TN/@51.839717812945175,-179.97595653707245,14z?hl=en",
    "searchString": "independent pharmacy Chattanooga TN",
    "language": "en",
    "rank": 10,
    "isAdvertisement": false,
    "imageUrl": "https://lh3.googleusercontent.com/gps-cs-s/AC9h4nqXVdGHsmqPtVFpmF9v-q7r8ddRUD_hpXnlibsLX9MEp8JdoYtBqlaWMlEMOpyzA32_8rAMlcH4lIvfF8ZjqP-zhmcDIhnD93wCBD7mGfBwVBoY-iPsKK9lDqpdExJ_TErFmR0z=w408-h306-k-no",
    "kgmid": "/g/11bbrktk8p"
  },
  {
    "title": "AB Pharmacy",
    "price": null,
    "categoryName": "Pharmacy",
    "address": "1510 Gunbarrel Rd #500, Chattanooga, TN 37421",
    "neighborhood": "Cannondale",
    "street": "1510 Gunbarrel Rd #500",
    "city": "Chattanooga",
    "postalCode": "37421",
    "state": "Tennessee",
    "countryCode": "US",
    "phone": "(423) 888-9568",
    "phoneUnformatted": "+14238889568",
    "claimThisBusiness": false,
    "location": {
      "lat": 35.0174368,
      "lng": -85.1610305
    },
    "totalScore": 4.3,
    "permanentlyClosed": false,
    "temporarilyClosed": false,
    "placeId": "ChIJHy3CVCtlYIgRjDBUQtRwJpA",
    "categories": [
      "Pharmacy",
      "Drug store"
    ],
    "fid": "0x8860652b54c22d1f:0x902670d44254308c",
    "cid": "10387113647524819084",
    "reviewsCount": 6,
    "imagesCount": 1,
    "imageCategories": [],
    "scrapedAt": "2025-06-22T06:40:21.815Z",
    "googleFoodUrl": null,
    "hotelAds": [],
    "openingHours": [
      {
        "day": "Monday",
        "hours": "8:30 AM to 5 PM"
      },
      {
        "day": "Tuesday",
        "hours": "8:30 AM to 5 PM"
      },
      {
        "day": "Wednesday",
        "hours": "8:30 AM to 5 PM"
      },
      {
        "day": "Thursday",
        "hours": "8:30 AM to 5 PM"
      },
      {
        "day": "Friday",
        "hours": "9 AM to 3 PM"
      },
      {
        "day": "Saturday",
        "hours": "Closed"
      },
      {
        "day": "Sunday",
        "hours": "Closed"
      }
    ],
    "peopleAlsoSearch": [],
    "placesTags": [],
    "reviewsTags": [],
    "additionalInfo": {
      "Service options": [
        {
          "Delivery": true
        },
        {
          "In-store shopping": true
        },
        {
          "Same-day delivery": true
        }
      ],
      "Accessibility": [
        {
          "Wheelchair accessible entrance": true
        },
        {
          "Wheelchair accessible parking lot": true
        }
      ],
      "Amenities": [
        {
          "Wi-Fi": true
        },
        {
          "Free Wi-Fi": true
        }
      ],
      "Payments": [
        {
          "Credit cards": true
        },
        {
          "Debit cards": true
        },
        {
          "Credit cards": true
        }
      ]
    },
    "gasPrices": [],
    "url": "https://www.google.com/maps/search/?api=1&query=AB%20Pharmacy&query_place_id=ChIJHy3CVCtlYIgRjDBUQtRwJpA",
    "searchPageUrl": "https://www.google.com/maps/search/independent%20pharmacy%20Chattanooga%20TN/@51.839717812945175,-179.97595653707245,14z?hl=en",
    "searchString": "independent pharmacy Chattanooga TN",
    "language": "en",
    "rank": 11,
    "isAdvertisement": false,
    "imageUrl": "https://streetviewpixels-pa.googleapis.com/v1/thumbnail?panoid=UOSWpPwdXImb0F96lQ2fdA&cb_client=search.gws-prod.gps&w=408&h=240&yaw=142.73871&pitch=0&thumbfov=100",
    "kgmid": "/g/11syxm1trf"
  },
  {
    "title": "HCS Edhealth Pharmacy - Hixson",
    "price": null,
    "categoryName": "Pharmacy",
    "address": "4206 N Access Rd, Chattanooga, TN 37415",
    "neighborhood": null,
    "street": "4206 N Access Rd",
    "city": "Chattanooga",
    "postalCode": "37415",
    "state": "Tennessee",
    "countryCode": "US",
    "website": "https://www.hcde.org/staff/benefits/Edhealth_pharmacy",
    "phone": "(423) 498-6746",
    "phoneUnformatted": "+14234986746",
    "claimThisBusiness": false,
    "location": {
      "lat": 35.1126989,
      "lng": -85.2537549
    },
    "totalScore": 5,
    "permanentlyClosed": false,
    "temporarilyClosed": false,
    "placeId": "ChIJ0W8gU5VhYIgRlLGL61sO-zo",
    "categories": [
      "Pharmacy"
    ],
    "fid": "0x8860619553206fd1:0x3afb0e5beb8bb194",
    "cid": "4250006461310808468",
    "reviewsCount": 10,
    "imagesCount": 2,
    "imageCategories": [],
    "scrapedAt": "2025-06-22T06:40:21.815Z",
    "googleFoodUrl": null,
    "hotelAds": [],
    "openingHours": [
      {
        "day": "Monday",
        "hours": "8 AM to 6 PM"
      },
      {
        "day": "Tuesday",
        "hours": "8 AM to 6 PM"
      },
      {
        "day": "Wednesday",
        "hours": "8 AM to 6 PM"
      },
      {
        "day": "Thursday",
        "hours": "8 AM to 6 PM"
      },
      {
        "day": "Friday",
        "hours": "8 AM to 6 PM"
      },
      {
        "day": "Saturday",
        "hours": "9 AM to 1 PM"
      },
      {
        "day": "Sunday",
        "hours": "Closed"
      }
    ],
    "additionalOpeningHours": {
      "Lunch": [
        {
          "day": "Monday",
          "hours": "1:30–2 PM"
        },
        {
          "day": "Tuesday",
          "hours": "1:30–2 PM"
        },
        {
          "day": "Wednesday",
          "hours": "1:30–2 PM"
        },
        {
          "day": "Thursday",
          "hours": "1:30–2 PM"
        },
        {
          "day": "Friday",
          "hours": "1:30–2 PM"
        },
        {
          "day": "Saturday",
          "hours": "Closed"
        },
        {
          "day": "Sunday",
          "hours": "Closed"
        }
      ]
    },
    "peopleAlsoSearch": [],
    "placesTags": [],
    "reviewsTags": [],
    "additionalInfo": {
      "Accessibility": [
        {
          "Wheelchair accessible entrance": true
        },
        {
          "Wheelchair accessible parking lot": true
        }
      ],
      "Payments": [
        {
          "Credit cards": true
        }
      ]
    },
    "gasPrices": [],
    "url": "https://www.google.com/maps/search/?api=1&query=HCS%20Edhealth%20Pharmacy%20-%20Hixson&query_place_id=ChIJ0W8gU5VhYIgRlLGL61sO-zo",
    "searchPageUrl": "https://www.google.com/maps/search/independent%20pharmacy%20Chattanooga%20TN/@51.839717812945175,-179.97595653707245,14z?hl=en",
    "searchString": "independent pharmacy Chattanooga TN",
    "language": "en",
    "rank": 12,
    "isAdvertisement": false,
    "imageUrl": "https://lh3.googleusercontent.com/p/AF1QipPAjW529DwcNsI1VVZwbm3jeeHCC9EbpsgM9vri=w430-h240-k-no",
    "kgmid": "/g/11s1bl7ns9"
  },
  {
    "title": "WellAdvantage Pharmacy",
    "price": null,
    "categoryName": "Pharmacy",
    "address": "620 E 11th St, Chattanooga, TN 37403",
    "neighborhood": "Southside Historic District",
    "street": "620 E 11th St",
    "city": "Chattanooga",
    "postalCode": "37403",
    "state": "Tennessee",
    "countryCode": "US",
    "website": "https://well-advantage.com/",
    "phone": "(423) 481-9760",
    "phoneUnformatted": "+14234819760",
    "claimThisBusiness": true,
    "location": {
      "lat": 35.0406395,
      "lng": -85.3020337
    },
    "totalScore": 4.6,
    "permanentlyClosed": false,
    "temporarilyClosed": false,
    "placeId": "ChIJXU_fdwBfYIgReAtd_Tv3VYs",
    "categories": [
      "Pharmacy"
    ],
    "fid": "0x88605f0077df4f5d:0x8b55f73bfd5d0b78",
    "cid": "10040202781318253432",
    "reviewsCount": 10,
    "imagesCount": 1,
    "imageCategories": [],
    "scrapedAt": "2025-06-22T06:40:21.815Z",
    "googleFoodUrl": null,
    "hotelAds": [],
    "openingHours": [
      {
        "day": "Monday",
        "hours": "8 AM to 1:30 PM, 2 to 6 PM"
      },
      {
        "day": "Tuesday",
        "hours": "8 AM to 1:30 PM, 2 to 6 PM"
      },
      {
        "day": "Wednesday",
        "hours": "8 AM to 1:30 PM, 2 to 6 PM"
      },
      {
        "day": "Thursday",
        "hours": "8 AM to 1:30 PM, 2 to 6 PM"
      },
      {
        "day": "Friday",
        "hours": "8 AM to 1:30 PM, 2 to 6 PM"
      },
      {
        "day": "Saturday",
        "hours": "Closed"
      },
      {
        "day": "Sunday",
        "hours": "Closed"
      }
    ],
    "peopleAlsoSearch": [],
    "placesTags": [],
    "reviewsTags": [],
    "additionalInfo": {
      "Service options": [
        {
          "In-store pickup": true
        }
      ],
      "Accessibility": [
        {
          "Wheelchair accessible entrance": true
        },
        {
          "Wheelchair accessible parking lot": true
        }
      ],
      "Planning": [
        {
          "Quick visit": true
        }
      ],
      "Payments": [
        {
          "Credit cards": true
        }
      ]
    },
    "gasPrices": [],
    "url": "https://www.google.com/maps/search/?api=1&query=WellAdvantage%20Pharmacy&query_place_id=ChIJXU_fdwBfYIgReAtd_Tv3VYs",
    "searchPageUrl": "https://www.google.com/maps/search/independent%20pharmacy%20Chattanooga%20TN/@51.839717812945175,-179.97595653707245,14z?hl=en",
    "searchString": "independent pharmacy Chattanooga TN",
    "language": "en",
    "rank": 13,
    "isAdvertisement": false,
    "imageUrl": "https://streetviewpixels-pa.googleapis.com/v1/thumbnail?panoid=qRLB8NgumTFlJrfPciOAGQ&cb_client=search.gws-prod.gps&w=408&h=240&yaw=295.4021&pitch=0&thumbfov=100",
    "kgmid": "/g/11y35mk42l"
  },
  {
    "title": "Access Family Pharmacy",
    "price": null,
    "categoryName": "Pharmacy",
    "address": "4062 Hixson Pike, Chattanooga, TN 37415",
    "neighborhood": null,
    "street": "4062 Hixson Pike",
    "city": "Chattanooga",
    "postalCode": "37415",
    "state": "Tennessee",
    "countryCode": "US",
    "website": "https://accessfamilypharmacy.com/",
    "phone": "(423) 877-3568",
    "phoneUnformatted": "+14238773568",
    "claimThisBusiness": false,
    "location": {
      "lat": 35.1139292,
      "lng": -85.2575963
    },
    "totalScore": 4.4,
    "permanentlyClosed": false,
    "temporarilyClosed": false,
    "placeId": "ChIJA9ylMxpgYIgRCsi4pwlxYxs",
    "categories": [
      "Pharmacy",
      "Medical equipment supplier"
    ],
    "fid": "0x8860601a33a5dc03:0x1b637109a7b8c80a",
    "cid": "1973545348000958474",
    "reviewsCount": 214,
    "imagesCount": 16,
    "imageCategories": [],
    "scrapedAt": "2025-06-22T06:40:21.815Z",
    "googleFoodUrl": null,
    "hotelAds": [],
    "openingHours": [
      {
        "day": "Monday",
        "hours": "9 AM to 7 PM"
      },
      {
        "day": "Tuesday",
        "hours": "9 AM to 7 PM"
      },
      {
        "day": "Wednesday",
        "hours": "9 AM to 7 PM"
      },
      {
        "day": "Thursday",
        "hours": "9 AM to 7 PM"
      },
      {
        "day": "Friday",
        "hours": "9 AM to 7 PM"
      },
      {
        "day": "Saturday",
        "hours": "9 AM to 2 PM"
      },
      {
        "day": "Sunday",
        "hours": "Closed"
      }
    ],
    "peopleAlsoSearch": [],
    "placesTags": [],
    "reviewsTags": [],
    "additionalInfo": {
      "Service options": [
        {
          "Delivery": true
        },
        {
          "In-store pickup": true
        },
        {
          "Onsite services": true
        },
        {
          "Same-day delivery": true
        }
      ],
      "Accessibility": [
        {
          "Wheelchair accessible entrance": true
        },
        {
          "Wheelchair accessible parking lot": true
        }
      ],
      "Planning": [
        {
          "Quick visit": true
        }
      ],
      "Payments": [
        {
          "Credit cards": true
        },
        {
          "Debit cards": true
        },
        {
          "NFC mobile payments": true
        },
        {
          "Credit cards": true
        }
      ]
    },
    "gasPrices": [],
    "url": "https://www.google.com/maps/search/?api=1&query=Access%20Family%20Pharmacy&query_place_id=ChIJA9ylMxpgYIgRCsi4pwlxYxs",
    "searchPageUrl": "https://www.google.com/maps/search/independent%20pharmacy%20Chattanooga%20TN/@51.839717812945175,-179.97595653707245,14z?hl=en",
    "searchString": "independent pharmacy Chattanooga TN",
    "language": "en",
    "rank": 14,
    "isAdvertisement": false,
    "imageUrl": "https://lh3.googleusercontent.com/p/AF1QipPF-vfun3q1tLSr0KoWYnOAlCkbO0YRz-pqQy0s=w408-h544-k-no",
    "kgmid": "/g/1tfmjj_3"
  },
  {
    "title": "Solutions Pharmacy, Inc.",
    "price": null,
    "categoryName": "Pharmacy",
    "address": "5517 Little Debbie Pkwy, Collegedale, TN 37363",
    "neighborhood": "Ooltewah",
    "street": "5517 Little Debbie Pkwy",
    "city": "Collegedale",
    "postalCode": "37363",
    "state": "Tennessee",
    "countryCode": "US",
    "website": "https://www.solutionspharmacy.com/",
    "phone": "(423) 894-3222",
    "phoneUnformatted": "+14238943222",
    "claimThisBusiness": false,
    "location": {
      "lat": 35.0814722,
      "lng": -85.069725
    },
    "totalScore": 4.6,
    "permanentlyClosed": false,
    "temporarilyClosed": false,
    "placeId": "ChIJFR56yYdhYIgRcgZqhA9ltHk",
    "categories": [
      "Pharmacy"
    ],
    "fid": "0x88606187c97a1e15:0x79b4650f846a0672",
    "cid": "8769745491717654130",
    "reviewsCount": 22,
    "imagesCount": 6,
    "imageCategories": [],
    "scrapedAt": "2025-06-22T06:40:21.815Z",
    "googleFoodUrl": null,
    "hotelAds": [],
    "openingHours": [
      {
        "day": "Monday",
        "hours": "9 AM to 6 PM"
      },
      {
        "day": "Tuesday",
        "hours": "9 AM to 6 PM"
      },
      {
        "day": "Wednesday",
        "hours": "9 AM to 6 PM"
      },
      {
        "day": "Thursday",
        "hours": "9 AM to 6 PM"
      },
      {
        "day": "Friday",
        "hours": "9 AM to 6 PM"
      },
      {
        "day": "Saturday",
        "hours": "Closed"
      },
      {
        "day": "Sunday",
        "hours": "Closed"
      }
    ],
    "peopleAlsoSearch": [],
    "placesTags": [],
    "reviewsTags": [],
    "additionalInfo": {
      "From the business": [
        {
          "Small business": true
        }
      ],
      "Service options": [
        {
          "Delivery": true
        },
        {
          "Drive-through": true
        },
        {
          "In-store pickup": true
        },
        {
          "In-store shopping": true
        },
        {
          "Same-day delivery": true
        }
      ],
      "Accessibility": [
        {
          "Wheelchair accessible entrance": true
        },
        {
          "Wheelchair accessible parking lot": true
        }
      ],
      "Payments": [
        {
          "Credit cards": true
        },
        {
          "Debit cards": true
        },
        {
          "Credit cards": true
        }
      ]
    },
    "gasPrices": [],
    "url": "https://www.google.com/maps/search/?api=1&query=Solutions%20Pharmacy%2C%20Inc.&query_place_id=ChIJFR56yYdhYIgRcgZqhA9ltHk",
    "searchPageUrl": "https://www.google.com/maps/search/independent%20pharmacy%20Chattanooga%20TN/@51.839717812945175,-179.97595653707245,14z?hl=en",
    "searchString": "independent pharmacy Chattanooga TN",
    "language": "en",
    "rank": 15,
    "isAdvertisement": false,
    "imageUrl": "https://lh3.googleusercontent.com/gps-cs-s/AC9h4npu0Ym0bOBC4MmYE9R1tQwFvd-D98_qm_qHj4U2QM433bb7z_hW4bbben74nNyv3-BLQwoH40y0RwzZ9fhAmKF3jd1mDm3xmPg46LEFJiPfTGJCE0ntTs2jUbC5hgweb4tnlIg=w408-h543-k-no",
    "kgmid": "/g/12hnw7b16"
  },
  {
    "title": "Genoa Healthcare",
    "price": null,
    "categoryName": "Pharmacy",
    "address": "420 W Bell Ave suite p, Chattanooga, TN 37405",
    "neighborhood": "Northshore",
    "street": "420 W Bell Ave suite p",
    "city": "Chattanooga",
    "postalCode": "37405",
    "state": "Tennessee",
    "countryCode": "US",
    "website": "http://www.genoahealthcare.com/",
    "phone": "(423) 648-4310",
    "phoneUnformatted": "+14236484310",
    "claimThisBusiness": false,
    "location": {
      "lat": 35.0682838,
      "lng": -85.3142934
    },
    "totalScore": 4.8,
    "permanentlyClosed": false,
    "temporarilyClosed": false,
    "placeId": "ChIJRe6s7PdeYIgRlZy5iYWcgLM",
    "categories": [
      "Pharmacy",
      "Medical clinic"
    ],
    "fid": "0x88605ef7ecacee45:0xb3809c8589b99c95",
    "cid": "12934510227163290773",
    "reviewsCount": 15,
    "imagesCount": 1,
    "imageCategories": [],
    "scrapedAt": "2025-06-22T06:40:21.815Z",
    "googleFoodUrl": null,
    "hotelAds": [],
    "openingHours": [
      {
        "day": "Monday",
        "hours": "8 AM to 12 PM, 1 to 5 PM"
      },
      {
        "day": "Tuesday",
        "hours": "8 AM to 12 PM, 1 to 5 PM"
      },
      {
        "day": "Wednesday",
        "hours": "8 AM to 12 PM, 1 to 5 PM"
      },
      {
        "day": "Thursday",
        "hours": "8 AM to 12 PM, 1 to 5 PM"
      },
      {
        "day": "Friday",
        "hours": "8 AM to 12 PM, 1 to 5 PM"
      },
      {
        "day": "Saturday",
        "hours": "Closed"
      },
      {
        "day": "Sunday",
        "hours": "Closed"
      }
    ],
    "peopleAlsoSearch": [],
    "placesTags": [],
    "reviewsTags": [],
    "additionalInfo": {
      "Accessibility": [
        {
          "Wheelchair accessible entrance": true
        },
        {
          "Wheelchair accessible parking lot": true
        }
      ],
      "Payments": [
        {
          "Credit cards": true
        },
        {
          "Debit cards": true
        },
        {
          "NFC mobile payments": true
        },
        {
          "Credit cards": true
        }
      ]
    },
    "gasPrices": [],
    "url": "https://www.google.com/maps/search/?api=1&query=Genoa%20Healthcare&query_place_id=ChIJRe6s7PdeYIgRlZy5iYWcgLM",
    "searchPageUrl": "https://www.google.com/maps/search/independent%20pharmacy%20Chattanooga%20TN/@51.839717812945175,-179.97595653707245,14z?hl=en",
    "searchString": "independent pharmacy Chattanooga TN",
    "language": "en",
    "rank": 16,
    "isAdvertisement": false,
    "imageUrl": "https://streetviewpixels-pa.googleapis.com/v1/thumbnail?panoid=up--_2vIZ5Y_oN90ZynVcg&cb_client=search.gws-prod.gps&w=408&h=240&yaw=102.99656&pitch=0&thumbfov=100",
    "kgmid": "/g/1q5bqdr6m"
  },
  {
    "title": "CVS Pharmacy",
    "price": null,
    "categoryName": "Pharmacy",
    "address": "6802 Lee Hwy, Chattanooga, TN 37421",
    "neighborhood": null,
    "street": "6802 Lee Hwy",
    "city": "Chattanooga",
    "postalCode": "37421",
    "state": "Tennessee",
    "countryCode": "US",
    "website": "https://www.cvs.com/store-locator/chattanooga-tn-pharmacies/6802-lee-hwy-chattanooga-tn-37421/storeid=3782?WT.mc_id=LS_GOOGLE_RX_3782",
    "phone": "(423) 899-1186",
    "phoneUnformatted": "+14238991186",
    "claimThisBusiness": false,
    "location": {
      "lat": 35.0405467,
      "lng": -85.1686222
    },
    "totalScore": 3.4,
    "permanentlyClosed": false,
    "temporarilyClosed": false,
    "placeId": "ChIJL-F-PgNjYIgRJvi4ZQaJNig",
    "categories": [
      "Pharmacy"
    ],
    "fid": "0x886063033e7ee12f:0x2836890665b8f826",
    "cid": "2897654070828922918",
    "reviewsCount": 9,
    "imagesCount": 39,
    "imageCategories": [],
    "scrapedAt": "2025-06-22T06:40:21.815Z",
    "googleFoodUrl": null,
    "hotelAds": [],
    "openingHours": [
      {
        "day": "Monday",
        "hours": "8 AM to 1:30 PM, 2 to 9 PM"
      },
      {
        "day": "Tuesday",
        "hours": "8 AM to 1:30 PM, 2 to 9 PM"
      },
      {
        "day": "Wednesday",
        "hours": "8 AM to 1:30 PM, 2 to 9 PM"
      },
      {
        "day": "Thursday",
        "hours": "8 AM to 1:30 PM, 2 to 9 PM"
      },
      {
        "day": "Friday",
        "hours": "8 AM to 1:30 PM, 2 to 9 PM"
      },
      {
        "day": "Saturday",
        "hours": "9 AM to 1:30 PM, 2 to 6 PM"
      },
      {
        "day": "Sunday",
        "hours": "10 AM to 1:30 PM, 2 to 6 PM"
      }
    ],
    "peopleAlsoSearch": [],
    "placesTags": [],
    "reviewsTags": [],
    "additionalInfo": {
      "Service options": [
        {
          "Delivery": true
        },
        {
          "Drive-through": true
        },
        {
          "In-store pickup": true
        },
        {
          "In-store shopping": true
        },
        {
          "Onsite services": true
        }
      ],
      "Accessibility": [
        {
          "Wheelchair accessible entrance": true
        },
        {
          "Wheelchair accessible parking lot": true
        }
      ],
      "Crowd": [
        {
          "LGBTQ+ friendly": true
        },
        {
          "Transgender safespace": true
        }
      ],
      "Planning": [
        {
          "Quick visit": true
        }
      ],
      "Payments": [
        {
          "Credit cards": true
        },
        {
          "Debit cards": true
        },
        {
          "NFC mobile payments": true
        },
        {
          "SNAP/EBT": true
        },
        {
          "Credit cards": true
        }
      ]
    },
    "gasPrices": [],
    "url": "https://www.google.com/maps/search/?api=1&query=CVS%20Pharmacy&query_place_id=ChIJL-F-PgNjYIgRJvi4ZQaJNig",
    "searchPageUrl": "https://www.google.com/maps/search/independent%20pharmacy%20Chattanooga%20TN/@51.839717812945175,-179.97595653707245,14z?hl=en",
    "searchString": "independent pharmacy Chattanooga TN",
    "language": "en",
    "rank": 17,
    "isAdvertisement": false,
    "imageUrl": "https://lh3.googleusercontent.com/p/AF1QipMt2dAXDWvwQlHryj3OZVlUV4KZvfyWkPgmPNDu=w408-h272-k-no",
    "kgmid": "/g/11fv4fbnfn"
  },
  {
    "title": "Stop-N-Go Discount Pharmacy",
    "price": null,
    "categoryName": "Pharmacy",
    "address": "3984 Ringgold Rd, East Ridge, TN 37412",
    "neighborhood": null,
    "street": "3984 Ringgold Rd",
    "city": "East Ridge",
    "postalCode": "37412",
    "state": "Tennessee",
    "countryCode": "US",
    "website": "http://stop-n-go-discount-pharmacy.square.site/",
    "phone": "(423) 468-7161",
    "phoneUnformatted": "+14234687161",
    "claimThisBusiness": false,
    "location": {
      "lat": 34.9972554,
      "lng": -85.2497575
    },
    "totalScore": 4.5,
    "permanentlyClosed": false,
    "temporarilyClosed": false,
    "placeId": "ChIJ2zSO9AxnYIgReIsy072XYc4",
    "categories": [
      "Pharmacy"
    ],
    "fid": "0x8860670cf48e34db:0xce6197bdd3328b78",
    "cid": "14871334286102006648",
    "reviewsCount": 135,
    "imagesCount": 34,
    "imageCategories": [],
    "scrapedAt": "2025-06-22T06:40:21.816Z",
    "googleFoodUrl": null,
    "hotelAds": [],
    "openingHours": [
      {
        "day": "Monday",
        "hours": "9 AM to 6:30 PM"
      },
      {
        "day": "Tuesday",
        "hours": "9 AM to 6:30 PM"
      },
      {
        "day": "Wednesday",
        "hours": "9 AM to 6:30 PM"
      },
      {
        "day": "Thursday",
        "hours": "9 AM to 6:30 PM"
      },
      {
        "day": "Friday",
        "hours": "9 AM to 6:30 PM"
      },
      {
        "day": "Saturday",
        "hours": "10 AM to 2 PM"
      },
      {
        "day": "Sunday",
        "hours": "Closed"
      }
    ],
    "peopleAlsoSearch": [],
    "placesTags": [],
    "reviewsTags": [],
    "additionalInfo": {
      "From the business": [
        {
          "Small business": true
        }
      ],
      "Service options": [
        {
          "Delivery": true
        },
        {
          "Drive-through": true
        },
        {
          "In-store pickup": true
        },
        {
          "In-store shopping": true
        },
        {
          "Same-day delivery": true
        }
      ],
      "Accessibility": [
        {
          "Wheelchair accessible entrance": true
        },
        {
          "Wheelchair accessible parking lot": true
        }
      ],
      "Planning": [
        {
          "Quick visit": true
        }
      ],
      "Payments": [
        {
          "Credit cards": true
        },
        {
          "Debit cards": true
        },
        {
          "NFC mobile payments": true
        },
        {
          "SNAP/EBT": true
        },
        {
          "Credit cards": true
        }
      ]
    },
    "gasPrices": [],
    "url": "https://www.google.com/maps/search/?api=1&query=Stop-N-Go%20Discount%20Pharmacy&query_place_id=ChIJ2zSO9AxnYIgReIsy072XYc4",
    "searchPageUrl": "https://www.google.com/maps/search/independent%20pharmacy%20Chattanooga%20TN/@51.839717812945175,-179.97595653707245,14z?hl=en",
    "searchString": "independent pharmacy Chattanooga TN",
    "language": "en",
    "rank": 18,
    "isAdvertisement": false,
    "imageUrl": "https://lh3.googleusercontent.com/p/AF1QipMAKiVgOLLbRQ4X6TUf9NtZ9Xt1gT8U7wBEiJxN=w426-h240-k-no",
    "kgmid": "/g/11c46clwrd"
  },
  {
    "title": "Max B. Standefer, DPH",
    "price": null,
    "categoryName": "Pharmacy",
    "address": "4062 Hixson Pike, Chattanooga, TN 37415",
    "neighborhood": null,
    "street": "4062 Hixson Pike",
    "city": "Chattanooga",
    "postalCode": "37415",
    "state": "Tennessee",
    "countryCode": "US",
    "phone": "(423) 877-3568",
    "phoneUnformatted": "+14238773568",
    "claimThisBusiness": true,
    "location": {
      "lat": 35.1138864,
      "lng": -85.2576512
    },
    "permanentlyClosed": false,
    "temporarilyClosed": false,
    "placeId": "ChIJA9ylMxpgYIgRn_hdhpJEXd4",
    "categories": [
      "Pharmacy"
    ],
    "fid": "0x8860601a33a5dc03:0xde5d4492865df89f",
    "cid": "16023038445364312223",
    "reviewsCount": 0,
    "imagesCount": 1,
    "imageCategories": [],
    "scrapedAt": "2025-06-22T06:40:21.816Z",
    "googleFoodUrl": null,
    "hotelAds": [],
    "openingHours": [
      {
        "day": "Monday",
        "hours": "7 AM to 9 PM"
      },
      {
        "day": "Tuesday",
        "hours": "7 AM to 9 PM"
      },
      {
        "day": "Wednesday",
        "hours": "7 AM to 9 PM"
      },
      {
        "day": "Thursday",
        "hours": "7 AM to 9 PM"
      },
      {
        "day": "Friday",
        "hours": "7 AM to 9 PM"
      },
      {
        "day": "Saturday",
        "hours": "7 AM to 9 PM"
      },
      {
        "day": "Sunday",
        "hours": "7 AM to 9 PM"
      }
    ],
    "peopleAlsoSearch": [],
    "placesTags": [],
    "reviewsTags": [],
    "additionalInfo": {
      "Service options": [
        {
          "Delivery": true
        }
      ],
      "Accessibility": [
        {
          "Wheelchair accessible entrance": true
        },
        {
          "Wheelchair accessible parking lot": true
        }
      ],
      "Payments": [
        {
          "Credit cards": true
        }
      ]
    },
    "gasPrices": [],
    "url": "https://www.google.com/maps/search/?api=1&query=Max%20B.%20Standefer%2C%20DPH&query_place_id=ChIJA9ylMxpgYIgRn_hdhpJEXd4",
    "searchPageUrl": "https://www.google.com/maps/search/independent%20pharmacy%20Chattanooga%20TN/@51.839717812945175,-179.97595653707245,14z?hl=en",
    "searchString": "independent pharmacy Chattanooga TN",
    "language": "en",
    "rank": 19,
    "isAdvertisement": false,
    "imageUrl": "https://streetviewpixels-pa.googleapis.com/v1/thumbnail?panoid=Og47wE4b210gSgD8I_ksAw&cb_client=search.gws-prod.gps&w=408&h=240&yaw=220.56894&pitch=0&thumbfov=100",
    "kgmid": "/g/1tdd1dxg"
  },
  {
    "title": "HCS EdHealth Pharmacy Hickory Valley",
    "price": null,
    "categoryName": "Pharmacy",
    "address": "3074 Hickory Valley Rd Building 229, Chattanooga, TN 37421",
    "neighborhood": null,
    "street": "3074 Hickory Valley Rd Building 229",
    "city": "Chattanooga",
    "postalCode": "37421",
    "state": "Tennessee",
    "countryCode": "US",
    "website": "https://www.hcde.org/staff/benefits/Edhealth_pharmacy",
    "phone": "(423) 498-6748",
    "phoneUnformatted": "+14234986748",
    "claimThisBusiness": false,
    "location": {
      "lat": 35.0744512,
      "lng": -85.1547074
    },
    "totalScore": 5,
    "permanentlyClosed": false,
    "temporarilyClosed": false,
    "placeId": "ChIJeerdyuljYIgRX8pxEwHrFJ0",
    "categories": [
      "Pharmacy"
    ],
    "fid": "0x886063e9caddea79:0x9d14eb011371ca5f",
    "cid": "11318930153342618207",
    "reviewsCount": 9,
    "imagesCount": null,
    "imageCategories": [],
    "scrapedAt": "2025-06-22T06:40:21.816Z",
    "googleFoodUrl": null,
    "hotelAds": [],
    "openingHours": [
      {
        "day": "Monday",
        "hours": "8 AM to 6 PM"
      },
      {
        "day": "Tuesday",
        "hours": "8 AM to 6 PM"
      },
      {
        "day": "Wednesday",
        "hours": "8 AM to 6 PM"
      },
      {
        "day": "Thursday",
        "hours": "8 AM to 6 PM"
      },
      {
        "day": "Friday",
        "hours": "8 AM to 6 PM"
      },
      {
        "day": "Saturday",
        "hours": "9 AM to 1 PM"
      },
      {
        "day": "Sunday",
        "hours": "Closed"
      }
    ],
    "additionalOpeningHours": {
      "Lunch": [
        {
          "day": "Monday",
          "hours": "1:30–2 PM"
        },
        {
          "day": "Tuesday",
          "hours": "1:30–2 PM"
        },
        {
          "day": "Wednesday",
          "hours": "1:30–2 PM"
        },
        {
          "day": "Thursday",
          "hours": "1:30–2 PM"
        },
        {
          "day": "Friday",
          "hours": "1:30–2 PM"
        },
        {
          "day": "Saturday",
          "hours": "Closed"
        },
        {
          "day": "Sunday",
          "hours": "Closed"
        }
      ]
    },
    "peopleAlsoSearch": [],
    "placesTags": [],
    "reviewsTags": [],
    "additionalInfo": {
      "Accessibility": [
        {
          "Wheelchair accessible entrance": true
        },
        {
          "Wheelchair accessible parking lot": true
        }
      ],
      "Payments": [
        {
          "Credit cards": true
        },
        {
          "Debit cards": true
        },
        {
          "NFC mobile payments": true
        },
        {
          "Credit cards": true
        }
      ]
    },
    "gasPrices": [],
    "url": "https://www.google.com/maps/search/?api=1&query=HCS%20EdHealth%20Pharmacy%20Hickory%20Valley&query_place_id=ChIJeerdyuljYIgRX8pxEwHrFJ0",
    "searchPageUrl": "https://www.google.com/maps/search/independent%20pharmacy%20Chattanooga%20TN/@51.839717812945175,-179.97595653707245,14z?hl=en",
    "searchString": "independent pharmacy Chattanooga TN",
    "language": "en",
    "rank": 20,
    "isAdvertisement": false,
    "kgmid": "/g/11rhqs78r6"
  }
]