[
  {
    "title": "Portland Pharmacy",
    "price": null,
    "categoryName": "Pharmacy",
    "address": "1295 Portland Ave Ste 2, Rochester, NY 14621",
    "neighborhood": "Group 14621",
    "street": "1295 Portland Ave Ste 2",
    "city": "Rochester",
    "postalCode": "14621",
    "state": "New York",
    "countryCode": "US",
    "website": "https://www.facebook.com/portlandpharmrx",
    "phone": "(585) 537-7081",
    "phoneUnformatted": "+15855377081",
    "claimThisBusiness": false,
    "location": {
      "lat": 43.1897145,
      "lng": -77.5854485
    },
    "totalScore": 4.9,
    "permanentlyClosed": false,
    "temporarilyClosed": false,
    "placeId": "ChIJ9TwCY-G11okRlYLk1XVACcI",
    "categories": [
      "Pharmacy",
      "Drug store"
    ],
    "fid": "0x89d6b5e163023cf5:0xc2094075d5e48295",
    "cid": "13981777392992289429",
    "reviewsCount": 52,
    "imagesCount": 24,
    "imageCategories": [],
    "scrapedAt": "2025-06-22T06:11:51.230Z",
    "googleFoodUrl": null,
    "hotelAds": [],
    "openingHours": [
      {
        "day": "Monday",
        "hours": "9 AM to 6 PM"
      },
      {
        "day": "Tuesday",
        "hours": "9 AM to 6 PM"
      },
      {
        "day": "Wednesday",
        "hours": "9 AM to 6 PM"
      },
      {
        "day": "Thursday",
        "hours": "9 AM to 6 PM"
      },
      {
        "day": "Friday",
        "hours": "9 AM to 1 PM, 2 to 6 PM"
      },
      {
        "day": "Saturday",
        "hours": "10 AM to 3 PM"
      },
      {
        "day": "Sunday",
        "hours": "Closed"
      }
    ],
    "additionalOpeningHours": {
      "Delivery": [
        {
          "day": "Monday",
          "hours": "9 AM–6 PM"
        },
        {
          "day": "Tuesday",
          "hours": "9 AM–6 PM"
        },
        {
          "day": "Wednesday",
          "hours": "9 AM–6 PM"
        },
        {
          "day": "Thursday",
          "hours": "9 AM–6 PM"
        },
        {
          "day": "Friday",
          "hours": "9 AM–6 PM"
        },
        {
          "day": "Saturday",
          "hours": "10 AM–3 PM"
        },
        {
          "day": "Sunday",
          "hours": "Closed"
        }
      ]
    },
    "peopleAlsoSearch": [],
    "placesTags": [],
    "reviewsTags": [],
    "additionalInfo": {
      "From the business": [
        {
          "Small business": true
        }
      ],
      "Service options": [
        {
          "Curbside pickup": true
        },
        {
          "Delivery": true
        },
        {
          "In-store pickup": true
        },
        {
          "In-store shopping": true
        },
        {
          "Same-day delivery": true
        },
        {
          "Arabic": true
        }
      ],
      "Accessibility": [
        {
          "Wheelchair accessible entrance": true
        },
        {
          "Wheelchair accessible parking lot": true
        }
      ],
      "Crowd": [
        {
          "LGBTQ+ friendly": true
        },
        {
          "Transgender safespace": true
        }
      ],
      "Planning": [
        {
          "Quick visit": true
        }
      ],
      "Payments": [
        {
          "Credit cards": true
        },
        {
          "Debit cards": true
        },
        {
          "NFC mobile payments": true
        },
        {
          "Credit cards": true
        }
      ]
    },
    "gasPrices": [],
    "url": "https://www.google.com/maps/search/?api=1&query=Portland%20Pharmacy&query_place_id=ChIJ9TwCY-G11okRlYLk1XVACcI",
    "searchPageUrl": "https://www.google.com/maps/search/independent%20pharmacy%20Rochester%20NY/@52.14797767021313,-177.3132206483257,11z?hl=en",
    "searchString": "independent pharmacy Rochester NY",
    "language": "en",
    "rank": 1,
    "isAdvertisement": false,
    "imageUrl": "https://lh3.googleusercontent.com/gps-cs-s/AC9h4nrnv_P5v6EF_BQSBFmEYY8_JOSCOd173E65r5yPw-cxpC73opjwLg9bRXH-jO5oGRYwFbENbOcqt6efADYiR1N3UrE5PNh_SH59vT7dCDM2f5UJLuaSS9LZcjdvJhw7j6oQTYY3zQ=w408-h306-k-no",
    "kgmid": "/g/11p4l8hc2j"
  },
  {
    "title": "Rochestercare Pharmacy",
    "price": null,
    "categoryName": "Pharmacy",
    "address": "192 Lyell Ave, Rochester, NY 14608",
    "neighborhood": "Edgerton",
    "street": "192 Lyell Ave",
    "city": "Rochester",
    "postalCode": "14608",
    "state": "New York",
    "countryCode": "US",
    "website": "http://www.rochestercarerx.com/",
    "phone": "(585) 458-2326",
    "phoneUnformatted": "+15854582326",
    "claimThisBusiness": false,
    "location": {
      "lat": 43.1648609,
      "lng": -77.629696
    },
    "totalScore": 4.1,
    "permanentlyClosed": false,
    "temporarilyClosed": false,
    "placeId": "ChIJCf0Ucl201okR6P0TtT5N8x0",
    "categories": [
      "Pharmacy"
    ],
    "fid": "0x89d6b45d7214fd09:0x1df34d3eb513fde8",
    "cid": "2158153578161896936",
    "reviewsCount": 137,
    "imagesCount": 4,
    "imageCategories": [],
    "scrapedAt": "2025-06-22T06:11:51.235Z",
    "googleFoodUrl": null,
    "hotelAds": [],
    "openingHours": [
      {
        "day": "Monday",
        "hours": "8 AM to 5 PM"
      },
      {
        "day": "Tuesday",
        "hours": "8 AM to 5 PM"
      },
      {
        "day": "Wednesday",
        "hours": "8 AM to 5 PM"
      },
      {
        "day": "Thursday",
        "hours": "8 AM to 5 PM"
      },
      {
        "day": "Friday",
        "hours": "8 AM to 5 PM"
      },
      {
        "day": "Saturday",
        "hours": "9 AM to 2 PM"
      },
      {
        "day": "Sunday",
        "hours": "Closed"
      }
    ],
    "peopleAlsoSearch": [],
    "placesTags": [],
    "reviewsTags": [],
    "additionalInfo": {
      "From the business": [
        {
          "Small business": true
        }
      ],
      "Service options": [
        {
          "Delivery": true
        },
        {
          "In-store pickup": true
        },
        {
          "Same-day delivery": true
        }
      ],
      "Accessibility": [
        {
          "Wheelchair accessible entrance": true
        },
        {
          "Wheelchair accessible parking lot": true
        }
      ],
      "Planning": [
        {
          "Quick visit": true
        }
      ],
      "Payments": [
        {
          "Checks": true
        },
        {
          "Credit cards": true
        },
        {
          "Debit cards": true
        },
        {
          "NFC mobile payments": true
        },
        {
          "Credit cards": true
        }
      ]
    },
    "gasPrices": [],
    "url": "https://www.google.com/maps/search/?api=1&query=Rochestercare%20Pharmacy&query_place_id=ChIJCf0Ucl201okR6P0TtT5N8x0",
    "searchPageUrl": "https://www.google.com/maps/search/independent%20pharmacy%20Rochester%20NY/@52.14797767021313,-177.3132206483257,11z?hl=en",
    "searchString": "independent pharmacy Rochester NY",
    "language": "en",
    "rank": 2,
    "isAdvertisement": false,
    "imageUrl": "https://lh3.googleusercontent.com/p/AF1QipPHpKbDHztazZBJK-y3TEdHIGOIZrqh_jW4XXy7=w408-h306-k-no",
    "kgmid": "/g/1thml_0m"
  },
  {
    "title": "Irondequoit Pharmacy",
    "price": null,
    "categoryName": "Pharmacy",
    "address": "545 Titus Ave, Rochester, NY 14617",
    "neighborhood": "West Irondequoit",
    "street": "545 Titus Ave",
    "city": "Rochester",
    "postalCode": "14617",
    "state": "New York",
    "countryCode": "US",
    "website": "http://www.irondequoitpharmacy.com/",
    "phone": "(585) 340-6440",
    "phoneUnformatted": "+15853406440",
    "claimThisBusiness": false,
    "location": {
      "lat": 43.2099272,
      "lng": -77.601535
    },
    "totalScore": 4.9,
    "permanentlyClosed": false,
    "temporarilyClosed": false,
    "placeId": "ChIJV-dvl_S31okRkGc7j8LW5qM",
    "categories": [
      "Pharmacy",
      "Gourmet grocery store",
      "Vitamin & supplements store"
    ],
    "fid": "0x89d6b7f4976fe757:0xa3e6d6c28f3b6790",
    "cid": "11810363203940738960",
    "reviewsCount": 27,
    "imagesCount": 14,
    "imageCategories": [],
    "scrapedAt": "2025-06-22T06:11:51.236Z",
    "googleFoodUrl": null,
    "hotelAds": [],
    "openingHours": [
      {
        "day": "Monday",
        "hours": "9 AM to 7 PM"
      },
      {
        "day": "Tuesday",
        "hours": "9 AM to 7 PM"
      },
      {
        "day": "Wednesday",
        "hours": "9 AM to 7 PM"
      },
      {
        "day": "Thursday",
        "hours": "9 AM to 7 PM"
      },
      {
        "day": "Friday",
        "hours": "9 AM to 7 PM"
      },
      {
        "day": "Saturday",
        "hours": "9 AM to 2 PM"
      },
      {
        "day": "Sunday",
        "hours": "Closed"
      }
    ],
    "peopleAlsoSearch": [],
    "placesTags": [],
    "reviewsTags": [],
    "additionalInfo": {
      "From the business": [
        {
          "Identifies as women-owned": true
        },
        {
          "Small business": true
        }
      ],
      "Service options": [
        {
          "Delivery": true
        },
        {
          "In-store pickup": true
        },
        {
          "In-store shopping": true
        },
        {
          "Onsite services": true
        },
        {
          "Same-day delivery": true
        }
      ],
      "Accessibility": [
        {
          "Wheelchair accessible entrance": true
        },
        {
          "Wheelchair accessible parking lot": true
        }
      ],
      "Planning": [
        {
          "Quick visit": true
        }
      ],
      "Payments": [
        {
          "Credit cards": true
        },
        {
          "Debit cards": true
        },
        {
          "NFC mobile payments": true
        },
        {
          "Credit cards": true
        }
      ]
    },
    "gasPrices": [],
    "url": "https://www.google.com/maps/search/?api=1&query=Irondequoit%20Pharmacy&query_place_id=ChIJV-dvl_S31okRkGc7j8LW5qM",
    "searchPageUrl": "https://www.google.com/maps/search/independent%20pharmacy%20Rochester%20NY/@52.14797767021313,-177.3132206483257,11z?hl=en",
    "searchString": "independent pharmacy Rochester NY",
    "language": "en",
    "rank": 3,
    "isAdvertisement": false,
    "imageUrl": "https://lh3.googleusercontent.com/p/AF1QipOcfuyGULQXiouTpwwDgeiQN07X_ELJotgT_oxD=w408-h306-k-no",
    "kgmid": "/g/11flc3qgqv"
  },
  {
    "title": "Alexander Pharmacy",
    "price": null,
    "categoryName": "Pharmacy",
    "address": "222 Alexander St #2700, Rochester, NY 14607",
    "neighborhood": "Park Avenue",
    "street": "222 Alexander St #2700",
    "city": "Rochester",
    "postalCode": "14607",
    "state": "New York",
    "countryCode": "US",
    "website": "https://www.alexanderrx.com/",
    "phone": "(585) 262-3760",
    "phoneUnformatted": "+15852623760",
    "claimThisBusiness": true,
    "location": {
      "lat": 43.149911,
      "lng": -77.5954318
    },
    "totalScore": 3.5,
    "permanentlyClosed": false,
    "temporarilyClosed": false,
    "placeId": "ChIJIUqaJAa11okRWHs7Rp1alD8",
    "categories": [
      "Pharmacy",
      "Hospice",
      "Pain control clinic",
      "Skin care clinic"
    ],
    "fid": "0x89d6b506249a4a21:0x3f945a9d463b7b58",
    "cid": "4581386352477305688",
    "reviewsCount": 21,
    "imagesCount": 17,
    "imageCategories": [],
    "scrapedAt": "2025-06-22T06:11:51.236Z",
    "googleFoodUrl": null,
    "hotelAds": [],
    "openingHours": [
      {
        "day": "Monday",
        "hours": "9 AM to 6 PM"
      },
      {
        "day": "Tuesday",
        "hours": "9 AM to 6 PM"
      },
      {
        "day": "Wednesday",
        "hours": "9 AM to 6 PM"
      },
      {
        "day": "Thursday",
        "hours": "9 AM to 6 PM"
      },
      {
        "day": "Friday",
        "hours": "9 AM to 6 PM"
      },
      {
        "day": "Saturday",
        "hours": "Closed"
      },
      {
        "day": "Sunday",
        "hours": "Closed"
      }
    ],
    "peopleAlsoSearch": [],
    "placesTags": [],
    "reviewsTags": [],
    "additionalInfo": {
      "Service options": [
        {
          "Delivery": true
        },
        {
          "In-store pickup": true
        },
        {
          "In-store shopping": true
        },
        {
          "Same-day delivery": true
        }
      ],
      "Accessibility": [
        {
          "Wheelchair accessible entrance": true
        },
        {
          "Wheelchair accessible parking lot": true
        }
      ],
      "Payments": [
        {
          "Credit cards": true
        },
        {
          "Debit cards": true
        },
        {
          "NFC mobile payments": true
        },
        {
          "Credit cards": true
        }
      ]
    },
    "gasPrices": [],
    "url": "https://www.google.com/maps/search/?api=1&query=Alexander%20Pharmacy&query_place_id=ChIJIUqaJAa11okRWHs7Rp1alD8",
    "searchPageUrl": "https://www.google.com/maps/search/independent%20pharmacy%20Rochester%20NY/@52.14797767021313,-177.3132206483257,11z?hl=en",
    "searchString": "independent pharmacy Rochester NY",
    "language": "en",
    "rank": 4,
    "isAdvertisement": false,
    "imageUrl": "https://lh3.googleusercontent.com/gps-cs-s/AC9h4npD7daGhZVaUJ21yN71dS7dHxT2PYxNmawk9v1a-xoFZAcKmrrVcRpjgh4NLKwgOjV3AGVRjh2yaw0hR6anfpyficO_N2F9SdpBGsB_UpavQ5FlZ4YQAWmNYUOdAZ76r0PSBa03=w408-h306-k-no",
    "kgmid": "/g/1tfnt_c1"
  },
  {
    "title": "Twelve Corners Apothecary",
    "price": null,
    "categoryName": "Pharmacy",
    "address": "1832 Monroe Ave, Rochester, NY 14618",
    "neighborhood": null,
    "street": "1832 Monroe Ave",
    "city": "Rochester",
    "postalCode": "14618",
    "state": "New York",
    "countryCode": "US",
    "website": "https://12cornersapothecary.com/",
    "phone": "(585) 244-8600",
    "phoneUnformatted": "+15852448600",
    "claimThisBusiness": false,
    "location": {
      "lat": 43.1282318,
      "lng": -77.5662073
    },
    "totalScore": 4.7,
    "permanentlyClosed": false,
    "temporarilyClosed": false,
    "placeId": "ChIJmeOj81611okR4go3XlJX6C8",
    "categories": [
      "Pharmacy"
    ],
    "fid": "0x89d6b55ef3a3e399:0x2fe857525e370ae2",
    "cid": "3452105125659085538",
    "reviewsCount": 43,
    "imagesCount": 24,
    "imageCategories": [],
    "scrapedAt": "2025-06-22T06:11:51.236Z",
    "googleFoodUrl": null,
    "hotelAds": [],
    "openingHours": [
      {
        "day": "Monday",
        "hours": "9 AM to 6 PM"
      },
      {
        "day": "Tuesday",
        "hours": "9 AM to 6 PM"
      },
      {
        "day": "Wednesday",
        "hours": "9 AM to 6 PM"
      },
      {
        "day": "Thursday",
        "hours": "9 AM to 6 PM"
      },
      {
        "day": "Friday",
        "hours": "9 AM to 6 PM"
      },
      {
        "day": "Saturday",
        "hours": "9 AM to 1 PM"
      },
      {
        "day": "Sunday",
        "hours": "Closed"
      }
    ],
    "peopleAlsoSearch": [],
    "placesTags": [],
    "reviewsTags": [],
    "additionalInfo": {
      "From the business": [
        {
          "Small business": true
        }
      ],
      "Service options": [
        {
          "In-store shopping": true
        },
        {
          "Same-day delivery": false
        }
      ],
      "Accessibility": [
        {
          "Wheelchair accessible entrance": true
        },
        {
          "Wheelchair accessible parking lot": true
        }
      ],
      "Crowd": [
        {
          "LGBTQ+ friendly": true
        },
        {
          "Transgender safespace": true
        }
      ],
      "Planning": [
        {
          "Accepts walk-ins": true
        }
      ],
      "Payments": [
        {
          "Checks": true
        },
        {
          "Credit cards": true
        },
        {
          "Debit cards": true
        },
        {
          "NFC mobile payments": true
        },
        {
          "Credit cards": true
        }
      ],
      "Parking": [
        {
          "Free parking lot": true
        },
        {
          "On-site parking": true
        }
      ]
    },
    "gasPrices": [],
    "url": "https://www.google.com/maps/search/?api=1&query=Twelve%20Corners%20Apothecary&query_place_id=ChIJmeOj81611okR4go3XlJX6C8",
    "searchPageUrl": "https://www.google.com/maps/search/independent%20pharmacy%20Rochester%20NY/@52.14797767021313,-177.3132206483257,11z?hl=en",
    "searchString": "independent pharmacy Rochester NY",
    "language": "en",
    "rank": 5,
    "isAdvertisement": false,
    "imageUrl": "https://lh3.googleusercontent.com/p/AF1QipPpHC-w0xurqq3_FWoqXucETRrlJ3gZTJyJIk2Q=w408-h272-k-no",
    "kgmid": "/g/1td0n_zw"
  },
  {
    "title": "LifeMed Pharmacy-Rochester",
    "price": null,
    "categoryName": "Pharmacy",
    "address": "1249 Ridgeway Ave Q, Rochester, NY 14615, United States",
    "neighborhood": "Maplewood Historic District",
    "street": "1249 Ridgeway Ave Q",
    "city": "Rochester",
    "postalCode": "14615",
    "state": "New York",
    "countryCode": "US",
    "phone": "+1 888-806-3379",
    "phoneUnformatted": "+18888063379",
    "claimThisBusiness": true,
    "location": {
      "lat": 43.1929718,
      "lng": -77.664731
    },
    "totalScore": 5,
    "permanentlyClosed": false,
    "temporarilyClosed": false,
    "placeId": "ChIJqdVES_uz1okRcOPWpbK2FJs",
    "categories": [
      "Pharmacy"
    ],
    "fid": "0x89d6b3fb4b44d5a9:0x9b14b6b2a5d6e370",
    "cid": "11174757453815800688",
    "reviewsCount": 1,
    "imagesCount": null,
    "imageCategories": [],
    "scrapedAt": "2025-06-22T06:11:53.956Z",
    "googleFoodUrl": null,
    "hotelAds": [],
    "openingHours": [],
    "peopleAlsoSearch": [],
    "placesTags": [],
    "reviewsTags": [],
    "additionalInfo": {
      "Accessibility": [
        {
          "Wheelchair-accessible car park": true
        },
        {
          "Wheelchair-accessible entrance": true
        }
      ]
    },
    "gasPrices": [],
    "url": "https://www.google.com/maps/search/?api=1&query=LifeMed%20Pharmacy-Rochester&query_place_id=ChIJqdVES_uz1okRcOPWpbK2FJs",
    "searchPageUrl": "https://www.google.com/maps/search/independent%20pharmacy%20Rochester%20NY/@60.04607963470983,-172.4041423571576,12z?hl=en",
    "searchString": "independent pharmacy Rochester NY",
    "language": "en",
    "rank": 4,
    "isAdvertisement": false,
    "kgmid": "/g/11cnxybjw5"
  },
  {
    "title": "Park Ridge Apothecary",
    "price": null,
    "categoryName": "Pharmacy",
    "address": "1561 Long Pond Rd, Rochester, NY 14626",
    "neighborhood": null,
    "street": "1561 Long Pond Rd",
    "city": "Rochester",
    "postalCode": "14626",
    "state": "New York",
    "countryCode": "US",
    "website": "http://www.unityhealth.org/",
    "phone": "(585) 723-7340",
    "phoneUnformatted": "+15857237340",
    "claimThisBusiness": false,
    "location": {
      "lat": 43.1911768,
      "lng": -77.7049041
    },
    "totalScore": 4.7,
    "permanentlyClosed": false,
    "temporarilyClosed": false,
    "placeId": "ChIJqwWG0TOy1okRdYfzanfQiKc",
    "categories": [
      "Pharmacy"
    ],
    "fid": "0x89d6b233d18605ab:0xa788d0776af38775",
    "cid": "12072128012480644981",
    "reviewsCount": 23,
    "imagesCount": 2,
    "imageCategories": [],
    "scrapedAt": "2025-06-22T06:12:07.487Z",
    "googleFoodUrl": null,
    "hotelAds": [],
    "openingHours": [
      {
        "day": "Monday",
        "hours": "7 AM to 7 PM"
      },
      {
        "day": "Tuesday",
        "hours": "7 AM to 7 PM"
      },
      {
        "day": "Wednesday",
        "hours": "7 AM to 7 PM"
      },
      {
        "day": "Thursday",
        "hours": "7 AM to 7 PM"
      },
      {
        "day": "Friday",
        "hours": "7 AM to 7 PM"
      },
      {
        "day": "Saturday",
        "hours": "7 AM to 12 PM"
      },
      {
        "day": "Sunday",
        "hours": "Closed"
      }
    ],
    "peopleAlsoSearch": [],
    "placesTags": [],
    "reviewsTags": [],
    "additionalInfo": {
      "From the business": [
        {
          "Small business": true
        }
      ],
      "Accessibility": [
        {
          "Wheelchair accessible entrance": true
        },
        {
          "Wheelchair accessible parking lot": true
        }
      ],
      "Offerings": [
        {
          "Medication disposal": true
        }
      ],
      "Payments": [
        {
          "Credit cards": true
        },
        {
          "Debit cards": true
        },
        {
          "NFC mobile payments": true
        },
        {
          "Credit cards": true
        }
      ]
    },
    "gasPrices": [],
    "url": "https://www.google.com/maps/search/?api=1&query=Park%20Ridge%20Apothecary&query_place_id=ChIJqwWG0TOy1okRdYfzanfQiKc",
    "searchPageUrl": "https://www.google.com/maps/search/independent%20pharmacy%20Rochester%20NY/@23.387855413655647,-164.49440022290355,13z?hl=en",
    "searchString": "independent pharmacy Rochester NY",
    "language": "en",
    "rank": 7,
    "isAdvertisement": false,
    "imageUrl": "https://lh3.googleusercontent.com/gps-cs-s/AC9h4no8ULfM2clKSHFtlj3k4O6rkCWw80fDn8KLXhKIkG67WxD6-l0LXy6AKixgd4_k1BVF_evUJXKGxfbBD2P3jqYImKcdjZRXOlrVhEXcYhs7qFSM01JtH-z_h8OY_ow0pdTwD4QQHg=w408-h725-k-no",
    "kgmid": "/g/1tdwlhj7"
  },
  {
    "title": "UR Medicine Pharmacy – Strong Memorial Hospital Outpatient Pharmacy",
    "price": null,
    "categoryName": "Pharmacy",
    "address": "601 Elmwood Ave, Rochester, NY 14642",
    "neighborhood": "Strong",
    "street": "601 Elmwood Ave",
    "city": "Rochester",
    "postalCode": "14642",
    "state": "New York",
    "countryCode": "US",
    "website": "https://www.urmc.rochester.edu/pharmacy/pharmacies/strong-memorial-outpatient.aspx",
    "phone": "(585) 275-4931",
    "phoneUnformatted": "+15852754931",
    "claimThisBusiness": false,
    "location": {
      "lat": 43.1228611,
      "lng": -77.6235847
    },
    "totalScore": 4.2,
    "permanentlyClosed": false,
    "temporarilyClosed": false,
    "placeId": "ChIJIdFDl8u01okRTQtoF8soWZc",
    "categories": [
      "Pharmacy"
    ],
    "fid": "0x89d6b4cb9743d121:0x975928cb17680b4d",
    "cid": "10905792825390533453",
    "reviewsCount": 46,
    "imagesCount": 1,
    "imageCategories": [],
    "scrapedAt": "2025-06-22T06:12:07.487Z",
    "googleFoodUrl": null,
    "hotelAds": [],
    "openingHours": [
      {
        "day": "Monday",
        "hours": "Open 24 hours"
      },
      {
        "day": "Tuesday",
        "hours": "Open 24 hours"
      },
      {
        "day": "Wednesday",
        "hours": "Open 24 hours"
      },
      {
        "day": "Thursday",
        "hours": "Open 24 hours"
      },
      {
        "day": "Friday",
        "hours": "Open 24 hours"
      },
      {
        "day": "Saturday",
        "hours": "Open 24 hours"
      },
      {
        "day": "Sunday",
        "hours": "Open 24 hours"
      }
    ],
    "peopleAlsoSearch": [],
    "placesTags": [],
    "reviewsTags": [],
    "additionalInfo": {
      "Service options": [
        {
          "In-store pickup": true
        }
      ],
      "Accessibility": [
        {
          "Wheelchair accessible entrance": true
        },
        {
          "Wheelchair accessible parking lot": true
        },
        {
          "Wheelchair accessible restroom": true
        },
        {
          "Wheelchair accessible seating": true
        }
      ],
      "Amenities": [
        {
          "Wi-Fi": true
        }
      ],
      "Payments": [
        {
          "Credit cards": true
        },
        {
          "Debit cards": true
        },
        {
          "NFC mobile payments": true
        }
      ]
    },
    "gasPrices": [],
    "url": "https://www.google.com/maps/search/?api=1&query=UR%20Medicine%20Pharmacy%20%E2%80%93%20Strong%20Memorial%20Hospital%20Outpatient%20Pharmacy&query_place_id=ChIJIdFDl8u01okRTQtoF8soWZc",
    "searchPageUrl": "https://www.google.com/maps/search/independent%20pharmacy%20Rochester%20NY/@23.387855413655647,-164.49440022290355,13z?hl=en",
    "searchString": "independent pharmacy Rochester NY",
    "language": "en",
    "rank": 8,
    "isAdvertisement": false,
    "imageUrl": "https://streetviewpixels-pa.googleapis.com/v1/thumbnail?panoid=jIlV-YvUujSJHctCOPYyGQ&cb_client=search.gws-prod.gps&w=408&h=240&yaw=190.04118&pitch=0&thumbfov=100",
    "kgmid": "/g/11clvrvpf7"
  },
  {
    "title": "St. Mary's Apothecary : Pharmacies",
    "price": null,
    "categoryName": "Pharmacy",
    "address": "89 Genesee St, Rochester, NY 14611",
    "neighborhood": "19th Ward",
    "street": "89 Genesee St",
    "city": "Rochester",
    "postalCode": "14611",
    "state": "New York",
    "countryCode": "US",
    "website": "http://www.unityhealth.org/",
    "phone": "(585) 368-3928",
    "phoneUnformatted": "+15853683928",
    "claimThisBusiness": false,
    "location": {
      "lat": 43.1489604,
      "lng": -77.6371459
    },
    "totalScore": 4,
    "permanentlyClosed": false,
    "temporarilyClosed": false,
    "placeId": "ChIJKQpr_I201okRYoPvGgHJ-zs",
    "categories": [
      "Pharmacy"
    ],
    "fid": "0x89d6b48dfc6b0a29:0x3bfbc9011aef8362",
    "cid": "4322269273976177506",
    "reviewsCount": 12,
    "imagesCount": null,
    "imageCategories": [],
    "scrapedAt": "2025-06-22T06:12:07.487Z",
    "googleFoodUrl": null,
    "hotelAds": [],
    "openingHours": [
      {
        "day": "Monday",
        "hours": "9 AM to 5 PM"
      },
      {
        "day": "Tuesday",
        "hours": "9 AM to 5 PM"
      },
      {
        "day": "Wednesday",
        "hours": "9 AM to 5 PM"
      },
      {
        "day": "Thursday",
        "hours": "9 AM to 5 PM"
      },
      {
        "day": "Friday",
        "hours": "9 AM to 5 PM"
      },
      {
        "day": "Saturday",
        "hours": "Closed"
      },
      {
        "day": "Sunday",
        "hours": "Closed"
      }
    ],
    "peopleAlsoSearch": [],
    "placesTags": [],
    "reviewsTags": [],
    "additionalInfo": {
      "From the business": [
        {
          "Small business": true
        }
      ],
      "Accessibility": [
        {
          "Wheelchair accessible entrance": true
        },
        {
          "Wheelchair accessible parking lot": true
        }
      ],
      "Payments": [
        {
          "Credit cards": true
        }
      ]
    },
    "gasPrices": [],
    "url": "https://www.google.com/maps/search/?api=1&query=St.%20Mary's%20Apothecary%20%3A%20Pharmacies&query_place_id=ChIJKQpr_I201okRYoPvGgHJ-zs",
    "searchPageUrl": "https://www.google.com/maps/search/independent%20pharmacy%20Rochester%20NY/@23.387855413655647,-164.49440022290355,13z?hl=en",
    "searchString": "independent pharmacy Rochester NY",
    "language": "en",
    "rank": 9,
    "isAdvertisement": false,
    "kgmid": "/g/12616p1dj"
  },
  {
    "title": "UR Medicine Pharmacy – Highland South Wedge Pharmacy",
    "price": null,
    "categoryName": "Pharmacy",
    "address": "777 S Clinton Ave, Rochester, NY 14620",
    "neighborhood": "Highland Park",
    "street": "777 S Clinton Ave",
    "city": "Rochester",
    "postalCode": "14620",
    "state": "New York",
    "countryCode": "US",
    "website": "https://www.urmc.rochester.edu/locations/hh-south-wedge-pharmacy",
    "phone": "(585) 279-4790",
    "phoneUnformatted": "+15852794790",
    "claimThisBusiness": false,
    "location": {
      "lat": 43.1420104,
      "lng": -77.5995352
    },
    "totalScore": 2,
    "permanentlyClosed": false,
    "temporarilyClosed": false,
    "placeId": "ChIJyzaPe5S11okRUe5ADlMmWgo",
    "categories": [
      "Pharmacy"
    ],
    "fid": "0x89d6b5947b8f36cb:0xa5a26530e40ee51",
    "cid": "745950826446515793",
    "reviewsCount": 9,
    "imagesCount": 1,
    "imageCategories": [],
    "scrapedAt": "2025-06-22T06:12:07.487Z",
    "googleFoodUrl": null,
    "hotelAds": [],
    "openingHours": [
      {
        "day": "Monday",
        "hours": "9 AM to 8 PM"
      },
      {
        "day": "Tuesday",
        "hours": "9 AM to 8 PM"
      },
      {
        "day": "Wednesday",
        "hours": "9 AM to 8 PM"
      },
      {
        "day": "Thursday",
        "hours": "9 AM to 8 PM"
      },
      {
        "day": "Friday",
        "hours": "9 AM to 6 PM"
      },
      {
        "day": "Saturday",
        "hours": "Closed"
      },
      {
        "day": "Sunday",
        "hours": "Closed"
      }
    ],
    "peopleAlsoSearch": [],
    "placesTags": [],
    "reviewsTags": [],
    "additionalInfo": {
      "Service options": [
        {
          "Delivery": true
        },
        {
          "Onsite services": true
        }
      ],
      "Accessibility": [
        {
          "Wheelchair accessible entrance": true
        },
        {
          "Wheelchair accessible parking lot": true
        }
      ],
      "Payments": [
        {
          "Credit cards": true
        }
      ]
    },
    "gasPrices": [],
    "url": "https://www.google.com/maps/search/?api=1&query=UR%20Medicine%20Pharmacy%20%E2%80%93%20Highland%20South%20Wedge%20Pharmacy&query_place_id=ChIJyzaPe5S11okRUe5ADlMmWgo",
    "searchPageUrl": "https://www.google.com/maps/search/independent%20pharmacy%20Rochester%20NY/@23.387855413655647,-164.49440022290355,13z?hl=en",
    "searchString": "independent pharmacy Rochester NY",
    "language": "en",
    "rank": 10,
    "isAdvertisement": false,
    "imageUrl": "https://streetviewpixels-pa.googleapis.com/v1/thumbnail?panoid=vY7HoDJ7gr-zFsQodI9mvQ&cb_client=search.gws-prod.gps&w=408&h=240&yaw=42.437042&pitch=0&thumbfov=100",
    "kgmid": "/g/11w566nl85"
  },
  {
    "title": "The General Apothecary",
    "price": null,
    "categoryName": "Pharmacy",
    "address": "1415 Portland Ave Suite 125, Rochester, NY 14621",
    "neighborhood": "Group 14621",
    "street": "1415 Portland Ave Suite 125",
    "city": "Rochester",
    "postalCode": "14621",
    "state": "New York",
    "countryCode": "US",
    "website": "https://www.rochesterregional.org/locations/pharmacy/rochester-general-mob?y_source=1_OTkwMTExMi03MTUtbG9jYXRpb24ud2Vic2l0ZQ%3D%3D",
    "phone": "(585) 922-3970",
    "phoneUnformatted": "+15859223970",
    "claimThisBusiness": false,
    "location": {
      "lat": 43.191844,
      "lng": -77.5876719
    },
    "totalScore": 4,
    "permanentlyClosed": false,
    "temporarilyClosed": false,
    "placeId": "ChIJzzgxdXW21okRje3Ek_8h9_o",
    "categories": [
      "Pharmacy"
    ],
    "fid": "0x89d6b675753138cf:0xfaf721ff93c4ed8d",
    "cid": "18083960210309049741",
    "reviewsCount": 21,
    "imagesCount": 5,
    "imageCategories": [],
    "scrapedAt": "2025-06-22T06:12:07.487Z",
    "googleFoodUrl": null,
    "hotelAds": [],
    "openingHours": [
      {
        "day": "Monday",
        "hours": "8 AM to 8 PM"
      },
      {
        "day": "Tuesday",
        "hours": "8 AM to 8 PM"
      },
      {
        "day": "Wednesday",
        "hours": "8 AM to 8 PM"
      },
      {
        "day": "Thursday",
        "hours": "8 AM to 8 PM"
      },
      {
        "day": "Friday",
        "hours": "8 AM to 8 PM"
      },
      {
        "day": "Saturday",
        "hours": "10 AM to 2 PM"
      },
      {
        "day": "Sunday",
        "hours": "10 AM to 2 PM"
      }
    ],
    "peopleAlsoSearch": [],
    "placesTags": [],
    "reviewsTags": [],
    "additionalInfo": {
      "Service options": [
        {
          "In-store pickup": true
        }
      ],
      "Accessibility": [
        {
          "Wheelchair accessible entrance": true
        },
        {
          "Wheelchair accessible parking lot": true
        },
        {
          "Wheelchair accessible restroom": true
        }
      ],
      "Crowd": [
        {
          "LGBTQ+ friendly": true
        }
      ],
      "Planning": [
        {
          "Accepts walk-ins": true
        }
      ],
      "Payments": [
        {
          "Credit cards": true
        },
        {
          "Debit cards": true
        },
        {
          "NFC mobile payments": true
        },
        {
          "Credit cards": true
        }
      ]
    },
    "gasPrices": [],
    "url": "https://www.google.com/maps/search/?api=1&query=The%20General%20Apothecary&query_place_id=ChIJzzgxdXW21okRje3Ek_8h9_o",
    "searchPageUrl": "https://www.google.com/maps/search/independent%20pharmacy%20Rochester%20NY/@23.387855413655647,-164.49440022290355,13z?hl=en",
    "searchString": "independent pharmacy Rochester NY",
    "language": "en",
    "rank": 11,
    "isAdvertisement": false,
    "imageUrl": "https://lh3.googleusercontent.com/p/AF1QipNW2QImBG23pyGcQ4JowmLj12pgzVhBiQBpNiOr=w426-h240-k-no",
    "kgmid": "/g/11b6lkxsh4"
  },
  {
    "title": "UR Medicine Pharmacy – Brooks Landing Pharmacy",
    "price": null,
    "categoryName": "Pharmacy",
    "address": "910 Genesee St Suite A, Rochester, NY 14611",
    "neighborhood": "Genesee-Jefferson",
    "street": "910 Genesee St Suite A",
    "city": "Rochester",
    "postalCode": "14611",
    "state": "New York",
    "countryCode": "US",
    "website": "https://www.urmc.rochester.edu/highland/departments-centers/pharmacy/brooks-landing-pharmacy.aspx",
    "phone": "(585) 602-1190",
    "phoneUnformatted": "+15856021190",
    "claimThisBusiness": false,
    "location": {
      "lat": 43.1318331,
      "lng": -77.6357587
    },
    "totalScore": 4.5,
    "permanentlyClosed": false,
    "temporarilyClosed": false,
    "placeId": "ChIJCfnVy9e11okR993WqtadWnI",
    "categories": [
      "Pharmacy"
    ],
    "fid": "0x89d6b5d7cbd5f909:0x725a9dd6aad6ddf7",
    "cid": "8240072013542514167",
    "reviewsCount": 4,
    "imagesCount": 1,
    "imageCategories": [],
    "scrapedAt": "2025-06-22T06:12:07.487Z",
    "googleFoodUrl": null,
    "hotelAds": [],
    "openingHours": [
      {
        "day": "Monday",
        "hours": "9 AM to 5 PM"
      },
      {
        "day": "Tuesday",
        "hours": "9 AM to 5 PM"
      },
      {
        "day": "Wednesday",
        "hours": "9 AM to 5 PM"
      },
      {
        "day": "Thursday",
        "hours": "9 AM to 5 PM"
      },
      {
        "day": "Friday",
        "hours": "9 AM to 5 PM"
      },
      {
        "day": "Saturday",
        "hours": "Closed"
      },
      {
        "day": "Sunday",
        "hours": "Closed"
      }
    ],
    "peopleAlsoSearch": [],
    "placesTags": [],
    "reviewsTags": [],
    "additionalInfo": {
      "Accessibility": [
        {
          "Wheelchair accessible entrance": true
        },
        {
          "Wheelchair accessible parking lot": true
        }
      ],
      "Payments": [
        {
          "Credit cards": true
        }
      ]
    },
    "gasPrices": [],
    "url": "https://www.google.com/maps/search/?api=1&query=UR%20Medicine%20Pharmacy%20%E2%80%93%20Brooks%20Landing%20Pharmacy&query_place_id=ChIJCfnVy9e11okR993WqtadWnI",
    "searchPageUrl": "https://www.google.com/maps/search/independent%20pharmacy%20Rochester%20NY/@23.387855413655647,-164.49440022290355,13z?hl=en",
    "searchString": "independent pharmacy Rochester NY",
    "language": "en",
    "rank": 12,
    "isAdvertisement": false,
    "imageUrl": "https://streetviewpixels-pa.googleapis.com/v1/thumbnail?panoid=eyiNMmCezko9WP5kf_NVYA&cb_client=search.gws-prod.gps&w=408&h=240&yaw=87.09664&pitch=0&thumbfov=100",
    "kgmid": "/g/11lv22_y44"
  },
  {
    "title": "Park Ridge Apothecary",
    "price": null,
    "categoryName": "Pharmacy",
    "address": "89 Genesee St # 2, Rochester, NY 14611",
    "neighborhood": "19th Ward",
    "street": "89 Genesee St # 2",
    "city": "Rochester",
    "postalCode": "14611",
    "state": "New York",
    "countryCode": "US",
    "website": "https://www.rochesterregional.org/locations/unity-hospital/pob/pharmacy",
    "phone": "(585) 368-6342",
    "phoneUnformatted": "+15853686342",
    "claimThisBusiness": true,
    "location": {
      "lat": 43.1484359,
      "lng": -77.637175
    },
    "permanentlyClosed": false,
    "temporarilyClosed": false,
    "placeId": "ChIJwb5JHY601okR41jOeYYsLUA",
    "categories": [
      "Pharmacy",
      "Home health care service",
      "Medical clinic"
    ],
    "fid": "0x89d6b48e1d49bec1:0x402d2c8679ce58e3",
    "cid": "4624401348460173539",
    "reviewsCount": 0,
    "imagesCount": null,
    "imageCategories": [],
    "scrapedAt": "2025-06-22T06:12:07.487Z",
    "googleFoodUrl": null,
    "hotelAds": [],
    "openingHours": [
      {
        "day": "Monday",
        "hours": "7 AM to 7 PM"
      },
      {
        "day": "Tuesday",
        "hours": "7 AM to 7 PM"
      },
      {
        "day": "Wednesday",
        "hours": "7 AM to 7 PM"
      },
      {
        "day": "Thursday",
        "hours": "7 AM to 7 PM"
      },
      {
        "day": "Friday",
        "hours": "7 AM to 7 PM"
      },
      {
        "day": "Saturday",
        "hours": "7 AM to 12 PM"
      },
      {
        "day": "Sunday",
        "hours": "Closed"
      }
    ],
    "peopleAlsoSearch": [],
    "placesTags": [],
    "reviewsTags": [],
    "additionalInfo": {
      "Accessibility": [
        {
          "Wheelchair accessible entrance": true
        },
        {
          "Wheelchair accessible parking lot": true
        },
        {
          "Wheelchair accessible restroom": true
        }
      ],
      "Amenities": [
        {
          "Restroom": true
        }
      ]
    },
    "gasPrices": [],
    "url": "https://www.google.com/maps/search/?api=1&query=Park%20Ridge%20Apothecary&query_place_id=ChIJwb5JHY601okR41jOeYYsLUA",
    "searchPageUrl": "https://www.google.com/maps/search/independent%20pharmacy%20Rochester%20NY/@23.387855413655647,-164.49440022290355,13z?hl=en",
    "searchString": "independent pharmacy Rochester NY",
    "language": "en",
    "rank": 13,
    "isAdvertisement": false,
    "kgmid": "/g/1tfc7lxd"
  },
  {
    "title": "Anthony L. Jordan Health Center – Pharmacy",
    "price": null,
    "categoryName": "Pharmacy",
    "address": "82 Holland St, Rochester, NY 14605",
    "neighborhood": "Upper Falls",
    "street": "82 Holland St",
    "city": "Rochester",
    "postalCode": "14605",
    "state": "New York",
    "countryCode": "US",
    "website": "http://www.jordanhealth.org/",
    "phone": "(585) 423-5802",
    "phoneUnformatted": "+15854235802",
    "claimThisBusiness": false,
    "location": {
      "lat": 43.1694347,
      "lng": -77.6020583
    },
    "totalScore": 4.7,
    "permanentlyClosed": false,
    "temporarilyClosed": false,
    "placeId": "ChIJIWTVHbS11okRRZrZrFG9oE4",
    "categories": [
      "Pharmacy"
    ],
    "fid": "0x89d6b5b41dd56421:0x4ea0bd51acd99a45",
    "cid": "5665736489722026565",
    "reviewsCount": 6,
    "imagesCount": 17,
    "imageCategories": [],
    "scrapedAt": "2025-06-22T06:12:07.487Z",
    "googleFoodUrl": null,
    "hotelAds": [],
    "openingHours": [
      {
        "day": "Monday",
        "hours": "8 AM to 12 PM, 1 to 5 PM"
      },
      {
        "day": "Tuesday",
        "hours": "8 AM to 12 PM, 1 to 5 PM"
      },
      {
        "day": "Wednesday",
        "hours": "8 AM to 12 PM, 1 to 5 PM"
      },
      {
        "day": "Thursday",
        "hours": "8 AM to 12 PM, 1 to 5 PM"
      },
      {
        "day": "Friday",
        "hours": "8 AM to 12 PM, 1 to 5 PM"
      },
      {
        "day": "Saturday",
        "hours": "Closed"
      },
      {
        "day": "Sunday",
        "hours": "Closed"
      }
    ],
    "peopleAlsoSearch": [],
    "placesTags": [],
    "reviewsTags": [],
    "additionalInfo": {
      "Service options": [
        {
          "In-store pickup": true
        },
        {
          "Same-day delivery": false
        }
      ],
      "Accessibility": [
        {
          "Wheelchair accessible entrance": true
        },
        {
          "Wheelchair accessible parking lot": true
        },
        {
          "Wheelchair accessible restroom": true
        },
        {
          "Wheelchair accessible seating": true
        }
      ],
      "Payments": [
        {
          "Credit cards": true
        }
      ]
    },
    "gasPrices": [],
    "url": "https://www.google.com/maps/search/?api=1&query=Anthony%20L.%20Jordan%20Health%20Center%20%E2%80%93%20Pharmacy&query_place_id=ChIJIWTVHbS11okRRZrZrFG9oE4",
    "searchPageUrl": "https://www.google.com/maps/search/independent%20pharmacy%20Rochester%20NY/@23.387855413655647,-164.49440022290355,13z?hl=en",
    "searchString": "independent pharmacy Rochester NY",
    "language": "en",
    "rank": 14,
    "isAdvertisement": false,
    "imageUrl": "https://lh3.googleusercontent.com/gps-cs-s/AC9h4np84ZsXkU-atZyxzLeZodTk0U3gJ3s6wsaHWP8G2PBWGt2iVI6WiX1aSTjrzplZ5iAoiXbQ9nnJ2OODu8lqEMnHdGpq5j4UhW8Yqsk12_oU9qYJarSpt0zsc5VYiwRVy3MOZgYN=w408-h306-k-no",
    "kgmid": "/g/1vh_9c34"
  },
  {
    "title": "UR Medicine Pharmacy – Strong Ties Outpatient Pharmacy",
    "price": null,
    "categoryName": "Pharmacy",
    "address": "2613 W Henrietta Rd Suite A, Rochester, NY 14623",
    "neighborhood": null,
    "street": "2613 W Henrietta Rd Suite A",
    "city": "Rochester",
    "postalCode": "14623",
    "state": "New York",
    "countryCode": "US",
    "website": "https://www.urmc.rochester.edu/locations/strong-ties-outpatient-pharmacy",
    "phone": "(585) 279-4950",
    "phoneUnformatted": "+15852794950",
    "claimThisBusiness": false,
    "location": {
      "lat": 43.0999802,
      "lng": -77.632935
    },
    "totalScore": 3.5,
    "permanentlyClosed": false,
    "temporarilyClosed": false,
    "placeId": "ChIJe1uIURVL0YkRGs1_eigWbhA",
    "categories": [
      "Pharmacy"
    ],
    "fid": "0x89d14b1551885b7b:0x106e16287a7fcd1a",
    "cid": "1183908115154717978",
    "reviewsCount": 4,
    "imagesCount": 1,
    "imageCategories": [],
    "scrapedAt": "2025-06-22T06:12:07.487Z",
    "googleFoodUrl": null,
    "hotelAds": [],
    "openingHours": [
      {
        "day": "Monday",
        "hours": "8 AM to 5 PM"
      },
      {
        "day": "Tuesday",
        "hours": "8 AM to 5 PM"
      },
      {
        "day": "Wednesday",
        "hours": "8 AM to 5 PM"
      },
      {
        "day": "Thursday",
        "hours": "8 AM to 5 PM"
      },
      {
        "day": "Friday",
        "hours": "8 AM to 5 PM"
      },
      {
        "day": "Saturday",
        "hours": "Closed"
      },
      {
        "day": "Sunday",
        "hours": "Closed"
      }
    ],
    "peopleAlsoSearch": [],
    "placesTags": [],
    "reviewsTags": [],
    "additionalInfo": {
      "Service options": [
        {
          "In-store pickup": true
        },
        {
          "Same-day delivery": false
        }
      ],
      "Accessibility": [
        {
          "Wheelchair accessible entrance": true
        },
        {
          "Wheelchair accessible parking lot": true
        },
        {
          "Wheelchair accessible restroom": true
        },
        {
          "Wheelchair accessible seating": true
        }
      ],
      "Offerings": [
        {
          "Medication disposal": true
        }
      ],
      "Payments": [
        {
          "Credit cards": true
        },
        {
          "Debit cards": true
        },
        {
          "NFC mobile payments": true
        },
        {
          "Credit cards": true
        }
      ]
    },
    "gasPrices": [],
    "url": "https://www.google.com/maps/search/?api=1&query=UR%20Medicine%20Pharmacy%20%E2%80%93%20Strong%20Ties%20Outpatient%20Pharmacy&query_place_id=ChIJe1uIURVL0YkRGs1_eigWbhA",
    "searchPageUrl": "https://www.google.com/maps/search/independent%20pharmacy%20Rochester%20NY/@23.387855413655647,-164.49440022290355,13z?hl=en",
    "searchString": "independent pharmacy Rochester NY",
    "language": "en",
    "rank": 15,
    "isAdvertisement": false,
    "imageUrl": "https://streetviewpixels-pa.googleapis.com/v1/thumbnail?panoid=1I8xTBvQl4glVRYaqrApcQ&cb_client=search.gws-prod.gps&w=408&h=240&yaw=272.09036&pitch=0&thumbfov=100",
    "kgmid": "/g/1tfcjrb6"
  },
  {
    "title": "HealthDirect Pharmacy Services",
    "price": null,
    "categoryName": "Pharmacy",
    "address": "250 Wallace Way, Rochester, NY 14624",
    "neighborhood": null,
    "street": "250 Wallace Way",
    "city": "Rochester",
    "postalCode": "14624",
    "state": "New York",
    "countryCode": "US",
    "website": "https://www.hdrxservices.com/location/rochester/",
    "phone": "(866) 582-8612",
    "phoneUnformatted": "+18665828612",
    "claimThisBusiness": false,
    "location": {
      "lat": 43.1526085,
      "lng": -77.743839
    },
    "totalScore": 5,
    "permanentlyClosed": false,
    "temporarilyClosed": false,
    "placeId": "ChIJjZRSW56y1okRuj64tm-9Z9E",
    "categories": [
      "Pharmacy"
    ],
    "fid": "0x89d6b29e5b52948d:0xd167bd6fb6b83eba",
    "cid": "15089237364032683706",
    "reviewsCount": 1,
    "imagesCount": 2,
    "imageCategories": [],
    "scrapedAt": "2025-06-22T06:12:07.487Z",
    "googleFoodUrl": null,
    "hotelAds": [],
    "openingHours": [
      {
        "day": "Monday",
        "hours": "8 AM to 8 PM"
      },
      {
        "day": "Tuesday",
        "hours": "8 AM to 8 PM"
      },
      {
        "day": "Wednesday",
        "hours": "8 AM to 8 PM"
      },
      {
        "day": "Thursday",
        "hours": "8 AM to 8 PM"
      },
      {
        "day": "Friday",
        "hours": "8 AM to 8 PM"
      },
      {
        "day": "Saturday",
        "hours": "8 AM to 5 PM"
      },
      {
        "day": "Sunday",
        "hours": "8 AM to 5 PM"
      }
    ],
    "peopleAlsoSearch": [],
    "placesTags": [],
    "reviewsTags": [],
    "additionalInfo": {
      "Service options": [
        {
          "Onsite services": true
        }
      ],
      "Accessibility": [
        {
          "Wheelchair accessible entrance": true
        },
        {
          "Wheelchair accessible parking lot": true
        }
      ],
      "Payments": [
        {
          "Credit cards": true
        }
      ]
    },
    "gasPrices": [],
    "url": "https://www.google.com/maps/search/?api=1&query=HealthDirect%20Pharmacy%20Services&query_place_id=ChIJjZRSW56y1okRuj64tm-9Z9E",
    "searchPageUrl": "https://www.google.com/maps/search/independent%20pharmacy%20Rochester%20NY/@23.387855413655647,-164.49440022290355,13z?hl=en",
    "searchString": "independent pharmacy Rochester NY",
    "language": "en",
    "rank": 16,
    "isAdvertisement": false,
    "imageUrl": "https://streetviewpixels-pa.googleapis.com/v1/thumbnail?panoid=1JpcRK3WtFx7_Y0nLzRBQg&cb_client=search.gws-prod.gps&w=408&h=240&yaw=180.0561&pitch=0&thumbfov=100",
    "kgmid": "/g/1261d932z"
  },
  {
    "title": "Trillium Health Pharmacy",
    "price": null,
    "categoryName": "Pharmacy",
    "address": "170 Science Pkwy, Rochester, NY 14620",
    "neighborhood": "Strong",
    "street": "170 Science Pkwy",
    "city": "Rochester",
    "postalCode": "14620",
    "state": "New York",
    "countryCode": "US",
    "website": "https://www.trilliumhealth.pharmacy/",
    "phone": "(585) 714-9000",
    "phoneUnformatted": "+15857149000",
    "claimThisBusiness": true,
    "location": {
      "lat": 43.1187128,
      "lng": -77.6123631
    },
    "totalScore": 3.9,
    "permanentlyClosed": false,
    "temporarilyClosed": false,
    "placeId": "ChIJCYAVv-AUtokR10nQldWiJ8s",
    "categories": [
      "Pharmacy",
      "Community health centre"
    ],
    "fid": "0x89b614e0bf158009:0xcb27a2d595d049d7",
    "cid": "14638848152016275927",
    "reviewsCount": 23,
    "imagesCount": 5,
    "imageCategories": [],
    "scrapedAt": "2025-06-22T06:12:07.487Z",
    "googleFoodUrl": null,
    "hotelAds": [],
    "openingHours": [
      {
        "day": "Monday",
        "hours": "9 AM to 5 PM"
      },
      {
        "day": "Tuesday",
        "hours": "9 AM to 5 PM"
      },
      {
        "day": "Wednesday",
        "hours": "9 AM to 5 PM"
      },
      {
        "day": "Thursday",
        "hours": "9 AM to 5 PM"
      },
      {
        "day": "Friday",
        "hours": "9 AM to 5 PM"
      },
      {
        "day": "Saturday",
        "hours": "Closed"
      },
      {
        "day": "Sunday",
        "hours": "Closed"
      }
    ],
    "peopleAlsoSearch": [],
    "placesTags": [],
    "reviewsTags": [],
    "additionalInfo": {
      "Service options": [
        {
          "Delivery": true
        }
      ],
      "Accessibility": [
        {
          "Wheelchair accessible entrance": true
        },
        {
          "Wheelchair accessible parking lot": true
        }
      ],
      "Payments": [
        {
          "Credit cards": true
        },
        {
          "Debit cards": true
        },
        {
          "NFC mobile payments": true
        },
        {
          "Offers free or low-cost care based on individual circumstances": true
        },
        {
          "Credit cards": true
        }
      ]
    },
    "gasPrices": [],
    "url": "https://www.google.com/maps/search/?api=1&query=Trillium%20Health%20Pharmacy&query_place_id=ChIJCYAVv-AUtokR10nQldWiJ8s",
    "searchPageUrl": "https://www.google.com/maps/search/independent%20pharmacy%20Rochester%20NY/@23.387855413655647,-164.49440022290355,13z?hl=en",
    "searchString": "independent pharmacy Rochester NY",
    "language": "en",
    "rank": 17,
    "isAdvertisement": false,
    "imageUrl": "https://lh3.googleusercontent.com/gps-cs-s/AC9h4nr2BOcEdf-CIDxFpRP4SuzICmZJ7LM1zOyM4hXqx3FYVfO5Yf4ABsjZY0nLGHqJRNHJRUoUCfWKULdHXzEoKPuMvA3He_oHcgDaKA7F1klN6oxmmDOi4ytzLtIrRk8YQUc9ahwb=w408-h544-k-no",
    "kgmid": "/g/11nfyft7bc"
  },
  {
    "title": "Metcare pharmacy",
    "price": null,
    "categoryName": "Pharmacy",
    "address": "322 Lake Ave, Rochester, NY 14608",
    "neighborhood": "Edgerton",
    "street": "322 Lake Ave",
    "city": "Rochester",
    "postalCode": "14608",
    "state": "New York",
    "countryCode": "US",
    "phone": "(585) 672-1700",
    "phoneUnformatted": "+15856721700",
    "claimThisBusiness": true,
    "location": {
      "lat": 43.1711427,
      "lng": -77.6269252
    },
    "totalScore": 3.6,
    "permanentlyClosed": false,
    "temporarilyClosed": false,
    "placeId": "ChIJ32v41kO01okR2eUReJ23y98",
    "categories": [
      "Pharmacy"
    ],
    "fid": "0x89d6b443d6f86bdf:0xdfcbb79d7811e5d9",
    "cid": "16126184777682380249",
    "reviewsCount": 8,
    "imagesCount": null,
    "imageCategories": [],
    "scrapedAt": "2025-06-22T06:12:07.487Z",
    "googleFoodUrl": null,
    "hotelAds": [],
    "openingHours": [
      {
        "day": "Monday",
        "hours": "9 AM to 5 PM"
      },
      {
        "day": "Tuesday",
        "hours": "9 AM to 5 PM"
      },
      {
        "day": "Wednesday",
        "hours": "9 AM to 5 PM"
      },
      {
        "day": "Thursday",
        "hours": "9 AM to 5 PM"
      },
      {
        "day": "Friday",
        "hours": "9 AM to 5 PM"
      },
      {
        "day": "Saturday",
        "hours": "Closed"
      },
      {
        "day": "Sunday",
        "hours": "Closed"
      }
    ],
    "peopleAlsoSearch": [],
    "placesTags": [],
    "reviewsTags": [],
    "additionalInfo": {
      "Service options": [
        {
          "Delivery": true
        }
      ],
      "Accessibility": [
        {
          "Wheelchair accessible parking lot": true
        }
      ],
      "Payments": [
        {
          "Debit cards": true
        },
        {
          "NFC mobile payments": true
        },
        {
          "Credit cards": true
        }
      ]
    },
    "gasPrices": [],
    "url": "https://www.google.com/maps/search/?api=1&query=Metcare%20pharmacy&query_place_id=ChIJ32v41kO01okR2eUReJ23y98",
    "searchPageUrl": "https://www.google.com/maps/search/independent%20pharmacy%20Rochester%20NY/@23.387855413655647,-164.49440022290355,13z?hl=en",
    "searchString": "independent pharmacy Rochester NY",
    "language": "en",
    "rank": 18,
    "isAdvertisement": false,
    "kgmid": "/g/1260n1zjq"
  },
  {
    "title": "RRH Pharmacy",
    "price": null,
    "categoryName": "Pharmacy",
    "address": "89 Genesee St, Rochester, NY 14611",
    "neighborhood": "19th Ward",
    "street": "89 Genesee St",
    "city": "Rochester",
    "postalCode": "14611",
    "state": "New York",
    "countryCode": "US",
    "website": "https://www.rochesterregional.org/services/pharmacies",
    "phone": "(585) 368-3928",
    "phoneUnformatted": "+15853683928",
    "claimThisBusiness": false,
    "location": {
      "lat": 43.1484359,
      "lng": -77.637175
    },
    "permanentlyClosed": false,
    "temporarilyClosed": false,
    "placeId": "ChIJr1GCdHO11okROjJDlQLzpRg",
    "categories": [
      "Pharmacy"
    ],
    "fid": "0x89d6b573748251af:0x18a5f3029543323a",
    "cid": "1776092820487221818",
    "reviewsCount": 0,
    "imagesCount": 4,
    "imageCategories": [],
    "scrapedAt": "2025-06-22T06:12:07.487Z",
    "googleFoodUrl": null,
    "hotelAds": [],
    "openingHours": [
      {
        "day": "Monday",
        "hours": "9 AM to 5 PM"
      },
      {
        "day": "Tuesday",
        "hours": "9 AM to 5 PM"
      },
      {
        "day": "Wednesday",
        "hours": "9 AM to 5 PM"
      },
      {
        "day": "Thursday",
        "hours": "9 AM to 5 PM"
      },
      {
        "day": "Friday",
        "hours": "9 AM to 5 PM"
      },
      {
        "day": "Saturday",
        "hours": "Closed"
      },
      {
        "day": "Sunday",
        "hours": "Closed"
      }
    ],
    "peopleAlsoSearch": [],
    "placesTags": [],
    "reviewsTags": [],
    "additionalInfo": {
      "Accessibility": [
        {
          "Wheelchair accessible entrance": true
        },
        {
          "Wheelchair accessible parking lot": true
        },
        {
          "Wheelchair accessible restroom": true
        }
      ],
      "Crowd": [
        {
          "LGBTQ+ friendly": true
        }
      ],
      "Planning": [
        {
          "Accepts walk-ins": true
        }
      ],
      "Payments": [
        {
          "Credit cards": true
        }
      ]
    },
    "gasPrices": [],
    "url": "https://www.google.com/maps/search/?api=1&query=RRH%20Pharmacy&query_place_id=ChIJr1GCdHO11okROjJDlQLzpRg",
    "searchPageUrl": "https://www.google.com/maps/search/independent%20pharmacy%20Rochester%20NY/@23.387855413655647,-164.49440022290355,13z?hl=en",
    "searchString": "independent pharmacy Rochester NY",
    "language": "en",
    "rank": 19,
    "isAdvertisement": false,
    "imageUrl": "https://lh3.googleusercontent.com/p/AF1QipPKpBdenfU3EJIbOmku2VVs1LFi4x2YbGrR-VFp=w426-h240-k-no",
    "kgmid": "/g/11gtytdn61"
  },
  {
    "title": "Omnicare Inc",
    "price": null,
    "categoryName": "Pharmacy",
    "address": "175 Humboldt St # 225, Rochester, NY 14610",
    "neighborhood": "Culver-Winton-Main",
    "street": "175 Humboldt St # 225",
    "city": "Rochester",
    "postalCode": "14610",
    "state": "New York",
    "countryCode": "US",
    "website": "https://www.omnicare.com/",
    "phone": "(585) 482-4978",
    "phoneUnformatted": "+15854824978",
    "claimThisBusiness": true,
    "location": {
      "lat": 43.1527863,
      "lng": -77.5650998
    },
    "totalScore": 1,
    "permanentlyClosed": false,
    "temporarilyClosed": false,
    "placeId": "ChIJU6CTv3_K1okRd6OtdTlqM6A",
    "categories": [
      "Pharmacy"
    ],
    "fid": "0x89d6ca7fbf93a053:0xa0336a3975ada377",
    "cid": "11543687064900707191",
    "reviewsCount": 1,
    "imagesCount": null,
    "imageCategories": [],
    "scrapedAt": "2025-06-22T06:12:07.488Z",
    "googleFoodUrl": null,
    "hotelAds": [],
    "openingHours": [
      {
        "day": "Monday",
        "hours": "8 AM to 9 PM"
      },
      {
        "day": "Tuesday",
        "hours": "8 AM to 9 PM"
      },
      {
        "day": "Wednesday",
        "hours": "8 AM to 9 PM"
      },
      {
        "day": "Thursday",
        "hours": "8 AM to 9 PM"
      },
      {
        "day": "Friday",
        "hours": "8 AM to 9 PM"
      },
      {
        "day": "Saturday",
        "hours": "8 AM to 9 PM"
      },
      {
        "day": "Sunday",
        "hours": "8 AM to 9 PM"
      }
    ],
    "peopleAlsoSearch": [],
    "placesTags": [],
    "reviewsTags": [],
    "additionalInfo": {
      "Accessibility": [
        {
          "Wheelchair accessible entrance": true
        },
        {
          "Wheelchair accessible parking lot": true
        }
      ]
    },
    "gasPrices": [],
    "url": "https://www.google.com/maps/search/?api=1&query=Omnicare%20Inc&query_place_id=ChIJU6CTv3_K1okRd6OtdTlqM6A",
    "searchPageUrl": "https://www.google.com/maps/search/independent%20pharmacy%20Rochester%20NY/@23.387855413655647,-164.49440022290355,13z?hl=en",
    "searchString": "independent pharmacy Rochester NY",
    "language": "en",
    "rank": 20,
    "isAdvertisement": false,
    "kgmid": "/g/1tcv2fl9"
  }
]