[
  {
    "title": "Community Pharmacy East-side",
    "price": null,
    "categoryName": "Pharmacy",
    "address": "130 S Fair Oaks Ave, Madison, WI 53704",
    "neighborhood": "Starkweather",
    "street": "130 S Fair Oaks Ave",
    "city": "Madison",
    "postalCode": "53704",
    "state": "Wisconsin",
    "countryCode": "US",
    "website": "https://communitypharmacy.coop/",
    "phone": "(608) 251-3242",
    "phoneUnformatted": "+16082513242",
    "claimThisBusiness": false,
    "location": {
      "lat": 43.0968089,
      "lng": -89.3373471
    },
    "totalScore": 4.5,
    "permanentlyClosed": false,
    "temporarilyClosed": false,
    "placeId": "ChIJz6NTSTZTBogRf57Sp9XsQC8",
    "categories": [
      "Pharmacy",
      "Vitamin & supplements store"
    ],
    "fid": "0x880653364953a3cf:0x2f40ecd5a7d29e7f",
    "cid": "3404981720679882367",
    "reviewsCount": 149,
    "imagesCount": 30,
    "imageCategories": [],
    "scrapedAt": "2025-06-23T05:35:37.145Z",
    "googleFoodUrl": null,
    "hotelAds": [],
    "openingHours": [
      {
        "day": "Monday",
        "hours": "10 AM to 6 PM"
      },
      {
        "day": "Tuesday",
        "hours": "10 AM to 6 PM"
      },
      {
        "day": "Wednesday",
        "hours": "10 AM to 6 PM"
      },
      {
        "day": "Thursday",
        "hours": "10 AM to 6 PM"
      },
      {
        "day": "Friday",
        "hours": "10 AM to 6 PM"
      },
      {
        "day": "Saturday",
        "hours": "10 AM to 5 PM"
      },
      {
        "day": "Sunday",
        "hours": "Closed"
      }
    ],
    "peopleAlsoSearch": [],
    "placesTags": [],
    "reviewsTags": [],
    "additionalInfo": {
      "From the business": [
        {
          "Small business": true
        }
      ],
      "Service options": [
        {
          "In-store pickup": true
        },
        {
          "In-store shopping": true
        },
        {
          "Onsite services": true
        }
      ],
      "Accessibility": [
        {
          "Wheelchair accessible entrance": true
        },
        {
          "Wheelchair accessible parking lot": true
        }
      ],
      "Amenities": [
        {
          "Wi-Fi": true
        },
        {
          "Free Wi-Fi": true
        }
      ],
      "Crowd": [
        {
          "LGBTQ+ friendly": true
        },
        {
          "Transgender safespace": true
        }
      ],
      "Planning": [
        {
          "Quick visit": true
        }
      ],
      "Payments": [
        {
          "Credit cards": true
        },
        {
          "Debit cards": true
        },
        {
          "NFC mobile payments": true
        },
        {
          "Credit cards": true
        }
      ],
      "Children": [
        {
          "Nursing room": true
        }
      ],
      "Parking": [
        {
          "Free parking lot": true
        },
        {
          "Free street parking": true
        }
      ]
    },
    "gasPrices": [],
    "url": "https://www.google.com/maps/search/?api=1&query=Community%20Pharmacy%20East-side&query_place_id=ChIJz6NTSTZTBogRf57Sp9XsQC8",
    "searchPageUrl": "https://www.google.com/maps/search/independent%20pharmacy%20in%20Madison,%20WI/@63.722816697794386,-171.05976325039822,11z?hl=en",
    "searchString": "independent pharmacy in Madison, WI",
    "language": "en",
    "rank": 1,
    "isAdvertisement": false,
    "imageUrl": "https://lh3.googleusercontent.com/p/AF1QipPiRJIA-38XlaN4mHYhW6563KHCj8LKms8VZj4V=w408-h272-k-no",
    "kgmid": "/g/1tf5l6pq"
  },
  {
    "title": "Neuhauser Pharmacy",
    "price": null,
    "categoryName": "Pharmacy",
    "address": "1875 Monroe St, Madison, WI 53711",
    "neighborhood": "Vilas",
    "street": "1875 Monroe St",
    "city": "Madison",
    "postalCode": "53711",
    "state": "Wisconsin",
    "countryCode": "US",
    "website": "http://www.neuhauserpharmacy.com/",
    "phone": "(608) 256-8712",
    "phoneUnformatted": "+16082568712",
    "claimThisBusiness": false,
    "location": {
      "lat": 43.0645903,
      "lng": -89.4172241
    },
    "totalScore": 4.9,
    "permanentlyClosed": false,
    "temporarilyClosed": false,
    "placeId": "ChIJz4vefN2sB4gRx_UdzXqDfyg",
    "categories": [
      "Pharmacy",
      "Fax service",
      "Greeting card shop",
      "School supply store"
    ],
    "fid": "0x8807acdd7cde8bcf:0x287f837acd1df5c7",
    "cid": "2918195647009912263",
    "reviewsCount": 27,
    "imagesCount": 16,
    "imageCategories": [],
    "scrapedAt": "2025-06-23T05:35:37.146Z",
    "googleFoodUrl": null,
    "hotelAds": [],
    "openingHours": [
      {
        "day": "Monday",
        "hours": "9 AM to 6 PM"
      },
      {
        "day": "Tuesday",
        "hours": "9 AM to 6 PM"
      },
      {
        "day": "Wednesday",
        "hours": "9 AM to 6 PM"
      },
      {
        "day": "Thursday",
        "hours": "9 AM to 6 PM"
      },
      {
        "day": "Friday",
        "hours": "9 AM to 6 PM"
      },
      {
        "day": "Saturday",
        "hours": "9 AM to 3 PM"
      },
      {
        "day": "Sunday",
        "hours": "Closed"
      }
    ],
    "peopleAlsoSearch": [],
    "placesTags": [],
    "reviewsTags": [],
    "additionalInfo": {
      "From the business": [
        {
          "Small business": true
        }
      ],
      "Service options": [
        {
          "Curbside pickup": true
        },
        {
          "Delivery": true
        },
        {
          "In-store pickup": true
        }
      ],
      "Accessibility": [
        {
          "Wheelchair accessible entrance": true
        },
        {
          "Wheelchair accessible parking lot": true
        }
      ],
      "Planning": [
        {
          "Quick visit": true
        }
      ],
      "Payments": [
        {
          "Checks": true
        },
        {
          "Credit cards": true
        },
        {
          "Debit cards": true
        },
        {
          "NFC mobile payments": true
        },
        {
          "Credit cards": true
        }
      ],
      "Parking": [
        {
          "Free parking lot": true
        },
        {
          "Paid street parking": true
        }
      ]
    },
    "gasPrices": [],
    "url": "https://www.google.com/maps/search/?api=1&query=Neuhauser%20Pharmacy&query_place_id=ChIJz4vefN2sB4gRx_UdzXqDfyg",
    "searchPageUrl": "https://www.google.com/maps/search/independent%20pharmacy%20in%20Madison,%20WI/@63.722816697794386,-171.05976325039822,11z?hl=en",
    "searchString": "independent pharmacy in Madison, WI",
    "language": "en",
    "rank": 2,
    "isAdvertisement": false,
    "imageUrl": "https://lh3.googleusercontent.com/gps-cs-s/AC9h4nodVMexFGUB8xwTlBKJl6LcFOVa9_uEXwkjD58hs_60GOudKbpR_rIQek4BVOP_Z2uSnWsxMeAgS4RH5SGKGE4wKubt9UviXA6R3phUnghGnJ4RFGstDIl8GjVuEjg850CUPWIx=w408-h582-k-no",
    "kgmid": "/g/1w112ry3"
  },
  {
    "title": "Modern Health Pharmacy",
    "price": null,
    "categoryName": "Pharmacy",
    "address": "2809 Fish Hatchery Rd, Fitchburg, WI 53713",
    "neighborhood": null,
    "street": "2809 Fish Hatchery Rd",
    "city": "Fitchburg",
    "postalCode": "53713",
    "state": "Wisconsin",
    "countryCode": "US",
    "website": "http://www.modernhealth-rx.com/",
    "phone": "(608) 515-5151",
    "phoneUnformatted": "+16085155151",
    "claimThisBusiness": false,
    "location": {
      "lat": 43.0309258,
      "lng": -89.4085695
    },
    "totalScore": 5,
    "permanentlyClosed": false,
    "temporarilyClosed": false,
    "placeId": "ChIJVUEz3K-tB4gRPO2zn11oK6w",
    "categories": [
      "Pharmacy"
    ],
    "fid": "0x8807adafdc334155:0xac2b685d9fb3ed3c",
    "cid": "12406124349842779452",
    "reviewsCount": 24,
    "imagesCount": 6,
    "imageCategories": [],
    "scrapedAt": "2025-06-23T05:35:37.146Z",
    "googleFoodUrl": null,
    "hotelAds": [],
    "openingHours": [
      {
        "day": "Monday",
        "hours": "9 AM to 4:30 PM"
      },
      {
        "day": "Tuesday",
        "hours": "9 AM to 4:30 PM"
      },
      {
        "day": "Wednesday",
        "hours": "9 AM to 4:30 PM"
      },
      {
        "day": "Thursday",
        "hours": "9 AM to 4:30 PM"
      },
      {
        "day": "Friday",
        "hours": "9 AM to 1 PM"
      },
      {
        "day": "Saturday",
        "hours": "Closed"
      },
      {
        "day": "Sunday",
        "hours": "Closed"
      }
    ],
    "peopleAlsoSearch": [],
    "placesTags": [],
    "reviewsTags": [],
    "additionalInfo": {
      "From the business": [
        {
          "Small business": true
        }
      ],
      "Service options": [
        {
          "Delivery": true
        },
        {
          "In-store pickup": true
        },
        {
          "In-store shopping": true
        }
      ],
      "Accessibility": [
        {
          "Wheelchair accessible entrance": true
        },
        {
          "Wheelchair accessible parking lot": true
        }
      ],
      "Payments": [
        {
          "Credit cards": true
        },
        {
          "Debit cards": true
        },
        {
          "Credit cards": true
        }
      ]
    },
    "gasPrices": [],
    "url": "https://www.google.com/maps/search/?api=1&query=Modern%20Health%20Pharmacy&query_place_id=ChIJVUEz3K-tB4gRPO2zn11oK6w",
    "searchPageUrl": "https://www.google.com/maps/search/independent%20pharmacy%20in%20Madison,%20WI/@63.722816697794386,-171.05976325039822,11z?hl=en",
    "searchString": "independent pharmacy in Madison, WI",
    "language": "en",
    "rank": 3,
    "isAdvertisement": false,
    "imageUrl": "https://lh3.googleusercontent.com/p/AF1QipN4JZ21FVL889jNUHS2asbkuYk8gtHTh-4HXeBc=w408-h306-k-no",
    "kgmid": "/g/11rw949yfr"
  },
  {
    "title": "Willow Pharmacy Inc",
    "price": null,
    "categoryName": "Pharmacy",
    "address": "2445 Darwin Rd #102, Madison, WI 53704",
    "neighborhood": null,
    "street": "2445 Darwin Rd #102",
    "city": "Madison",
    "postalCode": "53704",
    "state": "Wisconsin",
    "countryCode": "US",
    "website": "http://willowpharmacy.com/",
    "phone": "(608) 240-2280",
    "phoneUnformatted": "+16082402280",
    "claimThisBusiness": true,
    "location": {
      "lat": 43.1283233,
      "lng": -89.3497094
    },
    "totalScore": 4.6,
    "permanentlyClosed": false,
    "temporarilyClosed": false,
    "placeId": "ChIJ-4eB0k9UBogRR6YZpFDIJ20",
    "categories": [
      "Pharmacy"
    ],
    "fid": "0x8806544fd28187fb:0x6d27c850a419a647",
    "cid": "7865475522901943879",
    "reviewsCount": 5,
    "imagesCount": 1,
    "imageCategories": [],
    "scrapedAt": "2025-06-23T05:35:37.147Z",
    "googleFoodUrl": null,
    "hotelAds": [],
    "openingHours": [
      {
        "day": "Monday",
        "hours": "8 AM to 5 PM"
      },
      {
        "day": "Tuesday",
        "hours": "8 AM to 5 PM"
      },
      {
        "day": "Wednesday",
        "hours": "8 AM to 5 PM"
      },
      {
        "day": "Thursday",
        "hours": "8 AM to 5 PM"
      },
      {
        "day": "Friday",
        "hours": "8 AM to 5 PM"
      },
      {
        "day": "Saturday",
        "hours": "9 AM to 12 PM"
      },
      {
        "day": "Sunday",
        "hours": "Closed"
      }
    ],
    "peopleAlsoSearch": [],
    "placesTags": [],
    "reviewsTags": [],
    "additionalInfo": {
      "Accessibility": [
        {
          "Wheelchair accessible entrance": true
        },
        {
          "Wheelchair accessible parking lot": true
        }
      ],
      "Payments": [
        {
          "Debit cards": true
        },
        {
          "Credit cards": true
        }
      ]
    },
    "gasPrices": [],
    "url": "https://www.google.com/maps/search/?api=1&query=Willow%20Pharmacy%20Inc&query_place_id=ChIJ-4eB0k9UBogRR6YZpFDIJ20",
    "searchPageUrl": "https://www.google.com/maps/search/independent%20pharmacy%20in%20Madison,%20WI/@63.722816697794386,-171.05976325039822,11z?hl=en",
    "searchString": "independent pharmacy in Madison, WI",
    "language": "en",
    "rank": 4,
    "isAdvertisement": false,
    "imageUrl": "https://streetviewpixels-pa.googleapis.com/v1/thumbnail?panoid=ZgFu7ouu2MPNM2Vl4wC21w&cb_client=search.gws-prod.gps&w=408&h=240&yaw=176.53574&pitch=0&thumbfov=100",
    "kgmid": "/g/1tfk4_vj"
  },
  {
    "title": "Belmar Pharmacy (formerly Women's International Pharmacy)",
    "price": null,
    "categoryName": "Pharmacy",
    "address": "2 Marsh Ct, Madison, WI 53718",
    "neighborhood": null,
    "street": "2 Marsh Ct",
    "city": "Madison",
    "postalCode": "53718",
    "state": "Wisconsin",
    "countryCode": "US",
    "website": "http://belmarpharmacy.com/",
    "phone": "(608) 221-7800",
    "phoneUnformatted": "+16082217800",
    "claimThisBusiness": false,
    "location": {
      "lat": 43.0522749,
      "lng": -89.2874954
    },
    "totalScore": 3.3,
    "permanentlyClosed": false,
    "temporarilyClosed": false,
    "placeId": "ChIJ9ezQmKtRBogRxTyAQtvxkDI",
    "categories": [
      "Pharmacy"
    ],
    "fid": "0x880651ab98d0ecf5:0x3290f1db42803cc5",
    "cid": "3643678022558563525",
    "reviewsCount": 42,
    "imagesCount": 7,
    "imageCategories": [],
    "scrapedAt": "2025-06-23T05:35:37.147Z",
    "googleFoodUrl": null,
    "hotelAds": [],
    "openingHours": [
      {
        "day": "Monday",
        "hours": "8 AM to 6 PM"
      },
      {
        "day": "Tuesday",
        "hours": "8 AM to 6 PM"
      },
      {
        "day": "Wednesday",
        "hours": "8 AM to 6 PM"
      },
      {
        "day": "Thursday",
        "hours": "8 AM to 6 PM"
      },
      {
        "day": "Friday",
        "hours": "8 AM to 6 PM"
      },
      {
        "day": "Saturday",
        "hours": "Closed"
      },
      {
        "day": "Sunday",
        "hours": "Closed"
      }
    ],
    "peopleAlsoSearch": [],
    "placesTags": [],
    "reviewsTags": [],
    "additionalInfo": {
      "Service options": [
        {
          "Delivery": true
        },
        {
          "In-store pickup": true
        }
      ],
      "Accessibility": [
        {
          "Wheelchair accessible entrance": true
        },
        {
          "Wheelchair accessible parking lot": true
        }
      ],
      "Payments": [
        {
          "Checks": true
        },
        {
          "Credit cards": true
        },
        {
          "Debit cards": true
        },
        {
          "Credit cards": true
        }
      ]
    },
    "gasPrices": [],
    "url": "https://www.google.com/maps/search/?api=1&query=Belmar%20Pharmacy%20(formerly%20Women's%20International%20Pharmacy)&query_place_id=ChIJ9ezQmKtRBogRxTyAQtvxkDI",
    "searchPageUrl": "https://www.google.com/maps/search/independent%20pharmacy%20in%20Madison,%20WI/@63.722816697794386,-171.05976325039822,11z?hl=en",
    "searchString": "independent pharmacy in Madison, WI",
    "language": "en",
    "rank": 5,
    "isAdvertisement": false,
    "imageUrl": "https://lh3.googleusercontent.com/p/AF1QipNm5iPGP5FtDiQX0BSD2Rlto40oRJ-AUTkzTrMO=w408-h408-k-no",
    "kgmid": "/g/1vd76h7r"
  },
  {
    "title": "Hoey Apothecary",
    "price": null,
    "categoryName": "Pharmacy",
    "address": "4002 Monona Dr, Madison, WI 53716",
    "neighborhood": null,
    "street": "4002 Monona Dr",
    "city": "Madison",
    "postalCode": "53716",
    "state": "Wisconsin",
    "countryCode": "US",
    "website": "http://www.hoeyrx.com/",
    "phone": "(608) 221-4639",
    "phoneUnformatted": "+16082214639",
    "claimThisBusiness": false,
    "location": {
      "lat": 43.0825409,
      "lng": -89.3242523
    },
    "totalScore": 4.5,
    "permanentlyClosed": false,
    "temporarilyClosed": false,
    "placeId": "ChIJ8_1jIi1aBogR5JHVPrOhqIQ",
    "categories": [
      "Pharmacy",
      "Vitamin & supplements store"
    ],
    "fid": "0x88065a2d2263fdf3:0x84a8a1b33ed591e4",
    "cid": "9559068000319279588",
    "reviewsCount": 122,
    "imagesCount": 35,
    "imageCategories": [],
    "scrapedAt": "2025-06-23T05:35:37.147Z",
    "googleFoodUrl": null,
    "hotelAds": [],
    "openingHours": [
      {
        "day": "Monday",
        "hours": "10 AM to 6 PM"
      },
      {
        "day": "Tuesday",
        "hours": "10 AM to 6 PM"
      },
      {
        "day": "Wednesday",
        "hours": "10 AM to 6 PM"
      },
      {
        "day": "Thursday",
        "hours": "10 AM to 6 PM"
      },
      {
        "day": "Friday",
        "hours": "10 AM to 6 PM"
      },
      {
        "day": "Saturday",
        "hours": "9 AM to 1 PM"
      },
      {
        "day": "Sunday",
        "hours": "Closed"
      }
    ],
    "peopleAlsoSearch": [],
    "placesTags": [],
    "reviewsTags": [],
    "additionalInfo": {
      "From the business": [
        {
          "Small business": true
        }
      ],
      "Service options": [
        {
          "Curbside pickup": true
        },
        {
          "In-store pickup": true
        },
        {
          "In-store shopping": true
        },
        {
          "Onsite services": true
        }
      ],
      "Accessibility": [
        {
          "Wheelchair accessible entrance": true
        },
        {
          "Wheelchair accessible parking lot": true
        },
        {
          "Wheelchair accessible restroom": true
        }
      ],
      "Amenities": [
        {
          "Gender-neutral restroom": true
        },
        {
          "Wi-Fi": true
        },
        {
          "Free Wi-Fi": true
        }
      ],
      "Planning": [
        {
          "Quick visit": true
        }
      ],
      "Payments": [
        {
          "Credit cards": true
        },
        {
          "Debit cards": true
        },
        {
          "NFC mobile payments": true
        },
        {
          "Credit cards": true
        }
      ]
    },
    "gasPrices": [],
    "url": "https://www.google.com/maps/search/?api=1&query=Hoey%20Apothecary&query_place_id=ChIJ8_1jIi1aBogR5JHVPrOhqIQ",
    "searchPageUrl": "https://www.google.com/maps/search/independent%20pharmacy%20in%20Madison,%20WI/@63.722816697794386,-171.05976325039822,11z?hl=en",
    "searchString": "independent pharmacy in Madison, WI",
    "language": "en",
    "rank": 6,
    "isAdvertisement": false,
    "imageUrl": "https://lh3.googleusercontent.com/gps-cs-s/AC9h4nr6ObmeEUDUq9maHQpktcxkmWRVkmK_nbLT5vQEgkSxG0psKggi42GpuW7hPaz8P_3Ke-2fU5rmeyOQaDYgbsXDa3kVLDDFhNOgmUOsWWxEzaoOgw_lfKVf-S8wbFXPdUEyGYE=w408-h272-k-no",
    "kgmid": "/g/113hp8qhv"
  },
  {
    "title": "Martin Beth A",
    "price": null,
    "categoryName": "Pharmacy",
    "address": "777 Highland Ave, Madison, WI 53705, United States",
    "neighborhood": null,
    "street": "777 Highland Ave",
    "city": "Madison",
    "postalCode": "53705",
    "state": "Wisconsin",
    "countryCode": "US",
    "website": "https://apps.pharmacy.wisc.edu/sopdir/beth_martin/index.php",
    "phone": "+1 608-265-4667",
    "phoneUnformatted": "+16082654667",
    "claimThisBusiness": true,
    "location": {
      "lat": 43.0785796,
      "lng": -89.4282377
    },
    "permanentlyClosed": false,
    "temporarilyClosed": false,
    "placeId": "ChIJOXvkLI2sB4gRXGK7p-2j0As",
    "categories": [
      "Pharmacy"
    ],
    "fid": "0x8807ac8d2ce47b39:0xbd0a3eda7bb625c",
    "cid": "851360570689675868",
    "reviewsCount": 0,
    "imagesCount": null,
    "imageCategories": [],
    "scrapedAt": "2025-06-23T05:35:47.793Z",
    "googleFoodUrl": null,
    "hotelAds": [],
    "openingHours": [],
    "peopleAlsoSearch": [],
    "placesTags": [],
    "reviewsTags": [],
    "additionalInfo": {
      "Accessibility": [
        {
          "Wheelchair-accessible car park": true
        },
        {
          "Wheelchair-accessible entrance": true
        }
      ]
    },
    "gasPrices": [],
    "url": "https://www.google.com/maps/search/?api=1&query=Martin%20Beth%20A&query_place_id=ChIJOXvkLI2sB4gRXGK7p-2j0As",
    "searchPageUrl": "https://www.google.com/maps/search/independent%20pharmacy%20in%20Madison,%20WI/@57.40072944694004,-135.84852618621275,9z?hl=en",
    "searchString": "independent pharmacy in Madison, WI",
    "language": "en",
    "rank": 7,
    "isAdvertisement": false,
    "kgmid": "/g/1tqtb7mq"
  },
  {
    "title": "St. Vincent de Paul Charitable Pharmacy",
    "price": null,
    "categoryName": "Pharmacy",
    "address": "2033 Fish Hatchery Rd, Madison, WI 53713, United States",
    "neighborhood": null,
    "street": "2033 Fish Hatchery Rd",
    "city": "Madison",
    "postalCode": "53713",
    "state": "Wisconsin",
    "countryCode": "US",
    "website": "https://svdpmadison.org/program/pharmacy/",
    "phone": "+1 608-268-0355",
    "phoneUnformatted": "+16082680355",
    "claimThisBusiness": false,
    "location": {
      "lat": 43.0431517,
      "lng": -89.4031755
    },
    "totalScore": 5,
    "permanentlyClosed": false,
    "temporarilyClosed": false,
    "placeId": "ChIJET4Uys-tB4gRgTLhg8QgZa4",
    "categories": [
      "Pharmacy"
    ],
    "fid": "0x8807adcfca143e11:0xae6520c483e13281",
    "cid": "12566486363645489793",
    "reviewsCount": 5,
    "imagesCount": 6,
    "imageCategories": [],
    "scrapedAt": "2025-06-23T05:35:47.793Z",
    "googleFoodUrl": null,
    "hotelAds": [],
    "openingHours": [
      {
        "day": "Monday",
        "hours": "11 AM to 2 PM"
      },
      {
        "day": "Tuesday",
        "hours": "1 to 4 PM"
      },
      {
        "day": "Wednesday",
        "hours": "Closed"
      },
      {
        "day": "Thursday",
        "hours": "10 AM to 6 PM"
      },
      {
        "day": "Friday",
        "hours": "Closed"
      },
      {
        "day": "Saturday",
        "hours": "Closed"
      },
      {
        "day": "Sunday",
        "hours": "Closed"
      }
    ],
    "peopleAlsoSearch": [],
    "placesTags": [],
    "reviewsTags": [],
    "additionalInfo": {
      "Service options": [
        {
          "Kerbside pickup": true
        },
        {
          "On-site services": true
        },
        {
          "Delivery": false
        },
        {
          "In-store shopping": false
        },
        {
          "Same-day delivery": false
        },
        {
          "English": true
        }
      ],
      "Accessibility": [
        {
          "Wheelchair-accessible car park": true
        },
        {
          "Wheelchair-accessible entrance": true
        },
        {
          "Wheelchair-accessible seating": true
        },
        {
          "Wheelchair-accessible toilet": true
        }
      ],
      "Amenities": [
        {
          "Wi-Fi": true
        },
        {
          "Free Wi-Fi": true
        }
      ],
      "Crowd": [
        {
          "LGBTQ+ friendly": true
        },
        {
          "Transgender safe space": true
        }
      ],
      "Planning": [
        {
          "Appointment required": true
        }
      ],
      "Parking": [
        {
          "Free parking lot": true
        },
        {
          "On-site parking": true
        }
      ]
    },
    "gasPrices": [],
    "url": "https://www.google.com/maps/search/?api=1&query=St.%20Vincent%20de%20Paul%20Charitable%20Pharmacy&query_place_id=ChIJET4Uys-tB4gRgTLhg8QgZa4",
    "searchPageUrl": "https://www.google.com/maps/search/independent%20pharmacy%20in%20Madison,%20WI/@57.40072944694004,-135.84852618621275,9z?hl=en",
    "searchString": "independent pharmacy in Madison, WI",
    "language": "en",
    "rank": 8,
    "isAdvertisement": false,
    "imageUrl": "https://lh3.googleusercontent.com/p/AF1QipMFapPE-P90yvbTdstwK1NFKeGzU7vLm8dMekNh=w408-h272-k-no",
    "kgmid": "/g/11flgdwsxj"
  },
  {
    "title": "Walgreens Pharmacy",
    "description": "Department of the Walgreens chain providing prescription medications & other health-related items.",
    "price": "€€",
    "categoryName": "Pharmacy",
    "address": "7810 Mineral Point Rd, Madison, WI 53717, United States",
    "neighborhood": null,
    "street": "7810 Mineral Point Rd",
    "city": "Madison",
    "postalCode": "53717",
    "state": "Wisconsin",
    "countryCode": "US",
    "website": "https://www.walgreens.com/locator/walgreens-7810+mineral+point+rd-madison-wi-53717/id=3343",
    "phone": "+1 608-833-1222",
    "phoneUnformatted": "+16088331222",
    "claimThisBusiness": false,
    "location": {
      "lat": 43.0613777,
      "lng": -89.5179234
    },
    "totalScore": 3,
    "permanentlyClosed": false,
    "temporarilyClosed": false,
    "placeId": "ChIJybNvlgavB4gRPFr_YqCuJ_8",
    "categories": [
      "Pharmacy"
    ],
    "fid": "0x8807af06966fb3c9:0xff27aea062ff5a3c",
    "cid": "18385856007642241596",
    "reviewsCount": 29,
    "imagesCount": 5,
    "imageCategories": [],
    "scrapedAt": "2025-06-23T05:35:47.793Z",
    "googleFoodUrl": null,
    "hotelAds": [],
    "openingHours": [
      {
        "day": "Monday",
        "hours": "2 AM to 1:30 am"
      },
      {
        "day": "Tuesday",
        "hours": "2 AM to 1:30 am"
      },
      {
        "day": "Wednesday",
        "hours": "2 AM to 1:30 am"
      },
      {
        "day": "Thursday",
        "hours": "2 AM to 1:30 am"
      },
      {
        "day": "Friday",
        "hours": "2 AM to 1:30 am"
      },
      {
        "day": "Saturday",
        "hours": "2 AM to 1:30 am"
      },
      {
        "day": "Sunday",
        "hours": "2 AM to 1:30 am"
      }
    ],
    "additionalOpeningHours": {
      "Drive through": [
        {
          "day": "Monday",
          "hours": "2 am–1:30 am"
        },
        {
          "day": "Tuesday",
          "hours": "2 am–1:30 am"
        },
        {
          "day": "Wednesday",
          "hours": "2 am–1:30 am"
        },
        {
          "day": "Thursday",
          "hours": "2 am–1:30 am"
        },
        {
          "day": "Friday",
          "hours": "2 am–1:30 am"
        },
        {
          "day": "Saturday",
          "hours": "2 am–1:30 am"
        },
        {
          "day": "Sunday",
          "hours": "2 am–1:30 am"
        }
      ]
    },
    "peopleAlsoSearch": [],
    "placesTags": [],
    "reviewsTags": [],
    "additionalInfo": {
      "Service options": [
        {
          "Delivery": true
        },
        {
          "Drive-through": true
        },
        {
          "In-store pick-up": true
        }
      ],
      "Accessibility": [
        {
          "Wheelchair-accessible car park": true
        },
        {
          "Wheelchair-accessible entrance": true
        }
      ],
      "Offerings": [
        {
          "Medication disposal": true
        },
        {
          "Naloxone": true
        }
      ],
      "Planning": [
        {
          "Quick visit": true
        }
      ],
      "Payments": [
        {
          "Cheques": true
        },
        {
          "Credit cards": true
        },
        {
          "Debit cards": true
        }
      ]
    },
    "gasPrices": [],
    "url": "https://www.google.com/maps/search/?api=1&query=Walgreens%20Pharmacy&query_place_id=ChIJybNvlgavB4gRPFr_YqCuJ_8",
    "searchPageUrl": "https://www.google.com/maps/search/independent%20pharmacy%20in%20Madison,%20WI/@57.40072944694004,-135.84852618621275,9z?hl=en",
    "searchString": "independent pharmacy in Madison, WI",
    "language": "en",
    "rank": 9,
    "isAdvertisement": false,
    "imageUrl": "https://lh3.googleusercontent.com/gps-cs-s/AC9h4noXV331eKESu9_aYxhe8V1qIpOPBpwknDJB7POEZgFsog_mSvrdz2DamIzTtQN1oJCy-UfJiFWR0d04i-E-J3VfkLyu60y5yFOlae4y8eJLqwah4v_t_TwwJbUONMXgjmLebc0e=w408-h306-k-no",
    "kgmid": "/g/11cn960clt"
  },
  {
    "title": "Allison Attoe",
    "price": null,
    "categoryName": "Pharmacy",
    "address": "217 Cottage Grove Rd, Madison, WI 53716, United States",
    "neighborhood": null,
    "street": "217 Cottage Grove Rd",
    "city": "Madison",
    "postalCode": "53716",
    "state": "Wisconsin",
    "countryCode": "US",
    "phone": "+1 608-839-3784",
    "phoneUnformatted": "+16088393784",
    "claimThisBusiness": true,
    "location": {
      "lat": 43.0833722,
      "lng": -89.3219306
    },
    "permanentlyClosed": false,
    "temporarilyClosed": false,
    "placeId": "ChIJHf5jIi1aBogRkyf90GBm-5I",
    "categories": [
      "Pharmacy"
    ],
    "fid": "0x88065a2d2263fe1d:0x92fb6660d0fd2793",
    "cid": "10591171514700998547",
    "reviewsCount": 0,
    "imagesCount": 1,
    "imageCategories": [],
    "scrapedAt": "2025-06-23T05:35:47.793Z",
    "googleFoodUrl": null,
    "hotelAds": [],
    "openingHours": [],
    "peopleAlsoSearch": [],
    "placesTags": [],
    "reviewsTags": [],
    "additionalInfo": {
      "Accessibility": [
        {
          "Wheelchair-accessible car park": true
        },
        {
          "Wheelchair-accessible entrance": true
        }
      ]
    },
    "gasPrices": [],
    "url": "https://www.google.com/maps/search/?api=1&query=Allison%20Attoe&query_place_id=ChIJHf5jIi1aBogRkyf90GBm-5I",
    "searchPageUrl": "https://www.google.com/maps/search/independent%20pharmacy%20in%20Madison,%20WI/@57.40072944694004,-135.84852618621275,9z?hl=en",
    "searchString": "independent pharmacy in Madison, WI",
    "language": "en",
    "rank": 10,
    "isAdvertisement": false,
    "imageUrl": "https://streetviewpixels-pa.googleapis.com/v1/thumbnail?panoid=rAjsJ133PG7ruRGSLCouKg&cb_client=search.gws-prod.gps&w=408&h=240&yaw=182.56343&pitch=0&thumbfov=100",
    "kgmid": "/g/1tdps766"
  }
]