[
  {
    "title": "Neighbor Care Pharmacy",
    "price": null,
    "categoryName": "Pharmacy",
    "address": "3402 Congressional Pkwy, Fort Wayne, IN 46808",
    "neighborhood": "Bass-Leesburg Civic",
    "street": "3402 Congressional Pkwy",
    "city": "Fort Wayne",
    "postalCode": "46808",
    "state": "Indiana",
    "countryCode": "US",
    "phone": "(260) 484-7366",
    "phoneUnformatted": "+12604847366",
    "claimThisBusiness": true,
    "location": {
      "lat": 41.1111146,
      "lng": -85.1868351
    },
    "permanentlyClosed": false,
    "temporarilyClosed": false,
    "placeId": "ChIJt_WxIOPjFYgRPXQcm5FTl-A",
    "categories": [
      "Pharmacy"
    ],
    "fid": "0x8815e3e320b1f5b7:0xe09753919b1c743d",
    "cid": "16183495670816863293",
    "reviewsCount": 0,
    "imagesCount": null,
    "imageCategories": [],
    "scrapedAt": "2025-06-22T05:13:24.823Z",
    "googleFoodUrl": null,
    "hotelAds": [],
    "openingHours": [
      {
        "day": "Monday",
        "hours": "8 AM to 12 AM"
      },
      {
        "day": "Tuesday",
        "hours": "8 AM to 12 AM"
      },
      {
        "day": "Wednesday",
        "hours": "8 AM to 12 AM"
      },
      {
        "day": "Thursday",
        "hours": "8 AM to 12 AM"
      },
      {
        "day": "Friday",
        "hours": "8 AM to 12 AM"
      },
      {
        "day": "Saturday",
        "hours": "8 AM to 12 AM"
      },
      {
        "day": "Sunday",
        "hours": "Closed"
      }
    ],
    "peopleAlsoSearch": [],
    "placesTags": [],
    "reviewsTags": [],
    "additionalInfo": {
      "Accessibility": [
        {
          "Wheelchair accessible entrance": true
        },
        {
          "Wheelchair accessible parking lot": true
        }
      ]
    },
    "gasPrices": [],
    "url": "https://www.google.com/maps/search/?api=1&query=Neighbor%20Care%20Pharmacy&query_place_id=ChIJt_WxIOPjFYgRPXQcm5FTl-A",
    "searchPageUrl": "https://www.google.com/maps/search/independent%20pharmacy%20Fort%20Wayne%20IN/@60.17977372574618,-142.75332010026844,9z?hl=en",
    "searchString": "independent pharmacy Fort Wayne IN",
    "language": "en",
    "rank": 4,
    "isAdvertisement": false,
    "kgmid": "/g/1vh_8z_x"
  },
  {
    "title": "The Medicine Chest Pharmacy",
    "price": null,
    "categoryName": "Pharmacy",
    "address": "2803 E State Blvd, Fort Wayne, IN 46805",
    "neighborhood": "Frances Slocum",
    "street": "2803 E State Blvd",
    "city": "Fort Wayne",
    "postalCode": "46805",
    "state": "Indiana",
    "countryCode": "US",
    "website": "http://medchestrx.com/",
    "phone": "(260) 483-3169",
    "phoneUnformatted": "+12604833169",
    "claimThisBusiness": false,
    "location": {
      "lat": 41.0975462,
      "lng": -85.1030976
    },
    "totalScore": 5,
    "permanentlyClosed": false,
    "temporarilyClosed": false,
    "placeId": "ChIJ84sbcqr8FYgRN4Iwe4nIqWY",
    "categories": [
      "Pharmacy"
    ],
    "fid": "0x8815fcaa721b8bf3:0x66a9c8897b308237",
    "cid": "7397664355735601719",
    "reviewsCount": 138,
    "imagesCount": 8,
    "imageCategories": [],
    "scrapedAt": "2025-06-22T05:13:24.785Z",
    "googleFoodUrl": null,
    "hotelAds": [],
    "openingHours": [
      {
        "day": "Monday",
        "hours": "9 AM to 5 PM"
      },
      {
        "day": "Tuesday",
        "hours": "9 AM to 5 PM"
      },
      {
        "day": "Wednesday",
        "hours": "9 AM to 5 PM"
      },
      {
        "day": "Thursday",
        "hours": "9 AM to 5 PM"
      },
      {
        "day": "Friday",
        "hours": "9 AM to 5 PM"
      },
      {
        "day": "Saturday",
        "hours": "9 AM to 12 PM"
      },
      {
        "day": "Sunday",
        "hours": "Closed"
      }
    ],
    "peopleAlsoSearch": [],
    "placesTags": [],
    "reviewsTags": [],
    "additionalInfo": {
      "From the business": [
        {
          "Small business": true
        }
      ],
      "Service options": [
        {
          "Delivery": true
        },
        {
          "In-store pickup": true
        },
        {
          "In-store shopping": true
        },
        {
          "Spanish": true
        }
      ],
      "Accessibility": [
        {
          "Wheelchair accessible entrance": true
        },
        {
          "Wheelchair accessible parking lot": true
        }
      ],
      "Planning": [
        {
          "Quick visit": true
        }
      ],
      "Payments": [
        {
          "Credit cards": true
        },
        {
          "Debit cards": true
        },
        {
          "NFC mobile payments": true
        },
        {
          "Credit cards": true
        }
      ]
    },
    "gasPrices": [],
    "url": "https://www.google.com/maps/search/?api=1&query=The%20Medicine%20Chest%20Pharmacy&query_place_id=ChIJ84sbcqr8FYgRN4Iwe4nIqWY",
    "searchPageUrl": "https://www.google.com/maps/search/independent%20pharmacy%20Fort%20Wayne%20IN/@23.639477062114782,-164.9055743770964,13z?hl=en",
    "searchString": "independent pharmacy Fort Wayne IN",
    "language": "en",
    "rank": 1,
    "isAdvertisement": false,
    "imageUrl": "https://lh3.googleusercontent.com/p/AF1QipNnkbu3KCalyTKFlxyCyU8TO0lDbjFpLF20B-RT=w408-h544-k-no",
    "kgmid": "/g/11bwhb4ks2"
  },
  {
    "title": "Fort Wayne Custom Rx",
    "price": null,
    "categoryName": "Pharmacy",
    "address": "425 E Dupont Rd, Fort Wayne, IN 46825",
    "neighborhood": null,
    "street": "425 E Dupont Rd",
    "city": "Fort Wayne",
    "postalCode": "46825",
    "state": "Indiana",
    "countryCode": "US",
    "website": "http://fwcustomrx.com/",
    "phone": "(260) 490-3447",
    "phoneUnformatted": "+12604903447",
    "claimThisBusiness": false,
    "location": {
      "lat": 41.1795017,
      "lng": -85.1375272
    },
    "totalScore": 4.9,
    "permanentlyClosed": false,
    "temporarilyClosed": false,
    "placeId": "ChIJdSU7e53iFYgRFkMXCJXRwgM",
    "categories": [
      "Pharmacy",
      "Homeopathic pharmacy",
      "Pharmaceutical lab"
    ],
    "fid": "0x8815e29d7b3b2575:0x3c2d19508174316",
    "cid": "271009365611725590",
    "reviewsCount": 314,
    "imagesCount": 14,
    "imageCategories": [],
    "scrapedAt": "2025-06-22T05:13:24.786Z",
    "googleFoodUrl": null,
    "hotelAds": [],
    "openingHours": [
      {
        "day": "Monday",
        "hours": "9 AM to 6 PM"
      },
      {
        "day": "Tuesday",
        "hours": "9 AM to 6 PM"
      },
      {
        "day": "Wednesday",
        "hours": "9 AM to 6 PM"
      },
      {
        "day": "Thursday",
        "hours": "9 AM to 6 PM"
      },
      {
        "day": "Friday",
        "hours": "9 AM to 6 PM"
      },
      {
        "day": "Saturday",
        "hours": "9 AM to 1 PM"
      },
      {
        "day": "Sunday",
        "hours": "Closed"
      }
    ],
    "peopleAlsoSearch": [],
    "placesTags": [],
    "reviewsTags": [],
    "additionalInfo": {
      "From the business": [
        {
          "Small business": true
        }
      ],
      "Service options": [
        {
          "Curbside pickup": true
        },
        {
          "Delivery": true
        },
        {
          "In-store pickup": true
        },
        {
          "In-store shopping": true
        },
        {
          "English": true
        }
      ],
      "Accessibility": [
        {
          "Wheelchair accessible entrance": true
        },
        {
          "Wheelchair accessible parking lot": true
        }
      ],
      "Payments": [
        {
          "Checks": true
        },
        {
          "Credit cards": true
        },
        {
          "Debit cards": true
        },
        {
          "NFC mobile payments": true
        },
        {
          "Credit cards": true
        }
      ],
      "Parking": [
        {
          "Free parking lot": true
        },
        {
          "On-site parking": true
        }
      ]
    },
    "gasPrices": [],
    "url": "https://www.google.com/maps/search/?api=1&query=Fort%20Wayne%20Custom%20Rx&query_place_id=ChIJdSU7e53iFYgRFkMXCJXRwgM",
    "searchPageUrl": "https://www.google.com/maps/search/independent%20pharmacy%20Fort%20Wayne%20IN/@23.639477062114782,-164.9055743770964,13z?hl=en",
    "searchString": "independent pharmacy Fort Wayne IN",
    "language": "en",
    "rank": 2,
    "isAdvertisement": false,
    "imageUrl": "https://lh3.googleusercontent.com/p/AF1QipObqt1ee-LKp2YEXvDpY_5L-WB4906iItZZ4OnM=w408-h271-k-no",
    "kgmid": "/g/1tdcgzl9"
  },
  {
    "title": "3 RIVERS PHARMACY",
    "price": null,
    "categoryName": "Pharmacy",
    "address": "3537 N Anthony Blvd, Fort Wayne, IN 46805",
    "neighborhood": null,
    "street": "3537 N Anthony Blvd",
    "city": "Fort Wayne",
    "postalCode": "46805",
    "state": "Indiana",
    "countryCode": "US",
    "website": "http://3riverspharmacy.com/",
    "phone": "(260) 373-1083",
    "phoneUnformatted": "+12603731083",
    "claimThisBusiness": false,
    "location": {
      "lat": 41.1086752,
      "lng": -85.1164753
    },
    "totalScore": 4.2,
    "permanentlyClosed": false,
    "temporarilyClosed": false,
    "placeId": "ChIJQ_GEjE_jFYgRyoZ9Vau_qzo",
    "categories": [
      "Pharmacy",
      "Holistic medicine practitioner"
    ],
    "fid": "0x8815e34f8c84f143:0x3aabbfab557d86ca",
    "cid": "4227683417811945162",
    "reviewsCount": 47,
    "imagesCount": 7,
    "imageCategories": [],
    "scrapedAt": "2025-06-22T05:13:24.787Z",
    "googleFoodUrl": null,
    "hotelAds": [],
    "openingHours": [
      {
        "day": "Monday",
        "hours": "9 AM to 5 PM"
      },
      {
        "day": "Tuesday",
        "hours": "9 AM to 5 PM"
      },
      {
        "day": "Wednesday",
        "hours": "9 AM to 5 PM"
      },
      {
        "day": "Thursday",
        "hours": "9 AM to 5 PM"
      },
      {
        "day": "Friday",
        "hours": "8 AM to 2 PM"
      },
      {
        "day": "Saturday",
        "hours": "Closed"
      },
      {
        "day": "Sunday",
        "hours": "Closed"
      }
    ],
    "peopleAlsoSearch": [],
    "placesTags": [],
    "reviewsTags": [],
    "additionalInfo": {
      "From the business": [
        {
          "Identifies as women-owned": true
        }
      ],
      "Service options": [
        {
          "Curbside pickup": true
        },
        {
          "In-store pickup": true
        },
        {
          "In-store shopping": true
        },
        {
          "Same-day delivery": false
        },
        {
          "English": true
        }
      ],
      "Accessibility": [
        {
          "Wheelchair accessible entrance": true
        },
        {
          "Wheelchair accessible parking lot": true
        }
      ],
      "Amenities": [
        {
          "Wi-Fi": true
        },
        {
          "Free Wi-Fi": true
        }
      ],
      "Payments": [
        {
          "Checks": true
        },
        {
          "Credit cards": true
        },
        {
          "Debit cards": true
        },
        {
          "NFC mobile payments": true
        },
        {
          "Credit cards": true
        }
      ]
    },
    "gasPrices": [],
    "url": "https://www.google.com/maps/search/?api=1&query=3%20RIVERS%20PHARMACY&query_place_id=ChIJQ_GEjE_jFYgRyoZ9Vau_qzo",
    "searchPageUrl": "https://www.google.com/maps/search/independent%20pharmacy%20Fort%20Wayne%20IN/@23.639477062114782,-164.9055743770964,13z?hl=en",
    "searchString": "independent pharmacy Fort Wayne IN",
    "language": "en",
    "rank": 3,
    "isAdvertisement": false,
    "imageUrl": "https://lh3.googleusercontent.com/gps-cs-s/AC9h4nqMnV2btNRZEZvqERBfYMc7rw4x8Z5HJXWB9l2hCmIhCLcS3fNhl_zNymSVaR1NGEOp6ThkJN7aDstAOBoBvyrEEZ0QDeSUxGey-qQmIOsTsTMT3IpSbMSNZmnULRbcYugJ7kog=w408-h544-k-no",
    "kgmid": "/g/11gfgc7d9z"
  },
  {
    "title": "Meijer Pharmacy",
    "price": "$$",
    "categoryName": "Pharmacy",
    "address": "5909 Illinois Rd, Fort Wayne, IN 46804",
    "neighborhood": null,
    "street": "5909 Illinois Rd",
    "city": "Fort Wayne",
    "postalCode": "46804",
    "state": "Indiana",
    "countryCode": "US",
    "website": "https://www.meijer.com/shopping/store-locator/125.html?cmpid=LM:Web::::05112021::GooglePharmacy",
    "phone": "(260) 434-3910",
    "phoneUnformatted": "+12604343910",
    "claimThisBusiness": false,
    "location": {
      "lat": 41.0720232,
      "lng": -85.2178282
    },
    "totalScore": 3.7,
    "permanentlyClosed": false,
    "temporarilyClosed": false,
    "placeId": "ChIJmeof8u7mFYgRGnrr8z_oeAM",
    "categories": [
      "Pharmacy",
      "Medical supply store",
      "Drug store"
    ],
    "fid": "0x8815e6eef21fea99:0x378e83ff3eb7a1a",
    "cid": "250205140691941914",
    "reviewsCount": 53,
    "imagesCount": 7,
    "imageCategories": [],
    "scrapedAt": "2025-06-22T05:13:24.787Z",
    "googleFoodUrl": null,
    "hotelAds": [],
    "openingHours": [
      {
        "day": "Monday",
        "hours": "9 AM to 8 PM"
      },
      {
        "day": "Tuesday",
        "hours": "9 AM to 8 PM"
      },
      {
        "day": "Wednesday",
        "hours": "9 AM to 8 PM"
      },
      {
        "day": "Thursday",
        "hours": "9 AM to 8 PM"
      },
      {
        "day": "Friday",
        "hours": "9 AM to 8 PM"
      },
      {
        "day": "Saturday",
        "hours": "10 AM to 6 PM"
      },
      {
        "day": "Sunday",
        "hours": "10 AM to 6 PM"
      }
    ],
    "additionalOpeningHours": {
      "Drive through": [
        {
          "day": "Monday",
          "hours": "9 AM–8 PM"
        },
        {
          "day": "Tuesday",
          "hours": "9 AM–8 PM"
        },
        {
          "day": "Wednesday",
          "hours": "9 AM–8 PM"
        },
        {
          "day": "Thursday",
          "hours": "9 AM–8 PM"
        },
        {
          "day": "Friday",
          "hours": "9 AM–8 PM"
        },
        {
          "day": "Saturday",
          "hours": "10 AM–6 PM"
        },
        {
          "day": "Sunday",
          "hours": "10 AM–6 PM"
        }
      ],
      "Pickup": [
        {
          "day": "Monday",
          "hours": "9 AM–8 PM"
        },
        {
          "day": "Tuesday",
          "hours": "9 AM–8 PM"
        },
        {
          "day": "Wednesday",
          "hours": "9 AM–8 PM"
        },
        {
          "day": "Thursday",
          "hours": "9 AM–8 PM"
        },
        {
          "day": "Friday",
          "hours": "9 AM–8 PM"
        },
        {
          "day": "Saturday",
          "hours": "10 AM–6 PM"
        },
        {
          "day": "Sunday",
          "hours": "10 AM–6 PM"
        }
      ]
    },
    "peopleAlsoSearch": [],
    "placesTags": [],
    "reviewsTags": [],
    "additionalInfo": {
      "Service options": [
        {
          "Curbside pickup": true
        },
        {
          "Delivery": true
        },
        {
          "Drive-through": true
        },
        {
          "In-store pickup": true
        },
        {
          "In-store shopping": true
        }
      ],
      "Accessibility": [
        {
          "Wheelchair accessible entrance": true
        },
        {
          "Wheelchair accessible parking lot": true
        }
      ],
      "Offerings": [
        {
          "Medication disposal": true
        }
      ],
      "Planning": [
        {
          "Quick visit": true
        }
      ],
      "Payments": [
        {
          "Checks": true
        },
        {
          "Credit cards": true
        },
        {
          "Debit cards": true
        }
      ]
    },
    "gasPrices": [],
    "url": "https://www.google.com/maps/search/?api=1&query=Meijer%20Pharmacy&query_place_id=ChIJmeof8u7mFYgRGnrr8z_oeAM",
    "searchPageUrl": "https://www.google.com/maps/search/independent%20pharmacy%20Fort%20Wayne%20IN/@23.639477062114782,-164.9055743770964,13z?hl=en",
    "searchString": "independent pharmacy Fort Wayne IN",
    "language": "en",
    "rank": 4,
    "isAdvertisement": false,
    "imageUrl": "https://lh3.googleusercontent.com/p/AF1QipNzO5DS6sTxXnw8joL4A8CSLlPkY2e2ny_7N7-3=w408-h272-k-no",
    "kgmid": "/g/1vnnj_pr"
  },
  {
    "title": "Meijer Pharmacy",
    "price": null,
    "categoryName": "Pharmacy",
    "address": "4242 E Dupont Rd, Fort Wayne, IN 46825",
    "neighborhood": null,
    "street": "4242 E Dupont Rd",
    "city": "Fort Wayne",
    "postalCode": "46825",
    "state": "Indiana",
    "countryCode": "US",
    "website": "https://www.meijer.com/shopping/store-locator/314.html?cmpid=LM:Web::::05112021::GooglePharmacy",
    "phone": "(260) 279-2520",
    "phoneUnformatted": "+12602792520",
    "claimThisBusiness": false,
    "location": {
      "lat": 41.1765001,
      "lng": -85.0886637
    },
    "totalScore": 4.1,
    "permanentlyClosed": false,
    "temporarilyClosed": false,
    "placeId": "ChIJXx-BvCoHFogRcLpYh9kJttA",
    "categories": [
      "Pharmacy",
      "Medical supply store",
      "Drug store"
    ],
    "fid": "0x8816072abc811f5f:0xd0b609d98758ba70",
    "cid": "15039218835533642352",
    "reviewsCount": 19,
    "imagesCount": 47,
    "imageCategories": [],
    "scrapedAt": "2025-06-22T05:13:24.787Z",
    "googleFoodUrl": null,
    "hotelAds": [],
    "openingHours": [
      {
        "day": "Monday",
        "hours": "9 AM to 8 PM"
      },
      {
        "day": "Tuesday",
        "hours": "9 AM to 8 PM"
      },
      {
        "day": "Wednesday",
        "hours": "9 AM to 8 PM"
      },
      {
        "day": "Thursday",
        "hours": "9 AM to 8 PM"
      },
      {
        "day": "Friday",
        "hours": "9 AM to 8 PM"
      },
      {
        "day": "Saturday",
        "hours": "10 AM to 6 PM"
      },
      {
        "day": "Sunday",
        "hours": "10 AM to 6 PM"
      }
    ],
    "additionalOpeningHours": {
      "Drive through": [
        {
          "day": "Monday",
          "hours": "9 AM–8 PM"
        },
        {
          "day": "Tuesday",
          "hours": "9 AM–8 PM"
        },
        {
          "day": "Wednesday",
          "hours": "9 AM–8 PM"
        },
        {
          "day": "Thursday",
          "hours": "9 AM–8 PM"
        },
        {
          "day": "Friday",
          "hours": "9 AM–8 PM"
        },
        {
          "day": "Saturday",
          "hours": "10 AM–6 PM"
        },
        {
          "day": "Sunday",
          "hours": "10 AM–6 PM"
        }
      ],
      "Pickup": [
        {
          "day": "Monday",
          "hours": "9 AM–8 PM"
        },
        {
          "day": "Tuesday",
          "hours": "9 AM–8 PM"
        },
        {
          "day": "Wednesday",
          "hours": "9 AM–8 PM"
        },
        {
          "day": "Thursday",
          "hours": "9 AM–8 PM"
        },
        {
          "day": "Friday",
          "hours": "9 AM–8 PM"
        },
        {
          "day": "Saturday",
          "hours": "10 AM–6 PM"
        },
        {
          "day": "Sunday",
          "hours": "10 AM–6 PM"
        }
      ]
    },
    "peopleAlsoSearch": [],
    "placesTags": [],
    "reviewsTags": [],
    "additionalInfo": {
      "Service options": [
        {
          "Curbside pickup": true
        },
        {
          "Drive-through": true
        },
        {
          "In-store pickup": true
        },
        {
          "In-store shopping": true
        },
        {
          "Onsite services": true
        }
      ],
      "Accessibility": [
        {
          "Wheelchair accessible entrance": true
        },
        {
          "Wheelchair accessible parking lot": true
        }
      ],
      "Amenities": [
        {
          "Wi-Fi": true
        }
      ],
      "Planning": [
        {
          "Quick visit": true
        }
      ],
      "Payments": [
        {
          "Credit cards": true
        }
      ]
    },
    "gasPrices": [],
    "url": "https://www.google.com/maps/search/?api=1&query=Meijer%20Pharmacy&query_place_id=ChIJXx-BvCoHFogRcLpYh9kJttA",
    "searchPageUrl": "https://www.google.com/maps/search/independent%20pharmacy%20Fort%20Wayne%20IN/@23.639477062114782,-164.9055743770964,13z?hl=en",
    "searchString": "independent pharmacy Fort Wayne IN",
    "language": "en",
    "rank": 5,
    "isAdvertisement": false,
    "imageUrl": "https://lh3.googleusercontent.com/p/AF1QipP4zTVosY21TdaNFT-H1GpMadJ0HCe4ZbXX-vq3=w416-h240-k-no",
    "kgmid": "/g/11sx08nct9"
  },
  {
    "title": "Parkview Outpatient Pharmacy",
    "price": null,
    "categoryName": "Pharmacy",
    "address": "11104 Parkview Cir Ste 030, Fort Wayne, IN 46845",
    "neighborhood": null,
    "street": "11104 Parkview Cir Ste 030",
    "city": "Fort Wayne",
    "postalCode": "46845",
    "state": "Indiana",
    "countryCode": "US",
    "website": "https://www.parkview.com/medical-services/pharmacy?y_source=1_MjkwNDEwNzgtNzE1LWxvY2F0aW9uLndlYnNpdGU%3D",
    "phone": "(260) 266-4545",
    "phoneUnformatted": "+12602664545",
    "claimThisBusiness": false,
    "location": {
      "lat": 41.1858573,
      "lng": -85.1019669
    },
    "totalScore": 4.2,
    "permanentlyClosed": false,
    "temporarilyClosed": false,
    "placeId": "ChIJRV6nedYHFogR-8dBEMeGIOw",
    "categories": [
      "Pharmacy"
    ],
    "fid": "0x881607d679a75e45:0xec2086c71041c7fb",
    "cid": "17014747581735094267",
    "reviewsCount": 32,
    "imagesCount": 10,
    "imageCategories": [],
    "scrapedAt": "2025-06-22T05:13:24.787Z",
    "googleFoodUrl": null,
    "hotelAds": [],
    "openingHours": [],
    "peopleAlsoSearch": [],
    "placesTags": [],
    "reviewsTags": [],
    "additionalInfo": {
      "Accessibility": [
        {
          "Wheelchair accessible entrance": true
        },
        {
          "Wheelchair accessible parking lot": true
        }
      ],
      "Payments": [
        {
          "Credit cards": true
        }
      ]
    },
    "gasPrices": [],
    "url": "https://www.google.com/maps/search/?api=1&query=Parkview%20Outpatient%20Pharmacy&query_place_id=ChIJRV6nedYHFogR-8dBEMeGIOw",
    "searchPageUrl": "https://www.google.com/maps/search/independent%20pharmacy%20Fort%20Wayne%20IN/@23.639477062114782,-164.9055743770964,13z?hl=en",
    "searchString": "independent pharmacy Fort Wayne IN",
    "language": "en",
    "rank": 6,
    "isAdvertisement": false,
    "imageUrl": "https://lh3.googleusercontent.com/gps-cs-s/AC9h4nrYSBv-_fcTJ-VFC1KG1UdeT91dTynJ8TI5ULZay-vCNUTVsPoXPk23_uMGPOtBsV6_K7MuhTSywwctA-v18WC4VRdQqJ6ubZtoJ-DQ_dULbj1WqESZsIMQXqMKJspJ7QBWvbI=w408-h544-k-no",
    "kgmid": "/g/11gjnrh5p6"
  },
  {
    "title": "Meijer Pharmacy",
    "price": "$$",
    "categoryName": "Pharmacy",
    "address": "10301 IN-37, Fort Wayne, IN 46835",
    "neighborhood": null,
    "street": "10301 IN-37",
    "city": "Fort Wayne",
    "postalCode": "46835",
    "state": "Indiana",
    "countryCode": "US",
    "website": "https://www.meijer.com/shopping/store-locator/138.html?cmpid=LM:Web::::05112021::GooglePharmacy",
    "phone": "(260) 492-1310",
    "phoneUnformatted": "+12604921310",
    "claimThisBusiness": false,
    "location": {
      "lat": 41.1330018,
      "lng": -85.0129037
    },
    "totalScore": 4.3,
    "permanentlyClosed": false,
    "temporarilyClosed": false,
    "placeId": "ChIJH78svYj-FYgRnGc4UiuhoHU",
    "categories": [
      "Pharmacy",
      "Medical supply store",
      "Drug store"
    ],
    "fid": "0x8815fe88bd2cbf1f:0x75a0a12b5238679c",
    "cid": "8475951706146367388",
    "reviewsCount": 143,
    "imagesCount": 10,
    "imageCategories": [],
    "scrapedAt": "2025-06-22T05:13:24.787Z",
    "googleFoodUrl": null,
    "hotelAds": [],
    "openingHours": [
      {
        "day": "Monday",
        "hours": "9 AM to 8 PM"
      },
      {
        "day": "Tuesday",
        "hours": "9 AM to 8 PM"
      },
      {
        "day": "Wednesday",
        "hours": "9 AM to 8 PM"
      },
      {
        "day": "Thursday",
        "hours": "9 AM to 8 PM"
      },
      {
        "day": "Friday",
        "hours": "9 AM to 8 PM"
      },
      {
        "day": "Saturday",
        "hours": "10 AM to 6 PM"
      },
      {
        "day": "Sunday",
        "hours": "10 AM to 6 PM"
      }
    ],
    "additionalOpeningHours": {
      "Drive through": [
        {
          "day": "Monday",
          "hours": "9 AM–8 PM"
        },
        {
          "day": "Tuesday",
          "hours": "9 AM–8 PM"
        },
        {
          "day": "Wednesday",
          "hours": "9 AM–8 PM"
        },
        {
          "day": "Thursday",
          "hours": "9 AM–8 PM"
        },
        {
          "day": "Friday",
          "hours": "9 AM–8 PM"
        },
        {
          "day": "Saturday",
          "hours": "10 AM–6 PM"
        },
        {
          "day": "Sunday",
          "hours": "10 AM–6 PM"
        }
      ],
      "Pickup": [
        {
          "day": "Monday",
          "hours": "9 AM–8 PM"
        },
        {
          "day": "Tuesday",
          "hours": "9 AM–8 PM"
        },
        {
          "day": "Wednesday",
          "hours": "9 AM–8 PM"
        },
        {
          "day": "Thursday",
          "hours": "9 AM–8 PM"
        },
        {
          "day": "Friday",
          "hours": "9 AM–8 PM"
        },
        {
          "day": "Saturday",
          "hours": "10 AM–6 PM"
        },
        {
          "day": "Sunday",
          "hours": "10 AM–6 PM"
        }
      ]
    },
    "peopleAlsoSearch": [],
    "placesTags": [],
    "reviewsTags": [],
    "additionalInfo": {
      "Service options": [
        {
          "Delivery": true
        },
        {
          "Drive-through": true
        },
        {
          "In-store pickup": true
        }
      ],
      "Accessibility": [
        {
          "Wheelchair accessible entrance": true
        },
        {
          "Wheelchair accessible parking lot": true
        }
      ],
      "Amenities": [
        {
          "Wi-Fi": true
        }
      ],
      "Planning": [
        {
          "Quick visit": true
        }
      ]
    },
    "gasPrices": [],
    "url": "https://www.google.com/maps/search/?api=1&query=Meijer%20Pharmacy&query_place_id=ChIJH78svYj-FYgRnGc4UiuhoHU",
    "searchPageUrl": "https://www.google.com/maps/search/independent%20pharmacy%20Fort%20Wayne%20IN/@23.639477062114782,-164.9055743770964,13z?hl=en",
    "searchString": "independent pharmacy Fort Wayne IN",
    "language": "en",
    "rank": 7,
    "isAdvertisement": false,
    "imageUrl": "https://lh3.googleusercontent.com/p/AF1QipPboEU0QUkefZHfy_NbrACTeRz529RnzJpk9yl8=w414-h240-k-no",
    "kgmid": "/g/1ptwcnj_x"
  },
  {
    "title": "Parkview Outpatient Pharmacy",
    "price": null,
    "categoryName": "Pharmacy",
    "address": "2200 Randallia Dr, Fort Wayne, IN 46805",
    "neighborhood": null,
    "street": "2200 Randallia Dr",
    "city": "Fort Wayne",
    "postalCode": "46805",
    "state": "Indiana",
    "countryCode": "US",
    "website": "https://www.parkview.com/medical-services/pharmacy?y_source=1_MTAyMDI1NDEwMi03MTUtbG9jYXRpb24ud2Vic2l0ZQ%3D%3D",
    "phone": "(260) 373-3456",
    "phoneUnformatted": "+12603733456",
    "claimThisBusiness": false,
    "location": {
      "lat": 41.0958276,
      "lng": -85.1094716
    },
    "totalScore": 4.2,
    "permanentlyClosed": false,
    "temporarilyClosed": false,
    "placeId": "ChIJSVpb0ozlFYgR3VDecnMwD7o",
    "categories": [
      "Pharmacy"
    ],
    "fid": "0x8815e58cd25b5a49:0xba0f307372de50dd",
    "cid": "13406987888111800541",
    "reviewsCount": 5,
    "imagesCount": 2,
    "imageCategories": [],
    "scrapedAt": "2025-06-22T05:13:25.770Z",
    "googleFoodUrl": null,
    "hotelAds": [],
    "openingHours": [],
    "peopleAlsoSearch": [],
    "placesTags": [],
    "reviewsTags": [],
    "additionalInfo": {
      "Accessibility": [
        {
          "Wheelchair accessible entrance": true
        },
        {
          "Wheelchair accessible parking lot": true
        }
      ],
      "Payments": [
        {
          "Credit cards": true
        }
      ]
    },
    "gasPrices": [],
    "url": "https://www.google.com/maps/search/?api=1&query=Parkview%20Outpatient%20Pharmacy&query_place_id=ChIJSVpb0ozlFYgR3VDecnMwD7o",
    "searchPageUrl": "https://www.google.com/maps/search/independent%20pharmacy%20Fort%20Wayne%20IN/@39.68245004733214,-111.81587931391937,8z?hl=en",
    "searchString": "independent pharmacy Fort Wayne IN",
    "language": "en",
    "rank": 8,
    "isAdvertisement": false,
    "imageUrl": "https://lh3.googleusercontent.com/gps-cs-s/AC9h4nrxy-9-LPmbbATMEtkUALoVDzAEQEMoz7krJi47SCx2PzGxtI4fMPcXLW1KBKFl_mZm0jxC3KiNbJC3O8dftv_DlAUPzuIq77Yc50TdfcjAhxXgJqWsTFGOM2EwxOoq7Pp_bCg=w408-h544-k-no",
    "kgmid": "/g/11vhrs25f2"
  },
  {
    "title": "CVS Pharmacy",
    "price": null,
    "categoryName": "Pharmacy",
    "address": "2811 Getz Rd, Fort Wayne, IN 46804",
    "neighborhood": null,
    "street": "2811 Getz Rd",
    "city": "Fort Wayne",
    "postalCode": "46804",
    "state": "Indiana",
    "countryCode": "US",
    "website": "https://www.cvs.com/store-locator/fort-wayne-in-pharmacies/2811-getz-road-fort-wayne-in-46804/storeid=6522?WT.mc_id=LS_GOOGLE_RX_6522",
    "phone": "(260) 432-6151",
    "phoneUnformatted": "+12604326151",
    "claimThisBusiness": false,
    "location": {
      "lat": 41.0582587,
      "lng": -85.2188611
    },
    "totalScore": 4,
    "permanentlyClosed": false,
    "temporarilyClosed": false,
    "placeId": "ChIJA6K_sFnmFYgRaHg4u_S8Lo4",
    "categories": [
      "Pharmacy"
    ],
    "fid": "0x8815e659b0bfa203:0x8e2ebcf4bb387868",
    "cid": "10245333961613539432",
    "reviewsCount": 14,
    "imagesCount": 8,
    "imageCategories": [],
    "scrapedAt": "2025-06-22T05:13:55.274Z",
    "googleFoodUrl": null,
    "hotelAds": [],
    "openingHours": [
      {
        "day": "Monday",
        "hours": "9 AM to 1:30 PM, 2 to 9 PM"
      },
      {
        "day": "Tuesday",
        "hours": "9 AM to 1:30 PM, 2 to 9 PM"
      },
      {
        "day": "Wednesday",
        "hours": "9 AM to 1:30 PM, 2 to 9 PM"
      },
      {
        "day": "Thursday",
        "hours": "9 AM to 1:30 PM, 2 to 9 PM"
      },
      {
        "day": "Friday",
        "hours": "9 AM to 1:30 PM, 2 to 9 PM"
      },
      {
        "day": "Saturday",
        "hours": "9 AM to 1:30 PM, 2 to 6 PM"
      },
      {
        "day": "Sunday",
        "hours": "10 AM to 1:30 PM, 2 to 6 PM"
      }
    ],
    "peopleAlsoSearch": [],
    "placesTags": [],
    "reviewsTags": [],
    "additionalInfo": {
      "Service options": [
        {
          "Delivery": true
        },
        {
          "Drive-through": true
        },
        {
          "In-store shopping": true
        }
      ],
      "Accessibility": [
        {
          "Wheelchair accessible entrance": true
        },
        {
          "Wheelchair accessible parking lot": true
        }
      ],
      "Offerings": [
        {
          "Naloxone": true
        },
        {
          "Passport photos": true
        }
      ],
      "Crowd": [
        {
          "LGBTQ+ friendly": true
        },
        {
          "Transgender safespace": true
        }
      ],
      "Planning": [
        {
          "Quick visit": true
        }
      ],
      "Payments": [
        {
          "Credit cards": true
        },
        {
          "Debit cards": true
        },
        {
          "NFC mobile payments": true
        },
        {
          "Credit cards": true
        }
      ]
    },
    "gasPrices": [],
    "url": "https://www.google.com/maps/search/?api=1&query=CVS%20Pharmacy&query_place_id=ChIJA6K_sFnmFYgRaHg4u_S8Lo4",
    "searchPageUrl": "https://www.google.com/maps/search/independent%20pharmacy%20Fort%20Wayne%20IN/@62.264056934850785,-163.4677018424355,9z?hl=en",
    "searchString": "independent pharmacy Fort Wayne IN",
    "language": "en",
    "rank": 10,
    "isAdvertisement": false,
    "imageUrl": "https://lh3.googleusercontent.com/p/AF1QipMdE3248OtgwoOV3pHBq5ozT82CveiPJDzxs-Hd=w408-h272-k-no",
    "kgmid": "/g/11c468bfs1"
  },
  {
    "title": "Walgreens Pharmacy",
    "description": "Department of the Walgreens chain providing prescription medications & other health-related items.",
    "price": "$$",
    "categoryName": "Pharmacy",
    "address": "10211 Chestnut Plaza Dr, Fort Wayne, IN 46814",
    "neighborhood": null,
    "street": "10211 Chestnut Plaza Dr",
    "city": "Fort Wayne",
    "postalCode": "46814",
    "state": "Indiana",
    "countryCode": "US",
    "website": "https://www.walgreens.com/locator/walgreens-10211+chestnut+plaza+dr-fort+wayne-in-46814/id=5344",
    "phone": "(260) 625-4831",
    "phoneUnformatted": "+12606254831",
    "claimThisBusiness": false,
    "location": {
      "lat": 41.0747189,
      "lng": -85.2756456
    },
    "totalScore": 5,
    "permanentlyClosed": false,
    "temporarilyClosed": false,
    "placeId": "ChIJIf5JkojdFYgR68dgh_oDaIs",
    "categories": [
      "Pharmacy"
    ],
    "fid": "0x8815dd889249fe21:0x8b6803fa8760c7eb",
    "cid": "10045283343397865451",
    "reviewsCount": 3,
    "imagesCount": 3,
    "imageCategories": [],
    "scrapedAt": "2025-06-22T05:13:55.274Z",
    "googleFoodUrl": null,
    "hotelAds": [],
    "openingHours": [
      {
        "day": "Monday",
        "hours": "9 AM to 1:30 PM, 2 to 8 PM"
      },
      {
        "day": "Tuesday",
        "hours": "9 AM to 1:30 PM, 2 to 8 PM"
      },
      {
        "day": "Wednesday",
        "hours": "9 AM to 1:30 PM, 2 to 8 PM"
      },
      {
        "day": "Thursday",
        "hours": "9 AM to 1:30 PM, 2 to 8 PM"
      },
      {
        "day": "Friday",
        "hours": "9 AM to 1:30 PM, 2 to 8 PM"
      },
      {
        "day": "Saturday",
        "hours": "10 AM to 1:30 PM, 2 to 6 PM"
      },
      {
        "day": "Sunday",
        "hours": "10 AM to 1:30 PM, 2 to 6 PM"
      }
    ],
    "additionalOpeningHours": {
      "Drive through": [
        {
          "day": "Monday",
          "hours": "9 AM–1:30 PM"
        },
        {
          "day": "Tuesday",
          "hours": "9 AM–1:30 PM"
        },
        {
          "day": "Wednesday",
          "hours": "9 AM–1:30 PM"
        },
        {
          "day": "Thursday",
          "hours": "9 AM–1:30 PM"
        },
        {
          "day": "Friday",
          "hours": "9 AM–1:30 PM"
        },
        {
          "day": "Saturday",
          "hours": "10 AM–1:30 PM"
        },
        {
          "day": "Sunday",
          "hours": "10 AM–1:30 PM"
        }
      ]
    },
    "peopleAlsoSearch": [],
    "placesTags": [],
    "reviewsTags": [],
    "additionalInfo": {
      "Service options": [
        {
          "Drive-through": true
        },
        {
          "In-store pickup": true
        },
        {
          "Onsite services": true
        }
      ],
      "Accessibility": [
        {
          "Wheelchair accessible entrance": true
        },
        {
          "Wheelchair accessible parking lot": true
        }
      ],
      "Offerings": [
        {
          "Passport photos": true
        }
      ],
      "Planning": [
        {
          "Quick visit": true
        }
      ],
      "Payments": [
        {
          "Checks": true
        },
        {
          "Credit cards": true
        },
        {
          "Debit cards": true
        }
      ]
    },
    "gasPrices": [],
    "url": "https://www.google.com/maps/search/?api=1&query=Walgreens%20Pharmacy&query_place_id=ChIJIf5JkojdFYgR68dgh_oDaIs",
    "searchPageUrl": "https://www.google.com/maps/search/independent%20pharmacy%20Fort%20Wayne%20IN/@62.264056934850785,-163.4677018424355,9z?hl=en",
    "searchString": "independent pharmacy Fort Wayne IN",
    "language": "en",
    "rank": 11,
    "isAdvertisement": false,
    "imageUrl": "https://lh3.googleusercontent.com/p/AF1QipNfbJrh3dCYbwm8YBAZ9T2UQV1QhkSvtLYPVEtZ=w525-h240-k-no",
    "kgmid": "/g/11cn95zldv"
  },
  {
    "title": "Walgreens Pharmacy",
    "description": "Department of the Walgreens chain providing prescription medications & other health-related items.",
    "price": "$$",
    "categoryName": "Pharmacy",
    "address": "6730 Bluffton Rd, Fort Wayne, IN 46809",
    "neighborhood": "Old Trail",
    "street": "6730 Bluffton Rd",
    "city": "Fort Wayne",
    "postalCode": "46809",
    "state": "Indiana",
    "countryCode": "US",
    "website": "https://www.walgreens.com/locator/walgreens-6730+bluffton+rd-fort+wayne-in-46809/id=4190",
    "phone": "(260) 747-7563",
    "phoneUnformatted": "+12607477563",
    "claimThisBusiness": false,
    "location": {
      "lat": 41.0208709,
      "lng": -85.1699748
    },
    "totalScore": 4.3,
    "permanentlyClosed": false,
    "temporarilyClosed": false,
    "placeId": "ChIJIxxSPfXlFYgRzXK_zZ3Ww-c",
    "categories": [
      "Pharmacy"
    ],
    "fid": "0x8815e5f53d521c23:0xe7c3d69dcdbf72cd",
    "cid": "16700427816470016717",
    "reviewsCount": 12,
    "imagesCount": 3,
    "imageCategories": [],
    "scrapedAt": "2025-06-22T05:13:55.274Z",
    "googleFoodUrl": null,
    "hotelAds": [],
    "openingHours": [
      {
        "day": "Monday",
        "hours": "9 AM to 1:30 PM, 2 to 9 PM"
      },
      {
        "day": "Tuesday",
        "hours": "9 AM to 1:30 PM, 2 to 9 PM"
      },
      {
        "day": "Wednesday",
        "hours": "9 AM to 1:30 PM, 2 to 9 PM"
      },
      {
        "day": "Thursday",
        "hours": "9 AM to 1:30 PM, 2 to 9 PM"
      },
      {
        "day": "Friday",
        "hours": "9 AM to 1:30 PM, 2 to 9 PM"
      },
      {
        "day": "Saturday",
        "hours": "9 AM to 1:30 PM, 2 to 6 PM"
      },
      {
        "day": "Sunday",
        "hours": "10 AM to 1:30 PM, 2 to 6 PM"
      }
    ],
    "additionalOpeningHours": {
      "Drive through": [
        {
          "day": "Monday",
          "hours": "9 AM–1:30 PM"
        },
        {
          "day": "Tuesday",
          "hours": "9 AM–1:30 PM"
        },
        {
          "day": "Wednesday",
          "hours": "9 AM–1:30 PM"
        },
        {
          "day": "Thursday",
          "hours": "9 AM–1:30 PM"
        },
        {
          "day": "Friday",
          "hours": "9 AM–1:30 PM"
        },
        {
          "day": "Saturday",
          "hours": "9 AM–1:30 PM"
        },
        {
          "day": "Sunday",
          "hours": "10 AM–1:30 PM"
        }
      ]
    },
    "peopleAlsoSearch": [],
    "placesTags": [],
    "reviewsTags": [],
    "additionalInfo": {
      "Service options": [
        {
          "Drive-through": true
        },
        {
          "In-store pickup": true
        }
      ],
      "Accessibility": [
        {
          "Wheelchair accessible entrance": true
        },
        {
          "Wheelchair accessible parking lot": true
        }
      ],
      "Offerings": [
        {
          "Passport photos": true
        }
      ],
      "Planning": [
        {
          "Quick visit": true
        }
      ],
      "Payments": [
        {
          "Checks": true
        },
        {
          "Credit cards": true
        },
        {
          "Debit cards": true
        }
      ]
    },
    "gasPrices": [],
    "url": "https://www.google.com/maps/search/?api=1&query=Walgreens%20Pharmacy&query_place_id=ChIJIxxSPfXlFYgRzXK_zZ3Ww-c",
    "searchPageUrl": "https://www.google.com/maps/search/independent%20pharmacy%20Fort%20Wayne%20IN/@62.264056934850785,-163.4677018424355,9z?hl=en",
    "searchString": "independent pharmacy Fort Wayne IN",
    "language": "en",
    "rank": 12,
    "isAdvertisement": false,
    "imageUrl": "https://lh3.googleusercontent.com/p/AF1QipOHu6iFSfTwIAb5cnc3vTZkdOWj3yVblR4WxAYS=w525-h240-k-no",
    "kgmid": "/g/11cn95zlfy"
  },
  {
    "title": "Walgreens Pharmacy",
    "description": "Department of the Walgreens chain providing prescription medications & other health-related items.",
    "price": "$$",
    "categoryName": "Pharmacy",
    "address": "330 W State Blvd, Fort Wayne, IN 46808",
    "neighborhood": "Five Points",
    "street": "330 W State Blvd",
    "city": "Fort Wayne",
    "postalCode": "46808",
    "state": "Indiana",
    "countryCode": "US",
    "website": "https://www.walgreens.com/locator/walgreens-330+w+state+blvd-fort+wayne-in-46808/id=6868",
    "phone": "(260) 482-5428",
    "phoneUnformatted": "+12604825428",
    "claimThisBusiness": false,
    "location": {
      "lat": 41.0966084,
      "lng": -85.1458736
    },
    "totalScore": 4.3,
    "permanentlyClosed": false,
    "temporarilyClosed": false,
    "placeId": "ChIJUQ-8jZflFYgRomhQ9ezoKTQ",
    "categories": [
      "Pharmacy"
    ],
    "fid": "0x8815e5978dbc0f51:0x3429e8ecf55068a2",
    "cid": "3758791468443003042",
    "reviewsCount": 7,
    "imagesCount": 3,
    "imageCategories": [],
    "scrapedAt": "2025-06-22T05:13:55.274Z",
    "googleFoodUrl": null,
    "hotelAds": [],
    "openingHours": [
      {
        "day": "Monday",
        "hours": "9 AM to 1:30 PM, 2 to 8 PM"
      },
      {
        "day": "Tuesday",
        "hours": "9 AM to 1:30 PM, 2 to 8 PM"
      },
      {
        "day": "Wednesday",
        "hours": "9 AM to 1:30 PM, 2 to 8 PM"
      },
      {
        "day": "Thursday",
        "hours": "9 AM to 1:30 PM, 2 to 8 PM"
      },
      {
        "day": "Friday",
        "hours": "9 AM to 1:30 PM, 2 to 8 PM"
      },
      {
        "day": "Saturday",
        "hours": "9 AM to 1:30 PM, 2 to 6 PM"
      },
      {
        "day": "Sunday",
        "hours": "10 AM to 1:30 PM, 2 to 6 PM"
      }
    ],
    "additionalOpeningHours": {
      "Drive through": [
        {
          "day": "Monday",
          "hours": "9 AM–1:30 PM"
        },
        {
          "day": "Tuesday",
          "hours": "9 AM–1:30 PM"
        },
        {
          "day": "Wednesday",
          "hours": "9 AM–1:30 PM"
        },
        {
          "day": "Thursday",
          "hours": "9 AM–1:30 PM"
        },
        {
          "day": "Friday",
          "hours": "9 AM–1:30 PM"
        },
        {
          "day": "Saturday",
          "hours": "9 AM–1:30 PM"
        },
        {
          "day": "Sunday",
          "hours": "10 AM–1:30 PM"
        }
      ]
    },
    "peopleAlsoSearch": [],
    "placesTags": [],
    "reviewsTags": [],
    "additionalInfo": {
      "Service options": [
        {
          "Drive-through": true
        },
        {
          "In-store pickup": true
        }
      ],
      "Accessibility": [
        {
          "Wheelchair accessible entrance": true
        },
        {
          "Wheelchair accessible parking lot": true
        }
      ],
      "Offerings": [
        {
          "Naloxone": true
        },
        {
          "Passport photos": true
        }
      ],
      "Planning": [
        {
          "Quick visit": true
        }
      ],
      "Payments": [
        {
          "Checks": true
        },
        {
          "Credit cards": true
        },
        {
          "Debit cards": true
        }
      ]
    },
    "gasPrices": [],
    "url": "https://www.google.com/maps/search/?api=1&query=Walgreens%20Pharmacy&query_place_id=ChIJUQ-8jZflFYgRomhQ9ezoKTQ",
    "searchPageUrl": "https://www.google.com/maps/search/independent%20pharmacy%20Fort%20Wayne%20IN/@62.264056934850785,-163.4677018424355,9z?hl=en",
    "searchString": "independent pharmacy Fort Wayne IN",
    "language": "en",
    "rank": 13,
    "isAdvertisement": false,
    "imageUrl": "https://lh3.googleusercontent.com/p/AF1QipOG4pOudNs_VZe59r_7cPuzQ-Jr3_ajPJY4k1ch=w525-h240-k-no",
    "kgmid": "/g/11f5q9gq31"
  },
  {
    "title": "CVS Pharmacy",
    "price": null,
    "categoryName": "Pharmacy",
    "address": "770 E Dupont Rd, Fort Wayne, IN 46825",
    "neighborhood": null,
    "street": "770 E Dupont Rd",
    "city": "Fort Wayne",
    "postalCode": "46825",
    "state": "Indiana",
    "countryCode": "US",
    "website": "https://www.cvs.com/store-locator/fort-wayne-in-pharmacies/770-e-dupont-rd-fort-wayne-in-46825/storeid=10190?WT.mc_id=LS_GOOGLE_RX_10190",
    "phone": "(260) 451-8242",
    "phoneUnformatted": "+12604518242",
    "claimThisBusiness": false,
    "location": {
      "lat": 41.17768,
      "lng": -85.1319757
    },
    "totalScore": 3.1,
    "permanentlyClosed": false,
    "temporarilyClosed": false,
    "placeId": "ChIJnY-6BZ7iFYgRggpjFeJNnf8",
    "categories": [
      "Pharmacy"
    ],
    "fid": "0x8815e29e05ba8f9d:0xff9d4de215630a82",
    "cid": "18418963684431956610",
    "reviewsCount": 16,
    "imagesCount": 36,
    "imageCategories": [],
    "scrapedAt": "2025-06-22T05:14:15.017Z",
    "googleFoodUrl": null,
    "hotelAds": [],
    "openingHours": [
      {
        "day": "Monday",
        "hours": "8 AM to 1:30 PM, 2 to 8 PM"
      },
      {
        "day": "Tuesday",
        "hours": "8 AM to 1:30 PM, 2 to 8 PM"
      },
      {
        "day": "Wednesday",
        "hours": "8 AM to 1:30 PM, 2 to 8 PM"
      },
      {
        "day": "Thursday",
        "hours": "8 AM to 1:30 PM, 2 to 8 PM"
      },
      {
        "day": "Friday",
        "hours": "8 AM to 1:30 PM, 2 to 8 PM"
      },
      {
        "day": "Saturday",
        "hours": "9 AM to 1:30 PM, 2 to 6 PM"
      },
      {
        "day": "Sunday",
        "hours": "10 AM to 1:30 PM, 2 to 6 PM"
      }
    ],
    "peopleAlsoSearch": [],
    "placesTags": [],
    "reviewsTags": [],
    "additionalInfo": {
      "Service options": [
        {
          "Delivery": true
        },
        {
          "Drive-through": true
        },
        {
          "In-store shopping": true
        }
      ],
      "Accessibility": [
        {
          "Wheelchair accessible entrance": true
        },
        {
          "Wheelchair accessible parking lot": true
        }
      ],
      "Offerings": [
        {
          "Naloxone": true
        },
        {
          "Passport photos": true
        }
      ],
      "Crowd": [
        {
          "LGBTQ+ friendly": true
        },
        {
          "Transgender safespace": true
        }
      ],
      "Planning": [
        {
          "Quick visit": true
        }
      ],
      "Payments": [
        {
          "Credit cards": true
        },
        {
          "Debit cards": true
        },
        {
          "NFC mobile payments": true
        },
        {
          "SNAP/EBT": true
        },
        {
          "Credit cards": true
        }
      ]
    },
    "gasPrices": [],
    "url": "https://www.google.com/maps/search/?api=1&query=CVS%20Pharmacy&query_place_id=ChIJnY-6BZ7iFYgRggpjFeJNnf8",
    "searchPageUrl": "https://www.google.com/maps/search/independent%20pharmacy%20Fort%20Wayne%20IN/@66.43262335305997,-150.80891300000008,9z?hl=en",
    "searchString": "independent pharmacy Fort Wayne IN",
    "language": "en",
    "rank": 9,
    "isAdvertisement": false,
    "imageUrl": "https://lh3.googleusercontent.com/p/AF1QipOXAAMlCSlijVmJOt37xAqw3p9i9eZXiDZsslB3=w408-h272-k-no",
    "kgmid": "/g/11c4673qyp"
  },
  {
    "title": "Kellstrom Pharmacy",
    "price": null,
    "categoryName": "Pharmacy",
    "address": "1860 Claflin Rd, Manhattan, KS 66502",
    "neighborhood": null,
    "street": "1860 Claflin Rd",
    "city": "Manhattan",
    "postalCode": "66502",
    "state": "Kansas",
    "countryCode": "US",
    "website": "https://www.mygnp.com/pharmacies/kellstrom-pharmacy-manhattan-ks-66502/?utm_source=google&utm_medium=local&utm_campaign=localmaps&utm_content=1708443",
    "phone": "(785) 776-1200",
    "phoneUnformatted": "+17857761200",
    "claimThisBusiness": false,
    "location": {
      "lat": 39.1932324,
      "lng": -96.5889708
    },
    "totalScore": 4.9,
    "permanentlyClosed": false,
    "temporarilyClosed": false,
    "placeId": "ChIJR_rQiY3NvYcRvFRBzEaZ6EQ",
    "categories": [
      "Pharmacy",
      "Drug store"
    ],
    "fid": "0x87bdcd8d89d0fa47:0x44e89946cc4154bc",
    "cid": "4965387118529565884",
    "reviewsCount": 27,
    "imagesCount": 3,
    "imageCategories": [],
    "scrapedAt": "2025-06-22T05:14:31.333Z",
    "googleFoodUrl": null,
    "hotelAds": [],
    "openingHours": [
      {
        "day": "Monday",
        "hours": "8:30 AM to 6 PM"
      },
      {
        "day": "Tuesday",
        "hours": "8:30 AM to 6 PM"
      },
      {
        "day": "Wednesday",
        "hours": "8:30 AM to 6 PM"
      },
      {
        "day": "Thursday",
        "hours": "8:30 AM to 6 PM"
      },
      {
        "day": "Friday",
        "hours": "8:30 AM to 6 PM"
      },
      {
        "day": "Saturday",
        "hours": "8:30 AM to 1 PM"
      },
      {
        "day": "Sunday",
        "hours": "Closed"
      }
    ],
    "peopleAlsoSearch": [],
    "placesTags": [],
    "reviewsTags": [],
    "additionalInfo": {
      "Service options": [
        {
          "Curbside pickup": true
        },
        {
          "Delivery": true
        },
        {
          "In-store pickup": true
        },
        {
          "In-store shopping": true
        },
        {
          "Onsite services": true
        },
        {
          "Same-day delivery": true
        }
      ],
      "Accessibility": [
        {
          "Wheelchair accessible entrance": true
        },
        {
          "Wheelchair accessible parking lot": true
        }
      ],
      "Planning": [
        {
          "Quick visit": true
        }
      ],
      "Payments": [
        {
          "Checks": true
        },
        {
          "Credit cards": true
        },
        {
          "Debit cards": true
        },
        {
          "Credit cards": true
        }
      ]
    },
    "gasPrices": [],
    "url": "https://www.google.com/maps/search/?api=1&query=Kellstrom%20Pharmacy&query_place_id=ChIJR_rQiY3NvYcRvFRBzEaZ6EQ",
    "searchPageUrl": "https://www.google.com/maps/search/independent%20pharmacy%20Fort%20Wayne%20IN/@39.68245004733214,-99.1509755427839,8z?hl=en",
    "searchString": "independent pharmacy Fort Wayne IN",
    "language": "en",
    "rank": 4,
    "isAdvertisement": false,
    "imageUrl": "https://streetviewpixels-pa.googleapis.com/v1/thumbnail?panoid=hg9J5D0tsX8GkM3F_CUC-g&cb_client=search.gws-prod.gps&w=408&h=240&yaw=138.17534&pitch=0&thumbfov=100",
    "kgmid": "/g/1tgn57kz"
  },
  {
    "title": "Dougherty's Pharmacy",
    "price": null,
    "categoryName": "Pharmacy",
    "address": "12835 Preston Rd Suite 202, Dallas, TX 75230",
    "neighborhood": "North Dallas",
    "street": "12835 Preston Rd Suite 202",
    "city": "Dallas",
    "postalCode": "75230",
    "state": "Texas",
    "countryCode": "US",
    "website": "http://www.doughertys.com/",
    "phone": "(214) 373-5300",
    "phoneUnformatted": "+12143735300",
    "claimThisBusiness": false,
    "location": {
      "lat": 32.9243579,
      "lng": -96.8040371
    },
    "totalScore": 3.4,
    "permanentlyClosed": false,
    "temporarilyClosed": false,
    "placeId": "ChIJ6RJGLp0gTIYRB8s_3K7s2eI",
    "categories": [
      "Pharmacy"
    ],
    "fid": "0x864c209d2e4612e9:0xe2d9ecaedc3fcb07",
    "cid": "16346356558281558791",
    "reviewsCount": 216,
    "imagesCount": 70,
    "imageCategories": [],
    "scrapedAt": "2025-06-22T05:14:33.687Z",
    "googleFoodUrl": null,
    "hotelAds": [],
    "openingHours": [
      {
        "day": "Monday",
        "hours": "9 AM to 6 PM"
      },
      {
        "day": "Tuesday",
        "hours": "9 AM to 6 PM"
      },
      {
        "day": "Wednesday",
        "hours": "9 AM to 6 PM"
      },
      {
        "day": "Thursday",
        "hours": "9 AM to 6 PM"
      },
      {
        "day": "Friday",
        "hours": "9 AM to 6 PM"
      },
      {
        "day": "Saturday",
        "hours": "9 AM to 4 PM"
      },
      {
        "day": "Sunday",
        "hours": "Closed"
      }
    ],
    "peopleAlsoSearch": [],
    "placesTags": [],
    "reviewsTags": [],
    "additionalInfo": {
      "Service options": [
        {
          "Delivery": true
        },
        {
          "Drive-through": true
        },
        {
          "In-store pickup": true
        },
        {
          "In-store shopping": true
        },
        {
          "Onsite services": true
        },
        {
          "Same-day delivery": true
        }
      ],
      "Accessibility": [
        {
          "Wheelchair accessible entrance": true
        },
        {
          "Wheelchair accessible parking lot": true
        },
        {
          "Wheelchair accessible restroom": true
        },
        {
          "Wheelchair accessible seating": true
        }
      ],
      "Crowd": [
        {
          "LGBTQ+ friendly": true
        },
        {
          "Transgender safespace": true
        }
      ],
      "Planning": [
        {
          "Quick visit": true
        }
      ],
      "Payments": [
        {
          "Checks": true
        },
        {
          "Credit cards": true
        },
        {
          "Debit cards": true
        },
        {
          "NFC mobile payments": true
        },
        {
          "Credit cards": true
        }
      ]
    },
    "gasPrices": [],
    "url": "https://www.google.com/maps/search/?api=1&query=Dougherty's%20Pharmacy&query_place_id=ChIJ6RJGLp0gTIYRB8s_3K7s2eI",
    "searchPageUrl": "https://www.google.com/maps/search/independent%20pharmacy%20Fort%20Wayne%20IN/@31.09059240533574,-95.98474960000003,8z?hl=en",
    "searchString": "independent pharmacy Fort Wayne IN",
    "language": "en",
    "rank": 8,
    "isAdvertisement": false,
    "imageUrl": "https://lh3.googleusercontent.com/gps-cs-s/AC9h4npwNB6fQtdHaG5VEhTuLFlws6UHJWI42-LcdzNbpgk2oYt3aauWGzF3esEMGwox0Bjd9AtCllE4_LYReDitimdHycC00-wZ1gmzI4PcVEcJgGAboHwarEPLzUymh24xkvNJdWQi=w426-h240-k-no",
    "kgmid": "/g/1tdr3qdg"
  },
  {
    "title": "Grove Pharmacy LLC",
    "price": null,
    "categoryName": "Pharmacy",
    "address": "123 Grove St, Montclair, NJ 07042, United States",
    "neighborhood": null,
    "street": "123 Grove St",
    "city": "Montclair",
    "postalCode": "07042",
    "state": "New Jersey",
    "countryCode": "US",
    "website": "https://www.mygnp.com/pharmacies/grove-pharmacy-montclair-nj-07042/",
    "phone": "+1 973-744-0030",
    "phoneUnformatted": "+19737440030",
    "claimThisBusiness": false,
    "location": {
      "lat": 40.8156693,
      "lng": -74.2070108
    },
    "totalScore": 3.9,
    "permanentlyClosed": false,
    "temporarilyClosed": false,
    "placeId": "ChIJNW1O709VwokRVPVbZxt_ipE",
    "categories": [
      "Pharmacy"
    ],
    "fid": "0x89c2554fef4e6d35:0x918a7f1b675bf554",
    "cid": "10487334437960545620",
    "reviewsCount": 106,
    "imagesCount": 34,
    "imageCategories": [],
    "scrapedAt": "2025-06-22T05:14:39.246Z",
    "googleFoodUrl": null,
    "hotelAds": [],
    "openingHours": [
      {
        "day": "Monday",
        "hours": "8:30 AM to 8 PM"
      },
      {
        "day": "Tuesday",
        "hours": "8:30 AM to 8 PM"
      },
      {
        "day": "Wednesday",
        "hours": "8:30 AM to 8 PM"
      },
      {
        "day": "Thursday",
        "hours": "8:30 AM to 8 PM"
      },
      {
        "day": "Friday",
        "hours": "8:30 AM to 8 PM"
      },
      {
        "day": "Saturday",
        "hours": "8:30 AM to 5 PM"
      },
      {
        "day": "Sunday",
        "hours": "Closed"
      }
    ],
    "peopleAlsoSearch": [],
    "placesTags": [],
    "reviewsTags": [],
    "additionalInfo": {
      "Service options": [
        {
          "Delivery": true
        },
        {
          "In-store pick-up": true
        },
        {
          "In-store shopping": true
        },
        {
          "On-site services": true
        },
        {
          "Same-day delivery": true
        }
      ],
      "Accessibility": [
        {
          "Wheelchair-accessible car park": true
        },
        {
          "Wheelchair-accessible entrance": true
        }
      ],
      "Planning": [
        {
          "Quick visit": true
        }
      ],
      "Payments": [
        {
          "Credit cards": true
        },
        {
          "Debit cards": true
        },
        {
          "NFC mobile payments": true
        },
        {
          "Credit cards": true
        }
      ],
      "Parking": [
        {
          "On-site parking": true
        }
      ]
    },
    "gasPrices": [],
    "url": "https://www.google.com/maps/search/?api=1&query=Grove%20Pharmacy%20LLC&query_place_id=ChIJNW1O709VwokRVPVbZxt_ipE",
    "searchPageUrl": "https://www.google.com/maps/search/independent%20pharmacy%20Fort%20Wayne%20IN/@39.68245004733214,-76.98739394329682,8z?hl=en",
    "searchString": "independent pharmacy Fort Wayne IN",
    "language": "en",
    "rank": 4,
    "isAdvertisement": false,
    "imageUrl": "https://lh3.googleusercontent.com/p/AF1QipPbUDYEEAd409Um0DyabCfv3BQe7AdXrUqIKGUr=w408-h306-k-no",
    "kgmid": "/g/1tfp_rgw"
  }
]