[
  {
    "title": "Apotheco Pharmacy Choice Las Vegas",
    "price": null,
    "categoryName": "Pharmacy",
    "address": "7915 W Sahara Ave #103, Las Vegas, NV 89117",
    "neighborhood": "West Sahara",
    "street": "7915 W Sahara Ave #103",
    "city": "Las Vegas",
    "postalCode": "89117",
    "state": "Nevada",
    "countryCode": "US",
    "website": "https://www.apothecopharmacy.com/location/apotheco-pharmacy-choice-las-vegas/",
    "phone": "(702) 487-5207",
    "phoneUnformatted": "+17024875207",
    "claimThisBusiness": false,
    "location": {
      "lat": 36.1427174,
      "lng": -115.2636837
    },
    "totalScore": 4.8,
    "permanentlyClosed": false,
    "temporarilyClosed": false,
    "placeId": "ChIJGZkUML7AyIARfN7M5rmzNv8",
    "categories": [
      "Pharmacy",
      "Dermatologist"
    ],
    "fid": "0x80c8c0be30149919:0xff36b3b9e6ccde7c",
    "cid": "18390083739436506748",
    "reviewsCount": 287,
    "imagesCount": 7,
    "imageCategories": [],
    "scrapedAt": "2025-06-22T08:42:53.920Z",
    "googleFoodUrl": null,
    "hotelAds": [],
    "openingHours": [
      {
        "day": "Monday",
        "hours": "9:30 AM to 6 PM"
      },
      {
        "day": "Tuesday",
        "hours": "9:30 AM to 6 PM"
      },
      {
        "day": "Wednesday",
        "hours": "9:30 AM to 6 PM"
      },
      {
        "day": "Thursday",
        "hours": "9:30 AM to 6 PM"
      },
      {
        "day": "Friday",
        "hours": "9:30 AM to 6 PM"
      },
      {
        "day": "Saturday",
        "hours": "Closed"
      },
      {
        "day": "Sunday",
        "hours": "Closed"
      }
    ],
    "peopleAlsoSearch": [],
    "placesTags": [],
    "reviewsTags": [],
    "additionalInfo": {
      "Service options": [
        {
          "Delivery": true
        },
        {
          "In-store pickup": true
        },
        {
          "In-store shopping": true
        },
        {
          "Onsite services": true
        },
        {
          "Same-day delivery": true
        }
      ],
      "Accessibility": [
        {
          "Wheelchair accessible entrance": true
        },
        {
          "Wheelchair accessible parking lot": true
        }
      ],
      "Payments": [
        {
          "Credit cards": true
        },
        {
          "Debit cards": true
        },
        {
          "NFC mobile payments": true
        },
        {
          "Credit cards": true
        }
      ]
    },
    "gasPrices": [],
    "url": "https://www.google.com/maps/search/?api=1&query=Apotheco%20Pharmacy%20Choice%20Las%20Vegas&query_place_id=ChIJGZkUML7AyIARfN7M5rmzNv8",
    "searchPageUrl": "https://www.google.com/maps/search/independent%20pharmacy%20Las%20Vegas%20NV/@59.25289458975259,-146.73244095711368,12z?hl=en",
    "searchString": "independent pharmacy Las Vegas NV",
    "language": "en",
    "rank": 1,
    "isAdvertisement": false,
    "imageUrl": "https://lh3.googleusercontent.com/p/AF1QipOlWeRovujG5DN91PbqQBb7kaJXnw8FpyxZ3HWK=w408-h250-k-no",
    "kgmid": "/g/11cnnwkhcc"
  },
  {
    "title": "All In One Pharmacy",
    "price": null,
    "categoryName": "Pharmacy",
    "address": "2080 E Flamingo Rd, Las Vegas, NV 89119",
    "neighborhood": null,
    "street": "2080 E Flamingo Rd",
    "city": "Las Vegas",
    "postalCode": "89119",
    "state": "Nevada",
    "countryCode": "US",
    "website": "https://legalpharmaceutics.com/",
    "phone": "(702) 697-6501",
    "phoneUnformatted": "+17026976501",
    "claimThisBusiness": false,
    "location": {
      "lat": 36.1153391,
      "lng": -115.1246948
    },
    "totalScore": 4.8,
    "permanentlyClosed": false,
    "temporarilyClosed": false,
    "placeId": "ChIJg1FyIuLEyIARZlDenXk6bEg",
    "categories": [
      "Pharmacy"
    ],
    "fid": "0x80c8c4e222725183:0x486c3a799dde5066",
    "cid": "5218610362229608550",
    "reviewsCount": 52,
    "imagesCount": 2,
    "imageCategories": [],
    "scrapedAt": "2025-06-22T08:42:53.921Z",
    "googleFoodUrl": null,
    "hotelAds": [],
    "openingHours": [
      {
        "day": "Monday",
        "hours": "9 AM to 5 PM"
      },
      {
        "day": "Tuesday",
        "hours": "9 AM to 5 PM"
      },
      {
        "day": "Wednesday",
        "hours": "9 AM to 5 PM"
      },
      {
        "day": "Thursday",
        "hours": "9 AM to 5 PM"
      },
      {
        "day": "Friday",
        "hours": "9 AM to 5 PM"
      },
      {
        "day": "Saturday",
        "hours": "Closed"
      },
      {
        "day": "Sunday",
        "hours": "Closed"
      }
    ],
    "peopleAlsoSearch": [],
    "placesTags": [],
    "reviewsTags": [],
    "additionalInfo": {
      "From the business": [
        {
          "Small business": true
        }
      ],
      "Service options": [
        {
          "Delivery": true
        }
      ],
      "Accessibility": [
        {
          "Wheelchair accessible entrance": true
        },
        {
          "Wheelchair accessible parking lot": true
        }
      ],
      "Planning": [
        {
          "Quick visit": true
        }
      ],
      "Payments": [
        {
          "Credit cards": true
        },
        {
          "Debit cards": true
        },
        {
          "Credit cards": true
        }
      ]
    },
    "gasPrices": [],
    "url": "https://www.google.com/maps/search/?api=1&query=All%20In%20One%20Pharmacy&query_place_id=ChIJg1FyIuLEyIARZlDenXk6bEg",
    "searchPageUrl": "https://www.google.com/maps/search/independent%20pharmacy%20Las%20Vegas%20NV/@59.25289458975259,-146.73244095711368,12z?hl=en",
    "searchString": "independent pharmacy Las Vegas NV",
    "language": "en",
    "rank": 2,
    "isAdvertisement": false,
    "imageUrl": "https://lh3.googleusercontent.com/gps-cs-s/AC9h4np1LMz4oiReFXdcvGMl9CQH9CYgOw9TmCGgF2_ujWad4Oljt0WZIoLJd-4w9muSwCmoJaw8Vs8K3GSbyC4t8v1mxZowrED9Vs7xtw0yrFQwwRS2NsuZFV0c1EPgDxzUuQlKWtl7=w426-h240-k-no",
    "kgmid": "/g/1tdw3rw3"
  },
  {
    "title": "Elite Rx Compounding Pharmacy and Wellness Store",
    "price": null,
    "categoryName": "Pharmacy",
    "address": "4845 S Rainbow Blvd STE 403, Las Vegas, NV 89103",
    "neighborhood": null,
    "street": "4845 S Rainbow Blvd STE 403",
    "city": "Las Vegas",
    "postalCode": "89103",
    "state": "Nevada",
    "countryCode": "US",
    "website": "https://www.eliterxlv.com/",
    "phone": "(702) 538-9388",
    "phoneUnformatted": "+17025389388",
    "claimThisBusiness": false,
    "location": {
      "lat": 36.1009676,
      "lng": -115.2446881
    },
    "totalScore": 5,
    "permanentlyClosed": false,
    "temporarilyClosed": false,
    "placeId": "ChIJ45D4v-7HyIARK5xtryKcfWU",
    "categories": [
      "Pharmacy"
    ],
    "fid": "0x80c8c7eebff890e3:0x657d9c22af6d9c2b",
    "cid": "7313173042705570859",
    "reviewsCount": 18,
    "imagesCount": 8,
    "imageCategories": [],
    "scrapedAt": "2025-06-22T08:42:53.921Z",
    "googleFoodUrl": null,
    "hotelAds": [],
    "openingHours": [
      {
        "day": "Monday",
        "hours": "9 AM to 4 PM"
      },
      {
        "day": "Tuesday",
        "hours": "9 AM to 5 PM"
      },
      {
        "day": "Wednesday",
        "hours": "9 AM to 5 PM"
      },
      {
        "day": "Thursday",
        "hours": "9 AM to 5 PM"
      },
      {
        "day": "Friday",
        "hours": "9 AM to 5 PM"
      },
      {
        "day": "Saturday",
        "hours": "Closed"
      },
      {
        "day": "Sunday",
        "hours": "Closed"
      }
    ],
    "peopleAlsoSearch": [],
    "placesTags": [],
    "reviewsTags": [],
    "additionalInfo": {
      "Service options": [
        {
          "Delivery": true
        },
        {
          "In-store pickup": true
        },
        {
          "In-store shopping": true
        },
        {
          "Onsite services": true
        },
        {
          "Same-day delivery": true
        }
      ],
      "Accessibility": [
        {
          "Wheelchair accessible entrance": true
        },
        {
          "Wheelchair accessible parking lot": true
        }
      ],
      "Payments": [
        {
          "Credit cards": true
        },
        {
          "Debit cards": true
        },
        {
          "Credit cards": true
        }
      ],
      "Parking": [
        {
          "Free parking lot": true
        }
      ]
    },
    "gasPrices": [],
    "url": "https://www.google.com/maps/search/?api=1&query=Elite%20Rx%20Compounding%20Pharmacy%20and%20Wellness%20Store&query_place_id=ChIJ45D4v-7HyIARK5xtryKcfWU",
    "searchPageUrl": "https://www.google.com/maps/search/independent%20pharmacy%20Las%20Vegas%20NV/@59.25289458975259,-146.73244095711368,12z?hl=en",
    "searchString": "independent pharmacy Las Vegas NV",
    "language": "en",
    "rank": 3,
    "isAdvertisement": false,
    "imageUrl": "https://lh3.googleusercontent.com/gps-cs-s/AC9h4nqRTkDMNwVXd0_Q_V1VBIYihbTYE-Y6UiKgbh05y6UBMUl1BUlDN5FetyCMlGfYr_aAPeWPg5x634EPOdTDctaOltuOoowUy5A9SkNtQIDK1HhXZGqezn7BjBZ2DJkyXbauNjk=w408-h544-k-no",
    "kgmid": "/g/11y5tzbfcn"
  },
  {
    "title": "Vegas Pharmacy",
    "price": null,
    "categoryName": "Pharmacy",
    "address": "8352 W Warm Springs Rd Suite #330, Las Vegas, NV 89113",
    "neighborhood": null,
    "street": "8352 W Warm Springs Rd Suite #330",
    "city": "Las Vegas",
    "postalCode": "89113",
    "state": "Nevada",
    "countryCode": "US",
    "website": "https://www.thedocsnv.com/services/vegas-pharmacy/",
    "phone": "(702) 410-5620",
    "phoneUnformatted": "+17024105620",
    "claimThisBusiness": false,
    "location": {
      "lat": 36.0563098,
      "lng": -115.2738958
    },
    "totalScore": 4.8,
    "permanentlyClosed": false,
    "temporarilyClosed": false,
    "placeId": "ChIJRbOTSkHHyIARCKWtvwvm93E",
    "categories": [
      "Pharmacy"
    ],
    "fid": "0x80c8c7414a93b345:0x71f7e60bbfada508",
    "cid": "8212285383668245768",
    "reviewsCount": 14,
    "imagesCount": 8,
    "imageCategories": [],
    "scrapedAt": "2025-06-22T08:42:53.921Z",
    "googleFoodUrl": null,
    "hotelAds": [],
    "openingHours": [
      {
        "day": "Monday",
        "hours": "8 AM to 5 PM"
      },
      {
        "day": "Tuesday",
        "hours": "8 AM to 5 PM"
      },
      {
        "day": "Wednesday",
        "hours": "8 AM to 5 PM"
      },
      {
        "day": "Thursday",
        "hours": "8 AM to 5 PM"
      },
      {
        "day": "Friday",
        "hours": "8 AM to 5 PM"
      },
      {
        "day": "Saturday",
        "hours": "Closed"
      },
      {
        "day": "Sunday",
        "hours": "Closed"
      }
    ],
    "peopleAlsoSearch": [],
    "placesTags": [],
    "reviewsTags": [],
    "additionalInfo": {
      "From the business": [
        {
          "Small business": true
        }
      ],
      "Service options": [
        {
          "Delivery": true
        },
        {
          "In-store pickup": true
        },
        {
          "In-store shopping": true
        }
      ],
      "Accessibility": [
        {
          "Wheelchair accessible entrance": true
        },
        {
          "Wheelchair accessible parking lot": true
        },
        {
          "Wheelchair accessible restroom": true
        },
        {
          "Wheelchair accessible seating": true
        }
      ],
      "Payments": [
        {
          "Checks": true
        },
        {
          "Credit cards": true
        },
        {
          "Debit cards": true
        },
        {
          "Credit cards": true
        }
      ]
    },
    "gasPrices": [],
    "url": "https://www.google.com/maps/search/?api=1&query=Vegas%20Pharmacy&query_place_id=ChIJRbOTSkHHyIARCKWtvwvm93E",
    "searchPageUrl": "https://www.google.com/maps/search/independent%20pharmacy%20Las%20Vegas%20NV/@59.25289458975259,-146.73244095711368,12z?hl=en",
    "searchString": "independent pharmacy Las Vegas NV",
    "language": "en",
    "rank": 4,
    "isAdvertisement": false,
    "imageUrl": "https://lh3.googleusercontent.com/p/AF1QipPC3I6gVf3Bsg-l7RzfYM2eetG5TxgcHr7Ir0tf=w426-h240-k-no",
    "kgmid": "/g/11pb94w75t"
  },
  {
    "title": "Monicos Pharmacy",
    "price": null,
    "categoryName": "Pharmacy",
    "address": "2701 N Tenaya Wy #120, Las Vegas, NV 89128",
    "neighborhood": "Twin Lakes",
    "street": "2701 N Tenaya Wy #120",
    "city": "Las Vegas",
    "postalCode": "89128",
    "state": "Nevada",
    "countryCode": "US",
    "website": "http://www.monicospharmacy.com/",
    "phone": "(702) 505-4898",
    "phoneUnformatted": "+17025054898",
    "claimThisBusiness": false,
    "location": {
      "lat": 36.209638,
      "lng": -115.2502384
    },
    "totalScore": 4.6,
    "permanentlyClosed": false,
    "temporarilyClosed": false,
    "placeId": "ChIJp2Oo5CvryIAREuwdHgUYO6c",
    "categories": [
      "Pharmacy"
    ],
    "fid": "0x80c8eb2be4a863a7:0xa73b18051e1dec12",
    "cid": "12050251638219074578",
    "reviewsCount": 57,
    "imagesCount": 10,
    "imageCategories": [],
    "scrapedAt": "2025-06-22T08:42:53.921Z",
    "googleFoodUrl": null,
    "hotelAds": [],
    "openingHours": [
      {
        "day": "Monday",
        "hours": "9 AM to 5 PM"
      },
      {
        "day": "Tuesday",
        "hours": "9 AM to 5 PM"
      },
      {
        "day": "Wednesday",
        "hours": "9 AM to 5 PM"
      },
      {
        "day": "Thursday",
        "hours": "9 AM to 5 PM"
      },
      {
        "day": "Friday",
        "hours": "9 AM to 5 PM"
      },
      {
        "day": "Saturday",
        "hours": "Closed"
      },
      {
        "day": "Sunday",
        "hours": "Closed"
      }
    ],
    "additionalOpeningHours": {
      "Delivery": [
        {
          "day": "Monday",
          "hours": "Closed"
        },
        {
          "day": "Tuesday",
          "hours": "9 AM–5 PM"
        },
        {
          "day": "Wednesday",
          "hours": "Closed"
        },
        {
          "day": "Thursday",
          "hours": "Closed"
        },
        {
          "day": "Friday",
          "hours": "Closed"
        },
        {
          "day": "Saturday",
          "hours": "Closed"
        },
        {
          "day": "Sunday",
          "hours": "Closed"
        }
      ]
    },
    "peopleAlsoSearch": [],
    "placesTags": [],
    "reviewsTags": [],
    "additionalInfo": {
      "From the business": [
        {
          "Identifies as Latino-owned": true
        },
        {
          "Identifies as women-owned": true
        },
        {
          "Small business": true
        }
      ],
      "Service options": [
        {
          "Curbside pickup": true
        },
        {
          "Delivery": true
        },
        {
          "In-store pickup": true
        },
        {
          "In-store shopping": true
        },
        {
          "Same-day delivery": true
        }
      ],
      "Accessibility": [
        {
          "Wheelchair accessible entrance": true
        },
        {
          "Wheelchair accessible parking lot": true
        }
      ],
      "Amenities": [
        {
          "Wi-Fi": true
        },
        {
          "Free Wi-Fi": true
        }
      ],
      "Crowd": [
        {
          "LGBTQ+ friendly": true
        },
        {
          "Transgender safespace": true
        }
      ],
      "Payments": [
        {
          "Credit cards": true
        },
        {
          "Debit cards": true
        },
        {
          "NFC mobile payments": true
        },
        {
          "Credit cards": true
        }
      ]
    },
    "gasPrices": [],
    "url": "https://www.google.com/maps/search/?api=1&query=Monicos%20Pharmacy&query_place_id=ChIJp2Oo5CvryIAREuwdHgUYO6c",
    "searchPageUrl": "https://www.google.com/maps/search/independent%20pharmacy%20Las%20Vegas%20NV/@59.25289458975259,-146.73244095711368,12z?hl=en",
    "searchString": "independent pharmacy Las Vegas NV",
    "language": "en",
    "rank": 5,
    "isAdvertisement": false,
    "imageUrl": "https://lh3.googleusercontent.com/p/AF1QipOGyFwZh5dYk6mL3853Clpm1A93Ipckh5wViuTB=w408-h407-k-no",
    "kgmid": "/g/11hn4j3dv1"
  },
  {
    "title": "Vesper Specialty Pharmacy",
    "price": null,
    "categoryName": "Pharmacy",
    "address": "4225 S Eastern Ave #16, Las Vegas, NV 89119",
    "neighborhood": null,
    "street": "4225 S Eastern Ave #16",
    "city": "Las Vegas",
    "postalCode": "89119",
    "state": "Nevada",
    "countryCode": "US",
    "website": "http://www.vesperrx.com/",
    "phone": "(702) 333-4377",
    "phoneUnformatted": "+17023334377",
    "claimThisBusiness": false,
    "location": {
      "lat": 36.1125126,
      "lng": -115.1194648
    },
    "totalScore": 4.8,
    "permanentlyClosed": false,
    "temporarilyClosed": false,
    "placeId": "ChIJ_awCox_FyIAR9wwKPEothTk",
    "categories": [
      "Pharmacy",
      "Drug store"
    ],
    "fid": "0x80c8c51fa302acfd:0x39852d4a3c0a0cf7",
    "cid": "4144768828922531063",
    "reviewsCount": 44,
    "imagesCount": 40,
    "imageCategories": [],
    "scrapedAt": "2025-06-22T08:42:53.921Z",
    "googleFoodUrl": null,
    "hotelAds": [],
    "openingHours": [
      {
        "day": "Monday",
        "hours": "9 AM to 5:30 PM"
      },
      {
        "day": "Tuesday",
        "hours": "9 AM to 5:30 PM"
      },
      {
        "day": "Wednesday",
        "hours": "9 AM to 5:30 PM"
      },
      {
        "day": "Thursday",
        "hours": "9 AM to 5:30 PM"
      },
      {
        "day": "Friday",
        "hours": "9 AM to 5:30 PM"
      },
      {
        "day": "Saturday",
        "hours": "Closed"
      },
      {
        "day": "Sunday",
        "hours": "Closed"
      }
    ],
    "peopleAlsoSearch": [],
    "placesTags": [],
    "reviewsTags": [],
    "additionalInfo": {
      "From the business": [
        {
          "Small business": true
        }
      ],
      "Service options": [
        {
          "Curbside pickup": true
        },
        {
          "Delivery": true
        },
        {
          "In-store pickup": true
        },
        {
          "In-store shopping": true
        },
        {
          "Onsite services": true
        },
        {
          "Same-day delivery": true
        },
        {
          "Spanish": true
        }
      ],
      "Accessibility": [
        {
          "Wheelchair accessible entrance": true
        },
        {
          "Wheelchair accessible parking lot": true
        }
      ],
      "Crowd": [
        {
          "LGBTQ+ friendly": true
        }
      ],
      "Planning": [
        {
          "Quick visit": true
        }
      ],
      "Payments": [
        {
          "Checks": true
        },
        {
          "Credit cards": true
        },
        {
          "Debit cards": true
        },
        {
          "NFC mobile payments": true
        },
        {
          "Credit cards": true
        }
      ]
    },
    "gasPrices": [],
    "url": "https://www.google.com/maps/search/?api=1&query=Vesper%20Specialty%20Pharmacy&query_place_id=ChIJ_awCox_FyIAR9wwKPEothTk",
    "searchPageUrl": "https://www.google.com/maps/search/independent%20pharmacy%20Las%20Vegas%20NV/@59.25289458975259,-146.73244095711368,12z?hl=en",
    "searchString": "independent pharmacy Las Vegas NV",
    "language": "en",
    "rank": 6,
    "isAdvertisement": false,
    "imageUrl": "https://lh3.googleusercontent.com/p/AF1QipNCeia4B4otnWGzj9rgaRnaTlEwI6vErO-TywDX=w408-h306-k-no",
    "kgmid": "/g/11dyf4m9b0"
  },
  {
    "title": "West Cheyenne Pharmacy",
    "price": null,
    "categoryName": "Pharmacy",
    "address": "3350 Novat St suite 110, Las Vegas, NV 89129",
    "neighborhood": "Lone Mountain",
    "street": "3350 Novat St suite 110",
    "city": "Las Vegas",
    "postalCode": "89129",
    "state": "Nevada",
    "countryCode": "US",
    "website": "http://www.westcheyennepharmacy.com/",
    "phone": "(702) 395-3004",
    "phoneUnformatted": "+17023953004",
    "claimThisBusiness": false,
    "location": {
      "lat": 36.2212931,
      "lng": -115.3284491
    },
    "totalScore": 4.7,
    "permanentlyClosed": false,
    "temporarilyClosed": false,
    "placeId": "ChIJfdh2zAeVyIARpx2GGqApBIE",
    "categories": [
      "Pharmacy"
    ],
    "fid": "0x80c89507cc76d87d:0x810429a01a861da7",
    "cid": "9296601298416049575",
    "reviewsCount": 42,
    "imagesCount": 9,
    "imageCategories": [],
    "scrapedAt": "2025-06-22T08:42:53.922Z",
    "googleFoodUrl": null,
    "hotelAds": [],
    "openingHours": [
      {
        "day": "Monday",
        "hours": "9 AM to 6 PM"
      },
      {
        "day": "Tuesday",
        "hours": "9 AM to 6 PM"
      },
      {
        "day": "Wednesday",
        "hours": "9 AM to 6 PM"
      },
      {
        "day": "Thursday",
        "hours": "9 AM to 6 PM"
      },
      {
        "day": "Friday",
        "hours": "9 AM to 6 PM"
      },
      {
        "day": "Saturday",
        "hours": "10 AM to 2 PM"
      },
      {
        "day": "Sunday",
        "hours": "Closed"
      }
    ],
    "peopleAlsoSearch": [],
    "placesTags": [],
    "reviewsTags": [],
    "additionalInfo": {
      "From the business": [
        {
          "Identifies as Asian-owned": true
        },
        {
          "Identifies as women-owned": true
        },
        {
          "Small business": true
        }
      ],
      "Service options": [
        {
          "Delivery": true
        },
        {
          "In-store pickup": true
        },
        {
          "Onsite services": true
        },
        {
          "Same-day delivery": true
        }
      ],
      "Accessibility": [
        {
          "Wheelchair accessible entrance": true
        },
        {
          "Wheelchair accessible parking lot": true
        },
        {
          "Wheelchair accessible restroom": true
        }
      ],
      "Planning": [
        {
          "Quick visit": true
        }
      ],
      "Payments": [
        {
          "Credit cards": true
        },
        {
          "Debit cards": true
        },
        {
          "NFC mobile payments": true
        },
        {
          "Credit cards": true
        }
      ]
    },
    "gasPrices": [],
    "url": "https://www.google.com/maps/search/?api=1&query=West%20Cheyenne%20Pharmacy&query_place_id=ChIJfdh2zAeVyIARpx2GGqApBIE",
    "searchPageUrl": "https://www.google.com/maps/search/independent%20pharmacy%20Las%20Vegas%20NV/@59.25289458975259,-146.73244095711368,12z?hl=en",
    "searchString": "independent pharmacy Las Vegas NV",
    "language": "en",
    "rank": 7,
    "isAdvertisement": false,
    "imageUrl": "https://lh3.googleusercontent.com/gps-cs-s/AC9h4nqFrOqyTHsbikljP0ZnPO7vqshbukoLKWONghX8zKN8tNBer2-cCJ4hZ4qVVpuYw1z3cSVX9alXB3uSyjMxLuLbbA7dwW8db5XimknsudoCjNt_LRUbvmoz1h-_0qhAaXq1ENtE=w408-h544-k-no",
    "kgmid": "/g/11gg65z3kg"
  },
  {
    "title": "Meta Pharmacy Services",
    "price": null,
    "categoryName": "Pharmacy",
    "address": "8352 W Warm Springs Rd #120, Las Vegas, NV 89113",
    "neighborhood": null,
    "street": "8352 W Warm Springs Rd #120",
    "city": "Las Vegas",
    "postalCode": "89113",
    "state": "Nevada",
    "countryCode": "US",
    "website": "http://www.metapharmacyservices.com/",
    "phone": "(702) 754-0172",
    "phoneUnformatted": "+17027540172",
    "claimThisBusiness": false,
    "location": {
      "lat": 36.0563461,
      "lng": -115.2739272
    },
    "totalScore": 3.9,
    "permanentlyClosed": false,
    "temporarilyClosed": false,
    "placeId": "ChIJp5-lRPLHyIARzsGsIYjzW3M",
    "categories": [
      "Pharmacy",
      "Pharmaceutical lab"
    ],
    "fid": "0x80c8c7f244a59fa7:0x735bf38821acc1ce",
    "cid": "8312505303248454094",
    "reviewsCount": 49,
    "imagesCount": 16,
    "imageCategories": [],
    "scrapedAt": "2025-06-22T08:42:53.922Z",
    "googleFoodUrl": null,
    "hotelAds": [],
    "openingHours": [
      {
        "day": "Monday",
        "hours": "9 AM to 5:30 PM"
      },
      {
        "day": "Tuesday",
        "hours": "9 AM to 5:30 PM"
      },
      {
        "day": "Wednesday",
        "hours": "9 AM to 5:30 PM"
      },
      {
        "day": "Thursday",
        "hours": "9 AM to 5:30 PM"
      },
      {
        "day": "Friday",
        "hours": "9 AM to 5:30 PM"
      },
      {
        "day": "Saturday",
        "hours": "Closed"
      },
      {
        "day": "Sunday",
        "hours": "Closed"
      }
    ],
    "peopleAlsoSearch": [],
    "placesTags": [],
    "reviewsTags": [],
    "additionalInfo": {
      "From the business": [
        {
          "Small business": true
        }
      ],
      "Service options": [
        {
          "Delivery": true
        },
        {
          "In-store pickup": true
        },
        {
          "Same-day delivery": true
        },
        {
          "English": true
        }
      ],
      "Accessibility": [
        {
          "Wheelchair accessible entrance": true
        },
        {
          "Wheelchair accessible parking lot": true
        },
        {
          "Wheelchair accessible restroom": true
        },
        {
          "Wheelchair accessible seating": true
        }
      ],
      "Payments": [
        {
          "Credit cards": true
        }
      ],
      "Parking": [
        {
          "Free parking lot": true
        }
      ]
    },
    "gasPrices": [],
    "url": "https://www.google.com/maps/search/?api=1&query=Meta%20Pharmacy%20Services&query_place_id=ChIJp5-lRPLHyIARzsGsIYjzW3M",
    "searchPageUrl": "https://www.google.com/maps/search/independent%20pharmacy%20Las%20Vegas%20NV/@59.25289458975259,-146.73244095711368,12z?hl=en",
    "searchString": "independent pharmacy Las Vegas NV",
    "language": "en",
    "rank": 8,
    "isAdvertisement": false,
    "imageUrl": "https://lh3.googleusercontent.com/p/AF1QipOf4ljfAb1oDZLLHdWqLjs8DgXfBeSSgPFDjXN9=w408-h613-k-no",
    "kgmid": "/g/11clfk54x1"
  },
  {
    "title": "AHF Pharmacy - Las Vegas",
    "price": null,
    "categoryName": "Pharmacy",
    "address": "3201 S Maryland Pkwy Ste 218, Las Vegas, NV 89109",
    "neighborhood": null,
    "street": "3201 S Maryland Pkwy Ste 218",
    "city": "Las Vegas",
    "postalCode": "89109",
    "state": "Nevada",
    "countryCode": "US",
    "website": "https://ahfpharmacy.org/",
    "phone": "(702) 826-5310",
    "phoneUnformatted": "+17028265310",
    "claimThisBusiness": false,
    "location": {
      "lat": 36.1317178,
      "lng": -115.1378939
    },
    "totalScore": 3.7,
    "permanentlyClosed": false,
    "temporarilyClosed": false,
    "placeId": "ChIJ1yweJYvEyIARqS18kI88djQ",
    "categories": [
      "Pharmacy"
    ],
    "fid": "0x80c8c48b251e2cd7:0x34763c8f907c2da9",
    "cid": "3780275524526157225",
    "reviewsCount": 18,
    "imagesCount": 4,
    "imageCategories": [],
    "scrapedAt": "2025-06-22T08:42:53.922Z",
    "googleFoodUrl": null,
    "hotelAds": [],
    "openingHours": [
      {
        "day": "Monday",
        "hours": "8:30 AM to 5:30 PM"
      },
      {
        "day": "Tuesday",
        "hours": "10 AM to 7 PM"
      },
      {
        "day": "Wednesday",
        "hours": "8:30 AM to 5:30 PM"
      },
      {
        "day": "Thursday",
        "hours": "8:30 AM to 5:30 PM"
      },
      {
        "day": "Friday",
        "hours": "8:30 AM to 5:30 PM"
      },
      {
        "day": "Saturday",
        "hours": "Closed"
      },
      {
        "day": "Sunday",
        "hours": "Closed"
      }
    ],
    "peopleAlsoSearch": [],
    "placesTags": [],
    "reviewsTags": [],
    "additionalInfo": {
      "Service options": [
        {
          "Delivery": true
        },
        {
          "In-store pickup": true
        }
      ],
      "Accessibility": [
        {
          "Wheelchair accessible entrance": true
        },
        {
          "Wheelchair accessible parking lot": true
        }
      ],
      "Payments": [
        {
          "Credit cards": true
        },
        {
          "Credit cards": true
        }
      ]
    },
    "gasPrices": [],
    "url": "https://www.google.com/maps/search/?api=1&query=AHF%20Pharmacy%20-%20Las%20Vegas&query_place_id=ChIJ1yweJYvEyIARqS18kI88djQ",
    "searchPageUrl": "https://www.google.com/maps/search/independent%20pharmacy%20Las%20Vegas%20NV/@59.25289458975259,-146.73244095711368,12z?hl=en",
    "searchString": "independent pharmacy Las Vegas NV",
    "language": "en",
    "rank": 9,
    "isAdvertisement": false,
    "imageUrl": "https://lh3.googleusercontent.com/p/AF1QipOvs7fhCGpSOn2QdOVovXsiVcAsXj2b6-bmsw5a=w426-h240-k-no",
    "kgmid": "/g/11f105h2j4"
  },
  {
    "title": "QHR Pharmacy",
    "price": null,
    "categoryName": "Pharmacy",
    "address": "7512 Westcliff Dr, Las Vegas, NV 89145",
    "neighborhood": "Charleston",
    "street": "7512 Westcliff Dr",
    "city": "Las Vegas",
    "postalCode": "89145",
    "state": "Nevada",
    "countryCode": "US",
    "website": "http://www.qhrpharmacylv.com/",
    "phone": "(702) 331-6796",
    "phoneUnformatted": "+17023316796",
    "claimThisBusiness": false,
    "location": {
      "lat": 36.174265,
      "lng": -115.258837
    },
    "totalScore": 4.8,
    "permanentlyClosed": false,
    "temporarilyClosed": false,
    "placeId": "ChIJM1j6Q13AyIARwfW-izLXYzc",
    "categories": [
      "Pharmacy"
    ],
    "fid": "0x80c8c05d43fa5833:0x3763d7328bbef5c1",
    "cid": "3991270306873275841",
    "reviewsCount": 65,
    "imagesCount": 43,
    "imageCategories": [],
    "scrapedAt": "2025-06-22T08:42:53.922Z",
    "googleFoodUrl": null,
    "hotelAds": [],
    "openingHours": [
      {
        "day": "Monday",
        "hours": "9 AM to 7 PM"
      },
      {
        "day": "Tuesday",
        "hours": "9 AM to 7 PM"
      },
      {
        "day": "Wednesday",
        "hours": "9 AM to 7 PM"
      },
      {
        "day": "Thursday",
        "hours": "9 AM to 7 PM"
      },
      {
        "day": "Friday",
        "hours": "9 AM to 7 PM"
      },
      {
        "day": "Saturday",
        "hours": "10 AM to 4 PM"
      },
      {
        "day": "Sunday",
        "hours": "Closed"
      }
    ],
    "peopleAlsoSearch": [],
    "placesTags": [],
    "reviewsTags": [],
    "additionalInfo": {
      "From the business": [
        {
          "Small business": true
        }
      ],
      "Service options": [
        {
          "Delivery": true
        },
        {
          "In-store pickup": true
        },
        {
          "Same-day delivery": true
        }
      ],
      "Accessibility": [
        {
          "Wheelchair accessible entrance": true
        },
        {
          "Wheelchair accessible parking lot": true
        }
      ],
      "Planning": [
        {
          "Quick visit": true
        }
      ],
      "Payments": [
        {
          "Credit cards": true
        },
        {
          "Debit cards": true
        },
        {
          "NFC mobile payments": true
        }
      ]
    },
    "gasPrices": [],
    "url": "https://www.google.com/maps/search/?api=1&query=QHR%20Pharmacy&query_place_id=ChIJM1j6Q13AyIARwfW-izLXYzc",
    "searchPageUrl": "https://www.google.com/maps/search/independent%20pharmacy%20Las%20Vegas%20NV/@59.25289458975259,-146.73244095711368,12z?hl=en",
    "searchString": "independent pharmacy Las Vegas NV",
    "language": "en",
    "rank": 10,
    "isAdvertisement": false,
    "imageUrl": "https://lh3.googleusercontent.com/gps-cs-s/AC9h4nr7OoiMcDOnH67dKRLz9BRfsBx6ulvR-i_63WGwEkyICZu8ISLzpQ4_SDOYhiOzbNkkmv9244XuyKr5BmR8OW-AeWS_VUVXltqRwNJZNN10j28Z82N7sc88xjcLi8GJKxpRRw8cUA=w426-h240-k-no",
    "kgmid": "/g/1tdpmb_w"
  },
  {
    "title": "Avella Specialty Pharmacy",
    "price": null,
    "categoryName": "Pharmacy",
    "address": "701 Shadow Ln #110, Las Vegas, NV 89106",
    "neighborhood": "Rancho Oakey",
    "street": "701 Shadow Ln #110",
    "city": "Las Vegas",
    "postalCode": "89106",
    "state": "Nevada",
    "countryCode": "US",
    "website": "http://www.avella.com/avella-las-vegas",
    "phone": "(877) 480-1755",
    "phoneUnformatted": "+18774801755",
    "claimThisBusiness": true,
    "location": {
      "lat": 36.1623459,
      "lng": -115.1649292
    },
    "totalScore": 4.1,
    "permanentlyClosed": false,
    "temporarilyClosed": false,
    "placeId": "ChIJaXGjxZTDyIARdW6hMdW4-dk",
    "categories": [
      "Pharmacy"
    ],
    "fid": "0x80c8c394c5a37169:0xd9f9b8d531a16e75",
    "cid": "15706788401231523445",
    "reviewsCount": 39,
    "imagesCount": 2,
    "imageCategories": [],
    "scrapedAt": "2025-06-22T08:42:53.922Z",
    "googleFoodUrl": null,
    "hotelAds": [],
    "openingHours": [
      {
        "day": "Monday",
        "hours": "8:30 AM to 5:30 PM"
      },
      {
        "day": "Tuesday",
        "hours": "8:30 AM to 5:30 PM"
      },
      {
        "day": "Wednesday",
        "hours": "8:30 AM to 5:30 PM"
      },
      {
        "day": "Thursday",
        "hours": "8:30 AM to 5:30 PM"
      },
      {
        "day": "Friday",
        "hours": "8:30 AM to 5:30 PM"
      },
      {
        "day": "Saturday",
        "hours": "Closed"
      },
      {
        "day": "Sunday",
        "hours": "Closed"
      }
    ],
    "peopleAlsoSearch": [],
    "placesTags": [],
    "reviewsTags": [],
    "additionalInfo": {
      "Service options": [
        {
          "Delivery": true
        }
      ],
      "Accessibility": [
        {
          "Wheelchair accessible entrance": true
        },
        {
          "Wheelchair accessible parking lot": true
        }
      ],
      "Payments": [
        {
          "Credit cards": true
        }
      ]
    },
    "gasPrices": [],
    "url": "https://www.google.com/maps/search/?api=1&query=Avella%20Specialty%20Pharmacy&query_place_id=ChIJaXGjxZTDyIARdW6hMdW4-dk",
    "searchPageUrl": "https://www.google.com/maps/search/independent%20pharmacy%20Las%20Vegas%20NV/@59.25289458975259,-146.73244095711368,12z?hl=en",
    "searchString": "independent pharmacy Las Vegas NV",
    "language": "en",
    "rank": 11,
    "isAdvertisement": false,
    "imageUrl": "https://lh3.googleusercontent.com/gps-cs-s/AC9h4nr7aUl3r_n_gearkCPFm2QXYB8-V8tZcOLosmgaZhbbG_rnR0Bd6w2ROxP0yLwWkgOtyx9eJ-f23y7y9kWHLErFhz2IOduNBaZ_losl6kf1npFgUs7H_quGxDsH1I-w2VHyq-HUsw=w426-h240-k-no",
    "kgmid": "/g/1tdhf8fv"
  },
  {
    "title": "Value Pharmacy",
    "price": null,
    "categoryName": "Pharmacy",
    "address": "4921 W Craig Rd, Las Vegas, NV 89130",
    "neighborhood": "Rancho",
    "street": "4921 W Craig Rd",
    "city": "Las Vegas",
    "postalCode": "89130",
    "state": "Nevada",
    "countryCode": "US",
    "phone": "(702) 331-0449",
    "phoneUnformatted": "+17023310449",
    "claimThisBusiness": false,
    "location": {
      "lat": 36.2376951,
      "lng": -115.2101234
    },
    "totalScore": 4.8,
    "permanentlyClosed": false,
    "temporarilyClosed": false,
    "placeId": "ChIJCTNuGc7ryIARBLkuOy8CKXk",
    "categories": [
      "Pharmacy"
    ],
    "fid": "0x80c8ebce196e3309:0x7929022f3b2eb904",
    "cid": "8730511754514053380",
    "reviewsCount": 18,
    "imagesCount": 6,
    "imageCategories": [],
    "scrapedAt": "2025-06-22T08:42:53.922Z",
    "googleFoodUrl": null,
    "hotelAds": [],
    "openingHours": [
      {
        "day": "Monday",
        "hours": "9 AM to 5 PM"
      },
      {
        "day": "Tuesday",
        "hours": "9 AM to 5 PM"
      },
      {
        "day": "Wednesday",
        "hours": "9 AM to 5 PM"
      },
      {
        "day": "Thursday",
        "hours": "9 AM to 5 PM"
      },
      {
        "day": "Friday",
        "hours": "9 AM to 5 PM"
      },
      {
        "day": "Saturday",
        "hours": "Closed"
      },
      {
        "day": "Sunday",
        "hours": "Closed"
      }
    ],
    "peopleAlsoSearch": [],
    "placesTags": [],
    "reviewsTags": [],
    "additionalInfo": {
      "From the business": [
        {
          "Small business": true
        }
      ],
      "Service options": [
        {
          "Delivery": true
        },
        {
          "In-store pickup": true
        },
        {
          "Same-day delivery": true
        }
      ],
      "Accessibility": [
        {
          "Wheelchair accessible entrance": true
        },
        {
          "Wheelchair accessible parking lot": true
        }
      ],
      "Amenities": [
        {
          "Wi-Fi": true
        },
        {
          "Free Wi-Fi": true
        }
      ],
      "Payments": [
        {
          "Credit cards": true
        },
        {
          "Debit cards": true
        },
        {
          "NFC mobile payments": true
        },
        {
          "Credit cards": true
        }
      ]
    },
    "gasPrices": [],
    "url": "https://www.google.com/maps/search/?api=1&query=Value%20Pharmacy&query_place_id=ChIJCTNuGc7ryIARBLkuOy8CKXk",
    "searchPageUrl": "https://www.google.com/maps/search/independent%20pharmacy%20Las%20Vegas%20NV/@59.25289458975259,-146.73244095711368,12z?hl=en",
    "searchString": "independent pharmacy Las Vegas NV",
    "language": "en",
    "rank": 12,
    "isAdvertisement": false,
    "imageUrl": "https://lh3.googleusercontent.com/gps-cs-s/AC9h4noqZjoh4Upf7SV_oAqwELt_LW9GtUWW5Qla5HSit40nBmLEtIQRNg5VOtQZ3RF_vb8fQIyAZ6YFOZUHctL4Jo8TAKs4JN5t2W1ONsq1FqX3f9lvSWspf5xkfEpYly5jczVC-QjZ=w408-h544-k-no",
    "kgmid": "/g/11qypy481x"
  },
  {
    "title": "Aeva Specialty Pharmacy",
    "price": null,
    "categoryName": "Pharmacy",
    "address": "6280 S Valley View Blvd #732, Las Vegas, NV 89118",
    "neighborhood": null,
    "street": "6280 S Valley View Blvd #732",
    "city": "Las Vegas",
    "postalCode": "89118",
    "state": "Nevada",
    "countryCode": "US",
    "website": "https://aevapharmacy.com/",
    "phone": "(855) 558-2382",
    "phoneUnformatted": "+18555582382",
    "claimThisBusiness": true,
    "location": {
      "lat": 36.0774967,
      "lng": -115.1892135
    },
    "totalScore": 2.9,
    "permanentlyClosed": false,
    "temporarilyClosed": false,
    "placeId": "ChIJ6aG8N4nEyIARv8hUW4um5-U",
    "categories": [
      "Pharmacy"
    ],
    "fid": "0x80c8c48937bca1e9:0xe5e7a68b5b54c8bf",
    "cid": "16566392871768606911",
    "reviewsCount": 42,
    "imagesCount": 2,
    "imageCategories": [],
    "scrapedAt": "2025-06-22T08:42:53.922Z",
    "googleFoodUrl": null,
    "hotelAds": [],
    "openingHours": [
      {
        "day": "Monday",
        "hours": "8 AM to 4:30 PM"
      },
      {
        "day": "Tuesday",
        "hours": "8 AM to 4:30 PM"
      },
      {
        "day": "Wednesday",
        "hours": "8 AM to 4:30 PM"
      },
      {
        "day": "Thursday",
        "hours": "8 AM to 4:30 PM"
      },
      {
        "day": "Friday",
        "hours": "8 AM to 4:30 PM"
      },
      {
        "day": "Saturday",
        "hours": "Closed"
      },
      {
        "day": "Sunday",
        "hours": "Closed"
      }
    ],
    "peopleAlsoSearch": [],
    "placesTags": [],
    "reviewsTags": [],
    "additionalInfo": {
      "From the business": [
        {
          "Identifies as women-owned": true
        }
      ],
      "Service options": [
        {
          "Curbside pickup": true
        },
        {
          "Delivery": true
        },
        {
          "In-store pickup": true
        },
        {
          "In-store shopping": true
        },
        {
          "Same-day delivery": true
        }
      ],
      "Accessibility": [
        {
          "Wheelchair accessible entrance": true
        },
        {
          "Wheelchair accessible parking lot": true
        }
      ],
      "Payments": [
        {
          "Credit cards": true
        },
        {
          "Debit cards": true
        },
        {
          "NFC mobile payments": true
        },
        {
          "Credit cards": true
        }
      ]
    },
    "gasPrices": [],
    "url": "https://www.google.com/maps/search/?api=1&query=Aeva%20Specialty%20Pharmacy&query_place_id=ChIJ6aG8N4nEyIARv8hUW4um5-U",
    "searchPageUrl": "https://www.google.com/maps/search/independent%20pharmacy%20Las%20Vegas%20NV/@59.25289458975259,-146.73244095711368,12z?hl=en",
    "searchString": "independent pharmacy Las Vegas NV",
    "language": "en",
    "rank": 13,
    "isAdvertisement": false,
    "imageUrl": "https://lh3.googleusercontent.com/gps-cs-s/AC9h4nprR8SfZBzXUDcCOoZsUN-RCcxGiUQaxIuroLK-CCY2mXhqVX97306DMG4Kox7XDlY2uZH_w2nJdPqOWe_aLVJrmDCHUcalM5Sl-TP3eLGLtQt_MXV8XawoVwcJj7HPrpYAJkg=w408-h306-k-no",
    "kgmid": "/g/1ptykz7v3"
  },
  {
    "title": "A Pharmacy",
    "price": null,
    "categoryName": "Pharmacy",
    "address": "2820 W Charleston Blvd #8, Las Vegas, NV 89102",
    "neighborhood": "Rancho Oakey",
    "street": "2820 W Charleston Blvd #8",
    "city": "Las Vegas",
    "postalCode": "89102",
    "state": "Nevada",
    "countryCode": "US",
    "phone": "(702) 646-1100",
    "phoneUnformatted": "+17026461100",
    "claimThisBusiness": true,
    "location": {
      "lat": 36.1598785,
      "lng": -115.1801805
    },
    "totalScore": 5,
    "permanentlyClosed": false,
    "temporarilyClosed": false,
    "placeId": "ChIJI8KUDufDyIARo6AAH-l1yZg",
    "categories": [
      "Pharmacy"
    ],
    "fid": "0x80c8c3e70e94c223:0x98c975e91f00a0a3",
    "cid": "11009460408191852707",
    "reviewsCount": 1,
    "imagesCount": 1,
    "imageCategories": [],
    "scrapedAt": "2025-06-22T08:42:53.922Z",
    "googleFoodUrl": null,
    "hotelAds": [],
    "openingHours": [],
    "peopleAlsoSearch": [],
    "placesTags": [],
    "reviewsTags": [],
    "additionalInfo": {
      "Accessibility": [
        {
          "Wheelchair accessible entrance": true
        },
        {
          "Wheelchair accessible parking lot": true
        }
      ],
      "Payments": [
        {
          "Credit cards": true
        }
      ]
    },
    "gasPrices": [],
    "url": "https://www.google.com/maps/search/?api=1&query=A%20Pharmacy&query_place_id=ChIJI8KUDufDyIARo6AAH-l1yZg",
    "searchPageUrl": "https://www.google.com/maps/search/independent%20pharmacy%20Las%20Vegas%20NV/@59.25289458975259,-146.73244095711368,12z?hl=en",
    "searchString": "independent pharmacy Las Vegas NV",
    "language": "en",
    "rank": 14,
    "isAdvertisement": false,
    "imageUrl": "https://streetviewpixels-pa.googleapis.com/v1/thumbnail?panoid=5MLSgQfbiyl3DIbjU1e6IQ&cb_client=search.gws-prod.gps&w=408&h=240&yaw=286.44803&pitch=0&thumbfov=100",
    "kgmid": "/g/1xtf1vld"
  },
  {
    "title": "Las Vegas Pharmacy",
    "price": null,
    "categoryName": "Pharmacy",
    "address": "5470 W Sahara Ave Suite B, Las Vegas, NV 89146",
    "neighborhood": "Charleston",
    "street": "5470 W Sahara Ave Suite B",
    "city": "Las Vegas",
    "postalCode": "89146",
    "state": "Nevada",
    "countryCode": "US",
    "website": "https://www.lasvegaspharmacy.com/",
    "phone": "(702) 220-3906",
    "phoneUnformatted": "+17022203906",
    "claimThisBusiness": false,
    "location": {
      "lat": 36.1448953,
      "lng": -115.216427
    },
    "totalScore": 4.4,
    "permanentlyClosed": false,
    "temporarilyClosed": false,
    "placeId": "ChIJ6WvRg_fDyIARQNahuTnj0Lo",
    "categories": [
      "Pharmacy"
    ],
    "fid": "0x80c8c3f783d16be9:0xbad0e339b9a1d640",
    "cid": "13461509123277444672",
    "reviewsCount": 23,
    "imagesCount": 8,
    "imageCategories": [],
    "scrapedAt": "2025-06-22T08:42:53.922Z",
    "googleFoodUrl": null,
    "hotelAds": [],
    "openingHours": [
      {
        "day": "Monday",
        "hours": "9 AM to 6 PM"
      },
      {
        "day": "Tuesday",
        "hours": "9 AM to 6 PM"
      },
      {
        "day": "Wednesday",
        "hours": "9 AM to 6 PM"
      },
      {
        "day": "Thursday",
        "hours": "9 AM to 6 PM"
      },
      {
        "day": "Friday",
        "hours": "9 AM to 5 PM"
      },
      {
        "day": "Saturday",
        "hours": "Closed"
      },
      {
        "day": "Sunday",
        "hours": "Closed"
      }
    ],
    "peopleAlsoSearch": [],
    "placesTags": [],
    "reviewsTags": [],
    "additionalInfo": {
      "From the business": [
        {
          "Small business": true
        }
      ],
      "Service options": [
        {
          "Delivery": true
        },
        {
          "In-store pickup": true
        },
        {
          "In-store shopping": true
        },
        {
          "Same-day delivery": true
        },
        {
          "English": true
        }
      ],
      "Accessibility": [
        {
          "Wheelchair accessible entrance": true
        },
        {
          "Wheelchair accessible parking lot": true
        }
      ],
      "Payments": [
        {
          "Credit cards": true
        },
        {
          "Debit cards": true
        },
        {
          "NFC mobile payments": true
        },
        {
          "Credit cards": true
        }
      ]
    },
    "gasPrices": [],
    "url": "https://www.google.com/maps/search/?api=1&query=Las%20Vegas%20Pharmacy&query_place_id=ChIJ6WvRg_fDyIARQNahuTnj0Lo",
    "searchPageUrl": "https://www.google.com/maps/search/independent%20pharmacy%20Las%20Vegas%20NV/@59.25289458975259,-146.73244095711368,12z?hl=en",
    "searchString": "independent pharmacy Las Vegas NV",
    "language": "en",
    "rank": 15,
    "isAdvertisement": false,
    "imageUrl": "https://lh3.googleusercontent.com/gps-cs-s/AC9h4noB9LMoGwR4GIrlzj5LTkFdKU34wNoGGB3SSdlNGvKaQ1YW_T62zgBwAKUn6v7h1O4brE4_Xh5sVimCqlM9aoWoRk9L8dI7kfPitmtEUnh9um77TOOfKHkwCC_6ejFtyrqLtw1rdw=w408-h306-k-no",
    "kgmid": "/g/1tfk98ys"
  },
  {
    "title": "ACRX Specialty Pharmacy",
    "price": null,
    "categoryName": "Pharmacy",
    "address": "8440 W Lake Mead Blvd # 103, Las Vegas, NV 89128",
    "neighborhood": "South Shores",
    "street": "8440 W Lake Mead Blvd # 103",
    "city": "Las Vegas",
    "postalCode": "89128",
    "state": "Nevada",
    "countryCode": "US",
    "website": "https://acrxpharmacy.com/",
    "phone": "(702) 800-6448",
    "phoneUnformatted": "+17028006448",
    "claimThisBusiness": false,
    "location": {
      "lat": 36.1994215,
      "lng": -115.2782669
    },
    "totalScore": 4.4,
    "permanentlyClosed": false,
    "temporarilyClosed": false,
    "placeId": "ChIJWUW_FrfqyIARtDQl5eccFnc",
    "categories": [
      "Pharmacy"
    ],
    "fid": "0x80c8eab716bf4559:0x77161ce7e52534b4",
    "cid": "8581077922308502708",
    "reviewsCount": 55,
    "imagesCount": 4,
    "imageCategories": [],
    "scrapedAt": "2025-06-22T08:42:53.923Z",
    "googleFoodUrl": null,
    "hotelAds": [],
    "openingHours": [
      {
        "day": "Monday",
        "hours": "9 AM to 6 PM"
      },
      {
        "day": "Tuesday",
        "hours": "9 AM to 6 PM"
      },
      {
        "day": "Wednesday",
        "hours": "9 AM to 6 PM"
      },
      {
        "day": "Thursday",
        "hours": "9 AM to 6 PM"
      },
      {
        "day": "Friday",
        "hours": "9 AM to 6 PM"
      },
      {
        "day": "Saturday",
        "hours": "Closed"
      },
      {
        "day": "Sunday",
        "hours": "Closed"
      }
    ],
    "peopleAlsoSearch": [],
    "placesTags": [],
    "reviewsTags": [],
    "additionalInfo": {
      "From the business": [
        {
          "Identifies as veteran-owned": true
        },
        {
          "Small business": true
        }
      ],
      "Service options": [
        {
          "Delivery": true
        },
        {
          "In-store pickup": true
        },
        {
          "Same-day delivery": true
        }
      ],
      "Accessibility": [
        {
          "Wheelchair accessible entrance": true
        },
        {
          "Wheelchair accessible parking lot": true
        }
      ],
      "Amenities": [
        {
          "Wi-Fi": true
        },
        {
          "Free Wi-Fi": true
        }
      ],
      "Payments": [
        {
          "Credit cards": true
        },
        {
          "Debit cards": true
        },
        {
          "Credit cards": true
        }
      ]
    },
    "gasPrices": [],
    "url": "https://www.google.com/maps/search/?api=1&query=ACRX%20Specialty%20Pharmacy&query_place_id=ChIJWUW_FrfqyIARtDQl5eccFnc",
    "searchPageUrl": "https://www.google.com/maps/search/independent%20pharmacy%20Las%20Vegas%20NV/@59.25289458975259,-146.73244095711368,12z?hl=en",
    "searchString": "independent pharmacy Las Vegas NV",
    "language": "en",
    "rank": 16,
    "isAdvertisement": false,
    "imageUrl": "https://lh3.googleusercontent.com/gps-cs-s/AC9h4nqp3VjlKevkaKa907uDJiWWwSm7_qas3Yra4tT_9I9eLdc-8WNrNC95qv1GdKVpKFYtO_S4g0xLuxu0VsyF4xLpL7iOdrZCBF1gEjOl1xJ2zv-P1rh_YqwhMr_5t5Yj-Y81jYc6og=w408-h356-k-no",
    "kgmid": "/g/11f0wmb0wx"
  },
  {
    "title": "Always Your Pharmacy",
    "price": null,
    "categoryName": "Pharmacy",
    "address": "821 N Lamb Blvd #5, Las Vegas, NV 89110",
    "neighborhood": "East Las Vegas",
    "street": "821 N Lamb Blvd #5",
    "city": "Las Vegas",
    "postalCode": "89110",
    "state": "Nevada",
    "countryCode": "US",
    "phone": "(702) 462-2205",
    "phoneUnformatted": "+17024622205",
    "claimThisBusiness": false,
    "location": {
      "lat": 36.1784194,
      "lng": -115.0797312
    },
    "totalScore": 5,
    "permanentlyClosed": false,
    "temporarilyClosed": false,
    "placeId": "ChIJh5u_dr_dyIARsW4GDr5UwE0",
    "categories": [
      "Pharmacy"
    ],
    "fid": "0x80c8ddbf76bf9b87:0x4dc054be0e066eb1",
    "cid": "5602571111704719025",
    "reviewsCount": 7,
    "imagesCount": 6,
    "imageCategories": [],
    "scrapedAt": "2025-06-22T08:42:53.923Z",
    "googleFoodUrl": null,
    "hotelAds": [],
    "openingHours": [
      {
        "day": "Monday",
        "hours": "10 AM to 4 PM"
      },
      {
        "day": "Tuesday",
        "hours": "10 AM to 4 PM"
      },
      {
        "day": "Wednesday",
        "hours": "10 AM to 4 PM"
      },
      {
        "day": "Thursday",
        "hours": "10 AM to 4 PM"
      },
      {
        "day": "Friday",
        "hours": "10 AM to 4 PM"
      },
      {
        "day": "Saturday",
        "hours": "Closed"
      },
      {
        "day": "Sunday",
        "hours": "Closed"
      }
    ],
    "additionalOpeningHours": {
      "Delivery": [
        {
          "day": "Monday",
          "hours": "11 AM–5 PM"
        },
        {
          "day": "Tuesday",
          "hours": "11 AM–5 PM"
        },
        {
          "day": "Wednesday",
          "hours": "11 AM–5 PM"
        },
        {
          "day": "Thursday",
          "hours": "11 AM–5 PM"
        },
        {
          "day": "Friday",
          "hours": "11 AM–5 PM"
        },
        {
          "day": "Saturday",
          "hours": "Closed"
        },
        {
          "day": "Sunday",
          "hours": "Closed"
        }
      ]
    },
    "peopleAlsoSearch": [],
    "placesTags": [],
    "reviewsTags": [],
    "additionalInfo": {
      "From the business": [
        {
          "Small business": true
        }
      ],
      "Service options": [
        {
          "Delivery": true
        },
        {
          "Same-day delivery": true
        },
        {
          "English": true
        }
      ],
      "Accessibility": [
        {
          "Wheelchair accessible entrance": true
        },
        {
          "Wheelchair accessible parking lot": true
        },
        {
          "Wheelchair accessible seating": true
        }
      ],
      "Payments": [
        {
          "Credit cards": true
        }
      ]
    },
    "gasPrices": [],
    "url": "https://www.google.com/maps/search/?api=1&query=Always%20Your%20Pharmacy&query_place_id=ChIJh5u_dr_dyIARsW4GDr5UwE0",
    "searchPageUrl": "https://www.google.com/maps/search/independent%20pharmacy%20Las%20Vegas%20NV/@59.25289458975259,-146.73244095711368,12z?hl=en",
    "searchString": "independent pharmacy Las Vegas NV",
    "language": "en",
    "rank": 17,
    "isAdvertisement": false,
    "imageUrl": "https://lh3.googleusercontent.com/p/AF1QipN_4D6kPBFOmMrcUlyXpyAZnBIXRyj_pc4dCeAn=w408-h306-k-no",
    "kgmid": "/g/11t_w8qtvr"
  },
  {
    "title": "Alto Pharmacy",
    "price": null,
    "categoryName": "Pharmacy",
    "address": "600 Pilot Rd Ste A, Las Vegas, NV 89119",
    "neighborhood": null,
    "street": "600 Pilot Rd Ste A",
    "city": "Las Vegas",
    "postalCode": "89119",
    "state": "Nevada",
    "countryCode": "US",
    "website": "http://alto.com/",
    "phone": "(800) 874-5881",
    "phoneUnformatted": "+18008745881",
    "claimThisBusiness": false,
    "location": {
      "lat": 36.0683156,
      "lng": -115.150917
    },
    "totalScore": 4.1,
    "permanentlyClosed": false,
    "temporarilyClosed": false,
    "placeId": "ChIJe4tknQ3FyIAR65dcarJXFmE",
    "categories": [
      "Pharmacy"
    ],
    "fid": "0x80c8c50d9d648b7b:0x611657b26a5c97eb",
    "cid": "6995875494966892523",
    "reviewsCount": 328,
    "imagesCount": 4,
    "imageCategories": [],
    "scrapedAt": "2025-06-22T08:42:53.923Z",
    "googleFoodUrl": null,
    "hotelAds": [],
    "openingHours": [
      {
        "day": "Monday",
        "hours": "9 AM to 6 PM"
      },
      {
        "day": "Tuesday",
        "hours": "9 AM to 6 PM"
      },
      {
        "day": "Wednesday",
        "hours": "9 AM to 6 PM"
      },
      {
        "day": "Thursday",
        "hours": "9 AM to 6 PM"
      },
      {
        "day": "Friday",
        "hours": "9 AM to 6 PM"
      },
      {
        "day": "Saturday",
        "hours": "9 AM to 3 PM"
      },
      {
        "day": "Sunday",
        "hours": "9 AM to 3 PM"
      }
    ],
    "additionalOpeningHours": {
      "Online service hours": [
        {
          "day": "Monday",
          "hours": "6 AM–9 PM"
        },
        {
          "day": "Tuesday",
          "hours": "6 AM–9 PM"
        },
        {
          "day": "Wednesday",
          "hours": "6 AM–9 PM"
        },
        {
          "day": "Thursday",
          "hours": "6 AM–9 PM"
        },
        {
          "day": "Friday",
          "hours": "6 AM–9 PM"
        },
        {
          "day": "Saturday",
          "hours": "7 AM–6 PM"
        },
        {
          "day": "Sunday",
          "hours": "7 AM–6 PM"
        }
      ]
    },
    "peopleAlsoSearch": [],
    "placesTags": [],
    "reviewsTags": [],
    "additionalInfo": {
      "Service options": [
        {
          "Delivery": true
        },
        {
          "In-store pickup": true
        },
        {
          "Same-day delivery": true
        }
      ],
      "Accessibility": [
        {
          "Wheelchair accessible entrance": true
        },
        {
          "Wheelchair accessible parking lot": true
        }
      ],
      "Crowd": [
        {
          "LGBTQ+ friendly": true
        },
        {
          "Transgender safespace": true
        }
      ],
      "Payments": [
        {
          "Credit cards": true
        },
        {
          "Debit cards": true
        },
        {
          "NFC mobile payments": true
        },
        {
          "Credit cards": true
        }
      ]
    },
    "gasPrices": [],
    "url": "https://www.google.com/maps/search/?api=1&query=Alto%20Pharmacy&query_place_id=ChIJe4tknQ3FyIAR65dcarJXFmE",
    "searchPageUrl": "https://www.google.com/maps/search/independent%20pharmacy%20Las%20Vegas%20NV/@59.25289458975259,-146.73244095711368,12z?hl=en",
    "searchString": "independent pharmacy Las Vegas NV",
    "language": "en",
    "rank": 18,
    "isAdvertisement": false,
    "imageUrl": "https://lh3.googleusercontent.com/p/AF1QipOUjBxGrYISfoPHQd2BxLu0d5FfZs-CU-eoqK5Z=w408-h306-k-no",
    "kgmid": "/g/11j79shs2_"
  },
  {
    "title": "True Care Specialty Pharmacy",
    "price": null,
    "categoryName": "Pharmacy",
    "address": "3525 S Fort Apache Rd STE 165, Las Vegas, NV 89147",
    "neighborhood": null,
    "street": "3525 S Fort Apache Rd STE 165",
    "city": "Las Vegas",
    "postalCode": "89147",
    "state": "Nevada",
    "countryCode": "US",
    "website": "https://www.truecarespecialtypharmacy.com/",
    "phone": "(702) 233-2010",
    "phoneUnformatted": "+17022332010",
    "claimThisBusiness": false,
    "location": {
      "lat": 36.1258722,
      "lng": -115.2974927
    },
    "totalScore": 4.5,
    "permanentlyClosed": false,
    "temporarilyClosed": false,
    "placeId": "ChIJxyYMYUW_yIAR-1W4uG4v_Ow",
    "categories": [
      "Pharmacy"
    ],
    "fid": "0x80c8bf45610c26c7:0xecfc2f6eb8b855fb",
    "cid": "17076576039674074619",
    "reviewsCount": 30,
    "imagesCount": 1,
    "imageCategories": [],
    "scrapedAt": "2025-06-22T08:42:53.923Z",
    "googleFoodUrl": null,
    "hotelAds": [],
    "openingHours": [
      {
        "day": "Monday",
        "hours": "9:30 AM to 5:30 PM"
      },
      {
        "day": "Tuesday",
        "hours": "9:30 AM to 5:30 PM"
      },
      {
        "day": "Wednesday",
        "hours": "9:30 AM to 5:30 PM"
      },
      {
        "day": "Thursday",
        "hours": "9:30 AM to 5:30 PM"
      },
      {
        "day": "Friday",
        "hours": "9:30 AM to 5:30 PM"
      },
      {
        "day": "Saturday",
        "hours": "9:30 AM to 5:30 PM"
      },
      {
        "day": "Sunday",
        "hours": "Closed"
      }
    ],
    "peopleAlsoSearch": [],
    "placesTags": [],
    "reviewsTags": [],
    "additionalInfo": {
      "Service options": [
        {
          "Delivery": true
        }
      ],
      "Accessibility": [
        {
          "Wheelchair accessible entrance": true
        },
        {
          "Wheelchair accessible parking lot": true
        }
      ],
      "Payments": [
        {
          "Credit cards": true
        },
        {
          "Debit cards": true
        },
        {
          "NFC mobile payments": true
        },
        {
          "Credit cards": true
        }
      ]
    },
    "gasPrices": [],
    "url": "https://www.google.com/maps/search/?api=1&query=True%20Care%20Specialty%20Pharmacy&query_place_id=ChIJxyYMYUW_yIAR-1W4uG4v_Ow",
    "searchPageUrl": "https://www.google.com/maps/search/independent%20pharmacy%20Las%20Vegas%20NV/@59.25289458975259,-146.73244095711368,12z?hl=en",
    "searchString": "independent pharmacy Las Vegas NV",
    "language": "en",
    "rank": 19,
    "isAdvertisement": false,
    "imageUrl": "https://streetviewpixels-pa.googleapis.com/v1/thumbnail?panoid=H6Q012bzy_XV_0lqqXTGwQ&cb_client=search.gws-prod.gps&w=408&h=240&yaw=37.665066&pitch=0&thumbfov=100",
    "kgmid": "/g/1263t5zbm"
  },
  {
    "title": "Sahara Specialty Pharmacy",
    "price": null,
    "categoryName": "Pharmacy",
    "address": "2585 S Nellis Blvd Ste 3, Las Vegas, NV 89121",
    "neighborhood": null,
    "street": "2585 S Nellis Blvd Ste 3",
    "city": "Las Vegas",
    "postalCode": "89121",
    "state": "Nevada",
    "countryCode": "US",
    "website": "http://www.saharapharmacy.org/",
    "phone": "(702) 912-0080",
    "phoneUnformatted": "+17029120080",
    "claimThisBusiness": false,
    "location": {
      "lat": 36.1431375,
      "lng": -115.066066
    },
    "totalScore": 5,
    "permanentlyClosed": false,
    "temporarilyClosed": false,
    "placeId": "ChIJHyJrXRTbyIARilrTQDAjGEs",
    "categories": [
      "Pharmacy"
    ],
    "fid": "0x80c8db145d6b221f:0x4b18233040d35a8a",
    "cid": "5411113642438646410",
    "reviewsCount": 13,
    "imagesCount": 5,
    "imageCategories": [],
    "scrapedAt": "2025-06-22T08:42:53.923Z",
    "googleFoodUrl": null,
    "hotelAds": [],
    "openingHours": [
      {
        "day": "Monday",
        "hours": "9 AM to 6 PM"
      },
      {
        "day": "Tuesday",
        "hours": "9 AM to 6 PM"
      },
      {
        "day": "Wednesday",
        "hours": "9 AM to 6 PM"
      },
      {
        "day": "Thursday",
        "hours": "9 AM to 6 PM"
      },
      {
        "day": "Friday",
        "hours": "9 AM to 6 PM"
      },
      {
        "day": "Saturday",
        "hours": "Closed"
      },
      {
        "day": "Sunday",
        "hours": "Closed"
      }
    ],
    "peopleAlsoSearch": [],
    "placesTags": [],
    "reviewsTags": [],
    "additionalInfo": {
      "From the business": [
        {
          "Small business": true
        }
      ],
      "Service options": [
        {
          "Curbside pickup": true
        },
        {
          "Delivery": true
        },
        {
          "In-store pickup": true
        },
        {
          "In-store shopping": true
        },
        {
          "Same-day delivery": true
        },
        {
          "Hindi": true
        }
      ],
      "Accessibility": [
        {
          "Wheelchair accessible entrance": true
        },
        {
          "Wheelchair accessible parking lot": true
        }
      ],
      "Payments": [
        {
          "Credit cards": true
        },
        {
          "Debit cards": true
        },
        {
          "NFC mobile payments": true
        },
        {
          "Credit cards": true
        }
      ]
    },
    "gasPrices": [],
    "url": "https://www.google.com/maps/search/?api=1&query=Sahara%20Specialty%20Pharmacy&query_place_id=ChIJHyJrXRTbyIARilrTQDAjGEs",
    "searchPageUrl": "https://www.google.com/maps/search/independent%20pharmacy%20Las%20Vegas%20NV/@59.25289458975259,-146.73244095711368,12z?hl=en",
    "searchString": "independent pharmacy Las Vegas NV",
    "language": "en",
    "rank": 20,
    "isAdvertisement": false,
    "imageUrl": "https://lh3.googleusercontent.com/p/AF1QipONEahbZtBVOaAdn1qXPnfHlI8MFyhSa5PzeFPI=w408-h306-k-no",
    "kgmid": "/g/11tfbz33dg"
  }
]