[
  {
    "title": "Emory Centre Pharmacy",
    "price": null,
    "categoryName": "Pharmacy",
    "address": "527 Emory Dr # 106, Owensboro, KY 42301",
    "neighborhood": null,
    "street": "527 Emory Dr # 106",
    "city": "Owensboro",
    "postalCode": "42301",
    "state": "Kentucky",
    "countryCode": "US",
    "website": "http://www.emorycentrepharmacy.com/",
    "phone": "(270) 684-0649",
    "phoneUnformatted": "+12706840649",
    "claimThisBusiness": false,
    "location": {
      "lat": 37.7481107,
      "lng": -87.1144899
    },
    "totalScore": 4.9,
    "permanentlyClosed": false,
    "temporarilyClosed": false,
    "placeId": "ChIJCRc0dEO6b4gRMifCu3hEVOA",
    "categories": [
      "Pharmacy"
    ],
    "fid": "0x886fba4374341709:0xe0544478bbc22732",
    "cid": "16164620247876380466",
    "reviewsCount": 14,
    "imagesCount": 1,
    "imageCategories": [],
    "scrapedAt": "2025-06-22T05:21:47.433Z",
    "googleFoodUrl": null,
    "hotelAds": [],
    "openingHours": [
      {
        "day": "Monday",
        "hours": "9 AM to 6 PM"
      },
      {
        "day": "Tuesday",
        "hours": "9 AM to 6 PM"
      },
      {
        "day": "Wednesday",
        "hours": "9 AM to 6 PM"
      },
      {
        "day": "Thursday",
        "hours": "9 AM to 6 PM"
      },
      {
        "day": "Friday",
        "hours": "9 AM to 6 PM"
      },
      {
        "day": "Saturday",
        "hours": "9 AM to 1 PM"
      },
      {
        "day": "Sunday",
        "hours": "Closed"
      }
    ],
    "peopleAlsoSearch": [],
    "placesTags": [],
    "reviewsTags": [],
    "additionalInfo": {
      "From the business": [
        {
          "Small business": true
        }
      ],
      "Service options": [
        {
          "Delivery": true
        },
        {
          "In-store pickup": true
        },
        {
          "Same-day delivery": true
        }
      ],
      "Accessibility": [
        {
          "Wheelchair accessible entrance": true
        },
        {
          "Wheelchair accessible parking lot": true
        }
      ],
      "Planning": [
        {
          "Quick visit": true
        }
      ],
      "Payments": [
        {
          "Credit cards": true
        },
        {
          "Debit cards": true
        },
        {
          "NFC mobile payments": true
        },
        {
          "Credit cards": true
        }
      ]
    },
    "gasPrices": [],
    "url": "https://www.google.com/maps/search/?api=1&query=Emory%20Centre%20Pharmacy&query_place_id=ChIJCRc0dEO6b4gRMifCu3hEVOA",
    "searchPageUrl": "https://www.google.com/maps/search/independent%20pharmacy%20Owensboro%20KY/@51.480255229786856,-176.78238856555046,11z?hl=en",
    "searchString": "independent pharmacy Owensboro KY",
    "language": "en",
    "rank": 1,
    "isAdvertisement": false,
    "imageUrl": "https://streetviewpixels-pa.googleapis.com/v1/thumbnail?panoid=RY2l892SDqiGiPtI7JOgTw&cb_client=search.gws-prod.gps&w=408&h=240&yaw=347.46277&pitch=0&thumbfov=100",
    "kgmid": "/g/1tmqs39n"
  },
  {
    "title": "Nation's Medicines",
    "price": null,
    "categoryName": "Pharmacy",
    "address": "415 Carter Rd, Owensboro, KY 42301",
    "neighborhood": null,
    "street": "415 Carter Rd",
    "city": "Owensboro",
    "postalCode": "42301",
    "state": "Kentucky",
    "countryCode": "US",
    "website": "https://www.nationsmedicines.com/",
    "phone": "(270) 685-0557",
    "phoneUnformatted": "+12706850557",
    "claimThisBusiness": false,
    "location": {
      "lat": 37.7718693,
      "lng": -87.1483564
    },
    "totalScore": 4.9,
    "permanentlyClosed": false,
    "temporarilyClosed": false,
    "placeId": "ChIJ5Wv8yv25b4gRZ09iOuF4gQs",
    "categories": [
      "Pharmacy"
    ],
    "fid": "0x886fb9fdcafc6be5:0xb8178e13a624f67",
    "cid": "829076715155378023",
    "reviewsCount": 78,
    "imagesCount": 1,
    "imageCategories": [],
    "scrapedAt": "2025-06-22T05:21:47.436Z",
    "googleFoodUrl": null,
    "hotelAds": [],
    "openingHours": [
      {
        "day": "Monday",
        "hours": "10 AM to 6 PM"
      },
      {
        "day": "Tuesday",
        "hours": "10 AM to 6 PM"
      },
      {
        "day": "Wednesday",
        "hours": "10 AM to 6 PM"
      },
      {
        "day": "Thursday",
        "hours": "10 AM to 6 PM"
      },
      {
        "day": "Friday",
        "hours": "10 AM to 6 PM"
      },
      {
        "day": "Saturday",
        "hours": "10 AM to 1 PM"
      },
      {
        "day": "Sunday",
        "hours": "Closed"
      }
    ],
    "peopleAlsoSearch": [],
    "placesTags": [],
    "reviewsTags": [],
    "additionalInfo": {
      "From the business": [
        {
          "Small business": true
        }
      ],
      "Service options": [
        {
          "Drive-through": true
        },
        {
          "Delivery": false
        },
        {
          "Same-day delivery": false
        }
      ],
      "Accessibility": [
        {
          "Wheelchair accessible entrance": true
        },
        {
          "Wheelchair accessible parking lot": true
        }
      ],
      "Planning": [
        {
          "Quick visit": true
        }
      ],
      "Payments": [
        {
          "Credit cards": true
        },
        {
          "Debit cards": true
        },
        {
          "NFC mobile payments": true
        },
        {
          "Credit cards": true
        }
      ]
    },
    "gasPrices": [],
    "url": "https://www.google.com/maps/search/?api=1&query=Nation's%20Medicines&query_place_id=ChIJ5Wv8yv25b4gRZ09iOuF4gQs",
    "searchPageUrl": "https://www.google.com/maps/search/independent%20pharmacy%20Owensboro%20KY/@51.480255229786856,-176.78238856555046,11z?hl=en",
    "searchString": "independent pharmacy Owensboro KY",
    "language": "en",
    "rank": 2,
    "isAdvertisement": false,
    "imageUrl": "https://streetviewpixels-pa.googleapis.com/v1/thumbnail?panoid=Td9AbgR1Vye6BmgS08oIuA&cb_client=search.gws-prod.gps&w=408&h=240&yaw=122.62155&pitch=0&thumbfov=100",
    "kgmid": "/g/1w96hh7b"
  },
  {
    "title": "Owensboro Family Pharmacy and Wellness",
    "price": null,
    "categoryName": "Pharmacy",
    "address": "720-722 W Byers Ave, Owensboro, KY 42303",
    "neighborhood": null,
    "street": "720-722 W Byers Ave",
    "city": "Owensboro",
    "postalCode": "42303",
    "state": "Kentucky",
    "countryCode": "US",
    "website": "http://www.owensborofamilypharmacy.com/",
    "phone": "(270) 683-2400",
    "phoneUnformatted": "+12706832400",
    "claimThisBusiness": false,
    "location": {
      "lat": 37.7416708,
      "lng": -87.1155953
    },
    "totalScore": 4.5,
    "permanentlyClosed": false,
    "temporarilyClosed": true,
    "placeId": "ChIJtSCkZk-6b4gRGcs0HZHMe78",
    "categories": [
      "Pharmacy",
      "Drug testing service",
      "Gift shop",
      "Health consultant"
    ],
    "fid": "0x886fba4f66a420b5:0xbf7bcc911d34cb19",
    "cid": "13797846807011969817",
    "reviewsCount": 42,
    "imagesCount": 2,
    "imageCategories": [],
    "scrapedAt": "2025-06-22T05:21:54.300Z",
    "googleFoodUrl": null,
    "hotelAds": [],
    "openingHours": [],
    "peopleAlsoSearch": [],
    "placesTags": [],
    "reviewsTags": [],
    "additionalInfo": {
      "From the business": [
        {
          "Identifies as women-owned": true
        },
        {
          "Small business": true
        }
      ],
      "Service options": [
        {
          "Curbside pickup": true
        },
        {
          "Delivery": true
        },
        {
          "Drive-through": true
        },
        {
          "In-store pickup": true
        },
        {
          "In-store shopping": true
        },
        {
          "Same-day delivery": true
        }
      ],
      "Accessibility": [
        {
          "Wheelchair accessible entrance": true
        },
        {
          "Wheelchair accessible parking lot": true
        },
        {
          "Wheelchair accessible restroom": true
        },
        {
          "Wheelchair accessible seating": true
        }
      ],
      "Crowd": [
        {
          "LGBTQ+ friendly": true
        },
        {
          "Transgender safespace": true
        }
      ],
      "Payments": [
        {
          "Checks": true
        },
        {
          "Debit cards": true
        },
        {
          "NFC mobile payments": true
        },
        {
          "Credit cards": true
        }
      ]
    },
    "gasPrices": [],
    "url": "https://www.google.com/maps/search/?api=1&query=Owensboro%20Family%20Pharmacy%20and%20Wellness&query_place_id=ChIJtSCkZk-6b4gRGcs0HZHMe78",
    "searchPageUrl": "https://www.google.com/maps/search/independent%20pharmacy%20Owensboro%20KY/@60.5810187217634,-172.9390442428424,12z?hl=en",
    "searchString": "independent pharmacy Owensboro KY",
    "language": "en",
    "rank": 3,
    "isAdvertisement": false,
    "imageUrl": "https://lh3.googleusercontent.com/gps-cs-s/AC9h4noPmoYiuWrGLNZCuPHUTOUBtMB67Fsch_-U3O__n-3aAqsBcZjSpzKqfAxnaXAy5heCtbrYZ22X9F8cZqFsG5kwk5ExgvOx8-ccdvmoCmFC3RXi-Vsy4vsVTOTt9r2hApEWFX1I=w408-h306-k-no",
    "kgmid": "/g/11cncst98c"
  },
  {
    "title": "Lincoln Pharmacy Inc",
    "price": null,
    "categoryName": "Pharmacy",
    "address": "2816 Veach Rd Ste. 101, Owensboro, KY 42303",
    "neighborhood": null,
    "street": "2816 Veach Rd Ste. 101",
    "city": "Owensboro",
    "postalCode": "42303",
    "state": "Kentucky",
    "countryCode": "US",
    "phone": "(270) 684-7278",
    "phoneUnformatted": "+12706847278",
    "claimThisBusiness": true,
    "location": {
      "lat": 37.7459008,
      "lng": -87.101933
    },
    "totalScore": 4.9,
    "permanentlyClosed": false,
    "temporarilyClosed": false,
    "placeId": "ChIJN-2ovVi6b4gRZZ--eB91YDE",
    "categories": [
      "Pharmacy"
    ],
    "fid": "0x886fba58bda8ed37:0x3160751f78be9f65",
    "cid": "3557972483652886373",
    "reviewsCount": 16,
    "imagesCount": 1,
    "imageCategories": [],
    "scrapedAt": "2025-06-22T05:21:57.851Z",
    "googleFoodUrl": null,
    "hotelAds": [],
    "openingHours": [
      {
        "day": "Monday",
        "hours": "9:30 AM to 5 PM"
      },
      {
        "day": "Tuesday",
        "hours": "9:30 AM to 5 PM"
      },
      {
        "day": "Wednesday",
        "hours": "9:30 AM to 5 PM"
      },
      {
        "day": "Thursday",
        "hours": "9:30 AM to 5 PM"
      },
      {
        "day": "Friday",
        "hours": "9:30 AM to 5 PM"
      },
      {
        "day": "Saturday",
        "hours": "9:30 AM to 12 PM"
      },
      {
        "day": "Sunday",
        "hours": "Closed"
      }
    ],
    "peopleAlsoSearch": [],
    "placesTags": [],
    "reviewsTags": [],
    "additionalInfo": {
      "Service options": [
        {
          "Delivery": true
        }
      ],
      "Accessibility": [
        {
          "Wheelchair accessible entrance": true
        },
        {
          "Wheelchair accessible parking lot": true
        }
      ],
      "Planning": [
        {
          "Quick visit": true
        }
      ],
      "Payments": [
        {
          "Credit cards": true
        },
        {
          "Debit cards": true
        },
        {
          "NFC mobile payments": true
        },
        {
          "Credit cards": true
        }
      ]
    },
    "gasPrices": [],
    "url": "https://www.google.com/maps/search/?api=1&query=Lincoln%20Pharmacy%20Inc&query_place_id=ChIJN-2ovVi6b4gRZZ--eB91YDE",
    "searchPageUrl": "https://www.google.com/maps/search/independent%20pharmacy%20Owensboro%20KY/@18.458974397176295,-65.89574592617555,11z?hl=en",
    "searchString": "independent pharmacy Owensboro KY",
    "language": "en",
    "rank": 2,
    "isAdvertisement": false,
    "imageUrl": "https://streetviewpixels-pa.googleapis.com/v1/thumbnail?panoid=NeWqorXeUjbAqVisG0W_XA&cb_client=search.gws-prod.gps&w=408&h=240&yaw=244.7794&pitch=0&thumbfov=100",
    "kgmid": "/g/1tmpfpfc"
  },
  {
    "title": "Owensboro Health Specialty Pharmacy",
    "price": null,
    "categoryName": "Pharmacy",
    "address": "2200 E Parrish Ave Building C Lower Level Suite 102, Owensboro, KY 42303",
    "neighborhood": null,
    "street": "2200 E Parrish Ave Building C Lower Level Suite 102",
    "city": "Owensboro",
    "postalCode": "42303",
    "state": "Kentucky",
    "countryCode": "US",
    "website": "https://www.owensborohealth.org/locations/ohmg-profile/owensboro-health-specialty-pharmacy?utm_source=local-listing&utm_medium=organic&utm_campaign=website-link",
    "phone": "(270) 688-1700",
    "phoneUnformatted": "+12706881700",
    "claimThisBusiness": false,
    "location": {
      "lat": 37.7582728,
      "lng": -87.0759281
    },
    "totalScore": 5,
    "permanentlyClosed": false,
    "temporarilyClosed": false,
    "placeId": "ChIJ7SHwRbe7b4gRbdVxV6Izt7c",
    "categories": [
      "Pharmacy"
    ],
    "fid": "0x886fbbb745f021ed:0xb7b733a25771d56d",
    "cid": "13238106402023658861",
    "reviewsCount": 1,
    "imagesCount": null,
    "imageCategories": [],
    "scrapedAt": "2025-06-22T05:21:57.851Z",
    "googleFoodUrl": null,
    "hotelAds": [],
    "openingHours": [
      {
        "day": "Monday",
        "hours": "8:30 AM to 5 PM"
      },
      {
        "day": "Tuesday",
        "hours": "8:30 AM to 5 PM"
      },
      {
        "day": "Wednesday",
        "hours": "8:30 AM to 5 PM"
      },
      {
        "day": "Thursday",
        "hours": "8:30 AM to 5 PM"
      },
      {
        "day": "Friday",
        "hours": "8:30 AM to 5 PM"
      },
      {
        "day": "Saturday",
        "hours": "Closed"
      },
      {
        "day": "Sunday",
        "hours": "Closed"
      }
    ],
    "peopleAlsoSearch": [],
    "placesTags": [],
    "reviewsTags": [],
    "additionalInfo": {
      "Service options": [
        {
          "Delivery": false
        },
        {
          "Same-day delivery": false
        }
      ],
      "Accessibility": [
        {
          "Wheelchair accessible entrance": true
        },
        {
          "Wheelchair accessible parking lot": true
        }
      ]
    },
    "gasPrices": [],
    "url": "https://www.google.com/maps/search/?api=1&query=Owensboro%20Health%20Specialty%20Pharmacy&query_place_id=ChIJ7SHwRbe7b4gRbdVxV6Izt7c",
    "searchPageUrl": "https://www.google.com/maps/search/independent%20pharmacy%20Owensboro%20KY/@18.458974397176295,-65.89574592617555,11z?hl=en",
    "searchString": "independent pharmacy Owensboro KY",
    "language": "en",
    "rank": 3,
    "isAdvertisement": false,
    "kgmid": "/g/11x2qvnhf1"
  },
  {
    "title": "Owensboro Health Community Pharmacy",
    "price": null,
    "categoryName": "Pharmacy",
    "address": "2200 E Parrish Ave Building B, Suite 102, Owensboro, KY 42303",
    "neighborhood": null,
    "street": "2200 E Parrish Ave Building B, Suite 102",
    "city": "Owensboro",
    "postalCode": "42303",
    "state": "Kentucky",
    "countryCode": "US",
    "website": "https://www.owensborohealth.org/locations/ohmg-profile/owensboro-health-community-pharmacy-springs?utm_source=local-listing&utm_medium=organic&utm_campaign=website-link",
    "phone": "(270) 688-1600",
    "phoneUnformatted": "+12706881600",
    "claimThisBusiness": false,
    "location": {
      "lat": 37.7590309,
      "lng": -87.078074
    },
    "totalScore": 5,
    "permanentlyClosed": false,
    "temporarilyClosed": false,
    "placeId": "ChIJ4bpZXoK7b4gRkx-0xjD_9ew",
    "categories": [
      "Pharmacy",
      "Medical clinic"
    ],
    "fid": "0x886fbb825e59bae1:0xecf5ff30c6b41f93",
    "cid": "17074834147202310035",
    "reviewsCount": 4,
    "imagesCount": 10,
    "imageCategories": [],
    "scrapedAt": "2025-06-22T05:21:57.851Z",
    "googleFoodUrl": null,
    "hotelAds": [],
    "openingHours": [
      {
        "day": "Monday",
        "hours": "8:30 AM to 6:30 PM"
      },
      {
        "day": "Tuesday",
        "hours": "8:30 AM to 6:30 PM"
      },
      {
        "day": "Wednesday",
        "hours": "8:30 AM to 6:30 PM"
      },
      {
        "day": "Thursday",
        "hours": "8:30 AM to 6:30 PM"
      },
      {
        "day": "Friday",
        "hours": "8:30 AM to 6:30 PM"
      },
      {
        "day": "Saturday",
        "hours": "9 AM to 5 PM"
      },
      {
        "day": "Sunday",
        "hours": "9 AM to 5 PM"
      }
    ],
    "additionalOpeningHours": {
      "Drive through": [
        {
          "day": "Monday",
          "hours": "8 AM–6:30 PM"
        },
        {
          "day": "Tuesday",
          "hours": "8 AM–6:30 PM"
        },
        {
          "day": "Wednesday",
          "hours": "8 AM–6:30 PM"
        },
        {
          "day": "Thursday",
          "hours": "8 AM–6:30 PM"
        },
        {
          "day": "Friday",
          "hours": "8 AM–6:30 PM"
        },
        {
          "day": "Saturday",
          "hours": "9 AM–5 PM"
        },
        {
          "day": "Sunday",
          "hours": "9 AM–5 PM"
        }
      ]
    },
    "peopleAlsoSearch": [],
    "placesTags": [],
    "reviewsTags": [],
    "additionalInfo": {
      "Service options": [
        {
          "Drive-through": true
        }
      ],
      "Accessibility": [
        {
          "Wheelchair accessible entrance": true
        },
        {
          "Wheelchair accessible parking lot": true
        }
      ],
      "Payments": [
        {
          "Credit cards": true
        }
      ]
    },
    "gasPrices": [],
    "url": "https://www.google.com/maps/search/?api=1&query=Owensboro%20Health%20Community%20Pharmacy&query_place_id=ChIJ4bpZXoK7b4gRkx-0xjD_9ew",
    "searchPageUrl": "https://www.google.com/maps/search/independent%20pharmacy%20Owensboro%20KY/@18.458974397176295,-65.89574592617555,11z?hl=en",
    "searchString": "independent pharmacy Owensboro KY",
    "language": "en",
    "rank": 4,
    "isAdvertisement": false,
    "imageUrl": "https://lh3.googleusercontent.com/p/AF1QipOF7R8-yAZuQJLMvYc6_wKVaYRJfSMs1iwiFe8h=w408-h311-k-no",
    "kgmid": "/g/11y7jmbmd8"
  },
  {
    "title": "Danhauer Drug Store",
    "description": "Mom-&-pop shop for prescriptions, medical supplies, health-care items, CPAP products & gifts.",
    "price": null,
    "categoryName": "Pharmacy",
    "address": "330 Frederica St, Owensboro, KY 42301",
    "neighborhood": null,
    "street": "330 Frederica St",
    "city": "Owensboro",
    "postalCode": "42301",
    "state": "Kentucky",
    "countryCode": "US",
    "website": "https://www.danhauerdrugs.com/?utm_source=NEXT%2520Ad&utm_medium=GMB%2520Page",
    "phone": "(270) 684-2341",
    "phoneUnformatted": "+12706842341",
    "claimThisBusiness": false,
    "location": {
      "lat": 37.772636,
      "lng": -87.113698
    },
    "totalScore": 3.1,
    "permanentlyClosed": false,
    "temporarilyClosed": false,
    "placeId": "ChIJjexOwne6b4gRQB9Bbaar2aA",
    "categories": [
      "Pharmacy",
      "Addiction treatment center",
      "Diabetes equipment supplier",
      "Gift basket store",
      "Gift shop",
      "Health consultant",
      "Medical supply store",
      "Oxygen equipment supplier",
      "Sports memorabilia store",
      "Wheelchair rental service"
    ],
    "fid": "0x886fba77c24eec8d:0xa0d9aba66d411f40",
    "cid": "11590483847300587328",
    "reviewsCount": 81,
    "imagesCount": 59,
    "imageCategories": [],
    "scrapedAt": "2025-06-22T05:21:57.852Z",
    "googleFoodUrl": null,
    "hotelAds": [],
    "openingHours": [
      {
        "day": "Monday",
        "hours": "8 AM to 8 PM"
      },
      {
        "day": "Tuesday",
        "hours": "8 AM to 8 PM"
      },
      {
        "day": "Wednesday",
        "hours": "8 AM to 8 PM"
      },
      {
        "day": "Thursday",
        "hours": "8 AM to 8 PM"
      },
      {
        "day": "Friday",
        "hours": "8 AM to 8 PM"
      },
      {
        "day": "Saturday",
        "hours": "8 AM to 5 PM"
      },
      {
        "day": "Sunday",
        "hours": "10 AM to 2 PM"
      }
    ],
    "peopleAlsoSearch": [],
    "placesTags": [],
    "reviewsTags": [],
    "additionalInfo": {
      "From the business": [
        {
          "Small business": true
        }
      ],
      "Service options": [
        {
          "Curbside pickup": true
        },
        {
          "Delivery": true
        },
        {
          "In-store pickup": true
        },
        {
          "In-store shopping": true
        },
        {
          "Onsite services": true
        },
        {
          "Same-day delivery": true
        }
      ],
      "Accessibility": [
        {
          "Wheelchair accessible entrance": true
        },
        {
          "Wheelchair accessible parking lot": true
        }
      ],
      "Planning": [
        {
          "Quick visit": true
        }
      ],
      "Payments": [
        {
          "Credit cards": true
        },
        {
          "Debit cards": true
        },
        {
          "NFC mobile payments": true
        }
      ]
    },
    "gasPrices": [],
    "url": "https://www.google.com/maps/search/?api=1&query=Danhauer%20Drug%20Store&query_place_id=ChIJjexOwne6b4gRQB9Bbaar2aA",
    "searchPageUrl": "https://www.google.com/maps/search/independent%20pharmacy%20Owensboro%20KY/@18.458974397176295,-65.89574592617555,11z?hl=en",
    "searchString": "independent pharmacy Owensboro KY",
    "language": "en",
    "rank": 6,
    "isAdvertisement": false,
    "imageUrl": "https://lh3.googleusercontent.com/gps-cs-s/AC9h4nprtRsbuOI3OUkVMGJIy8PM7Tp6siYuKsm7nt6_wK7dzMaeGX85eGfBfGo3RUFOIt77hc8G0S8lsHT7v1NW7fYaMUBn-7Lf9AO_4kniDkb8DRSQp9mF9MfgAkuzEEuuYdj6ICM0iw=w408-h306-k-no",
    "kgmid": "/g/1tmy5t67"
  },
  {
    "title": "Wilson Family Pharmacy",
    "price": null,
    "categoryName": "Pharmacy",
    "address": "2845 W Parrish Ave ste e, Owensboro, KY 42301",
    "neighborhood": null,
    "street": "2845 W Parrish Ave ste e",
    "city": "Owensboro",
    "postalCode": "42301",
    "state": "Kentucky",
    "countryCode": "US",
    "website": "https://www.wilsonfamilypharmacy.com/",
    "phone": "(270) 688-0100",
    "phoneUnformatted": "+12706880100",
    "claimThisBusiness": false,
    "location": {
      "lat": 37.7587625,
      "lng": -87.1493292
    },
    "totalScore": 4,
    "permanentlyClosed": false,
    "temporarilyClosed": false,
    "placeId": "ChIJD-n0GUC6b4gRAMP-zpjDqFM",
    "categories": [
      "Pharmacy"
    ],
    "fid": "0x886fba4019f4e90f:0x53a8c398cefec300",
    "cid": "6028283162310656768",
    "reviewsCount": 32,
    "imagesCount": 9,
    "imageCategories": [],
    "scrapedAt": "2025-06-22T05:21:57.852Z",
    "googleFoodUrl": null,
    "hotelAds": [],
    "openingHours": [
      {
        "day": "Monday",
        "hours": "9 AM to 5 PM"
      },
      {
        "day": "Tuesday",
        "hours": "9 AM to 5 PM"
      },
      {
        "day": "Wednesday",
        "hours": "9 AM to 5 PM"
      },
      {
        "day": "Thursday",
        "hours": "9 AM to 5 PM"
      },
      {
        "day": "Friday",
        "hours": "9 AM to 5 PM"
      },
      {
        "day": "Saturday",
        "hours": "Closed"
      },
      {
        "day": "Sunday",
        "hours": "Closed"
      }
    ],
    "peopleAlsoSearch": [],
    "placesTags": [],
    "reviewsTags": [],
    "additionalInfo": {
      "From the business": [
        {
          "Identifies as women-owned": true
        },
        {
          "Small business": true
        }
      ],
      "Service options": [
        {
          "Curbside pickup": true
        },
        {
          "Delivery": true
        },
        {
          "In-store pickup": true
        },
        {
          "In-store shopping": true
        },
        {
          "Same-day delivery": true
        }
      ],
      "Accessibility": [
        {
          "Wheelchair accessible entrance": true
        },
        {
          "Wheelchair accessible parking lot": true
        },
        {
          "Wheelchair accessible seating": true
        },
        {
          "Wheelchair accessible restroom": false
        }
      ],
      "Planning": [
        {
          "Quick visit": true
        }
      ],
      "Payments": [
        {
          "Checks": true
        },
        {
          "Credit cards": true
        },
        {
          "Debit cards": true
        },
        {
          "NFC mobile payments": true
        },
        {
          "Credit cards": true
        }
      ]
    },
    "gasPrices": [],
    "url": "https://www.google.com/maps/search/?api=1&query=Wilson%20Family%20Pharmacy&query_place_id=ChIJD-n0GUC6b4gRAMP-zpjDqFM",
    "searchPageUrl": "https://www.google.com/maps/search/independent%20pharmacy%20Owensboro%20KY/@18.458974397176295,-65.89574592617555,11z?hl=en",
    "searchString": "independent pharmacy Owensboro KY",
    "language": "en",
    "rank": 7,
    "isAdvertisement": false,
    "imageUrl": "https://lh3.googleusercontent.com/gps-cs-s/AC9h4nqgW4sO1poLkfvPyy1IADgITnqCZtZCGqjJ4IKBo20FY4Yp4dkEiLHeMWnbW_VTjZD3n1YYGr7MmiowAiZH6zi6ibP8ihyshWzjzAtgPpyqH1g3OTxHjEtddLIBlfUHkANoRDOr=w408-h271-k-no",
    "kgmid": "/g/11c47yjcp4"
  },
  {
    "title": "Owensboro Health Outpatient Pharmacy",
    "price": null,
    "categoryName": "Pharmacy",
    "address": "1301 Pleasant Valley Rd Suite 104, Owensboro, KY 42303",
    "neighborhood": null,
    "street": "1301 Pleasant Valley Rd Suite 104",
    "city": "Owensboro",
    "postalCode": "42303",
    "state": "Kentucky",
    "countryCode": "US",
    "website": "https://www.owensborohealth.org/locations/profile/?id=182&?utm_source=local-listing&utm_medium=organic&utm_campaign=website-link",
    "phone": "(270) 417-6701",
    "phoneUnformatted": "+12704176701",
    "claimThisBusiness": false,
    "location": {
      "lat": 37.7782864,
      "lng": -87.0640674
    },
    "totalScore": 4.2,
    "permanentlyClosed": false,
    "temporarilyClosed": false,
    "placeId": "ChIJd2GnPAKwb4gRNh8XJDX4yy4",
    "categories": [
      "Pharmacy"
    ],
    "fid": "0x886fb0023ca76177:0x2ecbf83524171f36",
    "cid": "3372061653139398454",
    "reviewsCount": 9,
    "imagesCount": 6,
    "imageCategories": [],
    "scrapedAt": "2025-06-22T05:21:57.852Z",
    "googleFoodUrl": null,
    "hotelAds": [],
    "openingHours": [
      {
        "day": "Monday",
        "hours": "7 AM to 7 PM"
      },
      {
        "day": "Tuesday",
        "hours": "7 AM to 7 PM"
      },
      {
        "day": "Wednesday",
        "hours": "7 AM to 7 PM"
      },
      {
        "day": "Thursday",
        "hours": "7 AM to 7 PM"
      },
      {
        "day": "Friday",
        "hours": "7 AM to 7 PM"
      },
      {
        "day": "Saturday",
        "hours": "9 AM to 5 PM"
      },
      {
        "day": "Sunday",
        "hours": "9 AM to 5 PM"
      }
    ],
    "peopleAlsoSearch": [],
    "placesTags": [],
    "reviewsTags": [],
    "additionalInfo": {
      "Service options": [
        {
          "Drive-through": true
        },
        {
          "In-store pickup": true
        }
      ],
      "Accessibility": [
        {
          "Wheelchair accessible entrance": true
        },
        {
          "Wheelchair accessible parking lot": true
        }
      ],
      "Amenities": [
        {
          "Wi-Fi": true
        },
        {
          "Free Wi-Fi": true
        }
      ],
      "Payments": [
        {
          "Credit cards": true
        }
      ]
    },
    "gasPrices": [],
    "url": "https://www.google.com/maps/search/?api=1&query=Owensboro%20Health%20Outpatient%20Pharmacy&query_place_id=ChIJd2GnPAKwb4gRNh8XJDX4yy4",
    "searchPageUrl": "https://www.google.com/maps/search/independent%20pharmacy%20Owensboro%20KY/@18.458974397176295,-65.89574592617555,11z?hl=en",
    "searchString": "independent pharmacy Owensboro KY",
    "language": "en",
    "rank": 8,
    "isAdvertisement": false,
    "imageUrl": "https://lh3.googleusercontent.com/p/AF1QipN1RWUYz3-tBGOOkppTG_oBBrQKvukDsGLIse99=w408-h249-k-no",
    "kgmid": "/g/1jglynd0d"
  },
  {
    "title": "Danhauers Pharmacy",
    "price": null,
    "categoryName": "Pharmacy",
    "address": "Frederica St, Owensboro, KY 42301",
    "neighborhood": null,
    "street": "Frederica St",
    "city": "Owensboro",
    "postalCode": null,
    "state": "Kentucky",
    "countryCode": "US",
    "claimThisBusiness": true,
    "location": {
      "lat": 37.7428783,
      "lng": -87.1165721
    },
    "permanentlyClosed": false,
    "temporarilyClosed": false,
    "placeId": "ChIJJ_KUfQC7b4gRsFlhgRhSDY8",
    "categories": [
      "Pharmacy"
    ],
    "fid": "0x886fbb007d94f227:0x8f0d5218816159b0",
    "cid": "10307985387324266928",
    "reviewsCount": 0,
    "imagesCount": null,
    "imageCategories": [],
    "scrapedAt": "2025-06-22T05:21:57.852Z",
    "googleFoodUrl": null,
    "hotelAds": [],
    "openingHours": [
      {
        "day": "Monday",
        "hours": "8 PM to 12 AM"
      },
      {
        "day": "Tuesday",
        "hours": "8 PM to 12 AM"
      },
      {
        "day": "Wednesday",
        "hours": "8 PM to 12 AM"
      },
      {
        "day": "Thursday",
        "hours": "8 PM to 12 AM"
      },
      {
        "day": "Friday",
        "hours": "8 PM to 12 AM"
      },
      {
        "day": "Saturday",
        "hours": "8 PM to 12 AM"
      },
      {
        "day": "Sunday",
        "hours": "Open 24 hours"
      }
    ],
    "peopleAlsoSearch": [],
    "placesTags": [],
    "reviewsTags": [],
    "additionalInfo": {
      "Accessibility": [
        {
          "Wheelchair accessible entrance": true
        },
        {
          "Wheelchair accessible parking lot": true
        }
      ],
      "Payments": [
        {
          "Credit cards": true
        }
      ]
    },
    "gasPrices": [],
    "url": "https://www.google.com/maps/search/?api=1&query=Danhauers%20Pharmacy&query_place_id=ChIJJ_KUfQC7b4gRsFlhgRhSDY8",
    "searchPageUrl": "https://www.google.com/maps/search/independent%20pharmacy%20Owensboro%20KY/@18.458974397176295,-65.89574592617555,11z?hl=en",
    "searchString": "independent pharmacy Owensboro KY",
    "language": "en",
    "rank": 9,
    "isAdvertisement": false,
    "kgmid": "/g/11x5j_mcxb"
  },
  {
    "title": "Nation's Medicines",
    "price": null,
    "categoryName": "Pharmacy",
    "address": "3000 Alvey Park Dr W, Owensboro, KY 42303",
    "neighborhood": null,
    "street": "3000 Alvey Park Dr W",
    "city": "Owensboro",
    "postalCode": "42303",
    "state": "Kentucky",
    "countryCode": "US",
    "website": "https://www.mygnp.com/pharmacies/nations-medicines-owensboro-ky-42303/?utm_source=google&utm_medium=local&utm_campaign=localmaps&utm_content=1827964",
    "phone": "(270) 926-4080",
    "phoneUnformatted": "+12709264080",
    "claimThisBusiness": false,
    "location": {
      "lat": 37.7550258,
      "lng": -87.0656743
    },
    "totalScore": 4.6,
    "permanentlyClosed": false,
    "temporarilyClosed": false,
    "placeId": "ChIJD_6CarS6b4gRkGX_smn9o14",
    "categories": [
      "Pharmacy",
      "Drug store"
    ],
    "fid": "0x886fbab46a82fe0f:0x5ea3fd69b2ff6590",
    "cid": "6819572891185538448",
    "reviewsCount": 31,
    "imagesCount": 5,
    "imageCategories": [],
    "scrapedAt": "2025-06-22T05:21:57.852Z",
    "googleFoodUrl": null,
    "hotelAds": [],
    "openingHours": [
      {
        "day": "Monday",
        "hours": "9 AM to 6 PM"
      },
      {
        "day": "Tuesday",
        "hours": "9 AM to 6 PM"
      },
      {
        "day": "Wednesday",
        "hours": "9 AM to 6 PM"
      },
      {
        "day": "Thursday",
        "hours": "9 AM to 6 PM"
      },
      {
        "day": "Friday",
        "hours": "9 AM to 6 PM"
      },
      {
        "day": "Saturday",
        "hours": "9 AM to 12 PM"
      },
      {
        "day": "Sunday",
        "hours": "Closed"
      }
    ],
    "peopleAlsoSearch": [],
    "placesTags": [],
    "reviewsTags": [],
    "additionalInfo": {
      "Service options": [
        {
          "Curbside pickup": true
        },
        {
          "Delivery": true
        },
        {
          "Drive-through": true
        },
        {
          "In-store pickup": true
        },
        {
          "In-store shopping": true
        },
        {
          "Same-day delivery": true
        }
      ],
      "Accessibility": [
        {
          "Wheelchair accessible entrance": true
        },
        {
          "Wheelchair accessible parking lot": true
        }
      ],
      "Planning": [
        {
          "Quick visit": true
        }
      ],
      "Payments": [
        {
          "Checks": true
        },
        {
          "Credit cards": true
        },
        {
          "Debit cards": true
        },
        {
          "NFC mobile payments": true
        },
        {
          "Credit cards": true
        }
      ]
    },
    "gasPrices": [],
    "url": "https://www.google.com/maps/search/?api=1&query=Nation's%20Medicines&query_place_id=ChIJD_6CarS6b4gRkGX_smn9o14",
    "searchPageUrl": "https://www.google.com/maps/search/independent%20pharmacy%20Owensboro%20KY/@18.458974397176295,-65.89574592617555,11z?hl=en",
    "searchString": "independent pharmacy Owensboro KY",
    "language": "en",
    "rank": 10,
    "isAdvertisement": false,
    "imageUrl": "https://lh3.googleusercontent.com/gps-cs-s/AC9h4nr5VdRnMaJZpfSrNBfCJwULBquhriMeYnOK_QPx2Dt2PzAU-tMAlLjOvqxKGGC3pVMNUif_Khj8Db17T0dk4RCEXxdYrYDo3lGQpHDGduEiteON5_zu6WSh_eNeQeJ0NuUcf_Y-=w408-h271-k-no",
    "kgmid": "/g/1tf7swtr"
  },
  {
    "title": "Bluegrass Apothecary",
    "price": null,
    "categoryName": "Pharmacy",
    "address": "3000 Alvey Park Dr E, Owensboro, KY 42303",
    "neighborhood": null,
    "street": "3000 Alvey Park Dr E",
    "city": "Owensboro",
    "postalCode": "42303",
    "state": "Kentucky",
    "countryCode": "US",
    "website": "http://bga54.com/",
    "phone": "(270) 926-4080",
    "phoneUnformatted": "+12709264080",
    "claimThisBusiness": true,
    "location": {
      "lat": 37.7551484,
      "lng": -87.0658197
    },
    "totalScore": 4.5,
    "permanentlyClosed": false,
    "temporarilyClosed": false,
    "placeId": "ChIJEwzi3_27b4gRQ2cQVMPbdDU",
    "categories": [
      "Pharmacy"
    ],
    "fid": "0x886fbbfddfe20c13:0x3574dbc354106743",
    "cid": "3851945213284083523",
    "reviewsCount": 12,
    "imagesCount": 2,
    "imageCategories": [],
    "scrapedAt": "2025-06-22T05:21:57.852Z",
    "googleFoodUrl": null,
    "hotelAds": [],
    "openingHours": [
      {
        "day": "Monday",
        "hours": "9 AM to 6 PM"
      },
      {
        "day": "Tuesday",
        "hours": "9 AM to 6 PM"
      },
      {
        "day": "Wednesday",
        "hours": "9 AM to 6 PM"
      },
      {
        "day": "Thursday",
        "hours": "9 AM to 6 PM"
      },
      {
        "day": "Friday",
        "hours": "9 AM to 6 PM"
      },
      {
        "day": "Saturday",
        "hours": "9 AM to 12 PM"
      },
      {
        "day": "Sunday",
        "hours": "Closed"
      }
    ],
    "peopleAlsoSearch": [],
    "placesTags": [],
    "reviewsTags": [],
    "additionalInfo": {
      "Service options": [
        {
          "In-store pickup": true
        }
      ],
      "Accessibility": [
        {
          "Wheelchair accessible entrance": true
        },
        {
          "Wheelchair accessible parking lot": true
        }
      ],
      "Planning": [
        {
          "Quick visit": true
        }
      ],
      "Payments": [
        {
          "Credit cards": true
        },
        {
          "Debit cards": true
        },
        {
          "NFC mobile payments": true
        },
        {
          "Credit cards": true
        }
      ]
    },
    "gasPrices": [],
    "url": "https://www.google.com/maps/search/?api=1&query=Bluegrass%20Apothecary&query_place_id=ChIJEwzi3_27b4gRQ2cQVMPbdDU",
    "searchPageUrl": "https://www.google.com/maps/search/independent%20pharmacy%20Owensboro%20KY/@18.458974397176295,-65.89574592617555,11z?hl=en",
    "searchString": "independent pharmacy Owensboro KY",
    "language": "en",
    "rank": 11,
    "isAdvertisement": false,
    "imageUrl": "https://lh3.googleusercontent.com/gps-cs-s/AC9h4np9dy2-kho1RDcbigZMmBfQHOm23msnMpSefNmq_5ZSeTIZjeWMDugOnE6dOthH-hAM5adqZKGkaEXv8_SAS620P0heMWK3BiPYG6wJjLz0YmLADMd7mP9n7CaFYGkqyIwxfBFS=w408-h306-k-no",
    "kgmid": "/g/11vdbf0s8m"
  },
  {
    "title": "King Drug and Home Care",
    "price": null,
    "categoryName": "Pharmacy",
    "address": "1156 Carter Rd, Owensboro, KY 42301",
    "neighborhood": null,
    "street": "1156 Carter Rd",
    "city": "Owensboro",
    "postalCode": "42301",
    "state": "Kentucky",
    "countryCode": "US",
    "website": "http://www.kingdrug.com/",
    "phone": "(270) 683-7010",
    "phoneUnformatted": "+12706837010",
    "claimThisBusiness": false,
    "location": {
      "lat": 37.7623193,
      "lng": -87.1483569
    },
    "totalScore": 3.9,
    "permanentlyClosed": false,
    "temporarilyClosed": false,
    "placeId": "ChIJCYQKt_C5b4gRamBK_kiHpC0",
    "categories": [
      "Pharmacy",
      "Drug store",
      "Medical equipment supplier"
    ],
    "fid": "0x886fb9f0b70a8409:0x2da48748fe4a606a",
    "cid": "3288902375460986986",
    "reviewsCount": 45,
    "imagesCount": 5,
    "imageCategories": [],
    "scrapedAt": "2025-06-22T05:21:57.852Z",
    "googleFoodUrl": null,
    "hotelAds": [],
    "openingHours": [
      {
        "day": "Monday",
        "hours": "8:30 AM to 6:30 PM"
      },
      {
        "day": "Tuesday",
        "hours": "8:30 AM to 6:30 PM"
      },
      {
        "day": "Wednesday",
        "hours": "8:30 AM to 6:30 PM"
      },
      {
        "day": "Thursday",
        "hours": "8:30 AM to 6:30 PM"
      },
      {
        "day": "Friday",
        "hours": "8:30 AM to 6:30 PM"
      },
      {
        "day": "Saturday",
        "hours": "8:30 AM to 1 PM"
      },
      {
        "day": "Sunday",
        "hours": "Closed"
      }
    ],
    "peopleAlsoSearch": [],
    "placesTags": [],
    "reviewsTags": [],
    "additionalInfo": {
      "Service options": [
        {
          "Delivery": true
        },
        {
          "Drive-through": true
        },
        {
          "In-store pickup": true
        },
        {
          "Same-day delivery": true
        }
      ],
      "Accessibility": [
        {
          "Wheelchair accessible entrance": true
        },
        {
          "Wheelchair accessible parking lot": true
        }
      ],
      "Planning": [
        {
          "Quick visit": true
        }
      ],
      "Payments": [
        {
          "Credit cards": true
        },
        {
          "Debit cards": true
        },
        {
          "Credit cards": true
        }
      ]
    },
    "gasPrices": [],
    "url": "https://www.google.com/maps/search/?api=1&query=King%20Drug%20and%20Home%20Care&query_place_id=ChIJCYQKt_C5b4gRamBK_kiHpC0",
    "searchPageUrl": "https://www.google.com/maps/search/independent%20pharmacy%20Owensboro%20KY/@18.458974397176295,-65.89574592617555,11z?hl=en",
    "searchString": "independent pharmacy Owensboro KY",
    "language": "en",
    "rank": 12,
    "isAdvertisement": false,
    "imageUrl": "https://lh3.googleusercontent.com/p/AF1QipNeDcfMmkdwjHO_FID7-y4Etat6Ok3CNMtydv6L=w408-h544-k-no",
    "kgmid": "/g/1tgnbc5c"
  },
  {
    "title": "Poole's Pharmacy Care",
    "price": null,
    "categoryName": "Pharmacy",
    "address": "4333 Springhill Dr #101, Owensboro, KY 42303",
    "neighborhood": null,
    "street": "4333 Springhill Dr #101",
    "city": "Owensboro",
    "postalCode": "42303",
    "state": "Kentucky",
    "countryCode": "US",
    "website": "http://www.poolespharmacycare.com/",
    "phone": "(270) 926-6260",
    "phoneUnformatted": "+12709266260",
    "claimThisBusiness": false,
    "location": {
      "lat": 37.7455681,
      "lng": -87.0445452
    },
    "totalScore": 3.8,
    "permanentlyClosed": false,
    "temporarilyClosed": false,
    "placeId": "ChIJb85E97y6b4gRUykS75ulDJs",
    "categories": [
      "Pharmacy",
      "Medical equipment supplier",
      "Vitamin & supplements store"
    ],
    "fid": "0x886fbabcf744ce6f:0x9b0ca59bef122953",
    "cid": "11172486864748816723",
    "reviewsCount": 35,
    "imagesCount": 14,
    "imageCategories": [],
    "scrapedAt": "2025-06-22T05:21:57.852Z",
    "googleFoodUrl": null,
    "hotelAds": [],
    "openingHours": [
      {
        "day": "Monday",
        "hours": "8:30 AM to 5:30 PM"
      },
      {
        "day": "Tuesday",
        "hours": "8:30 AM to 5:30 PM"
      },
      {
        "day": "Wednesday",
        "hours": "8:30 AM to 5:30 PM"
      },
      {
        "day": "Thursday",
        "hours": "8:30 AM to 5:30 PM"
      },
      {
        "day": "Friday",
        "hours": "8:30 AM to 5:30 PM"
      },
      {
        "day": "Saturday",
        "hours": "9 AM to 12 PM"
      },
      {
        "day": "Sunday",
        "hours": "Closed"
      }
    ],
    "peopleAlsoSearch": [],
    "placesTags": [],
    "reviewsTags": [],
    "additionalInfo": {
      "Service options": [
        {
          "Delivery": true
        },
        {
          "Drive-through": true
        },
        {
          "In-store pickup": true
        },
        {
          "Same-day delivery": true
        }
      ],
      "Accessibility": [
        {
          "Wheelchair accessible entrance": true
        },
        {
          "Wheelchair accessible parking lot": true
        },
        {
          "Wheelchair accessible restroom": true
        },
        {
          "Wheelchair accessible seating": true
        }
      ],
      "Amenities": [
        {
          "Gender-neutral restroom": true
        }
      ],
      "Crowd": [
        {
          "LGBTQ+ friendly": true
        },
        {
          "Transgender safespace": true
        }
      ],
      "Planning": [
        {
          "Quick visit": true
        }
      ],
      "Payments": [
        {
          "Checks": true
        },
        {
          "Credit cards": true
        },
        {
          "Debit cards": true
        },
        {
          "Credit cards": true
        }
      ],
      "Parking": [
        {
          "Free parking lot": true
        },
        {
          "On-site parking": true
        }
      ]
    },
    "gasPrices": [],
    "url": "https://www.google.com/maps/search/?api=1&query=Poole's%20Pharmacy%20Care&query_place_id=ChIJb85E97y6b4gRUykS75ulDJs",
    "searchPageUrl": "https://www.google.com/maps/search/independent%20pharmacy%20Owensboro%20KY/@18.458974397176295,-65.89574592617555,11z?hl=en",
    "searchString": "independent pharmacy Owensboro KY",
    "language": "en",
    "rank": 13,
    "isAdvertisement": false,
    "imageUrl": "https://lh3.googleusercontent.com/gps-cs-s/AC9h4npzxwY0zwBOIsZrt2r3a6acYpe4xADCBIvv3Il98J-ElYkf6RJk5fS0JHOVLD3wEXXs3fBjafPiFTn9N2_5teNwss9JmcemSRiHTXmbuBMXdpylH1XrMvlEqnG6YBL_jnO8KnCw=w408-h306-k-no",
    "kgmid": "/g/1wc31_gr"
  },
  {
    "title": "Meijer Pharmacy",
    "price": "$$",
    "categoryName": "Pharmacy",
    "address": "2951 Heartland Xing Blvd, Owensboro, KY 42303",
    "neighborhood": null,
    "street": "2951 Heartland Xing Blvd",
    "city": "Owensboro",
    "postalCode": "42303",
    "state": "Kentucky",
    "countryCode": "US",
    "website": "https://www.meijer.com/shopping/store-locator/288.html?cmpid=LM:Web::::05112021::GooglePharmacy",
    "phone": "(270) 359-7510",
    "phoneUnformatted": "+12703597510",
    "claimThisBusiness": false,
    "location": {
      "lat": 37.7564964,
      "lng": -87.0756096
    },
    "totalScore": 3.6,
    "permanentlyClosed": false,
    "temporarilyClosed": false,
    "placeId": "ChIJNxZlZrm6b4gRBXhzucaDZhI",
    "categories": [
      "Pharmacy",
      "Medical supply store",
      "Drug store"
    ],
    "fid": "0x886fbab966651637:0x126683c6b9737805",
    "cid": "1325892029845305349",
    "reviewsCount": 37,
    "imagesCount": 4,
    "imageCategories": [],
    "scrapedAt": "2025-06-22T05:21:57.852Z",
    "googleFoodUrl": null,
    "hotelAds": [],
    "openingHours": [
      {
        "day": "Monday",
        "hours": "9 AM to 8 PM"
      },
      {
        "day": "Tuesday",
        "hours": "9 AM to 8 PM"
      },
      {
        "day": "Wednesday",
        "hours": "9 AM to 8 PM"
      },
      {
        "day": "Thursday",
        "hours": "9 AM to 8 PM"
      },
      {
        "day": "Friday",
        "hours": "9 AM to 8 PM"
      },
      {
        "day": "Saturday",
        "hours": "10 AM to 6 PM"
      },
      {
        "day": "Sunday",
        "hours": "10 AM to 6 PM"
      }
    ],
    "additionalOpeningHours": {
      "Drive through": [
        {
          "day": "Monday",
          "hours": "9 AM–8 PM"
        },
        {
          "day": "Tuesday",
          "hours": "9 AM–8 PM"
        },
        {
          "day": "Wednesday",
          "hours": "9 AM–8 PM"
        },
        {
          "day": "Thursday",
          "hours": "9 AM–8 PM"
        },
        {
          "day": "Friday",
          "hours": "9 AM–8 PM"
        },
        {
          "day": "Saturday",
          "hours": "10 AM–6 PM"
        },
        {
          "day": "Sunday",
          "hours": "10 AM–6 PM"
        }
      ],
      "Pickup": [
        {
          "day": "Monday",
          "hours": "9 AM–8 PM"
        },
        {
          "day": "Tuesday",
          "hours": "9 AM–8 PM"
        },
        {
          "day": "Wednesday",
          "hours": "9 AM–8 PM"
        },
        {
          "day": "Thursday",
          "hours": "9 AM–8 PM"
        },
        {
          "day": "Friday",
          "hours": "9 AM–8 PM"
        },
        {
          "day": "Saturday",
          "hours": "10 AM–6 PM"
        },
        {
          "day": "Sunday",
          "hours": "10 AM–6 PM"
        }
      ]
    },
    "peopleAlsoSearch": [],
    "placesTags": [],
    "reviewsTags": [],
    "additionalInfo": {
      "Service options": [
        {
          "Drive-through": true
        },
        {
          "In-store pickup": true
        }
      ],
      "Accessibility": [
        {
          "Wheelchair accessible entrance": true
        },
        {
          "Wheelchair accessible parking lot": true
        }
      ],
      "Offerings": [
        {
          "Medication disposal": true
        }
      ],
      "Amenities": [
        {
          "Wi-Fi": true
        }
      ],
      "Planning": [
        {
          "Quick visit": true
        }
      ],
      "Payments": [
        {
          "Credit cards": true
        }
      ]
    },
    "gasPrices": [],
    "url": "https://www.google.com/maps/search/?api=1&query=Meijer%20Pharmacy&query_place_id=ChIJNxZlZrm6b4gRBXhzucaDZhI",
    "searchPageUrl": "https://www.google.com/maps/search/independent%20pharmacy%20Owensboro%20KY/@18.458974397176295,-65.89574592617555,11z?hl=en",
    "searchString": "independent pharmacy Owensboro KY",
    "language": "en",
    "rank": 14,
    "isAdvertisement": false,
    "imageUrl": "https://lh3.googleusercontent.com/p/AF1QipOqnpmdC5vf-mMWNxXPevxVq90hFdyV44_Tg-dT=w426-h240-k-no",
    "kgmid": "/g/11fy__n1yf"
  },
  {
    "title": "CVS Pharmacy",
    "price": null,
    "categoryName": "Pharmacy",
    "address": "1221 Frederica St, Owensboro, KY 42301",
    "neighborhood": null,
    "street": "1221 Frederica St",
    "city": "Owensboro",
    "postalCode": "42301",
    "state": "Kentucky",
    "countryCode": "US",
    "website": "https://www.cvs.com/store-locator/owensboro-ky-pharmacies/1221-frederica-st-owensboro-ky-42301/storeid=7940?WT.mc_id=LS_GOOGLE_RX_7940",
    "phone": "(270) 683-5086",
    "phoneUnformatted": "+12706835086",
    "claimThisBusiness": false,
    "location": {
      "lat": 37.7645145,
      "lng": -87.1120898
    },
    "totalScore": 3.6,
    "permanentlyClosed": false,
    "temporarilyClosed": false,
    "placeId": "ChIJoeyqnnq6b4gRRo9b4kFArpM",
    "categories": [
      "Pharmacy"
    ],
    "fid": "0x886fba7a9eaaeca1:0x93ae4041e25b8f46",
    "cid": "10641513621237763910",
    "reviewsCount": 32,
    "imagesCount": 10,
    "imageCategories": [],
    "scrapedAt": "2025-06-22T05:21:57.852Z",
    "googleFoodUrl": null,
    "hotelAds": [],
    "openingHours": [
      {
        "day": "Monday",
        "hours": "8 AM to 1:30 PM, 2 to 8 PM"
      },
      {
        "day": "Tuesday",
        "hours": "8 AM to 1:30 PM, 2 to 8 PM"
      },
      {
        "day": "Wednesday",
        "hours": "8 AM to 1:30 PM, 2 to 8 PM"
      },
      {
        "day": "Thursday",
        "hours": "8 AM to 1:30 PM, 2 to 8 PM"
      },
      {
        "day": "Friday",
        "hours": "8 AM to 1:30 PM, 2 to 8 PM"
      },
      {
        "day": "Saturday",
        "hours": "8 AM to 1:30 PM, 2 to 6 PM"
      },
      {
        "day": "Sunday",
        "hours": "10 AM to 1:30 PM, 2 to 5 PM"
      }
    ],
    "peopleAlsoSearch": [],
    "placesTags": [],
    "reviewsTags": [],
    "additionalInfo": {
      "Service options": [
        {
          "Delivery": true
        },
        {
          "Drive-through": true
        },
        {
          "In-store shopping": true
        }
      ],
      "Accessibility": [
        {
          "Wheelchair accessible entrance": true
        },
        {
          "Wheelchair accessible parking lot": true
        }
      ],
      "Offerings": [
        {
          "Medication disposal": true
        },
        {
          "Naloxone": true
        }
      ],
      "Crowd": [
        {
          "LGBTQ+ friendly": true
        },
        {
          "Transgender safespace": true
        }
      ],
      "Planning": [
        {
          "Quick visit": true
        }
      ],
      "Payments": [
        {
          "Credit cards": true
        },
        {
          "Debit cards": true
        },
        {
          "NFC mobile payments": true
        },
        {
          "SNAP/EBT": true
        },
        {
          "Credit cards": true
        }
      ]
    },
    "gasPrices": [],
    "url": "https://www.google.com/maps/search/?api=1&query=CVS%20Pharmacy&query_place_id=ChIJoeyqnnq6b4gRRo9b4kFArpM",
    "searchPageUrl": "https://www.google.com/maps/search/independent%20pharmacy%20Owensboro%20KY/@18.458974397176295,-65.89574592617555,11z?hl=en",
    "searchString": "independent pharmacy Owensboro KY",
    "language": "en",
    "rank": 16,
    "isAdvertisement": false,
    "imageUrl": "https://lh3.googleusercontent.com/p/AF1QipPE_Rrj4d1putBB2pys_yXueClxrBms3fYJT_QU=w408-h272-k-no",
    "kgmid": "/g/11c4637tfg"
  },
  {
    "title": "Sam's Club Pharmacy",
    "price": "$",
    "categoryName": "Pharmacy",
    "address": "5240 Frederica St, Owensboro, KY 42301",
    "neighborhood": null,
    "street": "5240 Frederica St",
    "city": "Owensboro",
    "postalCode": "42301",
    "state": "Kentucky",
    "countryCode": "US",
    "website": "https://www.samsclub.com/local/pharmacy/owensboro-ky-sams-club/4908",
    "phone": "(270) 215-6516",
    "phoneUnformatted": "+12702156516",
    "claimThisBusiness": false,
    "location": {
      "lat": 37.7153657,
      "lng": -87.1283203
    },
    "totalScore": 4.4,
    "permanentlyClosed": false,
    "temporarilyClosed": false,
    "placeId": "ChIJ-8By8cO7b4gRDsWLKqNnRqM",
    "categories": [
      "Pharmacy"
    ],
    "fid": "0x886fbbc3f172c0fb:0xa34667a32a8bc50e",
    "cid": "11765205027043132686",
    "reviewsCount": 7,
    "imagesCount": 7,
    "imageCategories": [],
    "scrapedAt": "2025-06-22T05:21:57.852Z",
    "googleFoodUrl": null,
    "hotelAds": [],
    "openingHours": [
      {
        "day": "Monday",
        "hours": "9 AM to 7 PM"
      },
      {
        "day": "Tuesday",
        "hours": "9 AM to 7 PM"
      },
      {
        "day": "Wednesday",
        "hours": "9 AM to 7 PM"
      },
      {
        "day": "Thursday",
        "hours": "9 AM to 7 PM"
      },
      {
        "day": "Friday",
        "hours": "9 AM to 7 PM"
      },
      {
        "day": "Saturday",
        "hours": "9 AM to 6 PM"
      },
      {
        "day": "Sunday",
        "hours": "Closed"
      }
    ],
    "peopleAlsoSearch": [],
    "placesTags": [],
    "reviewsTags": [],
    "additionalInfo": {
      "Service options": [
        {
          "Curbside pickup": true
        },
        {
          "Delivery": true
        },
        {
          "In-store pickup": true
        },
        {
          "In-store shopping": true
        },
        {
          "Onsite services": true
        },
        {
          "Same-day delivery": true
        }
      ],
      "Accessibility": [
        {
          "Wheelchair accessible entrance": true
        },
        {
          "Wheelchair accessible parking lot": true
        }
      ],
      "Planning": [
        {
          "Quick visit": true
        }
      ],
      "Payments": [
        {
          "Credit cards": true
        },
        {
          "Debit cards": true
        },
        {
          "Credit cards": true
        }
      ]
    },
    "gasPrices": [],
    "url": "https://www.google.com/maps/search/?api=1&query=Sam's%20Club%20Pharmacy&query_place_id=ChIJ-8By8cO7b4gRDsWLKqNnRqM",
    "searchPageUrl": "https://www.google.com/maps/search/independent%20pharmacy%20Owensboro%20KY/@18.458974397176295,-65.89574592617555,11z?hl=en",
    "searchString": "independent pharmacy Owensboro KY",
    "language": "en",
    "rank": 17,
    "isAdvertisement": false,
    "imageUrl": "https://lh3.googleusercontent.com/p/AF1QipMHeY1eoNGoaFV3mEl_-UptS4ElTwlE45WfVEUz=w408-h272-k-no",
    "kgmid": "/g/11g9nkybxr"
  },
  {
    "title": "CVS Pharmacy",
    "price": null,
    "categoryName": "Pharmacy",
    "address": "5151 Frederica St, Owensboro, KY 42301",
    "neighborhood": null,
    "street": "5151 Frederica St",
    "city": "Owensboro",
    "postalCode": "42301",
    "state": "Kentucky",
    "countryCode": "US",
    "website": "https://www.cvs.com/store-locator/owensboro-ky-pharmacies/5151-frederica-st-owensboro-ky-42301/storeid=16232?WT.mc_id=LS_GOOGLE_RX_16232",
    "phone": "(270) 684-4362",
    "phoneUnformatted": "+12706844362",
    "claimThisBusiness": false,
    "location": {
      "lat": 37.7171141,
      "lng": -87.1225888
    },
    "totalScore": 3.8,
    "permanentlyClosed": false,
    "temporarilyClosed": false,
    "placeId": "ChIJ3xPFZce7b4gRvQW6W515kdY",
    "categories": [
      "Pharmacy"
    ],
    "fid": "0x886fbbc765c513df:0xd691799d5bba05bd",
    "cid": "15461272712495367613",
    "reviewsCount": 23,
    "imagesCount": 5,
    "imageCategories": [],
    "scrapedAt": "2025-06-22T05:21:57.853Z",
    "googleFoodUrl": null,
    "hotelAds": [],
    "openingHours": [
      {
        "day": "Monday",
        "hours": "10 AM to 1:30 PM, 2 to 6 PM"
      },
      {
        "day": "Tuesday",
        "hours": "10 AM to 1:30 PM, 2 to 6 PM"
      },
      {
        "day": "Wednesday",
        "hours": "10 AM to 1:30 PM, 2 to 6 PM"
      },
      {
        "day": "Thursday",
        "hours": "10 AM to 1:30 PM, 2 to 6 PM"
      },
      {
        "day": "Friday",
        "hours": "10 AM to 1:30 PM, 2 to 6 PM"
      },
      {
        "day": "Saturday",
        "hours": "Closed"
      },
      {
        "day": "Sunday",
        "hours": "Closed"
      }
    ],
    "peopleAlsoSearch": [],
    "placesTags": [],
    "reviewsTags": [],
    "additionalInfo": {
      "Service options": [
        {
          "Delivery": true
        },
        {
          "In-store shopping": true
        },
        {
          "Onsite services": true
        }
      ],
      "Accessibility": [
        {
          "Wheelchair accessible entrance": true
        },
        {
          "Wheelchair accessible parking lot": true
        }
      ],
      "Offerings": [
        {
          "Naloxone": true
        }
      ],
      "Crowd": [
        {
          "LGBTQ+ friendly": true
        },
        {
          "Transgender safespace": true
        }
      ],
      "Planning": [
        {
          "Quick visit": true
        }
      ],
      "Payments": [
        {
          "Credit cards": true
        },
        {
          "Debit cards": true
        },
        {
          "Credit cards": true
        }
      ]
    },
    "gasPrices": [],
    "url": "https://www.google.com/maps/search/?api=1&query=CVS%20Pharmacy&query_place_id=ChIJ3xPFZce7b4gRvQW6W515kdY",
    "searchPageUrl": "https://www.google.com/maps/search/independent%20pharmacy%20Owensboro%20KY/@18.458974397176295,-65.89574592617555,11z?hl=en",
    "searchString": "independent pharmacy Owensboro KY",
    "language": "en",
    "rank": 18,
    "isAdvertisement": false,
    "imageUrl": "https://lh3.googleusercontent.com/p/AF1QipODjuYKvKoAgw1FUN_SJDMB-SJMLWZfFUOfo-zL=w408-h272-k-no",
    "kgmid": "/g/1tdblrhd"
  },
  {
    "title": "CVS Pharmacy",
    "price": null,
    "categoryName": "Pharmacy",
    "address": "3311 KY-54, Owensboro, KY 42303",
    "neighborhood": null,
    "street": "3311 KY-54",
    "city": "Owensboro",
    "postalCode": "42303",
    "state": "Kentucky",
    "countryCode": "US",
    "website": "https://www.cvs.com/store-locator/owensboro-ky-pharmacies/3311-highway-54-owensboro-ky-42303/storeid=6264?WT.mc_id=LS_GOOGLE_RX_6264",
    "phone": "(270) 926-0476",
    "phoneUnformatted": "+12709260476",
    "claimThisBusiness": false,
    "location": {
      "lat": 37.7535036,
      "lng": -87.057975
    },
    "totalScore": 3.6,
    "permanentlyClosed": false,
    "temporarilyClosed": false,
    "placeId": "ChIJSw_N0kulb4gRVMLUmIQdmqY",
    "categories": [
      "Pharmacy"
    ],
    "fid": "0x886fa54bd2cd0f4b:0xa69a1d8498d4c254",
    "cid": "12004940212046447188",
    "reviewsCount": 10,
    "imagesCount": 10,
    "imageCategories": [],
    "scrapedAt": "2025-06-22T05:21:57.853Z",
    "googleFoodUrl": null,
    "hotelAds": [],
    "openingHours": [
      {
        "day": "Monday",
        "hours": "8 AM to 1:30 PM, 2 to 6 PM"
      },
      {
        "day": "Tuesday",
        "hours": "8 AM to 1:30 PM, 2 to 6 PM"
      },
      {
        "day": "Wednesday",
        "hours": "8 AM to 1:30 PM, 2 to 6 PM"
      },
      {
        "day": "Thursday",
        "hours": "8 AM to 1:30 PM, 2 to 6 PM"
      },
      {
        "day": "Friday",
        "hours": "8 AM to 1:30 PM, 2 to 6 PM"
      },
      {
        "day": "Saturday",
        "hours": "10 AM to 1:30 PM, 2 to 6 PM"
      },
      {
        "day": "Sunday",
        "hours": "10 AM to 1:30 PM, 2 to 6 PM"
      }
    ],
    "peopleAlsoSearch": [],
    "placesTags": [],
    "reviewsTags": [],
    "additionalInfo": {
      "Service options": [
        {
          "Delivery": true
        },
        {
          "Drive-through": true
        },
        {
          "In-store shopping": true
        },
        {
          "Onsite services": true
        }
      ],
      "Accessibility": [
        {
          "Wheelchair accessible entrance": true
        },
        {
          "Wheelchair accessible parking lot": true
        }
      ],
      "Offerings": [
        {
          "Naloxone": true
        }
      ],
      "Crowd": [
        {
          "LGBTQ+ friendly": true
        },
        {
          "Transgender safespace": true
        }
      ],
      "Planning": [
        {
          "Quick visit": true
        }
      ],
      "Payments": [
        {
          "Credit cards": true
        },
        {
          "Debit cards": true
        },
        {
          "NFC mobile payments": true
        },
        {
          "SNAP/EBT": true
        },
        {
          "Credit cards": true
        }
      ]
    },
    "gasPrices": [],
    "url": "https://www.google.com/maps/search/?api=1&query=CVS%20Pharmacy&query_place_id=ChIJSw_N0kulb4gRVMLUmIQdmqY",
    "searchPageUrl": "https://www.google.com/maps/search/independent%20pharmacy%20Owensboro%20KY/@18.458974397176295,-65.89574592617555,11z?hl=en",
    "searchString": "independent pharmacy Owensboro KY",
    "language": "en",
    "rank": 19,
    "isAdvertisement": false,
    "imageUrl": "https://lh3.googleusercontent.com/p/AF1QipMeCHPOk7QXuAKZ8Hj4y65eQzfhN9PSjJelTJWS=w408-h272-k-no",
    "kgmid": "/g/11c463h4j5"
  },
  {
    "title": "Walgreens Pharmacy",
    "description": "Department of the Walgreens chain providing prescription medications & other health-related items.",
    "price": null,
    "categoryName": "Pharmacy",
    "address": "1921 W Parrish Ave, Owensboro, KY 42301",
    "neighborhood": null,
    "street": "1921 W Parrish Ave",
    "city": "Owensboro",
    "postalCode": "42301",
    "state": "Kentucky",
    "countryCode": "US",
    "website": "https://www.walgreens.com/locator/walgreens-1921+w+parrish+ave-owensboro-ky-42301/id=19331",
    "phone": "(270) 683-0223",
    "phoneUnformatted": "+12706830223",
    "claimThisBusiness": false,
    "location": {
      "lat": 37.759477,
      "lng": -87.13437
    },
    "totalScore": 4.2,
    "permanentlyClosed": false,
    "temporarilyClosed": false,
    "placeId": "ChIJp3usjyG7b4gRM0M7k-yGQvE",
    "categories": [
      "Pharmacy"
    ],
    "fid": "0x886fbb218fac7ba7:0xf14286ec933b4333",
    "cid": "17384605862244074291",
    "reviewsCount": 10,
    "imagesCount": 3,
    "imageCategories": [],
    "scrapedAt": "2025-06-22T05:21:57.853Z",
    "googleFoodUrl": null,
    "hotelAds": [],
    "openingHours": [
      {
        "day": "Monday",
        "hours": "9 AM to 1 PM, 1:30 to 7 PM"
      },
      {
        "day": "Tuesday",
        "hours": "9 AM to 1 PM, 1:30 to 7 PM"
      },
      {
        "day": "Wednesday",
        "hours": "9 AM to 1 PM, 1:30 to 7 PM"
      },
      {
        "day": "Thursday",
        "hours": "9 AM to 1 PM, 1:30 to 7 PM"
      },
      {
        "day": "Friday",
        "hours": "9 AM to 1 PM, 1:30 to 7 PM"
      },
      {
        "day": "Saturday",
        "hours": "Closed"
      },
      {
        "day": "Sunday",
        "hours": "Closed"
      }
    ],
    "additionalOpeningHours": {
      "Drive through": [
        {
          "day": "Monday",
          "hours": "9 AM–1 PM"
        },
        {
          "day": "Tuesday",
          "hours": "9 AM–1 PM"
        },
        {
          "day": "Wednesday",
          "hours": "9 AM–1 PM"
        },
        {
          "day": "Thursday",
          "hours": "9 AM–1 PM"
        },
        {
          "day": "Friday",
          "hours": "9 AM–1 PM"
        },
        {
          "day": "Saturday",
          "hours": "Closed"
        },
        {
          "day": "Sunday",
          "hours": "Closed"
        }
      ]
    },
    "peopleAlsoSearch": [],
    "placesTags": [],
    "reviewsTags": [],
    "additionalInfo": {
      "Service options": [
        {
          "Curbside pickup": true
        },
        {
          "Drive-through": true
        },
        {
          "In-store pickup": true
        },
        {
          "Onsite services": true
        }
      ],
      "Accessibility": [
        {
          "Wheelchair accessible entrance": true
        },
        {
          "Wheelchair accessible parking lot": true
        }
      ],
      "Planning": [
        {
          "Quick visit": true
        }
      ],
      "Payments": [
        {
          "Credit cards": true
        }
      ]
    },
    "gasPrices": [],
    "url": "https://www.google.com/maps/search/?api=1&query=Walgreens%20Pharmacy&query_place_id=ChIJp3usjyG7b4gRM0M7k-yGQvE",
    "searchPageUrl": "https://www.google.com/maps/search/independent%20pharmacy%20Owensboro%20KY/@18.458974397176295,-65.89574592617555,11z?hl=en",
    "searchString": "independent pharmacy Owensboro KY",
    "language": "en",
    "rank": 20,
    "isAdvertisement": false,
    "imageUrl": "https://lh3.googleusercontent.com/p/AF1QipP3E_AiY8pzO8t1ww023-EebfD6JFULZQyfN-EG=w525-h240-k-no",
    "kgmid": "/g/11h9lf9y78"
  }
]