[
  {
    "title": "Credena Health Pharmacy Tanasbourne",
    "price": null,
    "categoryName": "Pharmacy",
    "address": "10670 NE Cornell Rd Suite 201, Hillsboro, OR 97124",
    "neighborhood": "Tanasbourne",
    "street": "10670 NE Cornell Rd Suite 201",
    "city": "Hillsboro",
    "postalCode": "97124",
    "state": "Oregon",
    "countryCode": "US",
    "website": "https://providencetanasbournepharmacy.cornerdrugstore.com/?corpID=308200&pharmID=1987",
    "phone": "(503) 216-9020",
    "phoneUnformatted": "+15032169020",
    "claimThisBusiness": false,
    "location": {
      "lat": 45.5331741,
      "lng": -122.8695317
    },
    "locatedIn": "Providence Tanasbourne Health Center",
    "plusCode": "G4MJ+75 Hillsboro, Oregon",
    "totalScore": 4.6,
    "permanentlyClosed": false,
    "temporarilyClosed": false,
    "placeId": "ChIJNfOtgmkPlVQRCCBShZp259g",
    "categories": [
      "Pharmacy"
    ],
    "fid": "0x54950f6982adf335:0xd8e7769a85522008",
    "cid": "15629591437846388744",
    "reviewsCount": 27,
    "reviewsDistribution": {
      "oneStar": 1,
      "twoStar": 1,
      "threeStar": 1,
      "fourStar": 3,
      "fiveStar": 21
    },
    "imagesCount": 8,
    "imageCategories": [
      "All",
      "By owner",
      "Street View & 360°"
    ],
    "scrapedAt": "2025-06-22T06:31:41.359Z",
    "googleFoodUrl": null,
    "hotelAds": [],
    "openingHours": [
      {
        "day": "Monday",
        "hours": "8 AM to 6 PM"
      },
      {
        "day": "Tuesday",
        "hours": "8 AM to 6 PM"
      },
      {
        "day": "Wednesday",
        "hours": "8 AM to 6 PM"
      },
      {
        "day": "Thursday",
        "hours": "8 AM to 6 PM"
      },
      {
        "day": "Friday",
        "hours": "8 AM to 6 PM"
      },
      {
        "day": "Saturday",
        "hours": "9 AM to 5 PM"
      },
      {
        "day": "Sunday",
        "hours": "Closed"
      }
    ],
    "additionalOpeningHours": {
      "Pickup": [
        {
          "day": "Monday",
          "hours": "8 AM–6 PM"
        },
        {
          "day": "Tuesday",
          "hours": "8 AM–6 PM"
        },
        {
          "day": "Wednesday",
          "hours": "8 AM–6 PM"
        },
        {
          "day": "Thursday",
          "hours": "8 AM–6 PM"
        },
        {
          "day": "Friday",
          "hours": "8 AM–6 PM"
        },
        {
          "day": "Saturday",
          "hours": "9 AM–5 PM"
        },
        {
          "day": "Sunday",
          "hours": "Closed"
        }
      ],
      "Online service hours": [
        {
          "day": "Monday",
          "hours": "Open 24 hours"
        },
        {
          "day": "Tuesday",
          "hours": "Open 24 hours"
        },
        {
          "day": "Wednesday",
          "hours": "Open 24 hours"
        },
        {
          "day": "Thursday",
          "hours": "Open 24 hours"
        },
        {
          "day": "Friday",
          "hours": "Open 24 hours"
        },
        {
          "day": "Saturday",
          "hours": "Open 24 hours"
        },
        {
          "day": "Sunday",
          "hours": "Open 24 hours"
        }
      ]
    },
    "peopleAlsoSearch": [
      {
        "category": "People also search for",
        "title": "Credena Health Pharmacy St Vincent",
        "reviewsCount": 23,
        "totalScore": 3.8
      },
      {
        "category": "People also search for",
        "title": "Credena Health Pharmacy at PPMC Plaza",
        "reviewsCount": 55,
        "totalScore": 4.2
      },
      {
        "category": "People also search for",
        "title": "Credena Health Pharmacy - Specialty",
        "reviewsCount": 18,
        "totalScore": 3.6
      },
      {
        "category": "People also search for",
        "title": "Rite Aid Pharmacy",
        "reviewsCount": 12,
        "totalScore": 1.1
      },
      {
        "category": "People also search for",
        "title": "Walgreens Pharmacy",
        "reviewsCount": 44,
        "totalScore": 2.3
      }
    ],
    "placesTags": [],
    "reviewsTags": [
      {
        "title": "prescriptions",
        "count": 2
      }
    ],
    "additionalInfo": {
      "Service options": [
        {
          "Delivery": true
        },
        {
          "In-store pickup": true
        },
        {
          "Onsite services": true
        }
      ],
      "Accessibility": [
        {
          "Wheelchair accessible entrance": true
        },
        {
          "Wheelchair accessible parking lot": true
        }
      ],
      "Amenities": [
        {
          "Wi-Fi": true
        },
        {
          "Free Wi-Fi": true
        }
      ],
      "Payments": [
        {
          "Credit cards": true
        },
        {
          "Debit cards": true
        }
      ]
    },
    "gasPrices": [],
    "questionsAndAnswers": {
      "question": "Do I need an appointment for a flu shot?",
      "answers": [
        {
          "answer": "No",
          "answeredBy": {}
        }
      ],
      "askDate": "4 years ago",
      "askedBy": {}
    },
    "url": "https://www.google.com/maps/search/?api=1&query=Credena%20Health%20Pharmacy%20Tanasbourne&query_place_id=ChIJNfOtgmkPlVQRCCBShZp259g",
    "searchPageUrl": "https://www.google.com/maps/search/independent%20pharmacy%20Hillsboro%20OR/@69.9064287015676,-147.35651604297223,9z?hl=en",
    "searchString": "independent pharmacy Hillsboro OR",
    "language": "en",
    "rank": 1,
    "isAdvertisement": false,
    "imageUrl": "https://lh3.googleusercontent.com/p/AF1QipMd-C1qxVLVg-ofcDk4W2nFfWQEklec5qNKGw-M=w408-h408-k-no",
    "kgmid": "/g/11b77hgzgx"
  },
  {
    "title": "OHSU Pharmacy at Hillsboro Medical Center",
    "price": null,
    "categoryName": "Pharmacy",
    "address": "333 SE 7th Ave Ste 1500, Hillsboro, OR 97123",
    "neighborhood": null,
    "street": "333 SE 7th Ave Ste 1500",
    "city": "Hillsboro",
    "postalCode": "97123",
    "state": "Oregon",
    "countryCode": "US",
    "website": "https://www.ohsu.edu/pharmacy/ohsu-pharmacy-tuality-downtown-hillsboro?utm_source=gmb&utm_medium=organic&utm_content=pharmacy-tuality-downtown-hillsboro",
    "phone": "(503) 346-4040",
    "phoneUnformatted": "+15033464040",
    "claimThisBusiness": false,
    "location": {
      "lat": 45.5196688,
      "lng": -122.9795658
    },
    "totalScore": 4.6,
    "permanentlyClosed": false,
    "temporarilyClosed": false,
    "placeId": "ChIJsz7MKqQalVQRd9627g64VCQ",
    "categories": [
      "Pharmacy"
    ],
    "fid": "0x54951aa42acc3eb3:0x2454b80eeeb6de77",
    "cid": "2617919657683115639",
    "reviewsCount": 32,
    "imagesCount": 5,
    "imageCategories": [],
    "scrapedAt": "2025-06-22T06:31:57.092Z",
    "googleFoodUrl": null,
    "hotelAds": [],
    "openingHours": [
      {
        "day": "Monday",
        "hours": "9 AM to 5:30 PM"
      },
      {
        "day": "Tuesday",
        "hours": "9 AM to 5:30 PM"
      },
      {
        "day": "Wednesday",
        "hours": "9 AM to 5:30 PM"
      },
      {
        "day": "Thursday",
        "hours": "9 AM to 5:30 PM"
      },
      {
        "day": "Friday",
        "hours": "9 AM to 5:30 PM"
      },
      {
        "day": "Saturday",
        "hours": "Closed"
      },
      {
        "day": "Sunday",
        "hours": "Closed"
      }
    ],
    "peopleAlsoSearch": [],
    "placesTags": [],
    "reviewsTags": [],
    "additionalInfo": {
      "Service options": [
        {
          "In-store shopping": true
        }
      ],
      "Accessibility": [
        {
          "Wheelchair accessible entrance": true
        },
        {
          "Wheelchair accessible parking lot": true
        }
      ],
      "Payments": [
        {
          "Credit cards": true
        }
      ]
    },
    "gasPrices": [],
    "url": "https://www.google.com/maps/search/?api=1&query=OHSU%20Pharmacy%20at%20Hillsboro%20Medical%20Center&query_place_id=ChIJsz7MKqQalVQRd9627g64VCQ",
    "searchPageUrl": "https://www.google.com/maps/search/independent%20pharmacy%20Hillsboro%20OR/@45.410355141996405,-121.31455714227097,8z?hl=en",
    "searchString": "independent pharmacy Hillsboro OR",
    "language": "en",
    "rank": 2,
    "isAdvertisement": false,
    "imageUrl": "https://lh3.googleusercontent.com/gps-cs-s/AC9h4nry6HsuVp0gIl7fqfV-hmD3aOQtGLYSSCT8me4aI0C6gznnhV0izkh7PoAcz8voHgRPLw7pOyPo8zgeb__WRfwI5QfmnDgINWBgw11aSFW9oRhn0oO0c28yZnBs7T1f2gXgxY1q=w426-h240-k-no",
    "kgmid": "/g/1wk7qkwd"
  },
  {
    "title": "Virginia Garcia Pharmacy - Hillsboro",
    "price": null,
    "categoryName": "Pharmacy",
    "address": "226 SE 8th Ave, Hillsboro, OR 97123",
    "neighborhood": null,
    "street": "226 SE 8th Ave",
    "city": "Hillsboro",
    "postalCode": "97123",
    "state": "Oregon",
    "countryCode": "US",
    "website": "https://virginiagarcia.org/clinics-providers/hillsboro-clinics/",
    "phone": "(503) 601-7410",
    "phoneUnformatted": "+15036017410",
    "claimThisBusiness": false,
    "location": {
      "lat": 45.5209898,
      "lng": -122.9771174
    },
    "totalScore": 4.1,
    "permanentlyClosed": false,
    "temporarilyClosed": false,
    "placeId": "ChIJrWVE96UalVQRqd1-yKt_bsc",
    "categories": [
      "Pharmacy"
    ],
    "fid": "0x54951aa5f74465ad:0xc76e7fabc87edda9",
    "cid": "14370563836765724073",
    "reviewsCount": 14,
    "imagesCount": 7,
    "imageCategories": [],
    "scrapedAt": "2025-06-22T06:31:57.092Z",
    "googleFoodUrl": null,
    "hotelAds": [],
    "openingHours": [
      {
        "day": "Monday",
        "hours": "9 AM to 6 PM"
      },
      {
        "day": "Tuesday",
        "hours": "9 AM to 6 PM"
      },
      {
        "day": "Wednesday",
        "hours": "10 AM to 6 PM"
      },
      {
        "day": "Thursday",
        "hours": "9 AM to 6 PM"
      },
      {
        "day": "Friday",
        "hours": "9 AM to 6 PM"
      },
      {
        "day": "Saturday",
        "hours": "Closed"
      },
      {
        "day": "Sunday",
        "hours": "Closed"
      }
    ],
    "peopleAlsoSearch": [],
    "placesTags": [],
    "reviewsTags": [],
    "additionalInfo": {
      "Service options": [
        {
          "In-store shopping": true
        }
      ],
      "Accessibility": [
        {
          "Wheelchair accessible entrance": true
        },
        {
          "Wheelchair accessible parking lot": true
        }
      ],
      "Payments": [
        {
          "Credit cards": true
        }
      ]
    },
    "gasPrices": [],
    "url": "https://www.google.com/maps/search/?api=1&query=Virginia%20Garcia%20Pharmacy%20-%20Hillsboro&query_place_id=ChIJrWVE96UalVQRqd1-yKt_bsc",
    "searchPageUrl": "https://www.google.com/maps/search/independent%20pharmacy%20Hillsboro%20OR/@45.410355141996405,-121.31455714227097,8z?hl=en",
    "searchString": "independent pharmacy Hillsboro OR",
    "language": "en",
    "rank": 3,
    "isAdvertisement": false,
    "imageUrl": "https://lh3.googleusercontent.com/gps-cs-s/AC9h4npcOT67oLih2wciY5o1YzZWXhrYvoBsBHNOa97B8y-pHZMwskWNIuxHXOWEiU5mOKCa_E6Uk-76l7K81OpkNJtMayQvoT8qgt57OJN8fcLPUYAgHRX8izThckZg-NYXGpko93SshA=w408-h306-k-no",
    "kgmid": "/g/1thx3rr4"
  },
  {
    "title": "Safeway Pharmacy",
    "price": "$$",
    "categoryName": "Pharmacy",
    "address": "2525 SE Tualatin Valley Hwy, Hillsboro, OR 97123",
    "neighborhood": null,
    "street": "2525 SE Tualatin Valley Hwy",
    "city": "Hillsboro",
    "postalCode": "97123",
    "state": "Oregon",
    "countryCode": "US",
    "website": "https://local.pharmacy.safeway.com/safeway/or/hillsboro/2525-se-tualatin-valley-hwy.html",
    "phone": "(503) 681-0262",
    "phoneUnformatted": "+15036810262",
    "claimThisBusiness": false,
    "location": {
      "lat": 45.5059559,
      "lng": -122.9543586
    },
    "totalScore": 4,
    "permanentlyClosed": false,
    "temporarilyClosed": false,
    "placeId": "ChIJx70XXBcQlVQRR9zLEIfZVrw",
    "categories": [
      "Pharmacy",
      "Drug store",
      "Vitamin & supplements store"
    ],
    "fid": "0x549510175c17bdc7:0xbc56d98710cbdc47",
    "cid": "13571273701253176391",
    "reviewsCount": 25,
    "imagesCount": 17,
    "imageCategories": [],
    "scrapedAt": "2025-06-22T06:31:57.092Z",
    "googleFoodUrl": null,
    "hotelAds": [],
    "openingHours": [
      {
        "day": "Monday",
        "hours": "9 AM to 1:30 PM, 2 to 8 PM"
      },
      {
        "day": "Tuesday",
        "hours": "9 AM to 1:30 PM, 2 to 8 PM"
      },
      {
        "day": "Wednesday",
        "hours": "9 AM to 1:30 PM, 2 to 8 PM"
      },
      {
        "day": "Thursday",
        "hours": "9 AM to 1:30 PM, 2 to 8 PM"
      },
      {
        "day": "Friday",
        "hours": "9 AM to 1:30 PM, 2 to 8 PM"
      },
      {
        "day": "Saturday",
        "hours": "9 AM to 1:30 PM, 2 to 5 PM"
      },
      {
        "day": "Sunday",
        "hours": "10 AM to 1:30 PM, 2 to 5 PM"
      }
    ],
    "peopleAlsoSearch": [],
    "placesTags": [],
    "reviewsTags": [],
    "additionalInfo": {
      "Service options": [
        {
          "Delivery": true
        },
        {
          "In-store pickup": true
        },
        {
          "In-store shopping": true
        },
        {
          "Onsite services": true
        },
        {
          "Same-day delivery": true
        }
      ],
      "Accessibility": [
        {
          "Wheelchair accessible entrance": true
        },
        {
          "Wheelchair accessible parking lot": true
        }
      ],
      "Crowd": [
        {
          "LGBTQ+ friendly": true
        }
      ],
      "Planning": [
        {
          "Appointment required": true
        },
        {
          "Quick visit": true
        }
      ],
      "Payments": [
        {
          "Checks": true
        },
        {
          "Debit cards": true
        },
        {
          "Credit cards": true
        }
      ]
    },
    "gasPrices": [],
    "url": "https://www.google.com/maps/search/?api=1&query=Safeway%20Pharmacy&query_place_id=ChIJx70XXBcQlVQRR9zLEIfZVrw",
    "searchPageUrl": "https://www.google.com/maps/search/independent%20pharmacy%20Hillsboro%20OR/@45.410355141996405,-121.31455714227097,8z?hl=en",
    "searchString": "independent pharmacy Hillsboro OR",
    "language": "en",
    "rank": 4,
    "isAdvertisement": false,
    "imageUrl": "https://lh3.googleusercontent.com/p/AF1QipMpXn8-GV45U9mH1UdDgy8HuaPwuMB6uBWi_nJq=w426-h240-k-no",
    "kgmid": "/g/1tfqqnps"
  },
  {
    "title": "Brooklyn Pharmacy",
    "price": null,
    "categoryName": "Pharmacy",
    "address": "3131 SE Milwaukie Ave, Portland, OR 97223",
    "neighborhood": "Southeast Portland",
    "street": "3131 SE Milwaukie Ave",
    "city": "Portland",
    "postalCode": "97223",
    "state": "Oregon",
    "countryCode": "US",
    "website": "https://brooklyn-pharmacyrx.com/",
    "phone": "(503) 234-8348",
    "phoneUnformatted": "+15032348348",
    "claimThisBusiness": false,
    "location": {
      "lat": 45.5004994,
      "lng": -122.6543635
    },
    "totalScore": 4.8,
    "permanentlyClosed": false,
    "temporarilyClosed": false,
    "placeId": "ChIJZwoEq3sKlVQRNNC7NGWq438",
    "categories": [
      "Pharmacy"
    ],
    "fid": "0x54950a7bab040a67:0x7fe3aa6534bbd034",
    "cid": "9215396614183309364",
    "reviewsCount": 222,
    "imagesCount": 7,
    "imageCategories": [],
    "scrapedAt": "2025-06-22T06:31:57.093Z",
    "googleFoodUrl": null,
    "hotelAds": [],
    "openingHours": [
      {
        "day": "Monday",
        "hours": "9 AM to 6 PM"
      },
      {
        "day": "Tuesday",
        "hours": "9 AM to 6 PM"
      },
      {
        "day": "Wednesday",
        "hours": "9 AM to 6 PM"
      },
      {
        "day": "Thursday",
        "hours": "9 AM to 6 PM"
      },
      {
        "day": "Friday",
        "hours": "9 AM to 6 PM"
      },
      {
        "day": "Saturday",
        "hours": "9 AM to 1 PM"
      },
      {
        "day": "Sunday",
        "hours": "Closed"
      }
    ],
    "peopleAlsoSearch": [],
    "placesTags": [],
    "reviewsTags": [],
    "additionalInfo": {
      "From the business": [
        {
          "Small business": true
        }
      ],
      "Service options": [
        {
          "Delivery": true
        },
        {
          "In-store pickup": true
        },
        {
          "Onsite services": true
        },
        {
          "Same-day delivery": true
        }
      ],
      "Accessibility": [
        {
          "Wheelchair accessible entrance": true
        },
        {
          "Wheelchair accessible parking lot": true
        }
      ],
      "Planning": [
        {
          "Quick visit": true
        }
      ],
      "Payments": [
        {
          "Credit cards": true
        },
        {
          "Debit cards": true
        },
        {
          "NFC mobile payments": true
        },
        {
          "Credit cards": true
        }
      ]
    },
    "gasPrices": [],
    "url": "https://www.google.com/maps/search/?api=1&query=Brooklyn%20Pharmacy&query_place_id=ChIJZwoEq3sKlVQRNNC7NGWq438",
    "searchPageUrl": "https://www.google.com/maps/search/independent%20pharmacy%20Hillsboro%20OR/@45.410355141996405,-121.31455714227097,8z?hl=en",
    "searchString": "independent pharmacy Hillsboro OR",
    "language": "en",
    "rank": 5,
    "isAdvertisement": false,
    "imageUrl": "https://lh3.googleusercontent.com/gps-cs-s/AC9h4noHz_mPKe3JSoXHSSPAZYYrRQV-c4Q0BYCjjaEkg3WeNSXaW93grl9MLCD5UODKWft-VWA_RJawRZCVrjUG4fX_mGSP7_-daFqEmPio_JmOzfdh_--KVUtYTqhITEaKV1UIppMWjjui5p3U=w408-h474-k-no",
    "kgmid": "/g/1tgnrcd_"
  },
  {
    "title": "Fred Meyer Pharmacy",
    "price": null,
    "categoryName": "Pharmacy",
    "address": "7355 NE Imbrie Dr, Hillsboro, OR 97124",
    "neighborhood": null,
    "street": "7355 NE Imbrie Dr",
    "city": "Hillsboro",
    "postalCode": "97124",
    "state": "Oregon",
    "countryCode": "US",
    "website": "https://www.fredmeyer.com/rx/pharmacy/details/701/00661?cid=loc_70100661P_gmb",
    "phone": "(503) 747-1133",
    "phoneUnformatted": "+15037471133",
    "claimThisBusiness": false,
    "location": {
      "lat": 45.5514549,
      "lng": -122.9034706
    },
    "totalScore": 2.7,
    "permanentlyClosed": false,
    "temporarilyClosed": false,
    "placeId": "ChIJrXb0SZAFlVQRGOyStnnkPdw",
    "categories": [
      "Pharmacy",
      "Drug store",
      "Health counselor",
      "Home health care service"
    ],
    "fid": "0x5495059049f476ad:0xdc3de479b692ec18",
    "cid": "15870091873328753688",
    "reviewsCount": 50,
    "imagesCount": 11,
    "imageCategories": [],
    "scrapedAt": "2025-06-22T06:31:57.093Z",
    "googleFoodUrl": null,
    "hotelAds": [],
    "openingHours": [
      {
        "day": "Monday",
        "hours": "9 AM to 1 PM, 1:30 to 8 PM"
      },
      {
        "day": "Tuesday",
        "hours": "9 AM to 1 PM, 1:30 to 8 PM"
      },
      {
        "day": "Wednesday",
        "hours": "9 AM to 1 PM, 1:30 to 8 PM"
      },
      {
        "day": "Thursday",
        "hours": "9 AM to 1 PM, 1:30 to 8 PM"
      },
      {
        "day": "Friday",
        "hours": "9 AM to 1 PM, 1:30 to 8 PM"
      },
      {
        "day": "Saturday",
        "hours": "9 AM to 1 PM, 1:30 to 6 PM"
      },
      {
        "day": "Sunday",
        "hours": "10 AM to 1 PM, 1:30 to 5 PM"
      }
    ],
    "peopleAlsoSearch": [],
    "placesTags": [],
    "reviewsTags": [],
    "additionalInfo": {
      "Service options": [
        {
          "Curbside pickup": true
        },
        {
          "Delivery": true
        },
        {
          "In-store pickup": true
        },
        {
          "In-store shopping": true
        },
        {
          "Same-day delivery": true
        }
      ],
      "Accessibility": [
        {
          "Wheelchair accessible entrance": true
        },
        {
          "Wheelchair accessible parking lot": true
        },
        {
          "Wheelchair accessible restroom": true
        },
        {
          "Wheelchair accessible seating": true
        }
      ],
      "Offerings": [
        {
          "Passport photos": true
        }
      ],
      "Amenities": [
        {
          "Wi-Fi": true
        },
        {
          "Free Wi-Fi": true
        }
      ],
      "Crowd": [
        {
          "LGBTQ+ friendly": true
        },
        {
          "Transgender safespace": true
        }
      ],
      "Planning": [
        {
          "Quick visit": true
        }
      ],
      "Payments": [
        {
          "Checks": true
        },
        {
          "Credit cards": true
        },
        {
          "Debit cards": true
        },
        {
          "NFC mobile payments": true
        },
        {
          "Credit cards": true
        }
      ]
    },
    "gasPrices": [],
    "url": "https://www.google.com/maps/search/?api=1&query=Fred%20Meyer%20Pharmacy&query_place_id=ChIJrXb0SZAFlVQRGOyStnnkPdw",
    "searchPageUrl": "https://www.google.com/maps/search/independent%20pharmacy%20Hillsboro%20OR/@45.410355141996405,-121.31455714227097,8z?hl=en",
    "searchString": "independent pharmacy Hillsboro OR",
    "language": "en",
    "rank": 6,
    "isAdvertisement": false,
    "imageUrl": "https://lh3.googleusercontent.com/p/AF1QipO5qNRFbdiLJkSFm7ThcurnP5Xd66onR6spsk4u=w426-h240-k-no",
    "kgmid": "/g/1tc_dzlg"
  },
  {
    "title": "Safeway Pharmacy",
    "price": "$$",
    "categoryName": "Pharmacy",
    "address": "888 NE 25th Ave, Hillsboro, OR 97124",
    "neighborhood": null,
    "street": "888 NE 25th Ave",
    "city": "Hillsboro",
    "postalCode": "97124",
    "state": "Oregon",
    "countryCode": "US",
    "website": "https://local.pharmacy.safeway.com/safeway/or/hillsboro/888-ne-25th-ave.html",
    "phone": "(503) 681-8640",
    "phoneUnformatted": "+15036818640",
    "claimThisBusiness": false,
    "location": {
      "lat": 45.5299756,
      "lng": -122.954725
    },
    "totalScore": 3.5,
    "permanentlyClosed": false,
    "temporarilyClosed": false,
    "placeId": "ChIJA6gW9FAFlVQRNBECzJNd_JY",
    "categories": [
      "Pharmacy",
      "Drug store",
      "Vitamin & supplements store"
    ],
    "fid": "0x54950550f416a803:0x96fc5d93cc021134",
    "cid": "10879673689184538932",
    "reviewsCount": 33,
    "imagesCount": 13,
    "imageCategories": [],
    "scrapedAt": "2025-06-22T06:31:57.093Z",
    "googleFoodUrl": null,
    "hotelAds": [],
    "openingHours": [
      {
        "day": "Monday",
        "hours": "9 AM to 1:30 PM, 2 to 8 PM"
      },
      {
        "day": "Tuesday",
        "hours": "9 AM to 1:30 PM, 2 to 8 PM"
      },
      {
        "day": "Wednesday",
        "hours": "9 AM to 1:30 PM, 2 to 8 PM"
      },
      {
        "day": "Thursday",
        "hours": "9 AM to 1:30 PM, 2 to 8 PM"
      },
      {
        "day": "Friday",
        "hours": "9 AM to 1:30 PM, 2 to 8 PM"
      },
      {
        "day": "Saturday",
        "hours": "9 AM to 1:30 PM, 2 to 5 PM"
      },
      {
        "day": "Sunday",
        "hours": "10 AM to 1:30 PM, 2 to 5 PM"
      }
    ],
    "peopleAlsoSearch": [],
    "placesTags": [],
    "reviewsTags": [],
    "additionalInfo": {
      "Service options": [
        {
          "Delivery": true
        },
        {
          "In-store pickup": true
        },
        {
          "In-store shopping": true
        },
        {
          "Same-day delivery": true
        }
      ],
      "Accessibility": [
        {
          "Wheelchair accessible entrance": true
        },
        {
          "Wheelchair accessible parking lot": true
        }
      ],
      "Crowd": [
        {
          "LGBTQ+ friendly": true
        }
      ],
      "Planning": [
        {
          "Appointment required": true
        },
        {
          "Quick visit": true
        }
      ],
      "Payments": [
        {
          "Checks": true
        },
        {
          "Debit cards": true
        },
        {
          "Credit cards": true
        }
      ]
    },
    "gasPrices": [],
    "url": "https://www.google.com/maps/search/?api=1&query=Safeway%20Pharmacy&query_place_id=ChIJA6gW9FAFlVQRNBECzJNd_JY",
    "searchPageUrl": "https://www.google.com/maps/search/independent%20pharmacy%20Hillsboro%20OR/@45.410355141996405,-121.31455714227097,8z?hl=en",
    "searchString": "independent pharmacy Hillsboro OR",
    "language": "en",
    "rank": 7,
    "isAdvertisement": false,
    "imageUrl": "https://lh3.googleusercontent.com/gps-cs-s/AC9h4npItQyASzr5Hu6DhcpW6ARIwzsRnikFiAsxXWwj-GF6jQPRQ1moGMAnr0JnFZ8XnoeWAOonHYT7Xyk38KZrgeM2DeX0DNSshxVtnHzDl85AJfpSoJyT_NfOi_xZwG1xYo8p-g6n=w408-h544-k-no",
    "kgmid": "/g/11cjkv_x8v"
  },
  {
    "title": "Fred Meyer Pharmacy",
    "price": null,
    "categoryName": "Pharmacy",
    "address": "6495 SE Tualatin Valley Hwy, Hillsboro, OR 97123",
    "neighborhood": "Reedville",
    "street": "6495 SE Tualatin Valley Hwy",
    "city": "Hillsboro",
    "postalCode": "97123",
    "state": "Oregon",
    "countryCode": "US",
    "website": "https://www.fredmeyer.com/rx/pharmacy/details/701/00143?cid=loc_70100143P_gmb",
    "phone": "(503) 848-4583",
    "phoneUnformatted": "+15038484583",
    "claimThisBusiness": false,
    "location": {
      "lat": 45.5000318,
      "lng": -122.9147932
    },
    "totalScore": 2.9,
    "permanentlyClosed": false,
    "temporarilyClosed": false,
    "placeId": "ChIJ51D0wdEPlVQRdYLGmb6dSU0",
    "categories": [
      "Pharmacy",
      "Drug store",
      "Health counselor",
      "Home health care service"
    ],
    "fid": "0x54950fd1c1f450e7:0x4d499dbe99c68275",
    "cid": "5569155856169599605",
    "reviewsCount": 54,
    "imagesCount": 25,
    "imageCategories": [],
    "scrapedAt": "2025-06-22T06:31:57.093Z",
    "googleFoodUrl": null,
    "hotelAds": [],
    "openingHours": [
      {
        "day": "Monday",
        "hours": "9 AM to 1 PM, 1:30 to 8 PM"
      },
      {
        "day": "Tuesday",
        "hours": "9 AM to 1 PM, 1:30 to 8 PM"
      },
      {
        "day": "Wednesday",
        "hours": "9 AM to 1 PM, 1:30 to 8 PM"
      },
      {
        "day": "Thursday",
        "hours": "9 AM to 1 PM, 1:30 to 8 PM"
      },
      {
        "day": "Friday",
        "hours": "9 AM to 1 PM, 1:30 to 8 PM"
      },
      {
        "day": "Saturday",
        "hours": "9 AM to 1 PM, 1:30 to 6 PM"
      },
      {
        "day": "Sunday",
        "hours": "10 AM to 1 PM, 1:30 to 5 PM"
      }
    ],
    "peopleAlsoSearch": [],
    "placesTags": [],
    "reviewsTags": [],
    "additionalInfo": {
      "Service options": [
        {
          "Curbside pickup": true
        },
        {
          "Delivery": true
        },
        {
          "In-store pickup": true
        },
        {
          "In-store shopping": true
        },
        {
          "Onsite services": true
        },
        {
          "Same-day delivery": true
        }
      ],
      "Accessibility": [
        {
          "Wheelchair accessible entrance": true
        },
        {
          "Wheelchair accessible parking lot": true
        },
        {
          "Wheelchair accessible restroom": true
        },
        {
          "Wheelchair accessible seating": true
        }
      ],
      "Offerings": [
        {
          "Passport photos": true
        }
      ],
      "Crowd": [
        {
          "LGBTQ+ friendly": true
        },
        {
          "Transgender safespace": true
        }
      ],
      "Planning": [
        {
          "Quick visit": true
        }
      ],
      "Payments": [
        {
          "Checks": true
        },
        {
          "Credit cards": true
        },
        {
          "Debit cards": true
        },
        {
          "NFC mobile payments": true
        },
        {
          "Credit cards": true
        }
      ]
    },
    "gasPrices": [],
    "url": "https://www.google.com/maps/search/?api=1&query=Fred%20Meyer%20Pharmacy&query_place_id=ChIJ51D0wdEPlVQRdYLGmb6dSU0",
    "searchPageUrl": "https://www.google.com/maps/search/independent%20pharmacy%20Hillsboro%20OR/@45.410355141996405,-121.31455714227097,8z?hl=en",
    "searchString": "independent pharmacy Hillsboro OR",
    "language": "en",
    "rank": 8,
    "isAdvertisement": false,
    "imageUrl": "https://lh3.googleusercontent.com/p/AF1QipMzZU_CLGIpGFwb1230CLXQUEMGVyolMO74Y5ls=w426-h240-k-no",
    "kgmid": "/g/113dt8qyk"
  },
  {
    "title": "CVS Pharmacy",
    "description": "Drugstore chain selling a variety of beauty & health products, plus some grocery & household items.",
    "price": null,
    "categoryName": "Pharmacy",
    "address": "2295 SE Tualatin Valley Hwy, Hillsboro, OR 97123",
    "neighborhood": null,
    "street": "2295 SE Tualatin Valley Hwy",
    "city": "Hillsboro",
    "postalCode": "97123",
    "state": "Oregon",
    "countryCode": "US",
    "website": "https://www.cvs.com/store-locator/hillsboro-or-pharmacies/2295-se-tualatin-valley-hwy-hillsboro-or-97123/storeid=16140?WT.mc_id=LS_GOOGLE_RX_16140",
    "phone": "(503) 707-0000",
    "phoneUnformatted": "+15037070000",
    "claimThisBusiness": false,
    "location": {
      "lat": 45.5076615,
      "lng": -122.9568256
    },
    "totalScore": 3.7,
    "permanentlyClosed": false,
    "temporarilyClosed": false,
    "placeId": "ChIJoVBerRAQlVQRHFceGvu86N0",
    "categories": [
      "Pharmacy"
    ],
    "fid": "0x54951010ad5e50a1:0xdde8bcfb1a1e571c",
    "cid": "15990238263639955228",
    "reviewsCount": 31,
    "imagesCount": 18,
    "imageCategories": [],
    "scrapedAt": "2025-06-22T06:31:57.093Z",
    "googleFoodUrl": null,
    "hotelAds": [],
    "openingHours": [
      {
        "day": "Monday",
        "hours": "9 AM to 1:30 PM, 2 to 7 PM"
      },
      {
        "day": "Tuesday",
        "hours": "9 AM to 1:30 PM, 2 to 7 PM"
      },
      {
        "day": "Wednesday",
        "hours": "9 AM to 1:30 PM, 2 to 7 PM"
      },
      {
        "day": "Thursday",
        "hours": "9 AM to 1:30 PM, 2 to 7 PM"
      },
      {
        "day": "Friday",
        "hours": "9 AM to 1:30 PM, 2 to 7 PM"
      },
      {
        "day": "Saturday",
        "hours": "10 AM to 1:30 PM, 2 to 6 PM"
      },
      {
        "day": "Sunday",
        "hours": "11 AM to 1:30 PM, 2 to 5 PM"
      }
    ],
    "peopleAlsoSearch": [],
    "placesTags": [],
    "reviewsTags": [],
    "additionalInfo": {
      "Service options": [
        {
          "Delivery": true
        },
        {
          "In-store shopping": true
        },
        {
          "Onsite services": true
        }
      ],
      "Accessibility": [
        {
          "Wheelchair accessible entrance": true
        },
        {
          "Wheelchair accessible parking lot": true
        }
      ],
      "Offerings": [
        {
          "Medication disposal": true
        },
        {
          "Naloxone": true
        }
      ],
      "Crowd": [
        {
          "LGBTQ+ friendly": true
        },
        {
          "Transgender safespace": true
        }
      ],
      "Planning": [
        {
          "Quick visit": true
        }
      ],
      "Payments": [
        {
          "Credit cards": true
        },
        {
          "Debit cards": true
        },
        {
          "Credit cards": true
        }
      ]
    },
    "gasPrices": [],
    "url": "https://www.google.com/maps/search/?api=1&query=CVS%20Pharmacy&query_place_id=ChIJoVBerRAQlVQRHFceGvu86N0",
    "searchPageUrl": "https://www.google.com/maps/search/independent%20pharmacy%20Hillsboro%20OR/@45.410355141996405,-121.31455714227097,8z?hl=en",
    "searchString": "independent pharmacy Hillsboro OR",
    "language": "en",
    "rank": 9,
    "isAdvertisement": false,
    "imageUrl": "https://lh3.googleusercontent.com/p/AF1QipNetfUyFjCZFOOvFCxcIGoUWgcl3psdMM2KIE8y=w408-h272-k-no",
    "kgmid": "/g/1vjdps3z"
  },
  {
    "title": "Albertsons Pharmacy",
    "price": "$$",
    "categoryName": "Pharmacy",
    "address": "7500 SW Baseline Rd, Hillsboro, OR 97123",
    "neighborhood": "Reedville",
    "street": "7500 SW Baseline Rd",
    "city": "Hillsboro",
    "postalCode": "97123",
    "state": "Oregon",
    "countryCode": "US",
    "website": "https://local.pharmacy.albertsons.com/or/hillsboro/7500-sw-baseline-rd.html",
    "phone": "(503) 591-0997",
    "phoneUnformatted": "+15035910997",
    "claimThisBusiness": false,
    "location": {
      "lat": 45.5147197,
      "lng": -122.9037526
    },
    "totalScore": 3.9,
    "permanentlyClosed": false,
    "temporarilyClosed": false,
    "placeId": "ChIJ_-omi70PlVQR3u7SF_kBUYU",
    "categories": [
      "Pharmacy",
      "Drug store",
      "Vitamin & supplements store"
    ],
    "fid": "0x54950fbd8b26eaff:0x855101f917d2eede",
    "cid": "9606461649516162782",
    "reviewsCount": 20,
    "imagesCount": 6,
    "imageCategories": [],
    "scrapedAt": "2025-06-22T06:31:57.093Z",
    "googleFoodUrl": null,
    "hotelAds": [],
    "openingHours": [
      {
        "day": "Monday",
        "hours": "9 AM to 1:30 PM, 2 to 8 PM"
      },
      {
        "day": "Tuesday",
        "hours": "9 AM to 1:30 PM, 2 to 8 PM"
      },
      {
        "day": "Wednesday",
        "hours": "9 AM to 1:30 PM, 2 to 8 PM"
      },
      {
        "day": "Thursday",
        "hours": "9 AM to 1:30 PM, 2 to 8 PM"
      },
      {
        "day": "Friday",
        "hours": "9 AM to 1:30 PM, 2 to 8 PM"
      },
      {
        "day": "Saturday",
        "hours": "9 AM to 1:30 PM, 2 to 5 PM"
      },
      {
        "day": "Sunday",
        "hours": "10 AM to 1:30 PM, 2 to 5 PM"
      }
    ],
    "peopleAlsoSearch": [],
    "placesTags": [],
    "reviewsTags": [],
    "additionalInfo": {
      "Service options": [
        {
          "Delivery": true
        },
        {
          "In-store pickup": true
        },
        {
          "In-store shopping": true
        },
        {
          "Same-day delivery": true
        }
      ],
      "Accessibility": [
        {
          "Wheelchair accessible entrance": true
        },
        {
          "Wheelchair accessible parking lot": true
        }
      ],
      "Crowd": [
        {
          "LGBTQ+ friendly": true
        }
      ],
      "Planning": [
        {
          "Appointment required": true
        },
        {
          "Quick visit": true
        }
      ],
      "Payments": [
        {
          "Checks": true
        },
        {
          "Debit cards": true
        },
        {
          "NFC mobile payments": true
        },
        {
          "Credit cards": true
        }
      ]
    },
    "gasPrices": [],
    "url": "https://www.google.com/maps/search/?api=1&query=Albertsons%20Pharmacy&query_place_id=ChIJ_-omi70PlVQR3u7SF_kBUYU",
    "searchPageUrl": "https://www.google.com/maps/search/independent%20pharmacy%20Hillsboro%20OR/@45.410355141996405,-121.31455714227097,8z?hl=en",
    "searchString": "independent pharmacy Hillsboro OR",
    "language": "en",
    "rank": 10,
    "isAdvertisement": false,
    "imageUrl": "https://lh3.googleusercontent.com/p/AF1QipMKunETkxs4Xm01qSYsVs_0PW94IfLgTbaH42b3=w426-h240-k-no",
    "kgmid": "/g/1thk8g5r"
  },
  {
    "title": "Beaverton Pharmacy",
    "price": null,
    "categoryName": "Pharmacy",
    "address": "12250 SW Canyon Rd, Beaverton, OR 97005",
    "neighborhood": "Central Beaverton",
    "street": "12250 SW Canyon Rd",
    "city": "Beaverton",
    "postalCode": "97005",
    "state": "Oregon",
    "countryCode": "US",
    "website": "http://www.beavertonpharmacy.com/",
    "phone": "(503) 644-2101",
    "phoneUnformatted": "+15036442101",
    "claimThisBusiness": false,
    "location": {
      "lat": 45.4882267,
      "lng": -122.802773
    },
    "totalScore": 3.9,
    "permanentlyClosed": false,
    "temporarilyClosed": false,
    "placeId": "ChIJOzgXZKAOlVQRpP3wNBjwOg0",
    "categories": [
      "Pharmacy"
    ],
    "fid": "0x54950ea06417383b:0xd3af01834f0fda4",
    "cid": "953338257900371364",
    "reviewsCount": 116,
    "imagesCount": 13,
    "imageCategories": [],
    "scrapedAt": "2025-06-22T06:31:57.093Z",
    "googleFoodUrl": null,
    "hotelAds": [],
    "openingHours": [
      {
        "day": "Monday",
        "hours": "9:30 AM to 6 PM"
      },
      {
        "day": "Tuesday",
        "hours": "9:30 AM to 6 PM"
      },
      {
        "day": "Wednesday",
        "hours": "9:30 AM to 6 PM"
      },
      {
        "day": "Thursday",
        "hours": "9:30 AM to 6 PM"
      },
      {
        "day": "Friday",
        "hours": "9:30 AM to 6 PM"
      },
      {
        "day": "Saturday",
        "hours": "9:30 AM to 3 PM"
      },
      {
        "day": "Sunday",
        "hours": "Closed"
      }
    ],
    "peopleAlsoSearch": [],
    "placesTags": [],
    "reviewsTags": [],
    "additionalInfo": {
      "From the business": [
        {
          "Small business": true
        }
      ],
      "Service options": [
        {
          "Delivery": true
        },
        {
          "Drive-through": true
        },
        {
          "In-store pickup": true
        },
        {
          "In-store shopping": true
        },
        {
          "Onsite services": true
        },
        {
          "Same-day delivery": true
        }
      ],
      "Accessibility": [
        {
          "Wheelchair accessible entrance": true
        },
        {
          "Wheelchair accessible parking lot": true
        }
      ],
      "Amenities": [
        {
          "Gender-neutral restroom": true
        }
      ],
      "Crowd": [
        {
          "LGBTQ+ friendly": true
        },
        {
          "Transgender safespace": true
        }
      ],
      "Planning": [
        {
          "Quick visit": true
        }
      ],
      "Payments": [
        {
          "Credit cards": true
        },
        {
          "Debit cards": true
        },
        {
          "NFC mobile payments": true
        },
        {
          "Credit cards": true
        }
      ]
    },
    "gasPrices": [],
    "url": "https://www.google.com/maps/search/?api=1&query=Beaverton%20Pharmacy&query_place_id=ChIJOzgXZKAOlVQRpP3wNBjwOg0",
    "searchPageUrl": "https://www.google.com/maps/search/independent%20pharmacy%20Hillsboro%20OR/@45.410355141996405,-121.31455714227097,8z?hl=en",
    "searchString": "independent pharmacy Hillsboro OR",
    "language": "en",
    "rank": 11,
    "isAdvertisement": false,
    "imageUrl": "https://lh3.googleusercontent.com/gps-cs-s/AC9h4nqjL8k22Z-UCa4VKcfe4P3JkQ0DA4wDTdivuk_IuaBMY0QbdQ--ptOELZdwuBYcakE7A0K6TvO-1QxBrozH-vRBzVK3jfjTpR4Lz-TVvDDYO8idMEuZxEHVUx0QR5YdORH4ixxMKA=w408-h305-k-no",
    "kgmid": "/g/1td0slgd"
  },
  {
    "title": "Rite Aid Pharmacy",
    "price": null,
    "categoryName": "Pharmacy",
    "address": "2021 NW 185th Ave, Hillsboro, OR 97124",
    "neighborhood": "Tanasbourne",
    "street": "2021 NW 185th Ave",
    "city": "Hillsboro",
    "postalCode": "97124",
    "state": "Oregon",
    "countryCode": "US",
    "website": "https://www.riteaid.com/locations/or/hillsboro/2021-nw-185th-avenue.html",
    "phone": "(503) 645-7704",
    "phoneUnformatted": "+15036457704",
    "claimThisBusiness": false,
    "location": {
      "lat": 45.5348914,
      "lng": -122.8700797
    },
    "totalScore": 1.1,
    "permanentlyClosed": false,
    "temporarilyClosed": false,
    "placeId": "ChIJycV1yv0PlVQR9GVZD9O7V3s",
    "categories": [
      "Pharmacy"
    ],
    "fid": "0x54950ffdca75c5c9:0x7b57bbd30f5965f4",
    "cid": "8887778904808973812",
    "reviewsCount": 12,
    "imagesCount": 10,
    "imageCategories": [],
    "scrapedAt": "2025-06-22T06:31:57.093Z",
    "googleFoodUrl": null,
    "hotelAds": [],
    "openingHours": [
      {
        "day": "Monday",
        "hours": "8 AM to 1:30 PM, 2 to 10 PM"
      },
      {
        "day": "Tuesday",
        "hours": "8 AM to 1:30 PM, 2 to 10 PM"
      },
      {
        "day": "Wednesday",
        "hours": "8 AM to 1:30 PM, 2 to 10 PM"
      },
      {
        "day": "Thursday",
        "hours": "8 AM to 1:30 PM, 2 to 10 PM"
      },
      {
        "day": "Friday",
        "hours": "8 AM to 1:30 PM, 2 to 10 PM"
      },
      {
        "day": "Saturday",
        "hours": "9 AM to 1:30 PM, 2 to 9 PM"
      },
      {
        "day": "Sunday",
        "hours": "9 AM to 1:30 PM, 2 to 9 PM"
      }
    ],
    "additionalOpeningHours": {
      "Drive through": [
        {
          "day": "Monday",
          "hours": "7 AM–11 PM"
        },
        {
          "day": "Tuesday",
          "hours": "7 AM–11 PM"
        },
        {
          "day": "Wednesday",
          "hours": "7 AM–11 PM"
        },
        {
          "day": "Thursday",
          "hours": "7 AM–11 PM"
        },
        {
          "day": "Friday",
          "hours": "7 AM–11 PM"
        },
        {
          "day": "Saturday",
          "hours": "9 AM–9 PM"
        },
        {
          "day": "Sunday",
          "hours": "9 AM–9 PM"
        }
      ]
    },
    "peopleAlsoSearch": [],
    "placesTags": [],
    "reviewsTags": [],
    "additionalInfo": {
      "Service options": [
        {
          "Delivery": true
        },
        {
          "In-store pickup": true
        },
        {
          "In-store shopping": true
        }
      ],
      "Accessibility": [
        {
          "Wheelchair accessible entrance": true
        },
        {
          "Wheelchair accessible parking lot": true
        }
      ],
      "Planning": [
        {
          "Quick visit": true
        }
      ],
      "Payments": [
        {
          "Checks": true
        },
        {
          "Credit cards": true
        },
        {
          "Debit cards": true
        },
        {
          "NFC mobile payments": true
        },
        {
          "Credit cards": true
        }
      ]
    },
    "gasPrices": [],
    "url": "https://www.google.com/maps/search/?api=1&query=Rite%20Aid%20Pharmacy&query_place_id=ChIJycV1yv0PlVQR9GVZD9O7V3s",
    "searchPageUrl": "https://www.google.com/maps/search/independent%20pharmacy%20Hillsboro%20OR/@45.410355141996405,-121.31455714227097,8z?hl=en",
    "searchString": "independent pharmacy Hillsboro OR",
    "language": "en",
    "rank": 12,
    "isAdvertisement": false,
    "imageUrl": "https://lh3.googleusercontent.com/gps-cs-s/AC9h4nrOWx9mPjrRU1UAyBlgAqHkos1Jp5_Oz8T0XwMl5ywFOA6D9iSBiXfoFRT_0ps6fcXHaD7SlTpbokMOYm6A1AuOHVXYLrRHAAyRSM6y4QAKTmiWSg4Q55zIScKLaDOjQLHFxaPI5g=w408-h544-k-no",
    "kgmid": "/g/11sw0kndfp"
  },
  {
    "title": "Rite Aid",
    "price": "$$",
    "categoryName": "Drug store",
    "address": "2021 NW 185th Ave, Hillsboro, OR 97124",
    "neighborhood": "Tanasbourne",
    "street": "2021 NW 185th Ave",
    "city": "Hillsboro",
    "postalCode": "97124",
    "state": "Oregon",
    "countryCode": "US",
    "website": "https://www.riteaid.com/locations/or/hillsboro/2021-nw-185th-avenue.html",
    "phone": "(503) 645-7704",
    "phoneUnformatted": "+15036457704",
    "claimThisBusiness": false,
    "location": {
      "lat": 45.5348734,
      "lng": -122.8700252
    },
    "locatedIn": "Rite Aid Pharmacy",
    "totalScore": 2.1,
    "permanentlyClosed": false,
    "temporarilyClosed": false,
    "placeId": "ChIJK9_T-GkPlVQRn-ao2I5ZB_I",
    "categories": [
      "Drug store",
      "Beauty supply store",
      "Convenience store",
      "General store",
      "Greeting card shop"
    ],
    "fid": "0x54950f69f8d3df2b:0xf207598ed8a8e69f",
    "cid": "17440006552070710943",
    "reviewsCount": 288,
    "imagesCount": 135,
    "imageCategories": [],
    "scrapedAt": "2025-06-22T06:31:57.093Z",
    "googleFoodUrl": null,
    "hotelAds": [],
    "openingHours": [
      {
        "day": "Monday",
        "hours": "8 AM to 10 PM"
      },
      {
        "day": "Tuesday",
        "hours": "8 AM to 10 PM"
      },
      {
        "day": "Wednesday",
        "hours": "8 AM to 10 PM"
      },
      {
        "day": "Thursday",
        "hours": "8 AM to 10 PM"
      },
      {
        "day": "Friday",
        "hours": "8 AM to 10 PM"
      },
      {
        "day": "Saturday",
        "hours": "9 AM to 9 PM"
      },
      {
        "day": "Sunday",
        "hours": "9 AM to 9 PM"
      }
    ],
    "additionalOpeningHours": {
      "Rite Aid Pharmacy": [
        {
          "day": "Monday",
          "hours": "8 AM–1:30 PM"
        },
        {
          "day": "Tuesday",
          "hours": "8 AM–1:30 PM"
        },
        {
          "day": "Wednesday",
          "hours": "8 AM–1:30 PM"
        },
        {
          "day": "Thursday",
          "hours": "8 AM–1:30 PM"
        },
        {
          "day": "Friday",
          "hours": "8 AM–1:30 PM"
        },
        {
          "day": "Saturday",
          "hours": "9 AM–1:30 PM"
        },
        {
          "day": "Sunday",
          "hours": "9 AM–1:30 PM"
        }
      ]
    },
    "peopleAlsoSearch": [],
    "placesTags": [],
    "reviewsTags": [],
    "additionalInfo": {
      "Service options": [
        {
          "Delivery": true
        },
        {
          "In-store pickup": true
        }
      ],
      "Accessibility": [
        {
          "Wheelchair accessible entrance": true
        },
        {
          "Wheelchair accessible parking lot": true
        }
      ],
      "Offerings": [
        {
          "Naloxone": true
        },
        {
          "Passport photos": true
        }
      ],
      "Planning": [
        {
          "Quick visit": true
        }
      ],
      "Payments": [
        {
          "Checks": true
        },
        {
          "Credit cards": true
        },
        {
          "Debit cards": true
        },
        {
          "NFC mobile payments": true
        },
        {
          "SNAP/EBT": true
        },
        {
          "Credit cards": true
        }
      ]
    },
    "gasPrices": [],
    "url": "https://www.google.com/maps/search/?api=1&query=Rite%20Aid&query_place_id=ChIJK9_T-GkPlVQRn-ao2I5ZB_I",
    "searchPageUrl": "https://www.google.com/maps/search/independent%20pharmacy%20Hillsboro%20OR/@45.410355141996405,-121.31455714227097,8z?hl=en",
    "searchString": "independent pharmacy Hillsboro OR",
    "language": "en",
    "rank": 13,
    "isAdvertisement": false,
    "imageUrl": "https://lh3.googleusercontent.com/gps-cs-s/AC9h4nogKi-f6u-sYUyVKEkwRr6AsTVV6Dr6FNAFAaajh5qG6svjKnH4wK1noUZCyEuyVnOl2qeRXYJ3_IO2UM1vylfqLHbp08fmMrFhfJFr_WgmC77Ba3Jp3XqY6j29qzvgjQwSuKucYQ=w427-h240-k-no",
    "kgmid": "/g/11d__hv7_2"
  },
  {
    "title": "PharMerica",
    "price": null,
    "categoryName": "Pharmacy",
    "address": "1815 NW 169th Pl # 3020 # 3020, Beaverton, OR 97006",
    "neighborhood": "Tanasbourne",
    "street": "1815 NW 169th Pl # 3020 # 3020",
    "city": "Beaverton",
    "postalCode": "97006",
    "state": "Oregon",
    "countryCode": "US",
    "website": "http://www.pharmerica.com/",
    "phone": "(503) 690-0694",
    "phoneUnformatted": "+15036900694",
    "claimThisBusiness": true,
    "location": {
      "lat": 45.531832,
      "lng": -122.8521837
    },
    "totalScore": 3.5,
    "permanentlyClosed": false,
    "temporarilyClosed": false,
    "placeId": "ChIJeZQC7TgPlVQR3e1CgXsCXpA",
    "categories": [
      "Pharmacy"
    ],
    "fid": "0x54950f38ed029479:0x905e027b8142eddd",
    "cid": "10402754918745304541",
    "reviewsCount": 2,
    "imagesCount": 2,
    "imageCategories": [],
    "scrapedAt": "2025-06-22T06:31:57.093Z",
    "googleFoodUrl": null,
    "hotelAds": [],
    "openingHours": [
      {
        "day": "Monday",
        "hours": "5 AM to 4:30 PM"
      },
      {
        "day": "Tuesday",
        "hours": "5 AM to 4:30 PM"
      },
      {
        "day": "Wednesday",
        "hours": "5 AM to 4:30 PM"
      },
      {
        "day": "Thursday",
        "hours": "5 AM to 4:30 PM"
      },
      {
        "day": "Friday",
        "hours": "5 AM to 4:30 PM"
      },
      {
        "day": "Saturday",
        "hours": "Closed"
      },
      {
        "day": "Sunday",
        "hours": "Closed"
      }
    ],
    "peopleAlsoSearch": [],
    "placesTags": [],
    "reviewsTags": [],
    "additionalInfo": {
      "Accessibility": [
        {
          "Wheelchair accessible entrance": true
        },
        {
          "Wheelchair accessible parking lot": true
        }
      ]
    },
    "gasPrices": [],
    "url": "https://www.google.com/maps/search/?api=1&query=PharMerica&query_place_id=ChIJeZQC7TgPlVQR3e1CgXsCXpA",
    "searchPageUrl": "https://www.google.com/maps/search/independent%20pharmacy%20Hillsboro%20OR/@45.410355141996405,-121.31455714227097,8z?hl=en",
    "searchString": "independent pharmacy Hillsboro OR",
    "language": "en",
    "rank": 14,
    "isAdvertisement": false,
    "imageUrl": "https://lh3.googleusercontent.com/gps-cs-s/AC9h4noRFpQeTwkmlfPG8SA1XNEgrx6Gy3uQra2nUkjJy5eoRPe5zlYh9FcTypxSd-_7B4C5g1H5M7W1Sc9KvTbkfyNhb3L0JrKVjkVeoeUxl5uTHQ0w4c8j-iS-ODazn_5CcFP_Gacc=w531-h240-k-no",
    "kgmid": "/g/1tfm14zg"
  },
  {
    "title": "Genoa Healthcare",
    "price": null,
    "categoryName": "Pharmacy",
    "address": "10700 SW Beaverton Hillsdale Hwy #122, Beaverton, OR 97005",
    "neighborhood": "Raleigh West",
    "street": "10700 SW Beaverton Hillsdale Hwy #122",
    "city": "Beaverton",
    "postalCode": "97005",
    "state": "Oregon",
    "countryCode": "US",
    "website": "http://www.genoahealthcare.com/",
    "phone": "(503) 214-2046",
    "phoneUnformatted": "+15032142046",
    "claimThisBusiness": false,
    "location": {
      "lat": 45.4855086,
      "lng": -122.7868647
    },
    "totalScore": 5,
    "permanentlyClosed": false,
    "temporarilyClosed": false,
    "placeId": "ChIJMQbktroNlVQRQROKIxrZSRo",
    "categories": [
      "Pharmacy"
    ],
    "fid": "0x54950dbab6e40631:0x1a49d91a238a1341",
    "cid": "1894283824574632769",
    "reviewsCount": 6,
    "imagesCount": 1,
    "imageCategories": [],
    "scrapedAt": "2025-06-22T06:31:57.093Z",
    "googleFoodUrl": null,
    "hotelAds": [],
    "openingHours": [
      {
        "day": "Monday",
        "hours": "8 AM to 12 PM, 1 to 5 PM"
      },
      {
        "day": "Tuesday",
        "hours": "8 AM to 12 PM, 1 to 5 PM"
      },
      {
        "day": "Wednesday",
        "hours": "8 AM to 12 PM, 1 to 5 PM"
      },
      {
        "day": "Thursday",
        "hours": "8 AM to 12 PM, 1 to 5 PM"
      },
      {
        "day": "Friday",
        "hours": "8 AM to 12 PM, 1 to 5 PM"
      },
      {
        "day": "Saturday",
        "hours": "Closed"
      },
      {
        "day": "Sunday",
        "hours": "Closed"
      }
    ],
    "peopleAlsoSearch": [],
    "placesTags": [],
    "reviewsTags": [],
    "additionalInfo": {
      "Accessibility": [
        {
          "Wheelchair accessible entrance": true
        },
        {
          "Wheelchair accessible parking lot": true
        }
      ],
      "Payments": [
        {
          "Credit cards": true
        }
      ]
    },
    "gasPrices": [],
    "url": "https://www.google.com/maps/search/?api=1&query=Genoa%20Healthcare&query_place_id=ChIJMQbktroNlVQRQROKIxrZSRo",
    "searchPageUrl": "https://www.google.com/maps/search/independent%20pharmacy%20Hillsboro%20OR/@45.410355141996405,-121.31455714227097,8z?hl=en",
    "searchString": "independent pharmacy Hillsboro OR",
    "language": "en",
    "rank": 15,
    "isAdvertisement": false,
    "imageUrl": "https://streetviewpixels-pa.googleapis.com/v1/thumbnail?panoid=HHHS2Or1mSgNe92WF0Uydw&cb_client=search.gws-prod.gps&w=408&h=240&yaw=257.1537&pitch=0&thumbfov=100",
    "kgmid": "/g/11h9kyz0_3"
  },
  {
    "title": "Northwest Compounders Compounding Pharmacy",
    "price": null,
    "categoryName": "Pharmacy",
    "address": "8505 SW Creekside Pl #110, Beaverton, OR 97008",
    "neighborhood": "Greenway",
    "street": "8505 SW Creekside Pl #110",
    "city": "Beaverton",
    "postalCode": "97008",
    "state": "Oregon",
    "countryCode": "US",
    "website": "http://www.northwestcompounders.com/",
    "phone": "(503) 352-3811",
    "phoneUnformatted": "+15033523811",
    "claimThisBusiness": false,
    "location": {
      "lat": 45.4582573,
      "lng": -122.7937095
    },
    "totalScore": 4.8,
    "permanentlyClosed": false,
    "temporarilyClosed": false,
    "placeId": "ChIJHZhTS-9ylVQRIVOMdvfVyVI",
    "categories": [
      "Pharmacy",
      "Veterinary pharmacy"
    ],
    "fid": "0x549572ef4b53981d:0x52c9d5f7768c5321",
    "cid": "5965534440251478817",
    "reviewsCount": 285,
    "imagesCount": 46,
    "imageCategories": [],
    "scrapedAt": "2025-06-22T06:31:57.093Z",
    "googleFoodUrl": null,
    "hotelAds": [],
    "openingHours": [
      {
        "day": "Monday",
        "hours": "7:30 AM to 7:30 PM"
      },
      {
        "day": "Tuesday",
        "hours": "7:30 AM to 7:30 PM"
      },
      {
        "day": "Wednesday",
        "hours": "7:30 AM to 7:30 PM"
      },
      {
        "day": "Thursday",
        "hours": "7:30 AM to 7:30 PM"
      },
      {
        "day": "Friday",
        "hours": "7:30 AM to 7:30 PM"
      },
      {
        "day": "Saturday",
        "hours": "8 AM to 3 PM"
      },
      {
        "day": "Sunday",
        "hours": "Closed"
      }
    ],
    "additionalOpeningHours": {
      "Pickup": [
        {
          "day": "Monday",
          "hours": "7:30 AM–7:30 PM"
        },
        {
          "day": "Tuesday",
          "hours": "7:30 AM–7:30 PM"
        },
        {
          "day": "Wednesday",
          "hours": "7:30 AM–7:30 PM"
        },
        {
          "day": "Thursday",
          "hours": "7:30 AM–7:30 PM"
        },
        {
          "day": "Friday",
          "hours": "7:30 AM–7:30 PM"
        },
        {
          "day": "Saturday",
          "hours": "8 AM–3 PM"
        },
        {
          "day": "Sunday",
          "hours": "Closed"
        }
      ]
    },
    "peopleAlsoSearch": [],
    "placesTags": [],
    "reviewsTags": [],
    "additionalInfo": {
      "From the business": [
        {
          "Small business": true
        }
      ],
      "Service options": [
        {
          "Delivery": true
        },
        {
          "In-store pickup": true
        },
        {
          "In-store shopping": true
        }
      ],
      "Accessibility": [
        {
          "Wheelchair accessible entrance": true
        },
        {
          "Wheelchair accessible parking lot": true
        }
      ],
      "Amenities": [
        {
          "Wi-Fi": true
        },
        {
          "Free Wi-Fi": true
        }
      ],
      "Payments": [
        {
          "Checks": true
        },
        {
          "Credit cards": true
        },
        {
          "Debit cards": true
        },
        {
          "NFC mobile payments": true
        }
      ]
    },
    "gasPrices": [],
    "url": "https://www.google.com/maps/search/?api=1&query=Northwest%20Compounders%20Compounding%20Pharmacy&query_place_id=ChIJHZhTS-9ylVQRIVOMdvfVyVI",
    "searchPageUrl": "https://www.google.com/maps/search/independent%20pharmacy%20Hillsboro%20OR/@45.410355141996405,-121.31455714227097,8z?hl=en",
    "searchString": "independent pharmacy Hillsboro OR",
    "language": "en",
    "rank": 16,
    "isAdvertisement": false,
    "imageUrl": "https://lh3.googleusercontent.com/p/AF1QipN2aRJ_KvJT361XjTta7BH9MiKyLvYnAHwk0zgK=w408-h544-k-no",
    "kgmid": "/g/12mkw7c1x"
  },
  {
    "title": "Bowman's Hillsdale Pharmacy",
    "price": null,
    "categoryName": "Pharmacy",
    "address": "6256 SW Capitol Hwy, Portland, OR 97239",
    "neighborhood": "Southwest Portland",
    "street": "6256 SW Capitol Hwy",
    "city": "Portland",
    "postalCode": "97239",
    "state": "Oregon",
    "countryCode": "US",
    "website": "http://www.facebook.com/BOWMANSHILLSDALEPHARMACY",
    "phone": "(503) 244-7582",
    "phoneUnformatted": "+15032447582",
    "claimThisBusiness": false,
    "location": {
      "lat": 45.4785052,
      "lng": -122.6936888
    },
    "totalScore": 3.8,
    "permanentlyClosed": false,
    "temporarilyClosed": false,
    "placeId": "ChIJZdKtzgALlVQRYS0e37X04tM",
    "categories": [
      "Pharmacy"
    ],
    "fid": "0x54950b00ceadd265:0xd3e2f4b5df1e2d61",
    "cid": "15268034748708957537",
    "reviewsCount": 51,
    "imagesCount": 41,
    "imageCategories": [],
    "scrapedAt": "2025-06-22T06:31:57.093Z",
    "googleFoodUrl": null,
    "hotelAds": [],
    "openingHours": [
      {
        "day": "Monday",
        "hours": "10 AM to 6 PM"
      },
      {
        "day": "Tuesday",
        "hours": "10 AM to 6 PM"
      },
      {
        "day": "Wednesday",
        "hours": "10 AM to 6 PM"
      },
      {
        "day": "Thursday",
        "hours": "10 AM to 6 PM"
      },
      {
        "day": "Friday",
        "hours": "10 AM to 6 PM"
      },
      {
        "day": "Saturday",
        "hours": "10 AM to 2 PM"
      },
      {
        "day": "Sunday",
        "hours": "Closed"
      }
    ],
    "peopleAlsoSearch": [],
    "placesTags": [],
    "reviewsTags": [],
    "additionalInfo": {
      "From the business": [
        {
          "Small business": true
        }
      ],
      "Service options": [
        {
          "Delivery": true
        },
        {
          "In-store pickup": true
        },
        {
          "In-store shopping": true
        },
        {
          "Same-day delivery": true
        }
      ],
      "Accessibility": [
        {
          "Wheelchair accessible entrance": true
        },
        {
          "Wheelchair accessible parking lot": true
        }
      ],
      "Planning": [
        {
          "Quick visit": true
        }
      ],
      "Payments": [
        {
          "Credit cards": true
        },
        {
          "Debit cards": true
        },
        {
          "NFC mobile payments": true
        },
        {
          "Credit cards": true
        }
      ]
    },
    "gasPrices": [],
    "url": "https://www.google.com/maps/search/?api=1&query=Bowman's%20Hillsdale%20Pharmacy&query_place_id=ChIJZdKtzgALlVQRYS0e37X04tM",
    "searchPageUrl": "https://www.google.com/maps/search/independent%20pharmacy%20Hillsboro%20OR/@45.410355141996405,-121.31455714227097,8z?hl=en",
    "searchString": "independent pharmacy Hillsboro OR",
    "language": "en",
    "rank": 17,
    "isAdvertisement": false,
    "imageUrl": "https://lh3.googleusercontent.com/gps-cs-s/AC9h4noz47ntZSitlfJ0Ra1O-1h8FLiD7F9pjhCfscXBx5Oosh2cBEFao15edoayh1rlrc2pf1N71l4E2bg_RqSEzr1zw_WKaq5JO_ftvFG5OBhisQF9LljET8FuTy-k-AGUhUEamOmD0Q=w408-h306-k-no",
    "kgmid": "/g/11_r_c__9"
  },
  {
    "title": "LECARE Pharmacy",
    "price": null,
    "categoryName": "Pharmacy",
    "address": "1619 NE 42nd Ave, Portland, OR 97213",
    "neighborhood": "Northeast Portland",
    "street": "1619 NE 42nd Ave",
    "city": "Portland",
    "postalCode": "97213",
    "state": "Oregon",
    "countryCode": "US",
    "website": "https://www.lecarepharmacy.com/",
    "phone": "(971) 358-6888",
    "phoneUnformatted": "+19713586888",
    "claimThisBusiness": false,
    "location": {
      "lat": 45.534809,
      "lng": -122.6204491
    },
    "totalScore": 4.9,
    "permanentlyClosed": false,
    "temporarilyClosed": false,
    "placeId": "ChIJOe0ck3ehlVQRZr7CHQlB0hc",
    "categories": [
      "Pharmacy"
    ],
    "fid": "0x5495a177931ced39:0x17d241091dc2be66",
    "cid": "1716505915391393382",
    "reviewsCount": 232,
    "imagesCount": 5,
    "imageCategories": [],
    "scrapedAt": "2025-06-22T06:31:57.094Z",
    "googleFoodUrl": null,
    "hotelAds": [],
    "openingHours": [
      {
        "day": "Monday",
        "hours": "9 AM to 6 PM"
      },
      {
        "day": "Tuesday",
        "hours": "9 AM to 6 PM"
      },
      {
        "day": "Wednesday",
        "hours": "9 AM to 6 PM"
      },
      {
        "day": "Thursday",
        "hours": "9 AM to 6 PM"
      },
      {
        "day": "Friday",
        "hours": "9 AM to 6 PM"
      },
      {
        "day": "Saturday",
        "hours": "9 AM to 1 PM"
      },
      {
        "day": "Sunday",
        "hours": "Closed"
      }
    ],
    "peopleAlsoSearch": [],
    "placesTags": [],
    "reviewsTags": [],
    "additionalInfo": {
      "From the business": [
        {
          "Small business": true
        }
      ],
      "Service options": [
        {
          "In-store pickup": true
        },
        {
          "In-store shopping": true
        }
      ],
      "Accessibility": [
        {
          "Wheelchair accessible entrance": true
        },
        {
          "Wheelchair accessible parking lot": true
        }
      ],
      "Payments": [
        {
          "Credit cards": true
        },
        {
          "Debit cards": true
        },
        {
          "NFC mobile payments": true
        },
        {
          "Credit cards": true
        }
      ]
    },
    "gasPrices": [],
    "url": "https://www.google.com/maps/search/?api=1&query=LECARE%20Pharmacy&query_place_id=ChIJOe0ck3ehlVQRZr7CHQlB0hc",
    "searchPageUrl": "https://www.google.com/maps/search/independent%20pharmacy%20Hillsboro%20OR/@45.410355141996405,-121.31455714227097,8z?hl=en",
    "searchString": "independent pharmacy Hillsboro OR",
    "language": "en",
    "rank": 18,
    "isAdvertisement": false,
    "imageUrl": "https://lh3.googleusercontent.com/gps-cs-s/AC9h4no9OvxbtOz8bjsYhzL9IydO9SwEgBdQvF4G682XlJ0TeMIpW4AfihEdWyd7O54AcVuwYLV71XdlDNJR7UKIAqsQuhTiQizU5Ipoq5wME9i60LRe77rG3DDKP1k3jyRV6sIgjVwiaQ=w408-h306-k-no",
    "kgmid": "/g/11nfq1b9vq"
  },
  {
    "title": "division pharmacy inc",
    "price": null,
    "categoryName": "Pharmacy",
    "address": "10240 NE Halsey St, Portland, OR 97220",
    "neighborhood": "Northeast Portland",
    "street": "10240 NE Halsey St",
    "city": "Portland",
    "postalCode": "97220",
    "state": "Oregon",
    "countryCode": "US",
    "website": "https://www.divisionpharmacy.com/",
    "phone": "(503) 261-0303",
    "phoneUnformatted": "+15032610303",
    "claimThisBusiness": false,
    "location": {
      "lat": 45.5334321,
      "lng": -122.5573075
    },
    "totalScore": 4.9,
    "permanentlyClosed": false,
    "temporarilyClosed": false,
    "placeId": "ChIJVVVVVcahlVQRn2mAcqlpKTE",
    "categories": [
      "Pharmacy"
    ],
    "fid": "0x5495a1c655555555:0x312969a97280699f",
    "cid": "3542478758395013535",
    "reviewsCount": 25,
    "imagesCount": 8,
    "imageCategories": [],
    "scrapedAt": "2025-06-22T06:31:57.094Z",
    "googleFoodUrl": null,
    "hotelAds": [],
    "openingHours": [
      {
        "day": "Monday",
        "hours": "10 AM to 6 PM"
      },
      {
        "day": "Tuesday",
        "hours": "10 AM to 6 PM"
      },
      {
        "day": "Wednesday",
        "hours": "10 AM to 6 PM"
      },
      {
        "day": "Thursday",
        "hours": "10 AM to 6 PM"
      },
      {
        "day": "Friday",
        "hours": "10 AM to 6 PM"
      },
      {
        "day": "Saturday",
        "hours": "Closed"
      },
      {
        "day": "Sunday",
        "hours": "Closed"
      }
    ],
    "peopleAlsoSearch": [],
    "placesTags": [],
    "reviewsTags": [],
    "additionalInfo": {
      "From the business": [
        {
          "Small business": true
        }
      ],
      "Service options": [
        {
          "Delivery": true
        }
      ],
      "Accessibility": [
        {
          "Wheelchair accessible entrance": true
        },
        {
          "Wheelchair accessible parking lot": true
        }
      ],
      "Payments": [
        {
          "Credit cards": true
        }
      ]
    },
    "gasPrices": [],
    "url": "https://www.google.com/maps/search/?api=1&query=division%20pharmacy%20inc&query_place_id=ChIJVVVVVcahlVQRn2mAcqlpKTE",
    "searchPageUrl": "https://www.google.com/maps/search/independent%20pharmacy%20Hillsboro%20OR/@45.410355141996405,-121.31455714227097,8z?hl=en",
    "searchString": "independent pharmacy Hillsboro OR",
    "language": "en",
    "rank": 19,
    "isAdvertisement": false,
    "imageUrl": "https://lh3.googleusercontent.com/p/AF1QipNy1r5OYLCBntG_-yh7Ln8GUWC8Vzjztw0nxFa2=w408-h306-k-no",
    "kgmid": "/g/11kh1_h0l8"
  },
  {
    "title": "CVS Pharmacy",
    "description": "Drugstore chain selling a variety of beauty & health products, plus some grocery & household items.",
    "price": null,
    "categoryName": "Pharmacy",
    "address": "18101 NW Evergreen Pkwy, Beaverton, OR 97006",
    "neighborhood": "Tanasbourne",
    "street": "18101 NW Evergreen Pkwy",
    "city": "Beaverton",
    "postalCode": "97006",
    "state": "Oregon",
    "countryCode": "US",
    "website": "https://www.cvs.com/store-locator/beaverton-or-pharmacies/18101-nw-evergreen-pkwy-beaverton-or-97006/storeid=16336?WT.mc_id=LS_GOOGLE_RX_16336",
    "phone": "(503) 207-0041",
    "phoneUnformatted": "+15032070041",
    "claimThisBusiness": false,
    "location": {
      "lat": 45.5394315,
      "lng": -122.8643345
    },
    "totalScore": 3,
    "permanentlyClosed": false,
    "temporarilyClosed": false,
    "placeId": "ChIJ7ehxbkMPlVQRoO16SXozdj0",
    "categories": [
      "Pharmacy"
    ],
    "fid": "0x54950f436e71e8ed:0x3d76337a497aeda0",
    "cid": "4428783883877281184",
    "reviewsCount": 63,
    "imagesCount": 31,
    "imageCategories": [],
    "scrapedAt": "2025-06-22T06:31:57.094Z",
    "googleFoodUrl": null,
    "hotelAds": [],
    "openingHours": [
      {
        "day": "Monday",
        "hours": "9 AM to 1:30 PM, 2 to 7 PM"
      },
      {
        "day": "Tuesday",
        "hours": "9 AM to 1:30 PM, 2 to 7 PM"
      },
      {
        "day": "Wednesday",
        "hours": "9 AM to 1:30 PM, 2 to 7 PM"
      },
      {
        "day": "Thursday",
        "hours": "9 AM to 1:30 PM, 2 to 7 PM"
      },
      {
        "day": "Friday",
        "hours": "9 AM to 1:30 PM, 2 to 7 PM"
      },
      {
        "day": "Saturday",
        "hours": "10 AM to 1:30 PM, 2 to 6 PM"
      },
      {
        "day": "Sunday",
        "hours": "11 AM to 1:30 PM, 2 to 5 PM"
      }
    ],
    "peopleAlsoSearch": [],
    "placesTags": [],
    "reviewsTags": [],
    "additionalInfo": {
      "Service options": [
        {
          "Delivery": true
        },
        {
          "In-store shopping": true
        }
      ],
      "Accessibility": [
        {
          "Wheelchair accessible entrance": true
        },
        {
          "Wheelchair accessible parking lot": true
        }
      ],
      "Offerings": [
        {
          "Medication disposal": true
        },
        {
          "Naloxone": true
        }
      ],
      "Crowd": [
        {
          "LGBTQ+ friendly": true
        },
        {
          "Transgender safespace": true
        }
      ],
      "Planning": [
        {
          "Quick visit": true
        }
      ],
      "Payments": [
        {
          "Credit cards": true
        },
        {
          "Debit cards": true
        },
        {
          "Credit cards": true
        }
      ]
    },
    "gasPrices": [],
    "url": "https://www.google.com/maps/search/?api=1&query=CVS%20Pharmacy&query_place_id=ChIJ7ehxbkMPlVQRoO16SXozdj0",
    "searchPageUrl": "https://www.google.com/maps/search/independent%20pharmacy%20Hillsboro%20OR/@45.410355141996405,-121.31455714227097,8z?hl=en",
    "searchString": "independent pharmacy Hillsboro OR",
    "language": "en",
    "rank": 20,
    "isAdvertisement": false,
    "imageUrl": "https://lh3.googleusercontent.com/gps-cs-s/AC9h4nqaK_R4g5ItOqzadzJ7GeH050LErXjW4SmitMIEsCKmIHdzU7ykljS_WWS_dvNykB-15L0P3t3HXYt50NIc8ol_9wgWCjMUzsyOVHXaJthSIlX-szaWZ9lDU_jM5OYOSE1tHIspKw=w408-h413-k-no",
    "kgmid": "/g/1tfkw000"
  }
]