[
  {
    "title": "Fairview Pharmacy and Compounding",
    "price": null,
    "categoryName": "Pharmacy",
    "address": "500 Katie Ave, Hattiesburg, MS 39401",
    "neighborhood": null,
    "street": "500 Katie Ave",
    "city": "Hattiesburg",
    "postalCode": "39401",
    "state": "Mississippi",
    "countryCode": "US",
    "website": "https://fairviewpharm.com/",
    "phone": "(601) 544-4871",
    "phoneUnformatted": "+16015444871",
    "claimThisBusiness": false,
    "location": {
      "lat": 31.3158407,
      "lng": -89.2915158
    },
    "totalScore": 4.3,
    "permanentlyClosed": false,
    "temporarilyClosed": false,
    "placeId": "ChIJwd-w8FDcnIgRQjvfMOmwmYw",
    "categories": [
      "Pharmacy"
    ],
    "fid": "0x889cdc50f0b0dfc1:0x8c99b0e930df3b42",
    "cid": "10131323352340446018",
    "reviewsCount": 21,
    "imagesCount": 3,
    "imageCategories": [],
    "scrapedAt": "2025-06-22T08:19:22.309Z",
    "googleFoodUrl": null,
    "hotelAds": [],
    "openingHours": [
      {
        "day": "Monday",
        "hours": "9 AM to 6 PM"
      },
      {
        "day": "Tuesday",
        "hours": "9 AM to 6 PM"
      },
      {
        "day": "Wednesday",
        "hours": "9 AM to 6 PM"
      },
      {
        "day": "Thursday",
        "hours": "9 AM to 6 PM"
      },
      {
        "day": "Friday",
        "hours": "9 AM to 6 PM"
      },
      {
        "day": "Saturday",
        "hours": "10 AM to 1 PM"
      },
      {
        "day": "Sunday",
        "hours": "Closed"
      }
    ],
    "peopleAlsoSearch": [],
    "placesTags": [],
    "reviewsTags": [],
    "additionalInfo": {
      "From the business": [
        {
          "Small business": true
        }
      ],
      "Service options": [
        {
          "Delivery": true
        },
        {
          "In-store pickup": true
        }
      ],
      "Accessibility": [
        {
          "Wheelchair accessible entrance": true
        },
        {
          "Wheelchair accessible parking lot": true
        }
      ],
      "Offerings": [
        {
          "Medication disposal": true
        }
      ],
      "Planning": [
        {
          "Quick visit": true
        }
      ],
      "Payments": [
        {
          "Credit cards": true
        },
        {
          "Debit cards": true
        },
        {
          "NFC mobile payments": true
        },
        {
          "Credit cards": true
        }
      ]
    },
    "gasPrices": [],
    "url": "https://www.google.com/maps/search/?api=1&query=Fairview%20Pharmacy%20and%20Compounding&query_place_id=ChIJwd-w8FDcnIgRQjvfMOmwmYw",
    "searchPageUrl": "https://www.google.com/maps/search/independent%20pharmacy%20Hattiesburg%20MS/@62.95881800455232,-150.80891300000008,9z?hl=en",
    "searchString": "independent pharmacy Hattiesburg MS",
    "language": "en",
    "rank": 1,
    "isAdvertisement": false,
    "imageUrl": "https://lh3.googleusercontent.com/p/AF1QipOkiOIP8K15y-kYB6zI-sX2f5_t0_TwuHm1w5xm=w408-h268-k-no",
    "kgmid": "/g/1tdzgsf1"
  },
  {
    "title": "Precision Pharmacy Wellness and Compounding",
    "price": null,
    "categoryName": "Pharmacy",
    "address": "6766 US-98 Ste 8, Hattiesburg, MS 39402",
    "neighborhood": null,
    "street": "6766 US-98 Ste 8",
    "city": "Hattiesburg",
    "postalCode": "39402",
    "state": "Mississippi",
    "countryCode": "US",
    "website": "https://www.precisionpharmacyms.com/",
    "phone": "(601) 255-0010",
    "phoneUnformatted": "+16012550010",
    "claimThisBusiness": false,
    "location": {
      "lat": 31.3151121,
      "lng": -89.4373343
    },
    "totalScore": 5,
    "permanentlyClosed": false,
    "temporarilyClosed": false,
    "placeId": "ChIJlQKv2HUhnYgR0D2kGeQbPl8",
    "categories": [
      "Pharmacy"
    ],
    "fid": "0x889d2175d8af0295:0x5f3e1be419a43dd0",
    "cid": "6862953548655902160",
    "reviewsCount": 26,
    "imagesCount": 3,
    "imageCategories": [],
    "scrapedAt": "2025-06-22T08:19:22.311Z",
    "googleFoodUrl": null,
    "hotelAds": [],
    "openingHours": [
      {
        "day": "Monday",
        "hours": "8 AM to 6 PM"
      },
      {
        "day": "Tuesday",
        "hours": "8 AM to 6 PM"
      },
      {
        "day": "Wednesday",
        "hours": "8 AM to 6 PM"
      },
      {
        "day": "Thursday",
        "hours": "8 AM to 6 PM"
      },
      {
        "day": "Friday",
        "hours": "8 AM to 6 PM"
      },
      {
        "day": "Saturday",
        "hours": "Closed"
      },
      {
        "day": "Sunday",
        "hours": "Closed"
      }
    ],
    "peopleAlsoSearch": [],
    "placesTags": [],
    "reviewsTags": [],
    "additionalInfo": {
      "From the business": [
        {
          "Small business": true
        }
      ],
      "Accessibility": [
        {
          "Wheelchair accessible entrance": true
        },
        {
          "Wheelchair accessible parking lot": true
        }
      ],
      "Planning": [
        {
          "Quick visit": true
        }
      ],
      "Payments": [
        {
          "Credit cards": true
        },
        {
          "Debit cards": true
        },
        {
          "NFC mobile payments": true
        },
        {
          "Credit cards": true
        }
      ]
    },
    "gasPrices": [],
    "url": "https://www.google.com/maps/search/?api=1&query=Precision%20Pharmacy%20Wellness%20and%20Compounding&query_place_id=ChIJlQKv2HUhnYgR0D2kGeQbPl8",
    "searchPageUrl": "https://www.google.com/maps/search/independent%20pharmacy%20Hattiesburg%20MS/@62.95881800455232,-150.80891300000008,9z?hl=en",
    "searchString": "independent pharmacy Hattiesburg MS",
    "language": "en",
    "rank": 2,
    "isAdvertisement": false,
    "imageUrl": "https://lh3.googleusercontent.com/p/AF1QipNRXIq2KbP3SEm2Fbj8dnONpQ4DOcp2t7gsGGAl=w408-h408-k-no",
    "kgmid": "/g/11vd6v0byb"
  },
  {
    "title": "Highland Specialty Pharmacy",
    "price": null,
    "categoryName": "Pharmacy",
    "address": "10 C Ainsworth Dr, Hattiesburg, MS 39402",
    "neighborhood": null,
    "street": "10 C Ainsworth Dr",
    "city": "Hattiesburg",
    "postalCode": "39402",
    "state": "Mississippi",
    "countryCode": "US",
    "website": "https://hsprx.com/",
    "phone": "(601) 268-6033",
    "phoneUnformatted": "+16012686033",
    "claimThisBusiness": false,
    "location": {
      "lat": 31.310656,
      "lng": -89.4844081
    },
    "totalScore": 4.4,
    "permanentlyClosed": false,
    "temporarilyClosed": false,
    "placeId": "ChIJ73gOXYshnYgRq-XDouZLbmo",
    "categories": [
      "Pharmacy"
    ],
    "fid": "0x889d218b5d0e78ef:0x6a6e4be6a2c3e5ab",
    "cid": "7669150669403841963",
    "reviewsCount": 32,
    "imagesCount": 2,
    "imageCategories": [],
    "scrapedAt": "2025-06-22T08:19:22.311Z",
    "googleFoodUrl": null,
    "hotelAds": [],
    "openingHours": [
      {
        "day": "Monday",
        "hours": "9 AM to 5 PM"
      },
      {
        "day": "Tuesday",
        "hours": "9 AM to 5 PM"
      },
      {
        "day": "Wednesday",
        "hours": "9 AM to 5 PM"
      },
      {
        "day": "Thursday",
        "hours": "9 AM to 5 PM"
      },
      {
        "day": "Friday",
        "hours": "9 AM to 5 PM"
      },
      {
        "day": "Saturday",
        "hours": "Closed"
      },
      {
        "day": "Sunday",
        "hours": "Closed"
      }
    ],
    "peopleAlsoSearch": [],
    "placesTags": [],
    "reviewsTags": [],
    "additionalInfo": {
      "From the business": [
        {
          "Small business": true
        }
      ],
      "Service options": [
        {
          "Delivery": true
        },
        {
          "In-store shopping": true
        },
        {
          "Same-day delivery": true
        }
      ],
      "Accessibility": [
        {
          "Wheelchair accessible entrance": true
        },
        {
          "Wheelchair accessible parking lot": true
        }
      ],
      "Planning": [
        {
          "Quick visit": true
        }
      ],
      "Payments": [
        {
          "Checks": true
        },
        {
          "Credit cards": true
        },
        {
          "Debit cards": true
        }
      ]
    },
    "gasPrices": [],
    "url": "https://www.google.com/maps/search/?api=1&query=Highland%20Specialty%20Pharmacy&query_place_id=ChIJ73gOXYshnYgRq-XDouZLbmo",
    "searchPageUrl": "https://www.google.com/maps/search/independent%20pharmacy%20Hattiesburg%20MS/@62.95881800455232,-150.80891300000008,9z?hl=en",
    "searchString": "independent pharmacy Hattiesburg MS",
    "language": "en",
    "rank": 3,
    "isAdvertisement": false,
    "imageUrl": "https://lh3.googleusercontent.com/p/AF1QipOGYzLXUqcqoyzTYf-UoWDNpZeQ2o1f2zJ1wFZ5=w408-h408-k-no",
    "kgmid": "/g/11bbt9fm6c"
  },
  {
    "title": "Freedom Pharmacy",
    "price": null,
    "categoryName": "Pharmacy",
    "address": "3902 Hardy St, Hattiesburg, MS 39402",
    "neighborhood": "University Heights",
    "street": "3902 Hardy St",
    "city": "Hattiesburg",
    "postalCode": "39402",
    "state": "Mississippi",
    "countryCode": "US",
    "website": "http://freedompharmacyms.com/",
    "phone": "(601) 450-6979",
    "phoneUnformatted": "+16014506979",
    "claimThisBusiness": false,
    "location": {
      "lat": 31.3246614,
      "lng": -89.3469597
    },
    "totalScore": 4.8,
    "permanentlyClosed": false,
    "temporarilyClosed": false,
    "placeId": "ChIJF0DQWunenIgR192k1HXpWmE",
    "categories": [
      "Pharmacy",
      "Health consultant",
      "Homeopathic pharmacy",
      "Vitamin & supplements store",
      "Wellness center"
    ],
    "fid": "0x889cdee95ad04017:0x615ae975d4a4ddd7",
    "cid": "7015176061870988759",
    "reviewsCount": 90,
    "imagesCount": 31,
    "imageCategories": [],
    "scrapedAt": "2025-06-22T08:19:22.311Z",
    "googleFoodUrl": null,
    "hotelAds": [],
    "openingHours": [
      {
        "day": "Monday",
        "hours": "8 AM to 6 PM"
      },
      {
        "day": "Tuesday",
        "hours": "8 AM to 6 PM"
      },
      {
        "day": "Wednesday",
        "hours": "8 AM to 6 PM"
      },
      {
        "day": "Thursday",
        "hours": "8 AM to 6 PM"
      },
      {
        "day": "Friday",
        "hours": "8 AM to 6 PM"
      },
      {
        "day": "Saturday",
        "hours": "Closed"
      },
      {
        "day": "Sunday",
        "hours": "Closed"
      }
    ],
    "peopleAlsoSearch": [],
    "placesTags": [],
    "reviewsTags": [],
    "additionalInfo": {
      "From the business": [
        {
          "Small business": true
        }
      ],
      "Service options": [
        {
          "Curbside pickup": true
        },
        {
          "Drive-through": true
        },
        {
          "In-store pickup": true
        },
        {
          "In-store shopping": true
        },
        {
          "Onsite services": true
        }
      ],
      "Accessibility": [
        {
          "Wheelchair accessible entrance": true
        },
        {
          "Wheelchair accessible parking lot": true
        }
      ],
      "Planning": [
        {
          "Quick visit": true
        }
      ],
      "Payments": [
        {
          "Credit cards": true
        },
        {
          "Debit cards": true
        },
        {
          "NFC mobile payments": true
        },
        {
          "Credit cards": true
        }
      ]
    },
    "gasPrices": [],
    "url": "https://www.google.com/maps/search/?api=1&query=Freedom%20Pharmacy&query_place_id=ChIJF0DQWunenIgR192k1HXpWmE",
    "searchPageUrl": "https://www.google.com/maps/search/independent%20pharmacy%20Hattiesburg%20MS/@62.95881800455232,-150.80891300000008,9z?hl=en",
    "searchString": "independent pharmacy Hattiesburg MS",
    "language": "en",
    "rank": 4,
    "isAdvertisement": false,
    "imageUrl": "https://lh3.googleusercontent.com/p/AF1QipNowrnmn__Nsy7-YQd1jeeHHnu5X2G9VVQyRblB=w408-h271-k-no",
    "kgmid": "/g/11bbych2mx"
  },
  {
    "title": "The Compounder",
    "price": null,
    "categoryName": "Pharmacy",
    "address": "115 S 40th Ave, Hattiesburg, MS 39402",
    "neighborhood": null,
    "street": "115 S 40th Ave",
    "city": "Hattiesburg",
    "postalCode": "39402",
    "state": "Mississippi",
    "countryCode": "US",
    "website": "https://www.thecompounderhattiesburg.com/#index",
    "phone": "(601) 261-0503",
    "phoneUnformatted": "+16012610503",
    "claimThisBusiness": false,
    "location": {
      "lat": 31.3234254,
      "lng": -89.3483026
    },
    "totalScore": 4.3,
    "permanentlyClosed": false,
    "temporarilyClosed": false,
    "placeId": "ChIJ9wax1-7enIgRvhIp2WESXRo",
    "categories": [
      "Pharmacy"
    ],
    "fid": "0x889cdeeed7b106f7:0x1a5d1261d92912be",
    "cid": "1899694829284692670",
    "reviewsCount": 26,
    "imagesCount": 5,
    "imageCategories": [],
    "scrapedAt": "2025-06-22T08:19:22.311Z",
    "googleFoodUrl": null,
    "hotelAds": [],
    "openingHours": [
      {
        "day": "Monday",
        "hours": "8:30 AM to 5:30 PM"
      },
      {
        "day": "Tuesday",
        "hours": "8:30 AM to 5:30 PM"
      },
      {
        "day": "Wednesday",
        "hours": "8:30 AM to 5:30 PM"
      },
      {
        "day": "Thursday",
        "hours": "8:30 AM to 5:30 PM"
      },
      {
        "day": "Friday",
        "hours": "8:30 AM to 5:30 PM"
      },
      {
        "day": "Saturday",
        "hours": "Closed"
      },
      {
        "day": "Sunday",
        "hours": "Closed"
      }
    ],
    "peopleAlsoSearch": [],
    "placesTags": [],
    "reviewsTags": [],
    "additionalInfo": {
      "From the business": [
        {
          "Small business": true
        }
      ],
      "Service options": [
        {
          "Delivery": true
        }
      ],
      "Accessibility": [
        {
          "Wheelchair accessible entrance": true
        },
        {
          "Wheelchair accessible parking lot": true
        },
        {
          "Wheelchair accessible restroom": true
        },
        {
          "Wheelchair accessible seating": true
        }
      ],
      "Payments": [
        {
          "Credit cards": true
        },
        {
          "Debit cards": true
        },
        {
          "NFC mobile payments": true
        },
        {
          "Credit cards": true
        }
      ],
      "Parking": [
        {
          "Free parking lot": true
        }
      ]
    },
    "gasPrices": [],
    "url": "https://www.google.com/maps/search/?api=1&query=The%20Compounder&query_place_id=ChIJ9wax1-7enIgRvhIp2WESXRo",
    "searchPageUrl": "https://www.google.com/maps/search/independent%20pharmacy%20Hattiesburg%20MS/@62.95881800455232,-150.80891300000008,9z?hl=en",
    "searchString": "independent pharmacy Hattiesburg MS",
    "language": "en",
    "rank": 5,
    "isAdvertisement": false,
    "imageUrl": "https://lh3.googleusercontent.com/p/AF1QipMFdEq48in5h8cYrI9IkXxQPkvbOhGq4N8YLAzc=w408-h306-k-no",
    "kgmid": "/g/1tdy9vr4"
  },
  {
    "title": "Oak Grove Pharmacy",
    "price": null,
    "categoryName": "Pharmacy",
    "address": "5039 Old Hwy 11 Suite 1, Hattiesburg, MS 39402",
    "neighborhood": null,
    "street": "5039 Old Hwy 11 Suite 1",
    "city": "Hattiesburg",
    "postalCode": "39402",
    "state": "Mississippi",
    "countryCode": "US",
    "phone": "(601) 264-1198",
    "phoneUnformatted": "+16012641198",
    "claimThisBusiness": false,
    "location": {
      "lat": 31.2964296,
      "lng": -89.4108755
    },
    "totalScore": 4.4,
    "permanentlyClosed": false,
    "temporarilyClosed": false,
    "placeId": "ChIJr215em8gnYgRKjtlozf-ovg",
    "categories": [
      "Pharmacy",
      "Drug store"
    ],
    "fid": "0x889d206f7a796daf:0xf8a2fe37a3653b2a",
    "cid": "17916161782551231274",
    "reviewsCount": 29,
    "imagesCount": 6,
    "imageCategories": [],
    "scrapedAt": "2025-06-22T08:19:22.731Z",
    "googleFoodUrl": null,
    "hotelAds": [],
    "openingHours": [
      {
        "day": "Monday",
        "hours": "8 AM to 6 PM"
      },
      {
        "day": "Tuesday",
        "hours": "8 AM to 6 PM"
      },
      {
        "day": "Wednesday",
        "hours": "8 AM to 6 PM"
      },
      {
        "day": "Thursday",
        "hours": "8 AM to 6 PM"
      },
      {
        "day": "Friday",
        "hours": "8 AM to 6 PM"
      },
      {
        "day": "Saturday",
        "hours": "8 AM to 12 PM"
      },
      {
        "day": "Sunday",
        "hours": "Closed"
      }
    ],
    "peopleAlsoSearch": [],
    "placesTags": [],
    "reviewsTags": [],
    "additionalInfo": {
      "Service options": [
        {
          "Delivery": true
        },
        {
          "In-store pickup": true
        },
        {
          "In-store shopping": true
        },
        {
          "Same-day delivery": true
        }
      ],
      "Accessibility": [
        {
          "Wheelchair accessible entrance": true
        },
        {
          "Wheelchair accessible parking lot": true
        }
      ],
      "Planning": [
        {
          "Quick visit": true
        }
      ],
      "Payments": [
        {
          "Checks": true
        },
        {
          "Credit cards": true
        },
        {
          "Debit cards": true
        },
        {
          "NFC mobile payments": true
        },
        {
          "Credit cards": true
        }
      ]
    },
    "gasPrices": [],
    "url": "https://www.google.com/maps/search/?api=1&query=Oak%20Grove%20Pharmacy&query_place_id=ChIJr215em8gnYgRKjtlozf-ovg",
    "searchPageUrl": "https://www.google.com/maps/search/independent%20pharmacy%20Hattiesburg%20MS/@28.477330106549307,-177.09541785221646,12z?hl=en",
    "searchString": "independent pharmacy Hattiesburg MS",
    "language": "en",
    "rank": 5,
    "isAdvertisement": false,
    "imageUrl": "https://lh3.googleusercontent.com/p/AF1QipOECB8ugLSQ6PSsC9LvYskL6WJmtLjbuak_g_-x=w408-h306-k-no",
    "kgmid": "/g/1tcwry28"
  },
  {
    "title": "Smith Drug Company",
    "price": null,
    "categoryName": "Pharmacy",
    "address": "604 Mobile St, Hattiesburg, MS 39401",
    "neighborhood": null,
    "street": "604 Mobile St",
    "city": "Hattiesburg",
    "postalCode": "39401",
    "state": "Mississippi",
    "countryCode": "US",
    "website": "https://historicsmithdrug.com/",
    "phone": "(601) 450-1942",
    "phoneUnformatted": "+16014501942",
    "claimThisBusiness": true,
    "location": {
      "lat": 31.3347948,
      "lng": -89.2901656
    },
    "totalScore": 3.7,
    "permanentlyClosed": false,
    "temporarilyClosed": false,
    "placeId": "ChIJTUIYpmbcnIgRFC4DxbSNoSA",
    "categories": [
      "Pharmacy"
    ],
    "fid": "0x889cdc66a618424d:0x20a18db4c5032e14",
    "cid": "2351316288003059220",
    "reviewsCount": 3,
    "imagesCount": 3,
    "imageCategories": [],
    "scrapedAt": "2025-06-22T08:19:30.828Z",
    "googleFoodUrl": null,
    "hotelAds": [],
    "openingHours": [],
    "peopleAlsoSearch": [],
    "placesTags": [],
    "reviewsTags": [],
    "additionalInfo": {
      "Service options": [
        {
          "Delivery": true
        }
      ],
      "Accessibility": [
        {
          "Wheelchair accessible entrance": true
        },
        {
          "Wheelchair accessible parking lot": true
        }
      ],
      "Planning": [
        {
          "Quick visit": true
        }
      ],
      "Payments": [
        {
          "Credit cards": true
        }
      ]
    },
    "gasPrices": [],
    "url": "https://www.google.com/maps/search/?api=1&query=Smith%20Drug%20Company&query_place_id=ChIJTUIYpmbcnIgRFC4DxbSNoSA",
    "searchPageUrl": "https://www.google.com/maps/search/independent%20pharmacy%20Hattiesburg%20MS/@58.095490516641576,-151.95971198567602,9z?hl=en",
    "searchString": "independent pharmacy Hattiesburg MS",
    "language": "en",
    "rank": 5,
    "isAdvertisement": false,
    "imageUrl": "https://lh3.googleusercontent.com/gps-cs-s/AC9h4noqiBR53caZHFJCjd7Wvk-POK2E-Wogh57YQllXW5dO5UFnTEIF37_fOGxIQ4KUZjEI0W5o3P82HluvbRe9un783WtM8hAR_9BL0JBkBx4wkDjRBgdYW8LfOiJkdXjyLEzwCf4_=w426-h240-k-no",
    "kgmid": "/g/11tb60wfmb"
  },
  {
    "title": "Hattiesburg Clinic Owl Drug Store",
    "price": null,
    "categoryName": "Pharmacy",
    "address": "2 Medical Blvd, Hattiesburg, MS 39401",
    "neighborhood": null,
    "street": "2 Medical Blvd",
    "city": "Hattiesburg",
    "postalCode": "39401",
    "state": "Mississippi",
    "countryCode": "US",
    "website": "https://www.hattiesburgclinic.com/locations/pharmacy/hattiesburg/",
    "phone": "(601) 268-5740",
    "phoneUnformatted": "+16012685740",
    "claimThisBusiness": false,
    "location": {
      "lat": 31.3186946,
      "lng": -89.3316821
    },
    "totalScore": 4.3,
    "permanentlyClosed": false,
    "temporarilyClosed": false,
    "placeId": "ChIJAyt0tJrenIgRuxm9Cdy884U",
    "categories": [
      "Pharmacy",
      "Drug store"
    ],
    "fid": "0x889cde9ab4742b03:0x85f3bcdc09bd19bb",
    "cid": "9652266079627319739",
    "reviewsCount": 25,
    "imagesCount": 3,
    "imageCategories": [],
    "scrapedAt": "2025-06-22T08:21:29.096Z",
    "googleFoodUrl": null,
    "hotelAds": [],
    "openingHours": [
      {
        "day": "Monday",
        "hours": "8 AM to 6 PM"
      },
      {
        "day": "Tuesday",
        "hours": "8 AM to 6 PM"
      },
      {
        "day": "Wednesday",
        "hours": "8 AM to 6 PM"
      },
      {
        "day": "Thursday",
        "hours": "8 AM to 6 PM"
      },
      {
        "day": "Friday",
        "hours": "8 AM to 6 PM"
      },
      {
        "day": "Saturday",
        "hours": "Closed"
      },
      {
        "day": "Sunday",
        "hours": "Closed"
      }
    ],
    "peopleAlsoSearch": [],
    "placesTags": [],
    "reviewsTags": [],
    "additionalInfo": {
      "Service options": [
        {
          "Delivery": true
        },
        {
          "Drive-through": true
        },
        {
          "In-store pickup": true
        }
      ],
      "Accessibility": [
        {
          "Wheelchair accessible entrance": true
        },
        {
          "Wheelchair accessible parking lot": true
        }
      ],
      "Planning": [
        {
          "Quick visit": true
        }
      ],
      "Payments": [
        {
          "Credit cards": true
        },
        {
          "Debit cards": true
        },
        {
          "NFC mobile payments": true
        },
        {
          "Credit cards": true
        }
      ]
    },
    "gasPrices": [],
    "url": "https://www.google.com/maps/search/?api=1&query=Hattiesburg%20Clinic%20Owl%20Drug%20Store&query_place_id=ChIJAyt0tJrenIgRuxm9Cdy884U",
    "searchPageUrl": "https://www.google.com/maps/search/independent%20pharmacy%20Hattiesburg%20MS/@33.954544952667874,-95.98474960000003,8z?hl=en",
    "searchString": "independent pharmacy Hattiesburg MS",
    "language": "en",
    "rank": 7,
    "isAdvertisement": false,
    "imageUrl": "https://lh3.googleusercontent.com/gps-cs-s/AC9h4nqMUxGDs_sQWUn9ta3Uk_7e1JrteVCuMxr-wIvaBaBkUTURbrFXmfu9O6rkVG2pxh5D3FRy1fSNrasS3GMVFltM7zuvwsrmCMDCFZ5M09j8RYw4BfTDrwnPgeAauZHj1oMOHfvL3w=w408-h544-k-no",
    "kgmid": "/g/1vs5xhs5"
  },
  {
    "title": "Patio Drugs",
    "price": null,
    "categoryName": "Pharmacy",
    "address": "5208 Veterans Memorial Blvd, Metairie, LA 70006, United States",
    "neighborhood": null,
    "street": "5208 Veterans Memorial Blvd",
    "city": "Metairie",
    "postalCode": "70006",
    "state": "Louisiana",
    "countryCode": "US",
    "website": "https://patiodrugs.com/",
    "phone": "+1 504-889-7070",
    "phoneUnformatted": "+15048897070",
    "claimThisBusiness": false,
    "location": {
      "lat": 30.0052334,
      "lng": -90.1977369
    },
    "totalScore": 4.3,
    "permanentlyClosed": false,
    "temporarilyClosed": false,
    "placeId": "ChIJKenONO6wIIYRGsuo2ke22I8",
    "categories": [
      "Pharmacy",
      "Home health care service"
    ],
    "fid": "0x8620b0ee34cee929:0x8fd8b647daa8cb1a",
    "cid": "10365234962120624922",
    "reviewsCount": 121,
    "reviewsDistribution": {
      "oneStar": 16,
      "twoStar": 2,
      "threeStar": 3,
      "fourStar": 8,
      "fiveStar": 92
    },
    "imagesCount": 6,
    "imageCategories": [],
    "scrapedAt": "2025-06-22T08:21:29.579Z",
    "googleFoodUrl": null,
    "hotelAds": [],
    "openingHours": [
      {
        "day": "Monday",
        "hours": "9 AM to 6 PM"
      },
      {
        "day": "Tuesday",
        "hours": "9 AM to 6 PM"
      },
      {
        "day": "Wednesday",
        "hours": "9 AM to 6 PM"
      },
      {
        "day": "Thursday",
        "hours": "9 AM to 6 PM"
      },
      {
        "day": "Friday",
        "hours": "9 AM to 6 PM"
      },
      {
        "day": "Saturday",
        "hours": "9 AM to 1 PM"
      },
      {
        "day": "Sunday",
        "hours": "Closed"
      }
    ],
    "peopleAlsoSearch": [],
    "placesTags": [],
    "reviewsTags": [],
    "additionalInfo": {
      "Service options": [
        {
          "Delivery": true
        },
        {
          "In-store pick-up": true
        },
        {
          "On-site services": true
        }
      ],
      "Accessibility": [
        {
          "Wheelchair-accessible car park": true
        },
        {
          "Wheelchair-accessible entrance": true
        }
      ],
      "Planning": [
        {
          "Quick visit": true
        }
      ],
      "Payments": [
        {
          "Credit cards": true
        },
        {
          "Debit cards": true
        },
        {
          "NFC mobile payments": true
        },
        {
          "Credit cards": true
        }
      ]
    },
    "gasPrices": [],
    "url": "https://www.google.com/maps/search/?api=1&query=Patio%20Drugs&query_place_id=ChIJKenONO6wIIYRGsuo2ke22I8",
    "searchPageUrl": "https://www.google.com/maps/search/independent%20pharmacy%20Hattiesburg%20MS/@28.22663985800361,-92.81852365721616,8z?hl=en",
    "searchString": "independent pharmacy Hattiesburg MS",
    "language": "en",
    "rank": 21,
    "isAdvertisement": false,
    "imageUrl": "https://lh3.googleusercontent.com/gps-cs-s/AC9h4nrZwWsTkpD7GH1Fw_MkPJB1SaKVKQKQ4UKNZZzjRiYXKkfKBQuNbjDPA_JDmmlbDyz3GSfahjxU88sztiYoe9kovxJYzvzs3mh3vs9bk53w9Tjifv4PBXq7mHOACahj5DgJ9XnBBw=w408-h544-k-no",
    "kgmid": "/g/1tj4hdly"
  },
  {
    "title": "Pharmacy Assistance Center",
    "price": null,
    "categoryName": "Pharmacy",
    "address": "64 Old Airport Rd, Hattiesburg, MS 39401",
    "neighborhood": null,
    "street": "64 Old Airport Rd",
    "city": "Hattiesburg",
    "postalCode": "39401",
    "state": "Mississippi",
    "countryCode": "US",
    "website": "http://www.semrhi.com/",
    "phone": "(601) 544-4163",
    "phoneUnformatted": "+16015444163",
    "claimThisBusiness": false,
    "location": {
      "lat": 31.276373,
      "lng": -89.2832102
    },
    "totalScore": 4.1,
    "permanentlyClosed": false,
    "temporarilyClosed": false,
    "placeId": "ChIJzd5oDHbdnIgRRrTLdurzaTs",
    "categories": [
      "Pharmacy"
    ],
    "fid": "0x889cdd760c68decd:0x3b69f3ea76cbb446",
    "cid": "4281221109133325382",
    "reviewsCount": 24,
    "imagesCount": 10,
    "imageCategories": [],
    "scrapedAt": "2025-06-22T08:21:37.293Z",
    "googleFoodUrl": null,
    "hotelAds": [],
    "openingHours": [
      {
        "day": "Monday",
        "hours": "8:30 AM to 6 PM"
      },
      {
        "day": "Tuesday",
        "hours": "8:30 AM to 6 PM"
      },
      {
        "day": "Wednesday",
        "hours": "8:30 AM to 6 PM"
      },
      {
        "day": "Thursday",
        "hours": "8:30 AM to 6 PM"
      },
      {
        "day": "Friday",
        "hours": "8:30 AM to 6 PM"
      },
      {
        "day": "Saturday",
        "hours": "Closed"
      },
      {
        "day": "Sunday",
        "hours": "Closed"
      }
    ],
    "peopleAlsoSearch": [],
    "placesTags": [],
    "reviewsTags": [],
    "additionalInfo": {
      "Service options": [
        {
          "Delivery": true
        },
        {
          "Drive-through": true
        }
      ],
      "Accessibility": [
        {
          "Wheelchair accessible entrance": true
        },
        {
          "Wheelchair accessible parking lot": true
        }
      ],
      "Payments": [
        {
          "Credit cards": true
        },
        {
          "Debit cards": true
        },
        {
          "NFC mobile payments": true
        },
        {
          "Credit cards": true
        }
      ]
    },
    "gasPrices": [],
    "url": "https://www.google.com/maps/search/?api=1&query=Pharmacy%20Assistance%20Center&query_place_id=ChIJzd5oDHbdnIgRRrTLdurzaTs",
    "searchPageUrl": "https://www.google.com/maps/search/independent%20pharmacy%20Hattiesburg%20MS/@31.321309166666666,-89.32892603333333,10.775459636843799z?hl=en",
    "searchString": "independent pharmacy Hattiesburg MS",
    "language": "en",
    "rank": 9,
    "isAdvertisement": false,
    "imageUrl": "https://lh3.googleusercontent.com/p/AF1QipNZ7Q3aoY9wRkQpi6CbO2CrtQy75i7vBaQiQ_J6=w408-h273-k-no",
    "kgmid": "/g/1trvm6jx"
  },
  {
    "title": "CVS Pharmacy",
    "price": null,
    "categoryName": "Pharmacy",
    "address": "2507 Hardy St, Hattiesburg, MS 39401",
    "neighborhood": null,
    "street": "2507 Hardy St",
    "city": "Hattiesburg",
    "postalCode": "39401",
    "state": "Mississippi",
    "countryCode": "US",
    "website": "https://www.cvs.com/store-locator/hattiesburg-ms-pharmacies/2507-hardy-st-hattiesburg-ms-39401/storeid=3124?WT.mc_id=LS_GOOGLE_RX_3124",
    "phone": "(601) 544-2545",
    "phoneUnformatted": "+16015442545",
    "claimThisBusiness": false,
    "location": {
      "lat": 31.325202,
      "lng": -89.3282087
    },
    "totalScore": 3.5,
    "permanentlyClosed": false,
    "temporarilyClosed": false,
    "placeId": "ChIJse1lR5nenIgRK3SbMWnl0V0",
    "categories": [
      "Pharmacy"
    ],
    "fid": "0x889cde994765edb1:0x5dd1e569319b742b",
    "cid": "6760436755626423339",
    "reviewsCount": 15,
    "imagesCount": 8,
    "imageCategories": [],
    "scrapedAt": "2025-06-22T08:21:37.293Z",
    "googleFoodUrl": null,
    "hotelAds": [],
    "openingHours": [
      {
        "day": "Monday",
        "hours": "9 AM to 1:30 PM, 2 to 8 PM"
      },
      {
        "day": "Tuesday",
        "hours": "9 AM to 1:30 PM, 2 to 8 PM"
      },
      {
        "day": "Wednesday",
        "hours": "9 AM to 1:30 PM, 2 to 8 PM"
      },
      {
        "day": "Thursday",
        "hours": "9 AM to 1:30 PM, 2 to 8 PM"
      },
      {
        "day": "Friday",
        "hours": "9 AM to 1:30 PM, 2 to 8 PM"
      },
      {
        "day": "Saturday",
        "hours": "10 AM to 1:30 PM, 2 to 5 PM"
      },
      {
        "day": "Sunday",
        "hours": "10 AM to 1:30 PM, 2 to 5 PM"
      }
    ],
    "peopleAlsoSearch": [],
    "placesTags": [],
    "reviewsTags": [],
    "additionalInfo": {
      "Service options": [
        {
          "Delivery": true
        },
        {
          "Drive-through": true
        },
        {
          "In-store shopping": true
        }
      ],
      "Accessibility": [
        {
          "Wheelchair accessible entrance": true
        },
        {
          "Wheelchair accessible parking lot": true
        }
      ],
      "Offerings": [
        {
          "Naloxone": true
        },
        {
          "Passport photos": true
        }
      ],
      "Crowd": [
        {
          "LGBTQ+ friendly": true
        },
        {
          "Transgender safespace": true
        }
      ],
      "Planning": [
        {
          "Quick visit": true
        }
      ],
      "Payments": [
        {
          "Credit cards": true
        },
        {
          "Debit cards": true
        },
        {
          "NFC mobile payments": true
        },
        {
          "SNAP/EBT": true
        },
        {
          "Credit cards": true
        }
      ]
    },
    "gasPrices": [],
    "url": "https://www.google.com/maps/search/?api=1&query=CVS%20Pharmacy&query_place_id=ChIJse1lR5nenIgRK3SbMWnl0V0",
    "searchPageUrl": "https://www.google.com/maps/search/independent%20pharmacy%20Hattiesburg%20MS/@31.321309166666666,-89.32892603333333,10.775459636843799z?hl=en",
    "searchString": "independent pharmacy Hattiesburg MS",
    "language": "en",
    "rank": 10,
    "isAdvertisement": false,
    "imageUrl": "https://lh3.googleusercontent.com/p/AF1QipP79iL_MrwjG8Klnb05HzTCghUUuSeSZEoQZwh_=w408-h272-k-no",
    "kgmid": "/g/11c5stq96q"
  },
  {
    "title": "CVS Pharmacy",
    "price": null,
    "categoryName": "Pharmacy",
    "address": "3910 Hardy St, Hattiesburg, MS 39402",
    "neighborhood": "University Heights",
    "street": "3910 Hardy St",
    "city": "Hattiesburg",
    "postalCode": "39402",
    "state": "Mississippi",
    "countryCode": "US",
    "website": "https://www.cvs.com/store-locator/hattiesburg-ms-pharmacies/3910-hardy-st-hattiesburg-ms-39402/storeid=5744?WT.mc_id=LS_GOOGLE_RX_5744",
    "phone": "(601) 264-6300",
    "phoneUnformatted": "+16012646300",
    "claimThisBusiness": false,
    "location": {
      "lat": 31.3245448,
      "lng": -89.3475306
    },
    "totalScore": 3.8,
    "permanentlyClosed": false,
    "temporarilyClosed": false,
    "placeId": "ChIJMUpNSOnenIgRqVbWlWsviq8",
    "categories": [
      "Pharmacy"
    ],
    "fid": "0x889cdee9484d4a31:0xaf8a2f6b95d656a9",
    "cid": "12648974642545317545",
    "reviewsCount": 13,
    "imagesCount": 14,
    "imageCategories": [],
    "scrapedAt": "2025-06-22T08:21:37.293Z",
    "googleFoodUrl": null,
    "hotelAds": [],
    "openingHours": [
      {
        "day": "Monday",
        "hours": "8 AM to 1:30 PM, 2 to 9 PM"
      },
      {
        "day": "Tuesday",
        "hours": "8 AM to 1:30 PM, 2 to 9 PM"
      },
      {
        "day": "Wednesday",
        "hours": "8 AM to 1:30 PM, 2 to 9 PM"
      },
      {
        "day": "Thursday",
        "hours": "8 AM to 1:30 PM, 2 to 9 PM"
      },
      {
        "day": "Friday",
        "hours": "8 AM to 1:30 PM, 2 to 9 PM"
      },
      {
        "day": "Saturday",
        "hours": "9 AM to 1:30 PM, 2 to 6 PM"
      },
      {
        "day": "Sunday",
        "hours": "10 AM to 1:30 PM, 2 to 6 PM"
      }
    ],
    "peopleAlsoSearch": [],
    "placesTags": [],
    "reviewsTags": [],
    "additionalInfo": {
      "Service options": [
        {
          "Delivery": true
        },
        {
          "Drive-through": true
        },
        {
          "In-store pickup": true
        },
        {
          "In-store shopping": true
        }
      ],
      "Accessibility": [
        {
          "Wheelchair accessible entrance": true
        },
        {
          "Wheelchair accessible parking lot": true
        }
      ],
      "Offerings": [
        {
          "Naloxone": true
        },
        {
          "Passport photos": true
        }
      ],
      "Crowd": [
        {
          "LGBTQ+ friendly": true
        },
        {
          "Transgender safespace": true
        }
      ],
      "Planning": [
        {
          "Quick visit": true
        }
      ],
      "Payments": [
        {
          "Credit cards": true
        },
        {
          "Debit cards": true
        },
        {
          "NFC mobile payments": true
        },
        {
          "SNAP/EBT": true
        },
        {
          "Credit cards": true
        }
      ]
    },
    "gasPrices": [],
    "url": "https://www.google.com/maps/search/?api=1&query=CVS%20Pharmacy&query_place_id=ChIJMUpNSOnenIgRqVbWlWsviq8",
    "searchPageUrl": "https://www.google.com/maps/search/independent%20pharmacy%20Hattiesburg%20MS/@31.321309166666666,-89.32892603333333,10.775459636843799z?hl=en",
    "searchString": "independent pharmacy Hattiesburg MS",
    "language": "en",
    "rank": 11,
    "isAdvertisement": false,
    "imageUrl": "https://lh3.googleusercontent.com/p/AF1QipOqbrV7mzicRIaiboJpHBgEYxqcVTfcvR1CLf2B=w408-h272-k-no",
    "kgmid": "/g/11c46b6g0g"
  },
  {
    "title": "Advantage Medical and Pharmacy",
    "price": null,
    "categoryName": "Pharmacy",
    "address": "6375 US-98 #40/50, Hattiesburg, MS 39402",
    "neighborhood": null,
    "street": "6375 US-98 #40/50",
    "city": "Hattiesburg",
    "postalCode": "39402",
    "state": "Mississippi",
    "countryCode": "US",
    "phone": "(601) 268-1422",
    "phoneUnformatted": "+16012681422",
    "claimThisBusiness": true,
    "location": {
      "lat": 31.3187794,
      "lng": -89.4050072
    },
    "totalScore": 3,
    "permanentlyClosed": false,
    "temporarilyClosed": false,
    "placeId": "ChIJiy2JgpIgnYgR8E49f_ED8bE",
    "categories": [
      "Pharmacy",
      "Medical supply store"
    ],
    "fid": "0x889d209282892d8b:0xb1f103f17f3d4ef0",
    "cid": "12822033949857238768",
    "reviewsCount": 2,
    "imagesCount": 1,
    "imageCategories": [],
    "scrapedAt": "2025-06-22T08:21:37.293Z",
    "googleFoodUrl": null,
    "hotelAds": [],
    "openingHours": [
      {
        "day": "Monday",
        "hours": "9 AM to 5 PM"
      },
      {
        "day": "Tuesday",
        "hours": "9 AM to 5 PM"
      },
      {
        "day": "Wednesday",
        "hours": "9 AM to 5 PM"
      },
      {
        "day": "Thursday",
        "hours": "9 AM to 5 PM"
      },
      {
        "day": "Friday",
        "hours": "9 AM to 5 PM"
      },
      {
        "day": "Saturday",
        "hours": "Closed"
      },
      {
        "day": "Sunday",
        "hours": "Closed"
      }
    ],
    "peopleAlsoSearch": [],
    "placesTags": [],
    "reviewsTags": [],
    "additionalInfo": {
      "Accessibility": [
        {
          "Wheelchair accessible entrance": true
        },
        {
          "Wheelchair accessible parking lot": true
        }
      ],
      "Payments": [
        {
          "Credit cards": true
        }
      ]
    },
    "gasPrices": [],
    "url": "https://www.google.com/maps/search/?api=1&query=Advantage%20Medical%20and%20Pharmacy&query_place_id=ChIJiy2JgpIgnYgR8E49f_ED8bE",
    "searchPageUrl": "https://www.google.com/maps/search/independent%20pharmacy%20Hattiesburg%20MS/@31.321309166666666,-89.32892603333333,10.775459636843799z?hl=en",
    "searchString": "independent pharmacy Hattiesburg MS",
    "language": "en",
    "rank": 12,
    "isAdvertisement": false,
    "imageUrl": "https://streetviewpixels-pa.googleapis.com/v1/thumbnail?panoid=r8Ffh0MoidFglgxU9jC2rQ&cb_client=search.gws-prod.gps&w=408&h=240&yaw=50.751606&pitch=0&thumbfov=100",
    "kgmid": "/g/1tdz5lyq"
  },
  {
    "title": "Uni-Care Rx",
    "price": null,
    "categoryName": "Pharmacy",
    "address": "124 Walnut St, Hattiesburg, MS 39401",
    "neighborhood": null,
    "street": "124 Walnut St",
    "city": "Hattiesburg",
    "postalCode": "39401",
    "state": "Mississippi",
    "countryCode": "US",
    "website": "http://www.uni-carerx.com/",
    "phone": "(601) 544-4848",
    "phoneUnformatted": "+16015444848",
    "claimThisBusiness": true,
    "location": {
      "lat": 31.3242799,
      "lng": -89.2886546
    },
    "totalScore": 3,
    "permanentlyClosed": false,
    "temporarilyClosed": false,
    "placeId": "ChIJQ4mp9S3cnIgRvtBj6GVjk9c",
    "categories": [
      "Pharmacy"
    ],
    "fid": "0x889cdc2df5a98943:0xd7936365e863d0be",
    "cid": "15533868829072675006",
    "reviewsCount": 2,
    "imagesCount": 1,
    "imageCategories": [],
    "scrapedAt": "2025-06-22T08:21:37.293Z",
    "googleFoodUrl": null,
    "hotelAds": [],
    "openingHours": [
      {
        "day": "Monday",
        "hours": "8 AM to 7:30 PM"
      },
      {
        "day": "Tuesday",
        "hours": "8 AM to 7:30 PM"
      },
      {
        "day": "Wednesday",
        "hours": "8 AM to 7:30 PM"
      },
      {
        "day": "Thursday",
        "hours": "8 AM to 7:30 PM"
      },
      {
        "day": "Friday",
        "hours": "8 AM to 7:30 PM"
      },
      {
        "day": "Saturday",
        "hours": "9 AM to 4 PM"
      },
      {
        "day": "Sunday",
        "hours": "Closed"
      }
    ],
    "peopleAlsoSearch": [],
    "placesTags": [],
    "reviewsTags": [],
    "additionalInfo": {
      "Service options": [
        {
          "Delivery": true
        },
        {
          "Same-day delivery": true
        }
      ],
      "Accessibility": [
        {
          "Wheelchair accessible entrance": true
        },
        {
          "Wheelchair accessible parking lot": true
        }
      ],
      "Payments": [
        {
          "Debit cards": true
        },
        {
          "Credit cards": true
        }
      ]
    },
    "gasPrices": [],
    "url": "https://www.google.com/maps/search/?api=1&query=Uni-Care%20Rx&query_place_id=ChIJQ4mp9S3cnIgRvtBj6GVjk9c",
    "searchPageUrl": "https://www.google.com/maps/search/independent%20pharmacy%20Hattiesburg%20MS/@31.321309166666666,-89.32892603333333,10.775459636843799z?hl=en",
    "searchString": "independent pharmacy Hattiesburg MS",
    "language": "en",
    "rank": 13,
    "isAdvertisement": false,
    "imageUrl": "https://streetviewpixels-pa.googleapis.com/v1/thumbnail?panoid=Ljn0mgYIv31crHDywM01bw&cb_client=search.gws-prod.gps&w=408&h=240&yaw=334.40308&pitch=0&thumbfov=100",
    "kgmid": "/g/1td2vp8d"
  },
  {
    "title": "Rodgers Family Pharmacy",
    "price": null,
    "categoryName": "Pharmacy",
    "address": "130 W Central Ave, Petal, MS 39465",
    "neighborhood": null,
    "street": "130 W Central Ave",
    "city": "Petal",
    "postalCode": "39465",
    "state": "Mississippi",
    "countryCode": "US",
    "website": "https://rodgersfamilypharmacy.com/",
    "phone": "(601) 582-8351",
    "phoneUnformatted": "+16015828351",
    "claimThisBusiness": false,
    "location": {
      "lat": 31.346956,
      "lng": -89.2654874
    },
    "totalScore": 4.4,
    "permanentlyClosed": false,
    "temporarilyClosed": false,
    "placeId": "ChIJNY9A_aHcnIgRIdc1zS92cvk",
    "categories": [
      "Pharmacy"
    ],
    "fid": "0x889cdca1fd408f35:0xf972762fcd35d721",
    "cid": "17974559010467469089",
    "reviewsCount": 56,
    "reviewsDistribution": {
      "oneStar": 4,
      "twoStar": 1,
      "threeStar": 5,
      "fourStar": 3,
      "fiveStar": 43
    },
    "imagesCount": 8,
    "imageCategories": [],
    "scrapedAt": "2025-06-22T08:21:38.080Z",
    "googleFoodUrl": null,
    "hotelAds": [],
    "openingHours": [
      {
        "day": "Monday",
        "hours": "8 AM to 6 PM"
      },
      {
        "day": "Tuesday",
        "hours": "8 AM to 6 PM"
      },
      {
        "day": "Wednesday",
        "hours": "8 AM to 6 PM"
      },
      {
        "day": "Thursday",
        "hours": "8 AM to 6 PM"
      },
      {
        "day": "Friday",
        "hours": "8 AM to 6 PM"
      },
      {
        "day": "Saturday",
        "hours": "8 AM to 1 PM"
      },
      {
        "day": "Sunday",
        "hours": "Closed"
      }
    ],
    "peopleAlsoSearch": [],
    "placesTags": [],
    "reviewsTags": [],
    "additionalInfo": {
      "From the business": [
        {
          "Small business": true
        }
      ],
      "Service options": [
        {
          "Delivery": true
        },
        {
          "Drive-through": true
        },
        {
          "In-store pickup": true
        },
        {
          "Onsite services": true
        }
      ],
      "Accessibility": [
        {
          "Wheelchair accessible entrance": true
        },
        {
          "Wheelchair accessible parking lot": true
        }
      ],
      "Planning": [
        {
          "Quick visit": true
        }
      ],
      "Payments": [
        {
          "Credit cards": true
        },
        {
          "Debit cards": true
        },
        {
          "NFC mobile payments": true
        },
        {
          "Credit cards": true
        }
      ],
      "Parking": [
        {
          "On-site parking": true
        }
      ]
    },
    "gasPrices": [],
    "url": "https://www.google.com/maps/search/?api=1&query=Rodgers%20Family%20Pharmacy&query_place_id=ChIJNY9A_aHcnIgRIdc1zS92cvk",
    "searchPageUrl": "https://www.google.com/maps/search/independent%20pharmacy%20Hattiesburg%20MS/@31.321309166666666,-89.32892603333333,10.775459636843799z?hl=en",
    "searchString": "independent pharmacy Hattiesburg MS",
    "language": "en",
    "rank": 30,
    "isAdvertisement": false,
    "imageUrl": "https://lh3.googleusercontent.com/gps-cs-s/AC9h4nob15kQfzO7dhLd8uCLsSOSo7BGAiX7gN99I-Oegn2v1ubs-_JMqfjfABfaV5bI547ZOnruQ613QWJbx9VXJVwOjQTHNBmfLvcjSFg2wPd6CbiSdlc7CpLE15RRIoN7gmoZzgqG=w408-h271-k-no",
    "kgmid": "/g/1tfg8g21"
  },
  {
    "title": "Petal Drug Co",
    "price": null,
    "categoryName": "Pharmacy",
    "address": "201 Old Richton Rd, Petal, MS 39465",
    "neighborhood": null,
    "street": "201 Old Richton Rd",
    "city": "Petal",
    "postalCode": "39465",
    "state": "Mississippi",
    "countryCode": "US",
    "website": "https://www.petaldrugcompany.com/",
    "phone": "(601) 545-3141",
    "phoneUnformatted": "+16015453141",
    "claimThisBusiness": false,
    "location": {
      "lat": 31.3474389,
      "lng": -89.2582726
    },
    "totalScore": 4.5,
    "permanentlyClosed": false,
    "temporarilyClosed": false,
    "placeId": "ChIJ9QmwhqbcnIgRi0OqwUAm_8E",
    "categories": [
      "Pharmacy",
      "Shipping service"
    ],
    "fid": "0x889cdca686b009f5:0xc1ff2640c1aa438b",
    "cid": "13978933827950232459",
    "reviewsCount": 17,
    "reviewsDistribution": {
      "oneStar": 1,
      "twoStar": 0,
      "threeStar": 1,
      "fourStar": 3,
      "fiveStar": 12
    },
    "imagesCount": 25,
    "imageCategories": [],
    "scrapedAt": "2025-06-22T08:21:38.080Z",
    "googleFoodUrl": null,
    "hotelAds": [],
    "openingHours": [
      {
        "day": "Monday",
        "hours": "8 AM to 6 PM"
      },
      {
        "day": "Tuesday",
        "hours": "8 AM to 6 PM"
      },
      {
        "day": "Wednesday",
        "hours": "8 AM to 6 PM"
      },
      {
        "day": "Thursday",
        "hours": "8 AM to 6 PM"
      },
      {
        "day": "Friday",
        "hours": "8 AM to 6 PM"
      },
      {
        "day": "Saturday",
        "hours": "9 AM to 2 PM"
      },
      {
        "day": "Sunday",
        "hours": "Closed"
      }
    ],
    "peopleAlsoSearch": [],
    "placesTags": [],
    "reviewsTags": [],
    "additionalInfo": {
      "From the business": [
        {
          "Small business": true
        }
      ],
      "Service options": [
        {
          "Delivery": true
        },
        {
          "Drive-through": true
        },
        {
          "In-store pickup": true
        },
        {
          "Same-day delivery": true
        }
      ],
      "Accessibility": [
        {
          "Wheelchair accessible entrance": true
        },
        {
          "Wheelchair accessible parking lot": true
        }
      ],
      "Planning": [
        {
          "Quick visit": true
        }
      ],
      "Payments": [
        {
          "Checks": true
        },
        {
          "Credit cards": true
        },
        {
          "Debit cards": true
        },
        {
          "NFC mobile payments": true
        },
        {
          "Credit cards": true
        }
      ]
    },
    "gasPrices": [],
    "url": "https://www.google.com/maps/search/?api=1&query=Petal%20Drug%20Co&query_place_id=ChIJ9QmwhqbcnIgRi0OqwUAm_8E",
    "searchPageUrl": "https://www.google.com/maps/search/independent%20pharmacy%20Hattiesburg%20MS/@31.321309166666666,-89.32892603333333,10.775459636843799z?hl=en",
    "searchString": "independent pharmacy Hattiesburg MS",
    "language": "en",
    "rank": 31,
    "isAdvertisement": false,
    "imageUrl": "https://lh3.googleusercontent.com/gps-cs-s/AC9h4nrZ56T9DIuuWwwicWQNe9e1BERZUlupFmXHPaaiQISHE0DB1HDVX3bfs9XAahv3YrzX2Gnwv1NLzZXomwQ2lFrO15iS-xenkANbb3LL25hje2iJmkt9FeZmLI99j8oUD4XI2W7e=w533-h240-k-no",
    "kgmid": "/g/1tgjm1wm"
  },
  {
    "title": "Mississippi Independent Pharms",
    "price": null,
    "categoryName": "Pharmacy",
    "address": "405 Briarwood Dr, Jackson, MS 39206",
    "neighborhood": null,
    "street": "405 Briarwood Dr",
    "city": "Jackson",
    "postalCode": "39206",
    "state": "Mississippi",
    "countryCode": "US",
    "website": "http://mipa.ms/",
    "phone": "(601) 957-0007",
    "phoneUnformatted": "+16019570007",
    "claimThisBusiness": false,
    "location": {
      "lat": 32.3793843,
      "lng": -90.1518427
    },
    "permanentlyClosed": false,
    "temporarilyClosed": false,
    "placeId": "ChIJgcZDfWDNKYYRnjOt3OMAiC8",
    "categories": [
      "Pharmacy",
      "Association / Organization",
      "Pharmaceutical company"
    ],
    "fid": "0x8629cd607d43c681:0x2f8800e3dcad339e",
    "cid": "3424988495275176862",
    "reviewsCount": 0,
    "imagesCount": 1,
    "imageCategories": [],
    "scrapedAt": "2025-06-22T08:21:47.901Z",
    "googleFoodUrl": null,
    "hotelAds": [],
    "openingHours": [
      {
        "day": "Monday",
        "hours": "9 AM to 5 PM"
      },
      {
        "day": "Tuesday",
        "hours": "9 AM to 5 PM"
      },
      {
        "day": "Wednesday",
        "hours": "9 AM to 5 PM"
      },
      {
        "day": "Thursday",
        "hours": "9 AM to 5 PM"
      },
      {
        "day": "Friday",
        "hours": "9 AM to 5 PM"
      },
      {
        "day": "Saturday",
        "hours": "Closed"
      },
      {
        "day": "Sunday",
        "hours": "Closed"
      }
    ],
    "peopleAlsoSearch": [],
    "placesTags": [],
    "reviewsTags": [],
    "additionalInfo": {
      "From the business": [
        {
          "Small business": true
        }
      ],
      "Accessibility": [
        {
          "Wheelchair accessible parking lot": true
        },
        {
          "Wheelchair accessible entrance": false
        }
      ],
      "Planning": [
        {
          "Quick visit": true
        }
      ],
      "Payments": [
        {
          "Credit cards": true
        }
      ]
    },
    "gasPrices": [],
    "url": "https://www.google.com/maps/search/?api=1&query=Mississippi%20Independent%20Pharms&query_place_id=ChIJgcZDfWDNKYYRnjOt3OMAiC8",
    "searchPageUrl": "https://www.google.com/maps/search/independent%20pharmacy%20Hattiesburg%20MS/@33.954544952667874,-92.81852365721616,8z?hl=en",
    "searchString": "independent pharmacy Hattiesburg MS",
    "language": "en",
    "rank": 3,
    "isAdvertisement": false,
    "imageUrl": "https://streetviewpixels-pa.googleapis.com/v1/thumbnail?panoid=gH7mU7dSsJuXUx2U3pSx2A&cb_client=search.gws-prod.gps&w=408&h=240&yaw=69.25571&pitch=0&thumbfov=100",
    "kgmid": "/g/1tcwrhqp"
  },
  {
    "title": "Mike's Pharmacy",
    "price": null,
    "categoryName": "Pharmacy",
    "address": "9065 Sandidge Center Cove A, Olive Branch, MS 38654",
    "neighborhood": null,
    "street": "9065 Sandidge Center Cove A",
    "city": "Olive Branch",
    "postalCode": "38654",
    "state": "Mississippi",
    "countryCode": "US",
    "phone": "(662) 892-8448",
    "phoneUnformatted": "+16628928448",
    "claimThisBusiness": true,
    "location": {
      "lat": 34.9474194,
      "lng": -89.8294333
    },
    "totalScore": 4.6,
    "permanentlyClosed": false,
    "temporarilyClosed": false,
    "placeId": "ChIJ65r9qSGSf4gRQ4yC_VGKNVk",
    "categories": [
      "Pharmacy"
    ],
    "fid": "0x887f9221a9fd9aeb:0x59358a51fd828c43",
    "cid": "6428196127891426371",
    "reviewsCount": 71,
    "reviewsDistribution": {
      "oneStar": 6,
      "twoStar": 1,
      "threeStar": 0,
      "fourStar": 4,
      "fiveStar": 60
    },
    "imagesCount": 1,
    "imageCategories": [],
    "scrapedAt": "2025-06-22T08:21:48.366Z",
    "googleFoodUrl": null,
    "hotelAds": [],
    "openingHours": [
      {
        "day": "Monday",
        "hours": "8:30 AM to 6 PM"
      },
      {
        "day": "Tuesday",
        "hours": "8:30 AM to 6 PM"
      },
      {
        "day": "Wednesday",
        "hours": "8:30 AM to 6 PM"
      },
      {
        "day": "Thursday",
        "hours": "8:30 AM to 6 PM"
      },
      {
        "day": "Friday",
        "hours": "8:30 AM to 6 PM"
      },
      {
        "day": "Saturday",
        "hours": "9 AM to 1 PM"
      },
      {
        "day": "Sunday",
        "hours": "Closed"
      }
    ],
    "peopleAlsoSearch": [],
    "placesTags": [],
    "reviewsTags": [],
    "additionalInfo": {
      "Service options": [
        {
          "Delivery": true
        },
        {
          "Drive-through": true
        },
        {
          "In-store pickup": true
        },
        {
          "Same-day delivery": true
        }
      ],
      "Accessibility": [
        {
          "Wheelchair accessible entrance": true
        },
        {
          "Wheelchair accessible parking lot": true
        }
      ],
      "Planning": [
        {
          "Quick visit": true
        }
      ],
      "Payments": [
        {
          "Credit cards": true
        },
        {
          "Debit cards": true
        },
        {
          "NFC mobile payments": true
        },
        {
          "Credit cards": true
        }
      ]
    },
    "gasPrices": [],
    "url": "https://www.google.com/maps/search/?api=1&query=Mike's%20Pharmacy&query_place_id=ChIJ65r9qSGSf4gRQ4yC_VGKNVk",
    "searchPageUrl": "https://www.google.com/maps/search/independent%20pharmacy%20Hattiesburg%20MS/@33.954544952667874,-92.81852365721616,8z?hl=en",
    "searchString": "independent pharmacy Hattiesburg MS",
    "language": "en",
    "rank": 21,
    "isAdvertisement": false,
    "imageUrl": "https://streetviewpixels-pa.googleapis.com/v1/thumbnail?panoid=JiFJNRPF4Q_nvPAUbaqtPA&cb_client=search.gws-prod.gps&w=408&h=240&yaw=278.96136&pitch=0&thumbfov=100",
    "kgmid": "/g/11c59x_vcx"
  },
  {
    "title": "Mettesave",
    "price": null,
    "categoryName": "Pharmacy",
    "address": "595 HWY 6E, Batesville, MS 38606",
    "neighborhood": null,
    "street": "595 HWY 6E",
    "city": "Batesville",
    "postalCode": "38606",
    "state": "Mississippi",
    "countryCode": "US",
    "phone": "(662) 563-4557",
    "phoneUnformatted": "+16625634557",
    "claimThisBusiness": true,
    "location": {
      "lat": 34.3106969,
      "lng": -89.9374261
    },
    "totalScore": 4.7,
    "permanentlyClosed": false,
    "temporarilyClosed": false,
    "placeId": "ChIJi1hUBz4dgIgRnmzQQYSloEk",
    "categories": [
      "Pharmacy",
      "Drug store"
    ],
    "fid": "0x88801d3e0754588b:0x49a0a58441d06c9e",
    "cid": "5305422348500888734",
    "reviewsCount": 27,
    "reviewsDistribution": {
      "oneStar": 0,
      "twoStar": 1,
      "threeStar": 2,
      "fourStar": 2,
      "fiveStar": 22
    },
    "imagesCount": 3,
    "imageCategories": [],
    "scrapedAt": "2025-06-22T08:21:48.366Z",
    "googleFoodUrl": null,
    "hotelAds": [],
    "openingHours": [
      {
        "day": "Monday",
        "hours": "8 AM to 6 PM"
      },
      {
        "day": "Tuesday",
        "hours": "8 AM to 6 PM"
      },
      {
        "day": "Wednesday",
        "hours": "8 AM to 6 PM"
      },
      {
        "day": "Thursday",
        "hours": "8 AM to 6 PM"
      },
      {
        "day": "Friday",
        "hours": "8 AM to 6 PM"
      },
      {
        "day": "Saturday",
        "hours": "8:30 AM to 2:30 PM"
      },
      {
        "day": "Sunday",
        "hours": "Closed"
      }
    ],
    "peopleAlsoSearch": [],
    "placesTags": [],
    "reviewsTags": [],
    "additionalInfo": {
      "Service options": [
        {
          "Delivery": true
        },
        {
          "Drive-through": true
        },
        {
          "Same-day delivery": true
        }
      ],
      "Accessibility": [
        {
          "Wheelchair accessible entrance": true
        },
        {
          "Wheelchair accessible parking lot": true
        }
      ],
      "Planning": [
        {
          "Quick visit": true
        }
      ],
      "Payments": [
        {
          "Credit cards": true
        },
        {
          "Debit cards": true
        },
        {
          "NFC mobile payments": true
        },
        {
          "Credit cards": true
        }
      ]
    },
    "gasPrices": [],
    "url": "https://www.google.com/maps/search/?api=1&query=Mettesave&query_place_id=ChIJi1hUBz4dgIgRnmzQQYSloEk",
    "searchPageUrl": "https://www.google.com/maps/search/independent%20pharmacy%20Hattiesburg%20MS/@33.954544952667874,-92.81852365721616,8z?hl=en",
    "searchString": "independent pharmacy Hattiesburg MS",
    "language": "en",
    "rank": 23,
    "isAdvertisement": false,
    "imageUrl": "https://lh3.googleusercontent.com/gps-cs-s/AC9h4nrIWEpvDXsTUzDiynufVZ1w9cBnsgyzsZyG0V1Z36hGJcWMPk18XTfMNIrA63dUYVMQoEazaOSUzSZCeSqG6sAiEFD8tqCPy3QAONUfBK5bsEtAgh1Y__ohveGsGmsxyP1laJl_-Q=w408-h544-k-no",
    "kgmid": "/g/1tdj4zp9"
  }
]