[
  {
    "title": "Boulevard Pharmaceutical Compounding Center, Inc.",
    "price": null,
    "categoryName": "Pharmacy",
    "address": "149 Shrewsbury St, Worcester, MA 01604",
    "neighborhood": "Shrewsbury Street",
    "street": "149 Shrewsbury St",
    "city": "Worcester",
    "postalCode": "01604",
    "state": "Massachusetts",
    "countryCode": "US",
    "website": "http://www.boulevardcompounding.com/",
    "phone": "(508) 754-1791",
    "phoneUnformatted": "+15087541791",
    "claimThisBusiness": false,
    "location": {
      "lat": 42.2646392,
      "lng": -71.7875938
    },
    "totalScore": 4.7,
    "permanentlyClosed": false,
    "temporarilyClosed": false,
    "placeId": "ChIJEUn-nmoG5IkRR-Ude1oyOZ4",
    "categories": [
      "Pharmacy"
    ],
    "fid": "0x89e4066a9efe4911:0x9e39325a7b1de547",
    "cid": "11401199295859123527",
    "reviewsCount": 52,
    "imagesCount": 4,
    "imageCategories": [],
    "scrapedAt": "2025-06-22T05:39:31.703Z",
    "googleFoodUrl": null,
    "hotelAds": [],
    "openingHours": [
      {
        "day": "Monday",
        "hours": "9 AM to 6 PM"
      },
      {
        "day": "Tuesday",
        "hours": "9 AM to 6 PM"
      },
      {
        "day": "Wednesday",
        "hours": "9 AM to 6 PM"
      },
      {
        "day": "Thursday",
        "hours": "9 AM to 6 PM"
      },
      {
        "day": "Friday",
        "hours": "9 AM to 6 PM"
      },
      {
        "day": "Saturday",
        "hours": "Closed"
      },
      {
        "day": "Sunday",
        "hours": "Closed"
      }
    ],
    "peopleAlsoSearch": [],
    "placesTags": [],
    "reviewsTags": [],
    "additionalInfo": {
      "From the business": [
        {
          "Small business": true
        }
      ],
      "Service options": [
        {
          "Delivery": true
        },
        {
          "In-store pickup": true
        },
        {
          "In-store shopping": true
        }
      ],
      "Accessibility": [
        {
          "Wheelchair accessible entrance": true
        },
        {
          "Wheelchair accessible parking lot": true
        }
      ],
      "Payments": [
        {
          "Credit cards": true
        },
        {
          "Debit cards": true
        },
        {
          "Credit cards": true
        }
      ]
    },
    "gasPrices": [],
    "url": "https://www.google.com/maps/search/?api=1&query=Boulevard%20Pharmaceutical%20Compounding%20Center%2C%20Inc.&query_place_id=ChIJEUn-nmoG5IkRR-Ude1oyOZ4",
    "searchPageUrl": "https://www.google.com/maps/search/independent%20pharmacy%20Worcester%20MA/@56.49842380833663,-169.4900814092578,12z?hl=en",
    "searchString": "independent pharmacy Worcester MA",
    "language": "en",
    "rank": 1,
    "isAdvertisement": false,
    "imageUrl": "https://lh3.googleusercontent.com/p/AF1QipPCLV2xY9H2A9z-016L_Wl_4_mF1ZNfmoXZ9SLj=w408-h544-k-no",
    "kgmid": "/g/1ttq33d1"
  },
  {
    "title": "Beacon Pharmacy Inc",
    "price": null,
    "categoryName": "Pharmacy",
    "address": "810 Main St, Worcester, MA 01610",
    "neighborhood": "Piedmont",
    "street": "810 Main St",
    "city": "Worcester",
    "postalCode": "01610",
    "state": "Massachusetts",
    "countryCode": "US",
    "phone": "(508) 754-4075",
    "phoneUnformatted": "+15087544075",
    "claimThisBusiness": true,
    "location": {
      "lat": 42.2558594,
      "lng": -71.8126732
    },
    "totalScore": 4.6,
    "permanentlyClosed": false,
    "temporarilyClosed": false,
    "placeId": "ChIJWTyyH4cG5IkRHmG8GZ76mHE",
    "categories": [
      "Pharmacy"
    ],
    "fid": "0x89e406871fb23c59:0x7198fa9e19bc611e",
    "cid": "8185567879689429278",
    "reviewsCount": 41,
    "imagesCount": 1,
    "imageCategories": [],
    "scrapedAt": "2025-06-22T05:39:31.704Z",
    "googleFoodUrl": null,
    "hotelAds": [],
    "openingHours": [
      {
        "day": "Monday",
        "hours": "8 AM to 8 PM"
      },
      {
        "day": "Tuesday",
        "hours": "8 AM to 8 PM"
      },
      {
        "day": "Wednesday",
        "hours": "8 AM to 8 PM"
      },
      {
        "day": "Thursday",
        "hours": "8 AM to 8 PM"
      },
      {
        "day": "Friday",
        "hours": "8 AM to 8 PM"
      },
      {
        "day": "Saturday",
        "hours": "9 AM to 1 PM"
      },
      {
        "day": "Sunday",
        "hours": "8 AM to 8 PM"
      }
    ],
    "additionalOpeningHours": {
      "Delivery": [
        {
          "day": "Monday",
          "hours": "9 AM–7 PM"
        },
        {
          "day": "Tuesday",
          "hours": "9 AM–7 PM"
        },
        {
          "day": "Wednesday",
          "hours": "9 AM–7 PM"
        },
        {
          "day": "Thursday",
          "hours": "9 AM–7 PM"
        },
        {
          "day": "Friday",
          "hours": "9 AM–7 PM"
        },
        {
          "day": "Saturday",
          "hours": "9 AM–6 PM"
        },
        {
          "day": "Sunday",
          "hours": "Closed"
        }
      ]
    },
    "peopleAlsoSearch": [],
    "placesTags": [],
    "reviewsTags": [],
    "additionalInfo": {
      "Service options": [
        {
          "Delivery": true
        },
        {
          "In-store pickup": true
        },
        {
          "Same-day delivery": true
        }
      ],
      "Accessibility": [
        {
          "Wheelchair accessible entrance": true
        },
        {
          "Wheelchair accessible parking lot": true
        }
      ],
      "Planning": [
        {
          "Quick visit": true
        }
      ],
      "Payments": [
        {
          "Credit cards": true
        },
        {
          "Debit cards": true
        },
        {
          "NFC mobile payments": true
        },
        {
          "Credit cards": true
        }
      ]
    },
    "gasPrices": [],
    "url": "https://www.google.com/maps/search/?api=1&query=Beacon%20Pharmacy%20Inc&query_place_id=ChIJWTyyH4cG5IkRHmG8GZ76mHE",
    "searchPageUrl": "https://www.google.com/maps/search/independent%20pharmacy%20Worcester%20MA/@56.49842380833663,-169.4900814092578,12z?hl=en",
    "searchString": "independent pharmacy Worcester MA",
    "language": "en",
    "rank": 2,
    "isAdvertisement": false,
    "imageUrl": "https://streetviewpixels-pa.googleapis.com/v1/thumbnail?panoid=BOKwXsSNfGuiPRwnvilTnQ&cb_client=search.gws-prod.gps&w=408&h=240&yaw=328.0435&pitch=0&thumbfov=100",
    "kgmid": "/g/1tlnfgbd"
  },
  {
    "title": "ASH Pharmacy",
    "price": null,
    "categoryName": "Pharmacy",
    "address": "1067 Main St, Worcester, MA 01603",
    "neighborhood": "Webster Square",
    "street": "1067 Main St",
    "city": "Worcester",
    "postalCode": "01603",
    "state": "Massachusetts",
    "countryCode": "US",
    "phone": "(508) 980-7111",
    "phoneUnformatted": "+15089807111",
    "claimThisBusiness": false,
    "location": {
      "lat": 42.2449574,
      "lng": -71.8322619
    },
    "totalScore": 4.6,
    "permanentlyClosed": false,
    "temporarilyClosed": false,
    "placeId": "ChIJjUU6C98F5IkR6hlqe4WX0lM",
    "categories": [
      "Pharmacy"
    ],
    "fid": "0x89e405df0b3a458d:0x53d297857b6a19ea",
    "cid": "6040056649814252010",
    "reviewsCount": 20,
    "imagesCount": 7,
    "imageCategories": [],
    "scrapedAt": "2025-06-22T05:39:31.704Z",
    "googleFoodUrl": null,
    "hotelAds": [],
    "openingHours": [
      {
        "day": "Monday",
        "hours": "9 AM to 7 PM"
      },
      {
        "day": "Tuesday",
        "hours": "9 AM to 7 PM"
      },
      {
        "day": "Wednesday",
        "hours": "9 AM to 7 PM"
      },
      {
        "day": "Thursday",
        "hours": "9 AM to 7 PM"
      },
      {
        "day": "Friday",
        "hours": "9 AM to 7 PM"
      },
      {
        "day": "Saturday",
        "hours": "9 AM to 2 PM"
      },
      {
        "day": "Sunday",
        "hours": "10 AM to 2 PM"
      }
    ],
    "peopleAlsoSearch": [],
    "placesTags": [],
    "reviewsTags": [],
    "additionalInfo": {
      "From the business": [
        {
          "Small business": true
        }
      ],
      "Service options": [
        {
          "Delivery": true
        },
        {
          "In-store pickup": true
        },
        {
          "Same-day delivery": true
        }
      ],
      "Accessibility": [
        {
          "Wheelchair accessible entrance": true
        },
        {
          "Wheelchair accessible parking lot": true
        }
      ],
      "Planning": [
        {
          "Quick visit": true
        }
      ],
      "Payments": [
        {
          "Credit cards": true
        },
        {
          "Debit cards": true
        },
        {
          "NFC mobile payments": true
        },
        {
          "Credit cards": true
        }
      ]
    },
    "gasPrices": [],
    "url": "https://www.google.com/maps/search/?api=1&query=ASH%20Pharmacy&query_place_id=ChIJjUU6C98F5IkR6hlqe4WX0lM",
    "searchPageUrl": "https://www.google.com/maps/search/independent%20pharmacy%20Worcester%20MA/@56.49842380833663,-169.4900814092578,12z?hl=en",
    "searchString": "independent pharmacy Worcester MA",
    "language": "en",
    "rank": 3,
    "isAdvertisement": false,
    "imageUrl": "https://lh3.googleusercontent.com/p/AF1QipOd7Q_VXnoiT27gtb3nR-V8UXpdCIP122ZL3saU=w408-h306-k-no",
    "kgmid": "/g/11s0kb58j5"
  },
  {
    "title": "Compare Quality Pharmacy",
    "price": null,
    "categoryName": "Pharmacy",
    "address": "664 Main St, Worcester, MA 01610",
    "neighborhood": "Main Middle",
    "street": "664 Main St",
    "city": "Worcester",
    "postalCode": "01610",
    "state": "Massachusetts",
    "countryCode": "US",
    "website": "http://comparequalitypharmacy.com/",
    "phone": "(508) 755-3000",
    "phoneUnformatted": "+15087553000",
    "claimThisBusiness": false,
    "location": {
      "lat": 42.2592535,
      "lng": -71.8058578
    },
    "totalScore": 4,
    "permanentlyClosed": false,
    "temporarilyClosed": false,
    "placeId": "ChIJ-WrmJGMG5IkR3tJegM41CDQ",
    "categories": [
      "Pharmacy"
    ],
    "fid": "0x89e4066324e66af9:0x340835ce805ed2de",
    "cid": "3749305850819171038",
    "reviewsCount": 30,
    "imagesCount": 1,
    "imageCategories": [],
    "scrapedAt": "2025-06-22T05:39:31.704Z",
    "googleFoodUrl": null,
    "hotelAds": [],
    "openingHours": [
      {
        "day": "Monday",
        "hours": "9 AM to 7 PM"
      },
      {
        "day": "Tuesday",
        "hours": "9 AM to 7 PM"
      },
      {
        "day": "Wednesday",
        "hours": "9 AM to 7 PM"
      },
      {
        "day": "Thursday",
        "hours": "9 AM to 7 PM"
      },
      {
        "day": "Friday",
        "hours": "9 AM to 7 PM"
      },
      {
        "day": "Saturday",
        "hours": "10 AM to 5 PM"
      },
      {
        "day": "Sunday",
        "hours": "Closed"
      }
    ],
    "peopleAlsoSearch": [],
    "placesTags": [],
    "reviewsTags": [],
    "additionalInfo": {
      "From the business": [
        {
          "Small business": true
        }
      ],
      "Service options": [
        {
          "Delivery": true
        },
        {
          "In-store pickup": true
        }
      ],
      "Accessibility": [
        {
          "Wheelchair accessible entrance": true
        },
        {
          "Wheelchair accessible parking lot": true
        }
      ],
      "Planning": [
        {
          "Quick visit": true
        }
      ],
      "Payments": [
        {
          "Credit cards": true
        },
        {
          "Debit cards": true
        },
        {
          "NFC mobile payments": true
        },
        {
          "Credit cards": true
        }
      ]
    },
    "gasPrices": [],
    "url": "https://www.google.com/maps/search/?api=1&query=Compare%20Quality%20Pharmacy&query_place_id=ChIJ-WrmJGMG5IkR3tJegM41CDQ",
    "searchPageUrl": "https://www.google.com/maps/search/independent%20pharmacy%20Worcester%20MA/@56.49842380833663,-169.4900814092578,12z?hl=en",
    "searchString": "independent pharmacy Worcester MA",
    "language": "en",
    "rank": 4,
    "isAdvertisement": false,
    "imageUrl": "https://streetviewpixels-pa.googleapis.com/v1/thumbnail?panoid=Z4TATJm6QOdioxwI1V3XBA&cb_client=search.gws-prod.gps&w=408&h=240&yaw=23.547424&pitch=0&thumbfov=100",
    "kgmid": "/g/1thq1qsg"
  },
  {
    "title": "Eterna Pharmacy",
    "price": null,
    "categoryName": "Pharmacy",
    "address": "708 Park Ave, Worcester, MA 01603",
    "neighborhood": "Webster Square",
    "street": "708 Park Ave",
    "city": "Worcester",
    "postalCode": "01603",
    "state": "Massachusetts",
    "countryCode": "US",
    "phone": "(508) 552-2448",
    "phoneUnformatted": "+15085522448",
    "claimThisBusiness": true,
    "location": {
      "lat": 42.2449898,
      "lng": -71.836446
    },
    "totalScore": 4.7,
    "permanentlyClosed": false,
    "temporarilyClosed": false,
    "placeId": "ChIJXRQZLiYF5IkRiK6WKjy_ICs",
    "categories": [
      "Pharmacy"
    ],
    "fid": "0x89e405262e19145d:0x2b20bf3c2a96ae88",
    "cid": "3107694008019103368",
    "reviewsCount": 3,
    "imagesCount": 1,
    "imageCategories": [],
    "scrapedAt": "2025-06-22T05:39:31.704Z",
    "googleFoodUrl": null,
    "hotelAds": [],
    "openingHours": [],
    "peopleAlsoSearch": [],
    "placesTags": [],
    "reviewsTags": [],
    "additionalInfo": {
      "Service options": [
        {
          "Delivery": true
        }
      ],
      "Accessibility": [
        {
          "Wheelchair accessible entrance": true
        },
        {
          "Wheelchair accessible parking lot": true
        }
      ],
      "Payments": [
        {
          "Credit cards": true
        }
      ]
    },
    "gasPrices": [],
    "url": "https://www.google.com/maps/search/?api=1&query=Eterna%20Pharmacy&query_place_id=ChIJXRQZLiYF5IkRiK6WKjy_ICs",
    "searchPageUrl": "https://www.google.com/maps/search/independent%20pharmacy%20Worcester%20MA/@56.49842380833663,-169.4900814092578,12z?hl=en",
    "searchString": "independent pharmacy Worcester MA",
    "language": "en",
    "rank": 5,
    "isAdvertisement": false,
    "imageUrl": "https://streetviewpixels-pa.googleapis.com/v1/thumbnail?panoid=-1QEFUCIk9KugX4jYLnWAA&cb_client=search.gws-prod.gps&w=408&h=240&yaw=319.1205&pitch=0&thumbfov=100",
    "kgmid": "/g/11vqhryjtp"
  },
  {
    "title": "EssentialRx Pharmacy",
    "price": null,
    "categoryName": "Pharmacy",
    "address": "123 Summer St Suite 365, Worcester, MA 01608",
    "neighborhood": "Central Business District",
    "street": "123 Summer St Suite 365",
    "city": "Worcester",
    "postalCode": "01608",
    "state": "Massachusetts",
    "countryCode": "US",
    "phone": "(508) 363-6602",
    "phoneUnformatted": "+15083636602",
    "claimThisBusiness": false,
    "location": {
      "lat": 42.2646604,
      "lng": -71.7969964
    },
    "totalScore": 5,
    "permanentlyClosed": false,
    "temporarilyClosed": false,
    "placeId": "ChIJs0cLfEIH5IkReUz8xyrVXPU",
    "categories": [
      "Pharmacy",
      "Drug store"
    ],
    "fid": "0x89e407427c0b47b3:0xf55cd52ac7fc4c79",
    "cid": "17680240616870268025",
    "reviewsCount": 5,
    "imagesCount": 1,
    "imageCategories": [],
    "scrapedAt": "2025-06-22T05:39:31.704Z",
    "googleFoodUrl": null,
    "hotelAds": [],
    "openingHours": [
      {
        "day": "Monday",
        "hours": "9:30 AM to 6 PM"
      },
      {
        "day": "Tuesday",
        "hours": "9:30 AM to 6 PM"
      },
      {
        "day": "Wednesday",
        "hours": "9:30 AM to 6 PM"
      },
      {
        "day": "Thursday",
        "hours": "9:30 AM to 6 PM"
      },
      {
        "day": "Friday",
        "hours": "9:30 AM to 6 PM"
      },
      {
        "day": "Saturday",
        "hours": "Closed"
      },
      {
        "day": "Sunday",
        "hours": "Closed"
      }
    ],
    "additionalOpeningHours": {
      "Delivery": [
        {
          "day": "Monday",
          "hours": "9 AM–6 PM"
        },
        {
          "day": "Tuesday",
          "hours": "9 AM–6 PM"
        },
        {
          "day": "Wednesday",
          "hours": "9 AM–6 PM"
        },
        {
          "day": "Thursday",
          "hours": "9 AM–6 PM"
        },
        {
          "day": "Friday",
          "hours": "9 AM–6 PM"
        },
        {
          "day": "Saturday",
          "hours": "Closed"
        },
        {
          "day": "Sunday",
          "hours": "Closed"
        }
      ]
    },
    "peopleAlsoSearch": [],
    "placesTags": [],
    "reviewsTags": [],
    "additionalInfo": {
      "Service options": [
        {
          "Delivery": true
        },
        {
          "In-store pickup": true
        },
        {
          "In-store shopping": true
        }
      ],
      "Accessibility": [
        {
          "Wheelchair accessible entrance": true
        },
        {
          "Wheelchair accessible parking lot": true
        },
        {
          "Wheelchair accessible restroom": true
        },
        {
          "Wheelchair accessible seating": true
        }
      ],
      "Planning": [
        {
          "Quick visit": true
        }
      ],
      "Payments": [
        {
          "Credit cards": true
        },
        {
          "Debit cards": true
        },
        {
          "NFC mobile payments": true
        },
        {
          "Credit cards": true
        }
      ]
    },
    "gasPrices": [],
    "url": "https://www.google.com/maps/search/?api=1&query=EssentialRx%20Pharmacy&query_place_id=ChIJs0cLfEIH5IkReUz8xyrVXPU",
    "searchPageUrl": "https://www.google.com/maps/search/independent%20pharmacy%20Worcester%20MA/@56.49842380833663,-169.4900814092578,12z?hl=en",
    "searchString": "independent pharmacy Worcester MA",
    "language": "en",
    "rank": 6,
    "isAdvertisement": false,
    "imageUrl": "https://streetviewpixels-pa.googleapis.com/v1/thumbnail?panoid=GE1iUD35YXYsOdinrrVScg&cb_client=search.gws-prod.gps&w=408&h=240&yaw=208.03712&pitch=0&thumbfov=100",
    "kgmid": "/g/11qh4x9hcm"
  },
  {
    "title": "Worcester Pharmacy",
    "price": null,
    "categoryName": "Pharmacy",
    "address": "540 Southbridge St suit #3, Worcester, MA 01610",
    "neighborhood": "South Worcester",
    "street": "540 Southbridge St suit #3",
    "city": "Worcester",
    "postalCode": "01610",
    "state": "Massachusetts",
    "countryCode": "US",
    "website": "http://worcester-pharmacy.com/",
    "phone": "(508) 519-3600",
    "phoneUnformatted": "+15085193600",
    "claimThisBusiness": false,
    "location": {
      "lat": 42.2475536,
      "lng": -71.8098331
    },
    "totalScore": 4.8,
    "permanentlyClosed": false,
    "temporarilyClosed": false,
    "placeId": "ChIJ2c2n7IUF5IkRkW4xoQoW67Q",
    "categories": [
      "Pharmacy"
    ],
    "fid": "0x89e40585eca7cdd9:0xb4eb160aa1316e91",
    "cid": "13036537781263888017",
    "reviewsCount": 31,
    "imagesCount": 18,
    "imageCategories": [],
    "scrapedAt": "2025-06-22T05:39:31.705Z",
    "googleFoodUrl": null,
    "hotelAds": [],
    "openingHours": [
      {
        "day": "Monday",
        "hours": "9 AM to 6 PM"
      },
      {
        "day": "Tuesday",
        "hours": "9 AM to 6 PM"
      },
      {
        "day": "Wednesday",
        "hours": "9 AM to 6 PM"
      },
      {
        "day": "Thursday",
        "hours": "9 AM to 6 PM"
      },
      {
        "day": "Friday",
        "hours": "9 AM to 6 PM"
      },
      {
        "day": "Saturday",
        "hours": "11 AM to 5 PM"
      },
      {
        "day": "Sunday",
        "hours": "Closed"
      }
    ],
    "additionalOpeningHours": {
      "Lunch": [
        {
          "day": "Monday",
          "hours": "Closed"
        },
        {
          "day": "Tuesday",
          "hours": "Closed"
        },
        {
          "day": "Wednesday",
          "hours": "Closed"
        },
        {
          "day": "Thursday",
          "hours": "Closed"
        },
        {
          "day": "Friday",
          "hours": "1–2 PM"
        },
        {
          "day": "Saturday",
          "hours": "Closed"
        },
        {
          "day": "Sunday",
          "hours": "Closed"
        }
      ]
    },
    "peopleAlsoSearch": [],
    "placesTags": [],
    "reviewsTags": [],
    "additionalInfo": {
      "From the business": [
        {
          "Small business": true
        }
      ],
      "Service options": [
        {
          "Delivery": true
        },
        {
          "In-store pickup": true
        },
        {
          "Same-day delivery": true
        }
      ],
      "Accessibility": [
        {
          "Wheelchair accessible entrance": true
        },
        {
          "Wheelchair accessible parking lot": true
        }
      ],
      "Offerings": [
        {
          "Passport photos": true
        }
      ],
      "Planning": [
        {
          "Quick visit": true
        }
      ],
      "Payments": [
        {
          "Credit cards": true
        }
      ]
    },
    "gasPrices": [],
    "url": "https://www.google.com/maps/search/?api=1&query=Worcester%20Pharmacy&query_place_id=ChIJ2c2n7IUF5IkRkW4xoQoW67Q",
    "searchPageUrl": "https://www.google.com/maps/search/independent%20pharmacy%20Worcester%20MA/@56.49842380833663,-169.4900814092578,12z?hl=en",
    "searchString": "independent pharmacy Worcester MA",
    "language": "en",
    "rank": 7,
    "isAdvertisement": false,
    "imageUrl": "https://lh3.googleusercontent.com/p/AF1QipPxFlIUjzq1_tL2yfqnNMlhDRgC3FjGctgFEGHS=w506-h240-k-no",
    "kgmid": "/g/11pd_m87bx"
  },
  {
    "title": "Wells Healthcare Pharmacy",
    "price": null,
    "categoryName": "Pharmacy",
    "address": "435 Shrewsbury St Ste. 4, Worcester, MA 01604",
    "neighborhood": "Shrewsbury Street",
    "street": "435 Shrewsbury St Ste. 4",
    "city": "Worcester",
    "postalCode": "01604",
    "state": "Massachusetts",
    "countryCode": "US",
    "website": "https://wellshcrx.com/",
    "phone": "(508) 351-0989",
    "phoneUnformatted": "+15083510989",
    "claimThisBusiness": false,
    "location": {
      "lat": 42.272233,
      "lng": -71.7721843
    },
    "totalScore": 4.7,
    "permanentlyClosed": false,
    "temporarilyClosed": false,
    "placeId": "ChIJHUVbx2QH5IkRcsfG_Wfe98I",
    "categories": [
      "Pharmacy"
    ],
    "fid": "0x89e40764c75b451d:0xc2f7de67fdc6c772",
    "cid": "14048942100826212210",
    "reviewsCount": 6,
    "imagesCount": 6,
    "imageCategories": [],
    "scrapedAt": "2025-06-22T05:39:31.705Z",
    "googleFoodUrl": null,
    "hotelAds": [],
    "openingHours": [
      {
        "day": "Monday",
        "hours": "9 AM to 5 PM"
      },
      {
        "day": "Tuesday",
        "hours": "9 AM to 5 PM"
      },
      {
        "day": "Wednesday",
        "hours": "9 AM to 5 PM"
      },
      {
        "day": "Thursday",
        "hours": "9 AM to 5 PM"
      },
      {
        "day": "Friday",
        "hours": "9 AM to 5 PM"
      },
      {
        "day": "Saturday",
        "hours": "9 AM to 2 PM"
      },
      {
        "day": "Sunday",
        "hours": "Closed"
      }
    ],
    "peopleAlsoSearch": [],
    "placesTags": [],
    "reviewsTags": [],
    "additionalInfo": {
      "From the business": [
        {
          "Small business": true
        }
      ],
      "Service options": [
        {
          "Delivery": true
        }
      ],
      "Accessibility": [
        {
          "Wheelchair accessible entrance": true
        },
        {
          "Wheelchair accessible parking lot": true
        }
      ],
      "Payments": [
        {
          "Credit cards": true
        }
      ]
    },
    "gasPrices": [],
    "url": "https://www.google.com/maps/search/?api=1&query=Wells%20Healthcare%20Pharmacy&query_place_id=ChIJHUVbx2QH5IkRcsfG_Wfe98I",
    "searchPageUrl": "https://www.google.com/maps/search/independent%20pharmacy%20Worcester%20MA/@56.49842380833663,-169.4900814092578,12z?hl=en",
    "searchString": "independent pharmacy Worcester MA",
    "language": "en",
    "rank": 8,
    "isAdvertisement": false,
    "imageUrl": "https://lh3.googleusercontent.com/p/AF1QipNO2Y9xyqPzJ8CzZ6Mgl3ps9iPe55N4UKRmcVvD=w408-h725-k-no",
    "kgmid": "/g/11kqfq2d0l"
  },
  {
    "title": "Walgreens Specialty Pharmacy",
    "description": "Department of the Walgreens chain providing prescription medications & other health-related items.",
    "price": "$$",
    "categoryName": "Pharmacy",
    "address": "398 Belmont St Suite A, Worcester, MA 01604",
    "neighborhood": "Lake Park",
    "street": "398 Belmont St Suite A",
    "city": "Worcester",
    "postalCode": "01604",
    "state": "Massachusetts",
    "countryCode": "US",
    "website": "https://www.walgreens.com/locator/walgreens-398+belmont+st-worcester-ma-01604/id=16486",
    "phone": "(508) 713-0149",
    "phoneUnformatted": "+15087130149",
    "claimThisBusiness": false,
    "location": {
      "lat": 42.2737117,
      "lng": -71.7617016
    },
    "totalScore": 4.2,
    "permanentlyClosed": false,
    "temporarilyClosed": false,
    "placeId": "ChIJmSErDYII5IkRgfH_jEvILqE",
    "categories": [
      "Pharmacy"
    ],
    "fid": "0x89e408820d2b2199:0xa12ec84b8cfff181",
    "cid": "11614440715848774017",
    "reviewsCount": 10,
    "imagesCount": 3,
    "imageCategories": [],
    "scrapedAt": "2025-06-22T05:39:31.705Z",
    "googleFoodUrl": null,
    "hotelAds": [],
    "openingHours": [
      {
        "day": "Monday",
        "hours": "8:30 AM to 1:30 PM, 2 to 6 PM"
      },
      {
        "day": "Tuesday",
        "hours": "8:30 AM to 1:30 PM, 2 to 6 PM"
      },
      {
        "day": "Wednesday",
        "hours": "8:30 AM to 1:30 PM, 2 to 6 PM"
      },
      {
        "day": "Thursday",
        "hours": "8:30 AM to 1:30 PM, 2 to 6 PM"
      },
      {
        "day": "Friday",
        "hours": "8:30 AM to 1:30 PM, 2 to 6 PM"
      },
      {
        "day": "Saturday",
        "hours": "Closed"
      },
      {
        "day": "Sunday",
        "hours": "Closed"
      }
    ],
    "peopleAlsoSearch": [],
    "placesTags": [],
    "reviewsTags": [],
    "additionalInfo": {
      "Service options": [
        {
          "Drive-through": true
        },
        {
          "In-store pickup": true
        }
      ],
      "Accessibility": [
        {
          "Wheelchair accessible entrance": true
        },
        {
          "Wheelchair accessible parking lot": true
        }
      ],
      "Planning": [
        {
          "Quick visit": true
        }
      ],
      "Payments": [
        {
          "Credit cards": true
        },
        {
          "Debit cards": true
        },
        {
          "Credit cards": true
        }
      ]
    },
    "gasPrices": [],
    "url": "https://www.google.com/maps/search/?api=1&query=Walgreens%20Specialty%20Pharmacy&query_place_id=ChIJmSErDYII5IkRgfH_jEvILqE",
    "searchPageUrl": "https://www.google.com/maps/search/independent%20pharmacy%20Worcester%20MA/@56.49842380833663,-169.4900814092578,12z?hl=en",
    "searchString": "independent pharmacy Worcester MA",
    "language": "en",
    "rank": 9,
    "isAdvertisement": false,
    "imageUrl": "https://lh3.googleusercontent.com/gps-cs-s/AC9h4npLmCDv2miaq5JhBaBKSSx6zWtqcAWbEur2p50YI7ikFfF0rvD6YQHTBE6YhOkEsDpkBAz8uHA8ZBwPDinvmgfZVjS-qsOnatoAWtbjyLsgRhkMOFVgqP5VT7qsdyok7V-RrFna=w408-h597-k-no",
    "kgmid": "/g/11csbfct00"
  },
  {
    "title": "Genoa Healthcare",
    "price": null,
    "categoryName": "Pharmacy",
    "address": "435 Shrewsbury St Suite P, Worcester, MA 01604",
    "neighborhood": "Shrewsbury Street",
    "street": "435 Shrewsbury St Suite P",
    "city": "Worcester",
    "postalCode": "01604",
    "state": "Massachusetts",
    "countryCode": "US",
    "website": "https://www.genoahealthcare.com/",
    "phone": "(508) 340-4957",
    "phoneUnformatted": "+15083404957",
    "claimThisBusiness": false,
    "location": {
      "lat": 42.2722406,
      "lng": -71.772188
    },
    "totalScore": 4.6,
    "permanentlyClosed": false,
    "temporarilyClosed": false,
    "placeId": "ChIJ-zptqCMH5IkRtWTa-qFBXbI",
    "categories": [
      "Pharmacy"
    ],
    "fid": "0x89e40723a86d3afb:0xb25d41a1fada64b5",
    "cid": "12852501075539420341",
    "reviewsCount": 5,
    "imagesCount": 1,
    "imageCategories": [],
    "scrapedAt": "2025-06-22T05:39:31.705Z",
    "googleFoodUrl": null,
    "hotelAds": [],
    "openingHours": [
      {
        "day": "Monday",
        "hours": "8:30 AM to 5 PM"
      },
      {
        "day": "Tuesday",
        "hours": "8:30 AM to 5 PM"
      },
      {
        "day": "Wednesday",
        "hours": "8:30 AM to 5 PM"
      },
      {
        "day": "Thursday",
        "hours": "8:30 AM to 5 PM"
      },
      {
        "day": "Friday",
        "hours": "8:30 AM to 5 PM"
      },
      {
        "day": "Saturday",
        "hours": "Closed"
      },
      {
        "day": "Sunday",
        "hours": "Closed"
      }
    ],
    "peopleAlsoSearch": [],
    "placesTags": [],
    "reviewsTags": [],
    "additionalInfo": {
      "Accessibility": [
        {
          "Wheelchair accessible entrance": true
        },
        {
          "Wheelchair accessible parking lot": true
        }
      ],
      "Payments": [
        {
          "Credit cards": true
        }
      ]
    },
    "gasPrices": [],
    "url": "https://www.google.com/maps/search/?api=1&query=Genoa%20Healthcare&query_place_id=ChIJ-zptqCMH5IkRtWTa-qFBXbI",
    "searchPageUrl": "https://www.google.com/maps/search/independent%20pharmacy%20Worcester%20MA/@56.49842380833663,-169.4900814092578,12z?hl=en",
    "searchString": "independent pharmacy Worcester MA",
    "language": "en",
    "rank": 10,
    "isAdvertisement": false,
    "imageUrl": "https://streetviewpixels-pa.googleapis.com/v1/thumbnail?panoid=C7Ft7PDhnRfZl8B5zDSzvQ&cb_client=search.gws-prod.gps&w=408&h=240&yaw=152.01744&pitch=0&thumbfov=100",
    "kgmid": "/g/11jr6k30l9"
  },
  {
    "title": "Prescott Pharmacy - LTC",
    "price": null,
    "categoryName": "Pharmacy",
    "address": "100 Grove St Suite B-12, Worcester, MA 01605",
    "neighborhood": "Indian Lake East",
    "street": "100 Grove St Suite B-12",
    "city": "Worcester",
    "postalCode": "01605",
    "state": "Massachusetts",
    "countryCode": "US",
    "website": "https://www.prescottpharmacy.com/",
    "phone": "(508) 683-0260",
    "phoneUnformatted": "+15086830260",
    "claimThisBusiness": false,
    "location": {
      "lat": 42.2765983,
      "lng": -71.8003979
    },
    "totalScore": 4.1,
    "permanentlyClosed": false,
    "temporarilyClosed": false,
    "placeId": "ChIJRTzReFAG5IkRzXmlgvusYTQ",
    "categories": [
      "Pharmacy"
    ],
    "fid": "0x89e4065078d13c45:0x3461acfb82a579cd",
    "cid": "3774488158941837773",
    "reviewsCount": 21,
    "imagesCount": 5,
    "imageCategories": [],
    "scrapedAt": "2025-06-22T05:39:31.705Z",
    "googleFoodUrl": null,
    "hotelAds": [],
    "openingHours": [
      {
        "day": "Monday",
        "hours": "8:30 AM to 5:30 PM"
      },
      {
        "day": "Tuesday",
        "hours": "8:30 AM to 5:30 PM"
      },
      {
        "day": "Wednesday",
        "hours": "8:30 AM to 5:30 PM"
      },
      {
        "day": "Thursday",
        "hours": "8:30 AM to 5:30 PM"
      },
      {
        "day": "Friday",
        "hours": "8:30 AM to 5:30 PM"
      },
      {
        "day": "Saturday",
        "hours": "10 AM to 2 PM"
      },
      {
        "day": "Sunday",
        "hours": "10 AM to 1 PM"
      }
    ],
    "peopleAlsoSearch": [],
    "placesTags": [],
    "reviewsTags": [],
    "additionalInfo": {
      "From the business": [
        {
          "Small business": true
        }
      ],
      "Service options": [
        {
          "Delivery": true
        },
        {
          "Same-day delivery": true
        },
        {
          "English": true
        }
      ],
      "Accessibility": [
        {
          "Wheelchair accessible entrance": true
        },
        {
          "Wheelchair accessible parking lot": true
        },
        {
          "Wheelchair accessible restroom": true
        },
        {
          "Wheelchair accessible seating": true
        }
      ],
      "Crowd": [
        {
          "LGBTQ+ friendly": true
        },
        {
          "Transgender safespace": true
        }
      ],
      "Payments": [
        {
          "Credit cards": true
        },
        {
          "Debit cards": true
        },
        {
          "Credit cards": true
        }
      ]
    },
    "gasPrices": [],
    "url": "https://www.google.com/maps/search/?api=1&query=Prescott%20Pharmacy%20-%20LTC&query_place_id=ChIJRTzReFAG5IkRzXmlgvusYTQ",
    "searchPageUrl": "https://www.google.com/maps/search/independent%20pharmacy%20Worcester%20MA/@56.49842380833663,-169.4900814092578,12z?hl=en",
    "searchString": "independent pharmacy Worcester MA",
    "language": "en",
    "rank": 11,
    "isAdvertisement": false,
    "imageUrl": "https://lh3.googleusercontent.com/p/AF1QipOr5N_SJ_gJkzOSykV3ov7NH6MiluObNTHZ43I=w408-h306-k-no",
    "kgmid": "/g/11c1p60pls"
  },
  {
    "title": "Trang Pharmacy",
    "price": null,
    "categoryName": "Pharmacy",
    "address": "456 Park Ave, Worcester, MA 01610",
    "neighborhood": "Columbus Park",
    "street": "456 Park Ave",
    "city": "Worcester",
    "postalCode": "01610",
    "state": "Massachusetts",
    "countryCode": "US",
    "website": "http://www.trangpharmacy.com/",
    "phone": "(508) 799-7979",
    "phoneUnformatted": "+15087997979",
    "claimThisBusiness": false,
    "location": {
      "lat": 42.2551212,
      "lng": -71.8257849
    },
    "totalScore": 2.4,
    "permanentlyClosed": false,
    "temporarilyClosed": false,
    "placeId": "ChIJLUODSpwG5IkRe5UCqrq_ljI",
    "categories": [
      "Pharmacy"
    ],
    "fid": "0x89e4069c4a83432d:0x3296bfbaaa02957b",
    "cid": "3645311756840113531",
    "reviewsCount": 8,
    "imagesCount": 4,
    "imageCategories": [],
    "scrapedAt": "2025-06-22T05:39:31.705Z",
    "googleFoodUrl": null,
    "hotelAds": [],
    "openingHours": [
      {
        "day": "Monday",
        "hours": "8 AM to 6 PM"
      },
      {
        "day": "Tuesday",
        "hours": "8 AM to 6 PM"
      },
      {
        "day": "Wednesday",
        "hours": "8 AM to 6 PM"
      },
      {
        "day": "Thursday",
        "hours": "8 AM to 6 PM"
      },
      {
        "day": "Friday",
        "hours": "8 AM to 6 PM"
      },
      {
        "day": "Saturday",
        "hours": "8 AM to 6 PM"
      },
      {
        "day": "Sunday",
        "hours": "Closed"
      }
    ],
    "peopleAlsoSearch": [],
    "placesTags": [],
    "reviewsTags": [],
    "additionalInfo": {
      "From the business": [
        {
          "Small business": true
        }
      ],
      "Service options": [
        {
          "Curbside pickup": true
        },
        {
          "Delivery": true
        },
        {
          "In-store pickup": true
        },
        {
          "In-store shopping": true
        }
      ],
      "Accessibility": [
        {
          "Wheelchair accessible entrance": true
        },
        {
          "Wheelchair accessible parking lot": true
        },
        {
          "Wheelchair accessible restroom": false
        },
        {
          "Wheelchair accessible seating": false
        }
      ],
      "Planning": [
        {
          "Quick visit": true
        }
      ],
      "Payments": [
        {
          "Credit cards": true
        },
        {
          "Debit cards": true
        },
        {
          "Credit cards": true
        }
      ]
    },
    "gasPrices": [],
    "url": "https://www.google.com/maps/search/?api=1&query=Trang%20Pharmacy&query_place_id=ChIJLUODSpwG5IkRe5UCqrq_ljI",
    "searchPageUrl": "https://www.google.com/maps/search/independent%20pharmacy%20Worcester%20MA/@56.49842380833663,-169.4900814092578,12z?hl=en",
    "searchString": "independent pharmacy Worcester MA",
    "language": "en",
    "rank": 12,
    "isAdvertisement": false,
    "imageUrl": "https://lh3.googleusercontent.com/gps-cs-s/AC9h4npQIMnY8iJOWUA1BIbjvYfd0QLydunL7HaryUo8Rp8oUGOhx-bwf97hE9kA78kCvfYK9xkYpl7MVOjOngXBo5HWARODELj6V2VyPgQh7mKov41NKKoC0y4IYnkOat3BPs5lgtI=w408-h724-k-no",
    "kgmid": "/g/1tdrgcsq"
  },
  {
    "title": "Legitmedshop",
    "price": null,
    "categoryName": "Pharmacy",
    "address": "232 Chandler St, Worcester, MA 01609",
    "neighborhood": "Main Middle",
    "street": "232 Chandler St",
    "city": "Worcester",
    "postalCode": "01609",
    "state": "Massachusetts",
    "countryCode": "US",
    "website": "http://legitmedshop.com/",
    "phone": "(708) 374-7825",
    "phoneUnformatted": "+17083747825",
    "claimThisBusiness": false,
    "location": {
      "lat": 42.2610233,
      "lng": -71.8203311
    },
    "permanentlyClosed": false,
    "temporarilyClosed": false,
    "placeId": "ChIJrWqTiacH5IkRMnE35bs9eNg",
    "categories": [
      "Pharmacy",
      "Alternative medicine practitioner",
      "Pharmaceutical company",
      "Drug store"
    ],
    "fid": "0x89e407a789936aad:0xd8783dbbe5377132",
    "cid": "15598285186611507506",
    "reviewsCount": 0,
    "imagesCount": 11,
    "imageCategories": [],
    "scrapedAt": "2025-06-22T05:39:31.705Z",
    "googleFoodUrl": null,
    "hotelAds": [],
    "openingHours": [
      {
        "day": "Monday",
        "hours": "Open 24 hours"
      },
      {
        "day": "Tuesday",
        "hours": "Open 24 hours"
      },
      {
        "day": "Wednesday",
        "hours": "Open 24 hours"
      },
      {
        "day": "Thursday",
        "hours": "Open 24 hours"
      },
      {
        "day": "Friday",
        "hours": "Open 24 hours"
      },
      {
        "day": "Saturday",
        "hours": "Open 24 hours"
      },
      {
        "day": "Sunday",
        "hours": "Open 24 hours"
      }
    ],
    "peopleAlsoSearch": [],
    "placesTags": [],
    "reviewsTags": [],
    "additionalInfo": {
      "From the business": [
        {
          "Small business": true
        }
      ],
      "Service options": [
        {
          "Delivery": true
        },
        {
          "Same-day delivery": true
        },
        {
          "English": true
        }
      ],
      "Accessibility": [
        {
          "Wheelchair accessible entrance": true
        },
        {
          "Wheelchair accessible parking lot": true
        }
      ],
      "Payments": [
        {
          "Credit cards": true
        }
      ]
    },
    "gasPrices": [],
    "url": "https://www.google.com/maps/search/?api=1&query=Legitmedshop&query_place_id=ChIJrWqTiacH5IkRMnE35bs9eNg",
    "searchPageUrl": "https://www.google.com/maps/search/independent%20pharmacy%20Worcester%20MA/@56.49842380833663,-169.4900814092578,12z?hl=en",
    "searchString": "independent pharmacy Worcester MA",
    "language": "en",
    "rank": 13,
    "isAdvertisement": false,
    "imageUrl": "https://lh3.googleusercontent.com/p/AF1QipMewT223jFzU8GxPlTfUymMsGjfhJv6DfaKFY0Q=w429-h240-k-no",
    "kgmid": "/g/11g0j6jqdf"
  },
  {
    "title": "Genoa Healthcare",
    "price": null,
    "categoryName": "Pharmacy",
    "address": "12 Queen St #129, Worcester, MA 01610",
    "neighborhood": "Main Middle",
    "street": "12 Queen St #129",
    "city": "Worcester",
    "postalCode": "01610",
    "state": "Massachusetts",
    "countryCode": "US",
    "website": "http://www.genoahealthcare.com/",
    "phone": "(508) 425-4554",
    "phoneUnformatted": "+15084254554",
    "claimThisBusiness": false,
    "location": {
      "lat": 42.2597825,
      "lng": -71.8138
    },
    "totalScore": 3.1,
    "permanentlyClosed": false,
    "temporarilyClosed": false,
    "placeId": "ChIJO-lFoi0H5IkRMrU3ipyMJFI",
    "categories": [
      "Pharmacy"
    ],
    "fid": "0x89e4072da245e93b:0x52248c9c8a37b532",
    "cid": "5919010414233367858",
    "reviewsCount": 8,
    "imagesCount": 1,
    "imageCategories": [],
    "scrapedAt": "2025-06-22T05:39:31.705Z",
    "googleFoodUrl": null,
    "hotelAds": [],
    "openingHours": [
      {
        "day": "Monday",
        "hours": "8:30 AM to 5 PM"
      },
      {
        "day": "Tuesday",
        "hours": "8:30 AM to 5 PM"
      },
      {
        "day": "Wednesday",
        "hours": "8:30 AM to 5 PM"
      },
      {
        "day": "Thursday",
        "hours": "8:30 AM to 5 PM"
      },
      {
        "day": "Friday",
        "hours": "8:30 AM to 5 PM"
      },
      {
        "day": "Saturday",
        "hours": "9 AM to 4 PM"
      },
      {
        "day": "Sunday",
        "hours": "Closed"
      }
    ],
    "peopleAlsoSearch": [],
    "placesTags": [],
    "reviewsTags": [],
    "additionalInfo": {
      "Accessibility": [
        {
          "Wheelchair accessible entrance": true
        },
        {
          "Wheelchair accessible parking lot": true
        }
      ]
    },
    "gasPrices": [],
    "url": "https://www.google.com/maps/search/?api=1&query=Genoa%20Healthcare&query_place_id=ChIJO-lFoi0H5IkRMrU3ipyMJFI",
    "searchPageUrl": "https://www.google.com/maps/search/independent%20pharmacy%20Worcester%20MA/@56.49842380833663,-169.4900814092578,12z?hl=en",
    "searchString": "independent pharmacy Worcester MA",
    "language": "en",
    "rank": 14,
    "isAdvertisement": false,
    "imageUrl": "https://streetviewpixels-pa.googleapis.com/v1/thumbnail?panoid=Bjm0By5h8XH0ckg_pa7dTw&cb_client=search.gws-prod.gps&w=408&h=240&yaw=243.30054&pitch=0&thumbfov=100",
    "kgmid": "/g/11j3sczpgl"
  },
  {
    "title": "CVS Pharmacy",
    "price": null,
    "categoryName": "Pharmacy",
    "address": "115 Stafford St, Worcester, MA 01603",
    "neighborhood": "Webster Square",
    "street": "115 Stafford St",
    "city": "Worcester",
    "postalCode": "01603",
    "state": "Massachusetts",
    "countryCode": "US",
    "website": "https://www.cvs.com/store-locator/worcester-ma-pharmacies/115-stafford-st-worcester-ma-01603/storeid=166?WT.mc_id=LS_GOOGLE_RX_166",
    "phone": "(508) 753-3297",
    "phoneUnformatted": "+15087533297",
    "claimThisBusiness": false,
    "location": {
      "lat": 42.238534,
      "lng": -71.8443938
    },
    "totalScore": 3.6,
    "permanentlyClosed": false,
    "temporarilyClosed": false,
    "placeId": "ChIJBRESYxIE5IkRGKJlK2w59Gk",
    "categories": [
      "Pharmacy"
    ],
    "fid": "0x89e4041263121105:0x69f4396c2b65a218",
    "cid": "7634790405047165464",
    "reviewsCount": 30,
    "imagesCount": 9,
    "imageCategories": [],
    "scrapedAt": "2025-06-22T05:39:31.705Z",
    "googleFoodUrl": null,
    "hotelAds": [],
    "openingHours": [
      {
        "day": "Monday",
        "hours": "12 AM to 1:30 PM, 2 PM to 12 AM"
      },
      {
        "day": "Tuesday",
        "hours": "12 AM to 1:30 PM, 2 PM to 12 AM"
      },
      {
        "day": "Wednesday",
        "hours": "12 AM to 1:30 PM, 2 PM to 12 AM"
      },
      {
        "day": "Thursday",
        "hours": "12 AM to 1:30 PM, 2 PM to 12 AM"
      },
      {
        "day": "Friday",
        "hours": "12 AM to 1:30 PM, 2 PM to 12 AM"
      },
      {
        "day": "Saturday",
        "hours": "12 AM to 1:30 PM, 2 PM to 12 AM"
      },
      {
        "day": "Sunday",
        "hours": "12 AM to 1:30 PM, 2 PM to 12 AM"
      }
    ],
    "peopleAlsoSearch": [],
    "placesTags": [],
    "reviewsTags": [],
    "additionalInfo": {
      "Service options": [
        {
          "Delivery": true
        },
        {
          "Drive-through": true
        },
        {
          "In-store shopping": true
        }
      ],
      "Accessibility": [
        {
          "Wheelchair accessible entrance": true
        },
        {
          "Wheelchair accessible parking lot": true
        }
      ],
      "Offerings": [
        {
          "Medication disposal": true
        },
        {
          "Naloxone": true
        },
        {
          "Passport photos": true
        }
      ],
      "Crowd": [
        {
          "LGBTQ+ friendly": true
        },
        {
          "Transgender safespace": true
        }
      ],
      "Planning": [
        {
          "Quick visit": true
        }
      ],
      "Payments": [
        {
          "Credit cards": true
        },
        {
          "Debit cards": true
        },
        {
          "NFC mobile payments": true
        },
        {
          "SNAP/EBT": true
        },
        {
          "Credit cards": true
        }
      ]
    },
    "gasPrices": [],
    "url": "https://www.google.com/maps/search/?api=1&query=CVS%20Pharmacy&query_place_id=ChIJBRESYxIE5IkRGKJlK2w59Gk",
    "searchPageUrl": "https://www.google.com/maps/search/independent%20pharmacy%20Worcester%20MA/@56.49842380833663,-169.4900814092578,12z?hl=en",
    "searchString": "independent pharmacy Worcester MA",
    "language": "en",
    "rank": 15,
    "isAdvertisement": false,
    "imageUrl": "https://lh3.googleusercontent.com/p/AF1QipPkGZzqJQ6KeUc244fhXtTm5nY4xnBvTyECS5Rp=w408-h272-k-no",
    "kgmid": "/g/11c462tw86"
  },
  {
    "title": "Market 32 Pharmacy",
    "price": null,
    "categoryName": "Pharmacy",
    "address": "72 Pullman St, Worcester, MA 01606",
    "neighborhood": "Greendale",
    "street": "72 Pullman St",
    "city": "Worcester",
    "postalCode": "01606",
    "state": "Massachusetts",
    "countryCode": "US",
    "website": "https://www.pricechopper.com/stores/ma/worcester/pharmacy-194.html",
    "phone": "(508) 854-8318",
    "phoneUnformatted": "+15088548318",
    "claimThisBusiness": false,
    "location": {
      "lat": 42.3234255,
      "lng": -71.797402
    },
    "totalScore": 5,
    "permanentlyClosed": false,
    "temporarilyClosed": false,
    "placeId": "ChIJiZxyBYgH5IkR54Ar38l3Ye4",
    "categories": [
      "Pharmacy",
      "Drug store",
      "Vitamin & supplements store"
    ],
    "fid": "0x89e4078805729c89:0xee6177c9df2b80e7",
    "cid": "17177142162684084455",
    "reviewsCount": 1,
    "imagesCount": 2,
    "imageCategories": [],
    "scrapedAt": "2025-06-22T05:39:31.706Z",
    "googleFoodUrl": null,
    "hotelAds": [],
    "openingHours": [
      {
        "day": "Monday",
        "hours": "8 AM to 1:30 PM, 2 to 7 PM"
      },
      {
        "day": "Tuesday",
        "hours": "8 AM to 1:30 PM, 2 to 7 PM"
      },
      {
        "day": "Wednesday",
        "hours": "8 AM to 1:30 PM, 2 to 7 PM"
      },
      {
        "day": "Thursday",
        "hours": "8 AM to 1:30 PM, 2 to 7 PM"
      },
      {
        "day": "Friday",
        "hours": "8 AM to 1:30 PM, 2 to 7 PM"
      },
      {
        "day": "Saturday",
        "hours": "10 AM to 3 PM"
      },
      {
        "day": "Sunday",
        "hours": "10 AM to 2 PM"
      }
    ],
    "peopleAlsoSearch": [],
    "placesTags": [],
    "reviewsTags": [],
    "additionalInfo": {
      "Service options": [
        {
          "Curbside pickup": true
        },
        {
          "Delivery": true
        },
        {
          "In-store pickup": true
        }
      ],
      "Accessibility": [
        {
          "Wheelchair accessible entrance": true
        },
        {
          "Wheelchair accessible parking lot": true
        }
      ],
      "Planning": [
        {
          "Quick visit": true
        }
      ],
      "Payments": [
        {
          "Credit cards": true
        }
      ]
    },
    "gasPrices": [],
    "url": "https://www.google.com/maps/search/?api=1&query=Market%2032%20Pharmacy&query_place_id=ChIJiZxyBYgH5IkR54Ar38l3Ye4",
    "searchPageUrl": "https://www.google.com/maps/search/independent%20pharmacy%20Worcester%20MA/@56.49842380833663,-169.4900814092578,12z?hl=en",
    "searchString": "independent pharmacy Worcester MA",
    "language": "en",
    "rank": 16,
    "isAdvertisement": false,
    "imageUrl": "https://lh3.googleusercontent.com/gps-cs-s/AC9h4nodHetjAWVhQbKtASg9sT0X-6FL--XrX_F1wIBhbZBSJ6bh2hLW78Z8kLf2oV3NpY-t3s-31_JrRMgZZjea7hFTBx5QccNdeg1V8PqGxVbncrzl9MSuOSKbNyxS2siV-QkYtTQ=w408-h266-k-no",
    "kgmid": "/g/11b6c3skrl"
  },
  {
    "title": "UMass Memorial Medical Center - Prescription Center Pharmacy",
    "price": null,
    "categoryName": "Pharmacy",
    "address": "55 N Lake Ave, Worcester, MA 01655",
    "neighborhood": "Biotech Park Area",
    "street": "55 N Lake Ave",
    "city": "Worcester",
    "postalCode": "01655",
    "state": "Massachusetts",
    "countryCode": "US",
    "website": "https://www.ummhealth.org/umass-memorial-medical-center/patients-visitors/plan-your-visit/prescription-center?utm_source=datamanager&utm_medium=organic&utm_campaign=listing?utm_source=datamanager&utm_medium=organic&utm_campaign=listing",
    "phone": "(508) 421-1900",
    "phoneUnformatted": "+15084211900",
    "claimThisBusiness": false,
    "location": {
      "lat": 42.2776916,
      "lng": -71.7619499
    },
    "totalScore": 4.1,
    "permanentlyClosed": false,
    "temporarilyClosed": false,
    "placeId": "ChIJYwgFd5EH5IkRoEya3GYHDuk",
    "categories": [
      "Pharmacy"
    ],
    "fid": "0x89e4079177050863:0xe90e0766dc9a4ca0",
    "cid": "16793368198880316576",
    "reviewsCount": 21,
    "imagesCount": 1,
    "imageCategories": [],
    "scrapedAt": "2025-06-22T05:39:31.706Z",
    "googleFoodUrl": null,
    "hotelAds": [],
    "openingHours": [
      {
        "day": "Monday",
        "hours": "7 AM to 7 PM"
      },
      {
        "day": "Tuesday",
        "hours": "7 AM to 7 PM"
      },
      {
        "day": "Wednesday",
        "hours": "7 AM to 7 PM"
      },
      {
        "day": "Thursday",
        "hours": "7 AM to 7 PM"
      },
      {
        "day": "Friday",
        "hours": "7 AM to 7 PM"
      },
      {
        "day": "Saturday",
        "hours": "9 AM to 5 PM"
      },
      {
        "day": "Sunday",
        "hours": "9 AM to 5 PM"
      }
    ],
    "peopleAlsoSearch": [],
    "placesTags": [],
    "reviewsTags": [],
    "additionalInfo": {
      "Accessibility": [
        {
          "Wheelchair accessible entrance": true
        },
        {
          "Wheelchair accessible parking lot": true
        }
      ],
      "Amenities": [
        {
          "Wi-Fi": true
        },
        {
          "Free Wi-Fi": true
        }
      ],
      "Payments": [
        {
          "Credit cards": true
        }
      ]
    },
    "gasPrices": [],
    "url": "https://www.google.com/maps/search/?api=1&query=UMass%20Memorial%20Medical%20Center%20-%20Prescription%20Center%20Pharmacy&query_place_id=ChIJYwgFd5EH5IkRoEya3GYHDuk",
    "searchPageUrl": "https://www.google.com/maps/search/independent%20pharmacy%20Worcester%20MA/@56.49842380833663,-169.4900814092578,12z?hl=en",
    "searchString": "independent pharmacy Worcester MA",
    "language": "en",
    "rank": 17,
    "isAdvertisement": false,
    "imageUrl": "https://streetviewpixels-pa.googleapis.com/v1/thumbnail?panoid=6s-RQganqu96BMOOjJCgkg&cb_client=search.gws-prod.gps&w=408&h=240&yaw=7.5394845&pitch=0&thumbfov=100",
    "kgmid": "/g/11dxdzttn7"
  },
  {
    "title": "CVS Pharmacy",
    "price": null,
    "categoryName": "Pharmacy",
    "address": "500 Grafton St, Worcester, MA 01604",
    "neighborhood": "Union HIll",
    "street": "500 Grafton St",
    "city": "Worcester",
    "postalCode": "01604",
    "state": "Massachusetts",
    "countryCode": "US",
    "website": "https://www.cvs.com/store-locator/worcester-ma-pharmacies/500-grafton-street-worcester-ma-01604/storeid=707?WT.mc_id=LS_GOOGLE_RX_707",
    "phone": "(508) 798-8743",
    "phoneUnformatted": "+15087988743",
    "claimThisBusiness": false,
    "location": {
      "lat": 42.2502975,
      "lng": -71.7795302
    },
    "totalScore": 3.6,
    "permanentlyClosed": false,
    "temporarilyClosed": false,
    "placeId": "ChIJ2XJbnw4G5IkRdpeTUAFOPMw",
    "categories": [
      "Pharmacy"
    ],
    "fid": "0x89e4060e9f5b72d9:0xcc3c4e0150939776",
    "cid": "14716723449893721974",
    "reviewsCount": 46,
    "imagesCount": 6,
    "imageCategories": [],
    "scrapedAt": "2025-06-22T05:39:31.706Z",
    "googleFoodUrl": null,
    "hotelAds": [],
    "openingHours": [
      {
        "day": "Monday",
        "hours": "12 AM to 1:30 PM, 2 PM to 12 AM"
      },
      {
        "day": "Tuesday",
        "hours": "12 AM to 1:30 PM, 2 PM to 12 AM"
      },
      {
        "day": "Wednesday",
        "hours": "12 AM to 1:30 PM, 2 PM to 12 AM"
      },
      {
        "day": "Thursday",
        "hours": "12 AM to 1:30 PM, 2 PM to 12 AM"
      },
      {
        "day": "Friday",
        "hours": "12 AM to 1:30 PM, 2 PM to 12 AM"
      },
      {
        "day": "Saturday",
        "hours": "12 AM to 1:30 PM, 2 PM to 12 AM"
      },
      {
        "day": "Sunday",
        "hours": "12 AM to 1:30 PM, 2 PM to 12 AM"
      }
    ],
    "peopleAlsoSearch": [],
    "placesTags": [],
    "reviewsTags": [],
    "additionalInfo": {
      "Service options": [
        {
          "Delivery": true
        },
        {
          "In-store shopping": true
        },
        {
          "Onsite services": true
        }
      ],
      "Accessibility": [
        {
          "Wheelchair accessible entrance": true
        },
        {
          "Wheelchair accessible parking lot": true
        }
      ],
      "Offerings": [
        {
          "Medication disposal": true
        },
        {
          "Naloxone": true
        },
        {
          "Passport photos": true
        }
      ],
      "Crowd": [
        {
          "LGBTQ+ friendly": true
        },
        {
          "Transgender safespace": true
        }
      ],
      "Planning": [
        {
          "Quick visit": true
        }
      ],
      "Payments": [
        {
          "Credit cards": true
        },
        {
          "Debit cards": true
        },
        {
          "NFC mobile payments": true
        },
        {
          "SNAP/EBT": true
        },
        {
          "Credit cards": true
        }
      ]
    },
    "gasPrices": [],
    "url": "https://www.google.com/maps/search/?api=1&query=CVS%20Pharmacy&query_place_id=ChIJ2XJbnw4G5IkRdpeTUAFOPMw",
    "searchPageUrl": "https://www.google.com/maps/search/independent%20pharmacy%20Worcester%20MA/@56.49842380833663,-169.4900814092578,12z?hl=en",
    "searchString": "independent pharmacy Worcester MA",
    "language": "en",
    "rank": 18,
    "isAdvertisement": false,
    "imageUrl": "https://lh3.googleusercontent.com/p/AF1QipPskP8QhY23gg4UY0x-L2hY012cenbjKlmCipNE=w408-h272-k-no",
    "kgmid": "/g/11c468nzmw"
  },
  {
    "title": "CVS Pharmacy",
    "price": null,
    "categoryName": "Pharmacy",
    "address": "400 Park Ave, Worcester, MA 01610",
    "neighborhood": "Piedmont",
    "street": "400 Park Ave",
    "city": "Worcester",
    "postalCode": "01610",
    "state": "Massachusetts",
    "countryCode": "US",
    "website": "https://www.cvs.com/store-locator/worcester-ma-pharmacies/400-park-ave-worcester-ma-01610/storeid=657?WT.mc_id=LS_GOOGLE_RX_657",
    "phone": "(508) 792-3866",
    "phoneUnformatted": "+15087923866",
    "claimThisBusiness": false,
    "location": {
      "lat": 42.2574314,
      "lng": -71.823396
    },
    "totalScore": 3.8,
    "permanentlyClosed": false,
    "temporarilyClosed": false,
    "placeId": "ChIJDaS6FJsG5IkR6AsshxcHsuE",
    "categories": [
      "Pharmacy"
    ],
    "fid": "0x89e4069b14baa40d:0xe1b20717872c0be8",
    "cid": "16263069002021735400",
    "reviewsCount": 34,
    "imagesCount": 8,
    "imageCategories": [],
    "scrapedAt": "2025-06-22T05:39:31.706Z",
    "googleFoodUrl": null,
    "hotelAds": [],
    "openingHours": [
      {
        "day": "Monday",
        "hours": "12 AM to 1:30 PM, 2 PM to 12 AM"
      },
      {
        "day": "Tuesday",
        "hours": "12 AM to 1:30 PM, 2 PM to 12 AM"
      },
      {
        "day": "Wednesday",
        "hours": "12 AM to 1:30 PM, 2 PM to 12 AM"
      },
      {
        "day": "Thursday",
        "hours": "12 AM to 1:30 PM, 2 PM to 12 AM"
      },
      {
        "day": "Friday",
        "hours": "12 AM to 1:30 PM, 2 PM to 12 AM"
      },
      {
        "day": "Saturday",
        "hours": "12 AM to 1:30 PM, 2 PM to 12 AM"
      },
      {
        "day": "Sunday",
        "hours": "12 AM to 1:30 PM, 2 PM to 12 AM"
      }
    ],
    "peopleAlsoSearch": [],
    "placesTags": [],
    "reviewsTags": [],
    "additionalInfo": {
      "Service options": [
        {
          "Delivery": true
        },
        {
          "Drive-through": true
        },
        {
          "In-store shopping": true
        },
        {
          "Onsite services": true
        }
      ],
      "Accessibility": [
        {
          "Wheelchair accessible entrance": true
        },
        {
          "Wheelchair accessible parking lot": true
        }
      ],
      "Offerings": [
        {
          "Medication disposal": true
        },
        {
          "Naloxone": true
        },
        {
          "Passport photos": true
        }
      ],
      "Crowd": [
        {
          "LGBTQ+ friendly": true
        },
        {
          "Transgender safespace": true
        }
      ],
      "Planning": [
        {
          "Quick visit": true
        }
      ],
      "Payments": [
        {
          "Credit cards": true
        },
        {
          "Debit cards": true
        },
        {
          "NFC mobile payments": true
        },
        {
          "SNAP/EBT": true
        },
        {
          "Credit cards": true
        }
      ]
    },
    "gasPrices": [],
    "url": "https://www.google.com/maps/search/?api=1&query=CVS%20Pharmacy&query_place_id=ChIJDaS6FJsG5IkR6AsshxcHsuE",
    "searchPageUrl": "https://www.google.com/maps/search/independent%20pharmacy%20Worcester%20MA/@56.49842380833663,-169.4900814092578,12z?hl=en",
    "searchString": "independent pharmacy Worcester MA",
    "language": "en",
    "rank": 19,
    "isAdvertisement": false,
    "imageUrl": "https://lh3.googleusercontent.com/p/AF1QipNFLFqT3MlHl6UTpNWFhs4KArrJN5A-yGNLeM6G=w408-h272-k-no",
    "kgmid": "/g/11c468ps57"
  },
  {
    "title": "Shaw's Pharmacy",
    "description": "Supermarket chain offering meat, produce, staples, deli & bakery items (some with pharmacies).",
    "price": "$$",
    "categoryName": "Pharmacy",
    "address": "14 W Boylston St, Worcester, MA 01605",
    "neighborhood": "Forest Grove",
    "street": "14 W Boylston St",
    "city": "Worcester",
    "postalCode": "01605",
    "state": "Massachusetts",
    "countryCode": "US",
    "website": "https://local.pharmacy.shaws.com/ma/worcester/14-w-boylston-st.html",
    "phone": "(508) 852-5344",
    "phoneUnformatted": "+15088525344",
    "claimThisBusiness": false,
    "location": {
      "lat": 42.2885637,
      "lng": -71.8062353
    },
    "totalScore": 3.9,
    "permanentlyClosed": false,
    "temporarilyClosed": false,
    "placeId": "ChIJLXxGHKsH5IkRpP3KrvbSB-U",
    "categories": [
      "Pharmacy",
      "Drug store",
      "Vitamin & supplements store"
    ],
    "fid": "0x89e407ab1c467c2d:0xe507d2f6aecafda4",
    "cid": "16503391316458798500",
    "reviewsCount": 19,
    "imagesCount": 3,
    "imageCategories": [],
    "scrapedAt": "2025-06-22T05:39:31.706Z",
    "googleFoodUrl": null,
    "hotelAds": [],
    "openingHours": [
      {
        "day": "Monday",
        "hours": "9 AM to 2 PM, 2:30 to 8 PM"
      },
      {
        "day": "Tuesday",
        "hours": "9 AM to 2 PM, 2:30 to 8 PM"
      },
      {
        "day": "Wednesday",
        "hours": "9 AM to 2 PM, 2:30 to 8 PM"
      },
      {
        "day": "Thursday",
        "hours": "9 AM to 2 PM, 2:30 to 8 PM"
      },
      {
        "day": "Friday",
        "hours": "9 AM to 2 PM, 2:30 to 8 PM"
      },
      {
        "day": "Saturday",
        "hours": "9 AM to 2 PM, 2:30 to 5 PM"
      },
      {
        "day": "Sunday",
        "hours": "10 AM to 2 PM, 2:30 to 5 PM"
      }
    ],
    "peopleAlsoSearch": [],
    "placesTags": [],
    "reviewsTags": [],
    "additionalInfo": {
      "Service options": [
        {
          "Curbside pickup": true
        },
        {
          "Delivery": true
        },
        {
          "In-store pickup": true
        },
        {
          "In-store shopping": true
        },
        {
          "Same-day delivery": true
        }
      ],
      "Accessibility": [
        {
          "Wheelchair accessible entrance": true
        },
        {
          "Wheelchair accessible parking lot": true
        }
      ],
      "Crowd": [
        {
          "LGBTQ+ friendly": true
        }
      ],
      "Planning": [
        {
          "Appointment required": true
        },
        {
          "Quick visit": true
        }
      ],
      "Payments": [
        {
          "Checks": true
        },
        {
          "Debit cards": true
        },
        {
          "Credit cards": true
        }
      ]
    },
    "gasPrices": [],
    "url": "https://www.google.com/maps/search/?api=1&query=Shaw's%20Pharmacy&query_place_id=ChIJLXxGHKsH5IkRpP3KrvbSB-U",
    "searchPageUrl": "https://www.google.com/maps/search/independent%20pharmacy%20Worcester%20MA/@56.49842380833663,-169.4900814092578,12z?hl=en",
    "searchString": "independent pharmacy Worcester MA",
    "language": "en",
    "rank": 20,
    "isAdvertisement": false,
    "imageUrl": "https://lh3.googleusercontent.com/p/AF1QipMET6ji7zaMoRZ-3ZktKoM2t0E97rH0WjVJiLtj=w426-h240-k-no",
    "kgmid": "/g/1thtqlz3"
  }
]