[
  {
    "title": "Beckley Pharmacy",
    "price": null,
    "categoryName": "Pharmacy",
    "address": "330 N Eisenhower Dr, Beckley, WV 25801",
    "neighborhood": null,
    "street": "330 N Eisenhower Dr",
    "city": "Beckley",
    "postalCode": "25801",
    "state": "West Virginia",
    "countryCode": "US",
    "phone": "(681) 207-7008",
    "phoneUnformatted": "+16812077008",
    "claimThisBusiness": false,
    "location": {
      "lat": 37.7870195,
      "lng": -81.1711965
    },
    "totalScore": 4.7,
    "permanentlyClosed": false,
    "temporarilyClosed": false,
    "placeId": "ChIJn9ziVeDyTogRPt-jwxsOOdE",
    "categories": [
      "Pharmacy",
      "Drug store"
    ],
    "fid": "0x884ef2e055e2dc9f:0xd1390e1bc3a3df3e",
    "cid": "15076096740008648510",
    "reviewsCount": 32,
    "imagesCount": 7,
    "imageCategories": [],
    "scrapedAt": "2025-06-23T06:14:02.650Z",
    "googleFoodUrl": null,
    "hotelAds": [],
    "openingHours": [
      {
        "day": "Monday",
        "hours": "9 AM to 6 PM"
      },
      {
        "day": "Tuesday",
        "hours": "9 AM to 6 PM"
      },
      {
        "day": "Wednesday",
        "hours": "9 AM to 6 PM"
      },
      {
        "day": "Thursday",
        "hours": "9 AM to 6 PM"
      },
      {
        "day": "Friday",
        "hours": "9 AM to 6 PM"
      },
      {
        "day": "Saturday",
        "hours": "Closed"
      },
      {
        "day": "Sunday",
        "hours": "Closed"
      }
    ],
    "peopleAlsoSearch": [],
    "placesTags": [],
    "reviewsTags": [],
    "additionalInfo": {
      "Service options": [
        {
          "Delivery": true
        },
        {
          "Drive-through": true
        },
        {
          "In-store pickup": true
        },
        {
          "In-store shopping": true
        },
        {
          "Same-day delivery": true
        }
      ],
      "Accessibility": [
        {
          "Wheelchair accessible entrance": true
        },
        {
          "Wheelchair accessible parking lot": true
        }
      ],
      "Planning": [
        {
          "Quick visit": true
        }
      ],
      "Payments": [
        {
          "Checks": true
        },
        {
          "Credit cards": true
        },
        {
          "Debit cards": true
        },
        {
          "NFC mobile payments": true
        },
        {
          "Credit cards": true
        }
      ]
    },
    "gasPrices": [],
    "url": "https://www.google.com/maps/search/?api=1&query=Beckley%20Pharmacy&query_place_id=ChIJn9ziVeDyTogRPt-jwxsOOdE",
    "searchPageUrl": "https://www.google.com/maps/search/pharmacies%20in%20Beckley,%20WV%20in%20Beckley,%20WV/@51.14639400957372,-178.3748848138762,11z?hl=en",
    "searchString": "pharmacies in Beckley, WV in Beckley, WV",
    "language": "en",
    "rank": 1,
    "isAdvertisement": false,
    "imageUrl": "https://lh3.googleusercontent.com/gps-cs-s/AC9h4nqsCFcR2G6Af6QIm0khunjhFcVAOFuqsTkPm-rGgTUR-nTx9lIerI4X9f7NCTD9EcRYEYjr1JzIz4skd_Glo4CHvrR-nLUXTR29ihGZrFopSvXWzo5qZRZFCi7DNxxa=w408-h544-k-no",
    "kgmid": "/g/11cn331pm3"
  },
  {
    "title": "CVS Pharmacy",
    "price": null,
    "categoryName": "Pharmacy",
    "address": "1827 Harper Rd, Beckley, WV 25801",
    "neighborhood": null,
    "street": "1827 Harper Rd",
    "city": "Beckley",
    "postalCode": "25801",
    "state": "West Virginia",
    "countryCode": "US",
    "website": "https://www.cvs.com/store-locator/beckley-wv-pharmacies/1827-harper-road-beckley-wv-25801/storeid=7792?WT.mc_id=LS_GOOGLE_RX_7792",
    "phone": "(304) 253-3088",
    "phoneUnformatted": "+13042533088",
    "claimThisBusiness": false,
    "location": {
      "lat": 37.7897202,
      "lng": -81.2085325
    },
    "totalScore": 4.7,
    "permanentlyClosed": false,
    "temporarilyClosed": false,
    "placeId": "ChIJeTQlZVjyTogRERHzqPJQ1FY",
    "categories": [
      "Pharmacy"
    ],
    "fid": "0x884ef25865253479:0x56d450f2a8f31111",
    "cid": "6256714785471271185",
    "reviewsCount": 16,
    "imagesCount": 9,
    "imageCategories": [],
    "scrapedAt": "2025-06-23T06:14:02.651Z",
    "googleFoodUrl": null,
    "hotelAds": [],
    "openingHours": [
      {
        "day": "Monday",
        "hours": "9 AM to 1:30 PM, 2 to 8 PM"
      },
      {
        "day": "Tuesday",
        "hours": "9 AM to 1:30 PM, 2 to 8 PM"
      },
      {
        "day": "Wednesday",
        "hours": "9 AM to 1:30 PM, 2 to 8 PM"
      },
      {
        "day": "Thursday",
        "hours": "9 AM to 1:30 PM, 2 to 8 PM"
      },
      {
        "day": "Friday",
        "hours": "9 AM to 1:30 PM, 2 to 8 PM"
      },
      {
        "day": "Saturday",
        "hours": "10 AM to 1:30 PM, 2 to 6 PM"
      },
      {
        "day": "Sunday",
        "hours": "11 AM to 1:30 PM, 2 to 5 PM"
      }
    ],
    "peopleAlsoSearch": [],
    "placesTags": [],
    "reviewsTags": [],
    "additionalInfo": {
      "Service options": [
        {
          "Delivery": true
        },
        {
          "Drive-through": true
        },
        {
          "In-store shopping": true
        },
        {
          "Onsite services": true
        }
      ],
      "Accessibility": [
        {
          "Wheelchair accessible entrance": true
        },
        {
          "Wheelchair accessible parking lot": true
        }
      ],
      "Offerings": [
        {
          "Medication disposal": true
        },
        {
          "Naloxone": true
        }
      ],
      "Crowd": [
        {
          "LGBTQ+ friendly": true
        },
        {
          "Transgender safespace": true
        }
      ],
      "Planning": [
        {
          "Quick visit": true
        }
      ],
      "Payments": [
        {
          "Credit cards": true
        },
        {
          "Debit cards": true
        },
        {
          "NFC mobile payments": true
        },
        {
          "SNAP/EBT": true
        },
        {
          "Credit cards": true
        }
      ]
    },
    "gasPrices": [],
    "url": "https://www.google.com/maps/search/?api=1&query=CVS%20Pharmacy&query_place_id=ChIJeTQlZVjyTogRERHzqPJQ1FY",
    "searchPageUrl": "https://www.google.com/maps/search/pharmacies%20in%20Beckley,%20WV%20in%20Beckley,%20WV/@51.14639400957372,-178.3748848138762,11z?hl=en",
    "searchString": "pharmacies in Beckley, WV in Beckley, WV",
    "language": "en",
    "rank": 2,
    "isAdvertisement": false,
    "imageUrl": "https://lh3.googleusercontent.com/p/AF1QipPgJD8MHhNKqxs0nZA0bfggLxlhc2NTvpdCIk_5=w408-h275-k-no",
    "kgmid": "/g/11c46967z8"
  },
  {
    "title": "Premier Pharmacy & Wellness",
    "price": null,
    "categoryName": "Pharmacy",
    "address": "516 Beckley Crossing Shopping Ctr, Beckley, WV 25801",
    "neighborhood": null,
    "street": "516 Beckley Crossing Shopping Ctr",
    "city": "Beckley",
    "postalCode": "25801",
    "state": "West Virginia",
    "countryCode": "US",
    "website": "https://www.premierpharmacywv.com/",
    "phone": "(681) 207-8510",
    "phoneUnformatted": "+16812078510",
    "claimThisBusiness": false,
    "location": {
      "lat": 37.8028215,
      "lng": -81.1837111
    },
    "totalScore": 4.9,
    "permanentlyClosed": false,
    "temporarilyClosed": false,
    "placeId": "ChIJNd5tNz3zTogRTalooJBGiiU",
    "categories": [
      "Pharmacy"
    ],
    "fid": "0x884ef33d376dde35:0x258a4690a068a94d",
    "cid": "2705052113169852749",
    "reviewsCount": 30,
    "imagesCount": 7,
    "imageCategories": [],
    "scrapedAt": "2025-06-23T06:14:02.651Z",
    "googleFoodUrl": null,
    "hotelAds": [],
    "openingHours": [
      {
        "day": "Monday",
        "hours": "9 AM to 6 PM"
      },
      {
        "day": "Tuesday",
        "hours": "9 AM to 6 PM"
      },
      {
        "day": "Wednesday",
        "hours": "9 AM to 6 PM"
      },
      {
        "day": "Thursday",
        "hours": "9 AM to 6 PM"
      },
      {
        "day": "Friday",
        "hours": "9 AM to 6 PM"
      },
      {
        "day": "Saturday",
        "hours": "9 AM to 1 PM"
      },
      {
        "day": "Sunday",
        "hours": "Closed"
      }
    ],
    "peopleAlsoSearch": [],
    "placesTags": [],
    "reviewsTags": [],
    "additionalInfo": {
      "From the business": [
        {
          "Small business": true
        }
      ],
      "Service options": [
        {
          "Curbside pickup": true
        },
        {
          "Delivery": true
        }
      ],
      "Accessibility": [
        {
          "Wheelchair accessible entrance": true
        },
        {
          "Wheelchair accessible parking lot": true
        }
      ],
      "Planning": [
        {
          "Quick visit": true
        }
      ],
      "Payments": [
        {
          "Checks": true
        },
        {
          "Credit cards": true
        },
        {
          "Debit cards": true
        },
        {
          "NFC mobile payments": true
        },
        {
          "Credit cards": true
        }
      ]
    },
    "gasPrices": [],
    "url": "https://www.google.com/maps/search/?api=1&query=Premier%20Pharmacy%20%26%20Wellness&query_place_id=ChIJNd5tNz3zTogRTalooJBGiiU",
    "searchPageUrl": "https://www.google.com/maps/search/pharmacies%20in%20Beckley,%20WV%20in%20Beckley,%20WV/@51.14639400957372,-178.3748848138762,11z?hl=en",
    "searchString": "pharmacies in Beckley, WV in Beckley, WV",
    "language": "en",
    "rank": 3,
    "isAdvertisement": false,
    "imageUrl": "https://lh3.googleusercontent.com/p/AF1QipOC7sr89wgshmDPovL9XsJPQetBagQtkCRrSqHI=w408-h306-k-no",
    "kgmid": "/g/11hfjt59cb"
  },
  {
    "title": "Beckley Pharmacy",
    "price": null,
    "categoryName": "Pharmacy",
    "address": "455 Stanaford Rd, Beckley, WV 25801",
    "neighborhood": null,
    "street": "455 Stanaford Rd",
    "city": "Beckley",
    "postalCode": "25801",
    "state": "West Virginia",
    "countryCode": "US",
    "phone": "(304) 252-1200",
    "phoneUnformatted": "+13042521200",
    "claimThisBusiness": false,
    "location": {
      "lat": 37.802992,
      "lng": -81.1674341
    },
    "totalScore": 4.5,
    "permanentlyClosed": false,
    "temporarilyClosed": false,
    "placeId": "ChIJnV1Ks7PyTogRY_HqMz2is-Y",
    "categories": [
      "Pharmacy",
      "Drug store"
    ],
    "fid": "0x884ef2b3b34a5d9d:0xe6b3a23d33eaf163",
    "cid": "16623809033302372707",
    "reviewsCount": 35,
    "imagesCount": 7,
    "imageCategories": [],
    "scrapedAt": "2025-06-23T06:14:02.651Z",
    "googleFoodUrl": null,
    "hotelAds": [],
    "openingHours": [
      {
        "day": "Monday",
        "hours": "8:30 AM to 6 PM"
      },
      {
        "day": "Tuesday",
        "hours": "8:30 AM to 6 PM"
      },
      {
        "day": "Wednesday",
        "hours": "8:30 AM to 6 PM"
      },
      {
        "day": "Thursday",
        "hours": "8:30 AM to 6 PM"
      },
      {
        "day": "Friday",
        "hours": "8:30 AM to 6 PM"
      },
      {
        "day": "Saturday",
        "hours": "9 AM to 1 PM"
      },
      {
        "day": "Sunday",
        "hours": "Closed"
      }
    ],
    "peopleAlsoSearch": [],
    "placesTags": [],
    "reviewsTags": [],
    "additionalInfo": {
      "Service options": [
        {
          "Delivery": true
        },
        {
          "In-store pickup": true
        },
        {
          "In-store shopping": true
        },
        {
          "Same-day delivery": true
        }
      ],
      "Accessibility": [
        {
          "Wheelchair accessible entrance": true
        },
        {
          "Wheelchair accessible parking lot": true
        }
      ],
      "Planning": [
        {
          "Quick visit": true
        }
      ],
      "Payments": [
        {
          "Checks": true
        },
        {
          "Credit cards": true
        },
        {
          "Debit cards": true
        },
        {
          "NFC mobile payments": true
        },
        {
          "Credit cards": true
        }
      ]
    },
    "gasPrices": [],
    "url": "https://www.google.com/maps/search/?api=1&query=Beckley%20Pharmacy&query_place_id=ChIJnV1Ks7PyTogRY_HqMz2is-Y",
    "searchPageUrl": "https://www.google.com/maps/search/pharmacies%20in%20Beckley,%20WV%20in%20Beckley,%20WV/@51.14639400957372,-178.3748848138762,11z?hl=en",
    "searchString": "pharmacies in Beckley, WV in Beckley, WV",
    "language": "en",
    "rank": 4,
    "isAdvertisement": false,
    "imageUrl": "https://lh3.googleusercontent.com/p/AF1QipPiawnO20kyKJ6mz9jNxZ0kBQdLpTr2Hfz637bP=w408-h306-k-no",
    "kgmid": "/g/1tl8ldgf"
  },
  {
    "title": "CVS Pharmacy",
    "price": null,
    "categoryName": "Pharmacy",
    "address": "2811 Robert C Byrd Dr, Beckley, WV 25801",
    "neighborhood": null,
    "street": "2811 Robert C Byrd Dr",
    "city": "Beckley",
    "postalCode": "25801",
    "state": "West Virginia",
    "countryCode": "US",
    "website": "https://www.cvs.com/store-locator/beckley-wv-pharmacies/2811-robert-c-byrd-dr-beckley-wv-25801/storeid=6312?WT.mc_id=LS_GOOGLE_RX_6312",
    "phone": "(304) 253-2738",
    "phoneUnformatted": "+13042532738",
    "claimThisBusiness": false,
    "location": {
      "lat": 37.7717197,
      "lng": -81.1960167
    },
    "totalScore": 4.6,
    "permanentlyClosed": false,
    "temporarilyClosed": false,
    "placeId": "ChIJ505guhzzTogR3X4WNLRozes",
    "categories": [
      "Pharmacy"
    ],
    "fid": "0x884ef31cba604ee7:0xebcd68b434167edd",
    "cid": "16991352092316040925",
    "reviewsCount": 7,
    "imagesCount": 8,
    "imageCategories": [],
    "scrapedAt": "2025-06-23T06:14:02.651Z",
    "googleFoodUrl": null,
    "hotelAds": [],
    "openingHours": [
      {
        "day": "Monday",
        "hours": "9 AM to 1:30 PM, 2 to 7 PM"
      },
      {
        "day": "Tuesday",
        "hours": "9 AM to 1:30 PM, 2 to 7 PM"
      },
      {
        "day": "Wednesday",
        "hours": "9 AM to 1:30 PM, 2 to 7 PM"
      },
      {
        "day": "Thursday",
        "hours": "9 AM to 1:30 PM, 2 to 7 PM"
      },
      {
        "day": "Friday",
        "hours": "9 AM to 1:30 PM, 2 to 7 PM"
      },
      {
        "day": "Saturday",
        "hours": "10 AM to 1:30 PM, 2 to 6 PM"
      },
      {
        "day": "Sunday",
        "hours": "11 AM to 1:30 PM, 2 to 5 PM"
      }
    ],
    "peopleAlsoSearch": [],
    "placesTags": [],
    "reviewsTags": [],
    "additionalInfo": {
      "Service options": [
        {
          "Delivery": true
        },
        {
          "Drive-through": true
        },
        {
          "In-store shopping": true
        },
        {
          "Onsite services": true
        }
      ],
      "Accessibility": [
        {
          "Wheelchair accessible entrance": true
        },
        {
          "Wheelchair accessible parking lot": true
        }
      ],
      "Offerings": [
        {
          "Medication disposal": true
        },
        {
          "Naloxone": true
        }
      ],
      "Crowd": [
        {
          "LGBTQ+ friendly": true
        },
        {
          "Transgender safespace": true
        }
      ],
      "Planning": [
        {
          "Quick visit": true
        }
      ],
      "Payments": [
        {
          "Credit cards": true
        },
        {
          "Debit cards": true
        },
        {
          "NFC mobile payments": true
        },
        {
          "SNAP/EBT": true
        },
        {
          "Credit cards": true
        }
      ]
    },
    "gasPrices": [],
    "url": "https://www.google.com/maps/search/?api=1&query=CVS%20Pharmacy&query_place_id=ChIJ505guhzzTogR3X4WNLRozes",
    "searchPageUrl": "https://www.google.com/maps/search/pharmacies%20in%20Beckley,%20WV%20in%20Beckley,%20WV/@51.14639400957372,-178.3748848138762,11z?hl=en",
    "searchString": "pharmacies in Beckley, WV in Beckley, WV",
    "language": "en",
    "rank": 5,
    "isAdvertisement": false,
    "imageUrl": "https://lh3.googleusercontent.com/p/AF1QipMkvjiFkwLvIzK9jnoFb497JwiCIFyq1xqNZOBv=w408-h275-k-no",
    "kgmid": "/g/11c467q9n_"
  },
  {
    "title": "Walgreens Pharmacy",
    "description": "Department of the Walgreens chain providing prescription medications & other health-related items.",
    "price": "$$",
    "categoryName": "Pharmacy",
    "address": "2933 Robert C Byrd Dr, Beckley, WV 25801",
    "neighborhood": null,
    "street": "2933 Robert C Byrd Dr",
    "city": "Beckley",
    "postalCode": "25801",
    "state": "West Virginia",
    "countryCode": "US",
    "website": "https://www.walgreens.com/locator/walgreens-2933+robert+c+byrd+dr-beckley-wv-25801/id=11978",
    "phone": "(304) 252-0531",
    "phoneUnformatted": "+13042520531",
    "claimThisBusiness": false,
    "location": {
      "lat": 37.7768291,
      "lng": -81.1954263
    },
    "totalScore": 3.6,
    "permanentlyClosed": false,
    "temporarilyClosed": false,
    "placeId": "ChIJkcril-LyTogRnVqQdl5b6YY",
    "categories": [
      "Pharmacy"
    ],
    "fid": "0x884ef2e297e2ca91:0x86e95b5e76905a9d",
    "cid": "9721401731930151581",
    "reviewsCount": 9,
    "imagesCount": 2,
    "imageCategories": [],
    "scrapedAt": "2025-06-23T06:14:02.651Z",
    "googleFoodUrl": null,
    "hotelAds": [],
    "openingHours": [
      {
        "day": "Monday",
        "hours": "9 AM to 1:30 PM, 2 to 9 PM"
      },
      {
        "day": "Tuesday",
        "hours": "9 AM to 1:30 PM, 2 to 9 PM"
      },
      {
        "day": "Wednesday",
        "hours": "9 AM to 1:30 PM, 2 to 9 PM"
      },
      {
        "day": "Thursday",
        "hours": "9 AM to 1:30 PM, 2 to 9 PM"
      },
      {
        "day": "Friday",
        "hours": "9 AM to 1:30 PM, 2 to 9 PM"
      },
      {
        "day": "Saturday",
        "hours": "9 AM to 1:30 PM, 2 to 6 PM"
      },
      {
        "day": "Sunday",
        "hours": "10 AM to 1:30 PM, 2 to 6 PM"
      }
    ],
    "additionalOpeningHours": {
      "Drive through": [
        {
          "day": "Monday",
          "hours": "9 AM–1:30 PM"
        },
        {
          "day": "Tuesday",
          "hours": "9 AM–1:30 PM"
        },
        {
          "day": "Wednesday",
          "hours": "9 AM–1:30 PM"
        },
        {
          "day": "Thursday",
          "hours": "9 AM–1:30 PM"
        },
        {
          "day": "Friday",
          "hours": "9 AM–1:30 PM"
        },
        {
          "day": "Saturday",
          "hours": "9 AM–1:30 PM"
        },
        {
          "day": "Sunday",
          "hours": "10 AM–1:30 PM"
        }
      ]
    },
    "peopleAlsoSearch": [],
    "placesTags": [],
    "reviewsTags": [],
    "additionalInfo": {
      "Service options": [
        {
          "Drive-through": true
        },
        {
          "In-store pickup": true
        }
      ],
      "Accessibility": [
        {
          "Wheelchair accessible entrance": true
        },
        {
          "Wheelchair accessible parking lot": true
        }
      ],
      "Offerings": [
        {
          "Medication disposal": true
        },
        {
          "Naloxone": true
        }
      ],
      "Planning": [
        {
          "Quick visit": true
        }
      ],
      "Payments": [
        {
          "Checks": true
        },
        {
          "Credit cards": true
        },
        {
          "Debit cards": true
        }
      ]
    },
    "gasPrices": [],
    "url": "https://www.google.com/maps/search/?api=1&query=Walgreens%20Pharmacy&query_place_id=ChIJkcril-LyTogRnVqQdl5b6YY",
    "searchPageUrl": "https://www.google.com/maps/search/pharmacies%20in%20Beckley,%20WV%20in%20Beckley,%20WV/@51.14639400957372,-178.3748848138762,11z?hl=en",
    "searchString": "pharmacies in Beckley, WV in Beckley, WV",
    "language": "en",
    "rank": 6,
    "isAdvertisement": false,
    "imageUrl": "https://lh3.googleusercontent.com/p/AF1QipPwGB_nfKV8scejQH_ra4fgElhp9gKN0MUe1r5f=w525-h240-k-no",
    "kgmid": "/g/11cn96g12y"
  },
  {
    "title": "CVS Pharmacy",
    "price": null,
    "categoryName": "Pharmacy",
    "address": "1414 N Eisenhower Dr, Beckley, WV 25801",
    "neighborhood": null,
    "street": "1414 N Eisenhower Dr",
    "city": "Beckley",
    "postalCode": "25801",
    "state": "West Virginia",
    "countryCode": "US",
    "website": "https://www.cvs.com/store-locator/beckley-wv-pharmacies/1414-n-eisenhower-dr-beckley-wv-25801/storeid=6305?WT.mc_id=LS_GOOGLE_RX_6305",
    "phone": "(304) 255-0551",
    "phoneUnformatted": "+13042550551",
    "claimThisBusiness": false,
    "location": {
      "lat": 37.8054732,
      "lng": -81.1834107
    },
    "totalScore": 4.4,
    "permanentlyClosed": false,
    "temporarilyClosed": false,
    "placeId": "ChIJ7SmqGL3yTogRjc7HgP1SLos",
    "categories": [
      "Pharmacy"
    ],
    "fid": "0x884ef2bd18aa29ed:0x8b2e52fd80c7ce8d",
    "cid": "10029044668941454989",
    "reviewsCount": 8,
    "imagesCount": 8,
    "imageCategories": [],
    "scrapedAt": "2025-06-23T06:14:02.651Z",
    "googleFoodUrl": null,
    "hotelAds": [],
    "openingHours": [
      {
        "day": "Monday",
        "hours": "9 AM to 1:30 PM, 2 to 9 PM"
      },
      {
        "day": "Tuesday",
        "hours": "9 AM to 1:30 PM, 2 to 9 PM"
      },
      {
        "day": "Wednesday",
        "hours": "9 AM to 1:30 PM, 2 to 9 PM"
      },
      {
        "day": "Thursday",
        "hours": "9 AM to 1:30 PM, 2 to 9 PM"
      },
      {
        "day": "Friday",
        "hours": "9 AM to 1:30 PM, 2 to 9 PM"
      },
      {
        "day": "Saturday",
        "hours": "10 AM to 1:30 PM, 2 to 7 PM"
      },
      {
        "day": "Sunday",
        "hours": "10 AM to 1:30 PM, 2 to 6 PM"
      }
    ],
    "peopleAlsoSearch": [],
    "placesTags": [],
    "reviewsTags": [],
    "additionalInfo": {
      "Service options": [
        {
          "Delivery": true
        },
        {
          "Drive-through": true
        },
        {
          "In-store shopping": true
        },
        {
          "Onsite services": true
        }
      ],
      "Accessibility": [
        {
          "Wheelchair accessible entrance": true
        },
        {
          "Wheelchair accessible parking lot": true
        }
      ],
      "Offerings": [
        {
          "Medication disposal": true
        },
        {
          "Naloxone": true
        },
        {
          "Passport photos": true
        }
      ],
      "Crowd": [
        {
          "LGBTQ+ friendly": true
        },
        {
          "Transgender safespace": true
        }
      ],
      "Planning": [
        {
          "Quick visit": true
        }
      ],
      "Payments": [
        {
          "Credit cards": true
        },
        {
          "Debit cards": true
        },
        {
          "NFC mobile payments": true
        },
        {
          "SNAP/EBT": true
        },
        {
          "Credit cards": true
        }
      ]
    },
    "gasPrices": [],
    "url": "https://www.google.com/maps/search/?api=1&query=CVS%20Pharmacy&query_place_id=ChIJ7SmqGL3yTogRjc7HgP1SLos",
    "searchPageUrl": "https://www.google.com/maps/search/pharmacies%20in%20Beckley,%20WV%20in%20Beckley,%20WV/@51.14639400957372,-178.3748848138762,11z?hl=en",
    "searchString": "pharmacies in Beckley, WV in Beckley, WV",
    "language": "en",
    "rank": 7,
    "isAdvertisement": false,
    "imageUrl": "https://lh3.googleusercontent.com/p/AF1QipPxaAp8G8S703ptH2hyRxoFvBjILiUoSm7VUDiu=w408-h275-k-no",
    "kgmid": "/g/11c4682m05"
  },
  {
    "title": "Black Bear Pharmacy",
    "price": null,
    "categoryName": "Pharmacy",
    "address": "1101 W Neville St, Beckley, WV 25801",
    "neighborhood": null,
    "street": "1101 W Neville St",
    "city": "Beckley",
    "postalCode": "25801",
    "state": "West Virginia",
    "countryCode": "US",
    "website": "http://www.blackbearpharmacy.com/",
    "phone": "(681) 254-4350",
    "phoneUnformatted": "+16812544350",
    "claimThisBusiness": false,
    "location": {
      "lat": 37.7777147,
      "lng": -81.1989191
    },
    "totalScore": 4.6,
    "permanentlyClosed": false,
    "temporarilyClosed": false,
    "placeId": "ChIJpySCrVPzTogRw9sf9CbC1fQ",
    "categories": [
      "Pharmacy"
    ],
    "fid": "0x884ef353ad8224a7:0xf4d5c226f41fdbc3",
    "cid": "17642220587854060483",
    "reviewsCount": 37,
    "imagesCount": 3,
    "imageCategories": [],
    "scrapedAt": "2025-06-23T06:14:02.652Z",
    "googleFoodUrl": null,
    "hotelAds": [],
    "openingHours": [
      {
        "day": "Monday",
        "hours": "9 AM to 6 PM"
      },
      {
        "day": "Tuesday",
        "hours": "9 AM to 6 PM"
      },
      {
        "day": "Wednesday",
        "hours": "9 AM to 6 PM"
      },
      {
        "day": "Thursday",
        "hours": "9 AM to 6 PM"
      },
      {
        "day": "Friday",
        "hours": "9 AM to 6 PM"
      },
      {
        "day": "Saturday",
        "hours": "9 AM to 2 PM"
      },
      {
        "day": "Sunday",
        "hours": "Closed"
      }
    ],
    "additionalOpeningHours": {
      "Delivery": [
        {
          "day": "Monday",
          "hours": "9 AM–2 PM"
        },
        {
          "day": "Tuesday",
          "hours": "9 AM–2 PM"
        },
        {
          "day": "Wednesday",
          "hours": "9 AM–2 PM"
        },
        {
          "day": "Thursday",
          "hours": "9 AM–2 PM"
        },
        {
          "day": "Friday",
          "hours": "9 AM–2 PM"
        },
        {
          "day": "Saturday",
          "hours": "Closed"
        },
        {
          "day": "Sunday",
          "hours": "Closed"
        }
      ]
    },
    "peopleAlsoSearch": [],
    "placesTags": [],
    "reviewsTags": [],
    "additionalInfo": {
      "From the business": [
        {
          "Small business": true
        }
      ],
      "Service options": [
        {
          "Delivery": true
        },
        {
          "In-store pickup": true
        }
      ],
      "Accessibility": [
        {
          "Wheelchair accessible entrance": true
        },
        {
          "Wheelchair accessible parking lot": true
        }
      ],
      "Amenities": [
        {
          "Wi-Fi": true
        },
        {
          "Free Wi-Fi": true
        }
      ],
      "Planning": [
        {
          "Quick visit": true
        }
      ],
      "Payments": [
        {
          "Credit cards": true
        },
        {
          "Debit cards": true
        },
        {
          "NFC mobile payments": true
        },
        {
          "Credit cards": true
        }
      ]
    },
    "gasPrices": [],
    "url": "https://www.google.com/maps/search/?api=1&query=Black%20Bear%20Pharmacy&query_place_id=ChIJpySCrVPzTogRw9sf9CbC1fQ",
    "searchPageUrl": "https://www.google.com/maps/search/pharmacies%20in%20Beckley,%20WV%20in%20Beckley,%20WV/@51.14639400957372,-178.3748848138762,11z?hl=en",
    "searchString": "pharmacies in Beckley, WV in Beckley, WV",
    "language": "en",
    "rank": 8,
    "isAdvertisement": false,
    "imageUrl": "https://lh3.googleusercontent.com/p/AF1QipPqkWJTxcjbFzC7O3HLdRV8mgoZ6L8fl8Cr-bfc=w408-h290-k-no",
    "kgmid": "/g/11rj5zbygg"
  },
  {
    "title": "Eppy's Drug Store Inc",
    "price": null,
    "categoryName": "Pharmacy",
    "address": "2987 Robert C Byrd Dr, Beckley, WV 25801",
    "neighborhood": null,
    "street": "2987 Robert C Byrd Dr",
    "city": "Beckley",
    "postalCode": "25801",
    "state": "West Virginia",
    "countryCode": "US",
    "website": "http://eppysdrug.com/",
    "phone": "(304) 252-6332",
    "phoneUnformatted": "+13042526332",
    "claimThisBusiness": false,
    "location": {
      "lat": 37.7785289,
      "lng": -81.1941486
    },
    "totalScore": 4.7,
    "permanentlyClosed": false,
    "temporarilyClosed": false,
    "placeId": "ChIJW92X_-LyTogR8XhJSDp03tA",
    "categories": [
      "Pharmacy",
      "Diabetes equipment supplier",
      "Drug store"
    ],
    "fid": "0x884ef2e2ff97dd5b:0xd0de743a484978f1",
    "cid": "15050594798388476145",
    "reviewsCount": 37,
    "imagesCount": 1,
    "imageCategories": [],
    "scrapedAt": "2025-06-23T06:14:02.652Z",
    "googleFoodUrl": null,
    "hotelAds": [],
    "openingHours": [
      {
        "day": "Monday",
        "hours": "8 AM to 6 PM"
      },
      {
        "day": "Tuesday",
        "hours": "8 AM to 6 PM"
      },
      {
        "day": "Wednesday",
        "hours": "8 AM to 6 PM"
      },
      {
        "day": "Thursday",
        "hours": "8 AM to 6 PM"
      },
      {
        "day": "Friday",
        "hours": "8 AM to 6 PM"
      },
      {
        "day": "Saturday",
        "hours": "9 AM to 2 PM"
      },
      {
        "day": "Sunday",
        "hours": "Closed"
      }
    ],
    "peopleAlsoSearch": [],
    "placesTags": [],
    "reviewsTags": [],
    "additionalInfo": {
      "From the business": [
        {
          "Small business": true
        }
      ],
      "Service options": [
        {
          "Delivery": true
        },
        {
          "Drive-through": true
        },
        {
          "In-store pickup": true
        },
        {
          "Same-day delivery": true
        }
      ],
      "Accessibility": [
        {
          "Wheelchair accessible entrance": true
        },
        {
          "Wheelchair accessible parking lot": true
        }
      ],
      "Planning": [
        {
          "Quick visit": true
        }
      ],
      "Payments": [
        {
          "Credit cards": true
        },
        {
          "Debit cards": true
        },
        {
          "NFC mobile payments": true
        },
        {
          "Credit cards": true
        }
      ]
    },
    "gasPrices": [],
    "url": "https://www.google.com/maps/search/?api=1&query=Eppy's%20Drug%20Store%20Inc&query_place_id=ChIJW92X_-LyTogR8XhJSDp03tA",
    "searchPageUrl": "https://www.google.com/maps/search/pharmacies%20in%20Beckley,%20WV%20in%20Beckley,%20WV/@51.14639400957372,-178.3748848138762,11z?hl=en",
    "searchString": "pharmacies in Beckley, WV in Beckley, WV",
    "language": "en",
    "rank": 9,
    "isAdvertisement": false,
    "imageUrl": "https://streetviewpixels-pa.googleapis.com/v1/thumbnail?panoid=qEYaQN_q63jCBbRBItHYRQ&cb_client=search.gws-prod.gps&w=408&h=240&yaw=92.79263&pitch=0&thumbfov=100",
    "kgmid": "/g/1tm1395t"
  },
  {
    "title": "Sam's Club Pharmacy",
    "price": "$",
    "categoryName": "Pharmacy",
    "address": "1220 N Eisenhower Dr, Beckley, WV 25801",
    "neighborhood": null,
    "street": "1220 N Eisenhower Dr",
    "city": "Beckley",
    "postalCode": "25801",
    "state": "West Virginia",
    "countryCode": "US",
    "website": "https://www.samsclub.com/local/pharmacy/beckley-wv-sams-club/4860",
    "phone": "(304) 252-1265",
    "phoneUnformatted": "+13042521265",
    "claimThisBusiness": false,
    "location": {
      "lat": 37.8031721,
      "lng": -81.1738104
    },
    "totalScore": 4.3,
    "permanentlyClosed": false,
    "temporarilyClosed": false,
    "placeId": "ChIJLdu-BrzyTogR1hkYTEiEc2g",
    "categories": [
      "Pharmacy"
    ],
    "fid": "0x884ef2bc06bedb2d:0x687384484c1819d6",
    "cid": "7526504848315390422",
    "reviewsCount": 3,
    "imagesCount": 8,
    "imageCategories": [],
    "scrapedAt": "2025-06-23T06:14:02.652Z",
    "googleFoodUrl": null,
    "hotelAds": [],
    "openingHours": [
      {
        "day": "Monday",
        "hours": "9 AM to 7 PM"
      },
      {
        "day": "Tuesday",
        "hours": "9 AM to 7 PM"
      },
      {
        "day": "Wednesday",
        "hours": "9 AM to 7 PM"
      },
      {
        "day": "Thursday",
        "hours": "9 AM to 7 PM"
      },
      {
        "day": "Friday",
        "hours": "9 AM to 7 PM"
      },
      {
        "day": "Saturday",
        "hours": "9 AM to 6 PM"
      },
      {
        "day": "Sunday",
        "hours": "Closed"
      }
    ],
    "peopleAlsoSearch": [],
    "placesTags": [],
    "reviewsTags": [],
    "additionalInfo": {
      "Service options": [
        {
          "Curbside pickup": true
        },
        {
          "Delivery": true
        },
        {
          "In-store pickup": true
        },
        {
          "In-store shopping": true
        },
        {
          "Onsite services": true
        },
        {
          "Same-day delivery": true
        }
      ],
      "Accessibility": [
        {
          "Wheelchair accessible entrance": true
        },
        {
          "Wheelchair accessible parking lot": true
        }
      ],
      "Planning": [
        {
          "Quick visit": true
        }
      ],
      "Payments": [
        {
          "Credit cards": true
        },
        {
          "Debit cards": true
        },
        {
          "Credit cards": true
        }
      ]
    },
    "gasPrices": [],
    "url": "https://www.google.com/maps/search/?api=1&query=Sam's%20Club%20Pharmacy&query_place_id=ChIJLdu-BrzyTogR1hkYTEiEc2g",
    "searchPageUrl": "https://www.google.com/maps/search/pharmacies%20in%20Beckley,%20WV%20in%20Beckley,%20WV/@51.14639400957372,-178.3748848138762,11z?hl=en",
    "searchString": "pharmacies in Beckley, WV in Beckley, WV",
    "language": "en",
    "rank": 10,
    "isAdvertisement": false,
    "imageUrl": "https://lh3.googleusercontent.com/p/AF1QipOYhz7CB0tvKssSh7EGNo-wRHz6KGLrUSGs1ek9=w408-h272-k-no",
    "kgmid": "/g/11b66j274z"
  }
]