[
  {
    "title": "CVS Pharmacy",
    "price": null,
    "categoryName": "Pharmacy",
    "address": "8 Kocher Dr, Bennington, VT 05201",
    "neighborhood": null,
    "street": "8 Kocher Dr",
    "city": "Bennington",
    "postalCode": "05201",
    "state": "Vermont",
    "countryCode": "US",
    "website": "https://www.cvs.com/store-locator/bennington-vt-pharmacies/8-kocher-dr-bennington-vt-05201/storeid=337?WT.mc_id=LS_GOOGLE_RX_337",
    "phone": "(802) 442-8369",
    "phoneUnformatted": "+18024428369",
    "claimThisBusiness": false,
    "location": {
      "lat": 42.8954029,
      "lng": -73.2021648
    },
    "totalScore": 4.5,
    "permanentlyClosed": false,
    "temporarilyClosed": false,
    "placeId": "ChIJAQDAmo2W4IkRAklq-6VkgCc",
    "categories": [
      "Pharmacy"
    ],
    "fid": "0x89e0968d9ac00001:0x278064a5fb6a4902",
    "cid": "2846385628548581634",
    "reviewsCount": 12,
    "imagesCount": 8,
    "imageCategories": [],
    "scrapedAt": "2025-06-23T06:11:06.164Z",
    "googleFoodUrl": null,
    "hotelAds": [],
    "openingHours": [
      {
        "day": "Monday",
        "hours": "9 AM to 1:30 PM, 2 to 9 PM"
      },
      {
        "day": "Tuesday",
        "hours": "9 AM to 1:30 PM, 2 to 9 PM"
      },
      {
        "day": "Wednesday",
        "hours": "9 AM to 1:30 PM, 2 to 9 PM"
      },
      {
        "day": "Thursday",
        "hours": "9 AM to 1:30 PM, 2 to 9 PM"
      },
      {
        "day": "Friday",
        "hours": "9 AM to 1:30 PM, 2 to 9 PM"
      },
      {
        "day": "Saturday",
        "hours": "10 AM to 1:30 PM, 2 to 5 PM"
      },
      {
        "day": "Sunday",
        "hours": "10 AM to 1:30 PM, 2 to 4 PM"
      }
    ],
    "peopleAlsoSearch": [],
    "placesTags": [],
    "reviewsTags": [],
    "additionalInfo": {
      "Service options": [
        {
          "Delivery": true
        },
        {
          "Drive-through": true
        },
        {
          "In-store shopping": true
        },
        {
          "Onsite services": true
        }
      ],
      "Accessibility": [
        {
          "Wheelchair accessible entrance": true
        },
        {
          "Wheelchair accessible parking lot": true
        }
      ],
      "Offerings": [
        {
          "Medication disposal": true
        },
        {
          "Naloxone": true
        }
      ],
      "Crowd": [
        {
          "LGBTQ+ friendly": true
        },
        {
          "Transgender safespace": true
        }
      ],
      "Planning": [
        {
          "Quick visit": true
        }
      ],
      "Payments": [
        {
          "Credit cards": true
        },
        {
          "Debit cards": true
        },
        {
          "NFC mobile payments": true
        },
        {
          "SNAP/EBT": true
        },
        {
          "Credit cards": true
        }
      ]
    },
    "gasPrices": [],
    "url": "https://www.google.com/maps/search/?api=1&query=CVS%20Pharmacy&query_place_id=ChIJAQDAmo2W4IkRAklq-6VkgCc",
    "searchPageUrl": "https://www.google.com/maps/search/pharmacies%20in%20Bennington,%20VT%20in%20Bennington,%20VT/@51.839717812945175,-179.97595653707245,14z?hl=en",
    "searchString": "pharmacies in Bennington, VT in Bennington, VT",
    "language": "en",
    "rank": 1,
    "isAdvertisement": false,
    "imageUrl": "https://lh3.googleusercontent.com/p/AF1QipNHgZe3SSlMC7rjS55oF_19k0dsfJOVtegyx0PK=w408-h275-k-no",
    "kgmid": "/g/11hdc4z0lj"
  },
  {
    "title": "Walgreens Pharmacy",
    "description": "Department of the Walgreens chain providing prescription medications & other health-related items.",
    "price": null,
    "categoryName": "Pharmacy",
    "address": "194 North St, Bennington, VT 05201",
    "neighborhood": "Bennington",
    "street": "194 North St",
    "city": "Bennington",
    "postalCode": "05201",
    "state": "Vermont",
    "countryCode": "US",
    "website": "https://www.walgreens.com/locator/walgreens-194+north+street-bennington-vt-05201/id=17631",
    "phone": "(802) 442-2240",
    "phoneUnformatted": "+18024422240",
    "claimThisBusiness": false,
    "location": {
      "lat": 42.8814044,
      "lng": -73.1982013
    },
    "permanentlyClosed": false,
    "temporarilyClosed": false,
    "placeId": "ChIJN0fPQjOX4IkRYJcPUsEf8-E",
    "categories": [
      "Pharmacy"
    ],
    "fid": "0x89e0973342cf4737:0xe1f31fc1520f9760",
    "cid": "16281391993040377696",
    "reviewsCount": 0,
    "imagesCount": 4,
    "imageCategories": [],
    "scrapedAt": "2025-06-23T06:11:06.165Z",
    "googleFoodUrl": null,
    "hotelAds": [],
    "openingHours": [
      {
        "day": "Monday",
        "hours": "9 AM to 1:30 PM, 2 to 7 PM"
      },
      {
        "day": "Tuesday",
        "hours": "9 AM to 1:30 PM, 2 to 7 PM"
      },
      {
        "day": "Wednesday",
        "hours": "9 AM to 1:30 PM, 2 to 7 PM"
      },
      {
        "day": "Thursday",
        "hours": "9 AM to 1:30 PM, 2 to 7 PM"
      },
      {
        "day": "Friday",
        "hours": "9 AM to 1:30 PM, 2 to 7 PM"
      },
      {
        "day": "Saturday",
        "hours": "9 AM to 1:30 PM, 2 to 5 PM"
      },
      {
        "day": "Sunday",
        "hours": "Closed"
      }
    ],
    "additionalOpeningHours": {
      "Drive through": [
        {
          "day": "Monday",
          "hours": "9 AM–1:30 PM"
        },
        {
          "day": "Tuesday",
          "hours": "9 AM–1:30 PM"
        },
        {
          "day": "Wednesday",
          "hours": "9 AM–1:30 PM"
        },
        {
          "day": "Thursday",
          "hours": "9 AM–1:30 PM"
        },
        {
          "day": "Friday",
          "hours": "9 AM–1:30 PM"
        },
        {
          "day": "Saturday",
          "hours": "9 AM–1:30 PM"
        },
        {
          "day": "Sunday",
          "hours": "Closed"
        }
      ]
    },
    "peopleAlsoSearch": [],
    "placesTags": [],
    "reviewsTags": [],
    "additionalInfo": {
      "Service options": [
        {
          "In-store pickup": true
        },
        {
          "Same-day delivery": false
        }
      ],
      "Accessibility": [
        {
          "Wheelchair accessible entrance": true
        },
        {
          "Wheelchair accessible parking lot": true
        }
      ],
      "Planning": [
        {
          "Quick visit": true
        }
      ],
      "Payments": [
        {
          "Credit cards": true
        }
      ]
    },
    "gasPrices": [],
    "url": "https://www.google.com/maps/search/?api=1&query=Walgreens%20Pharmacy&query_place_id=ChIJN0fPQjOX4IkRYJcPUsEf8-E",
    "searchPageUrl": "https://www.google.com/maps/search/pharmacies%20in%20Bennington,%20VT%20in%20Bennington,%20VT/@51.839717812945175,-179.97595653707245,14z?hl=en",
    "searchString": "pharmacies in Bennington, VT in Bennington, VT",
    "language": "en",
    "rank": 2,
    "isAdvertisement": false,
    "imageUrl": "https://lh3.googleusercontent.com/gps-cs-s/AC9h4nrRKQGVxqtdxC-Mb6zy5rjZsol7L1r5R_yF5yteoJjZlG29vresrHjUzSv6x1hTH4tiNCxJTu0r6AOVwDYQoX01hejCBPsLI5baFiH7gLATtsLiO44KTwoNhiJpxC3qRdHWZ43b=w408-h544-k-no",
    "kgmid": "/g/11qsnv2kqf"
  },
  {
    "title": "Price Chopper Pharmacy",
    "price": null,
    "categoryName": "Pharmacy",
    "address": "214 Northside Dr, Bennington, VT 05201",
    "neighborhood": null,
    "street": "214 Northside Dr",
    "city": "Bennington",
    "postalCode": "05201",
    "state": "Vermont",
    "countryCode": "US",
    "website": "https://www.pricechopper.com/stores/vt/bennington/pharmacy-171.html",
    "phone": "(802) 447-9951",
    "phoneUnformatted": "+18024479951",
    "claimThisBusiness": false,
    "location": {
      "lat": 42.898591,
      "lng": -73.2126823
    },
    "totalScore": 5,
    "permanentlyClosed": false,
    "temporarilyClosed": false,
    "placeId": "ChIJN49YEe6W4IkRr6VjDPheOuE",
    "categories": [
      "Pharmacy",
      "Drug store",
      "Vitamin & supplements store"
    ],
    "fid": "0x89e096ee11588f37:0xe13a5ef80c63a5af",
    "cid": "16229388626635761071",
    "reviewsCount": 4,
    "imagesCount": 2,
    "imageCategories": [],
    "scrapedAt": "2025-06-23T06:11:06.165Z",
    "googleFoodUrl": null,
    "hotelAds": [],
    "openingHours": [
      {
        "day": "Monday",
        "hours": "8 AM to 7 PM"
      },
      {
        "day": "Tuesday",
        "hours": "8 AM to 7 PM"
      },
      {
        "day": "Wednesday",
        "hours": "8 AM to 7 PM"
      },
      {
        "day": "Thursday",
        "hours": "8 AM to 7 PM"
      },
      {
        "day": "Friday",
        "hours": "8 AM to 7 PM"
      },
      {
        "day": "Saturday",
        "hours": "9 AM to 4 PM"
      },
      {
        "day": "Sunday",
        "hours": "9 AM to 3 PM"
      }
    ],
    "peopleAlsoSearch": [],
    "placesTags": [],
    "reviewsTags": [],
    "additionalInfo": {
      "Service options": [
        {
          "Curbside pickup": true
        },
        {
          "Delivery": true
        },
        {
          "In-store pickup": true
        }
      ],
      "Accessibility": [
        {
          "Wheelchair accessible entrance": true
        },
        {
          "Wheelchair accessible parking lot": true
        }
      ],
      "Planning": [
        {
          "Quick visit": true
        }
      ],
      "Payments": [
        {
          "Checks": true
        },
        {
          "Credit cards": true
        }
      ]
    },
    "gasPrices": [],
    "url": "https://www.google.com/maps/search/?api=1&query=Price%20Chopper%20Pharmacy&query_place_id=ChIJN49YEe6W4IkRr6VjDPheOuE",
    "searchPageUrl": "https://www.google.com/maps/search/pharmacies%20in%20Bennington,%20VT%20in%20Bennington,%20VT/@51.839717812945175,-179.97595653707245,14z?hl=en",
    "searchString": "pharmacies in Bennington, VT in Bennington, VT",
    "language": "en",
    "rank": 3,
    "isAdvertisement": false,
    "imageUrl": "https://lh3.googleusercontent.com/gps-cs-s/AC9h4nqUbEurpI3SbKu14-_CeUhhAzVXNiZcsHE7EAsbygWJSHhHf7UnXtBB5-4vRkYEmLMLt5eL56CG2rH-QkXf5043Kd5Zw9l1t-j1cyR_tWUwxmk6aOgPzNBzv24wetohAsNT5A6a=w408-h408-k-no",
    "kgmid": "/g/11btxgg3d9"
  },
  {
    "title": "Hannaford Pharmacy",
    "price": "$$",
    "categoryName": "Pharmacy",
    "address": "141 Hannaford Square #2, Bennington, VT 05201",
    "neighborhood": null,
    "street": "141 Hannaford Square #2",
    "city": "Bennington",
    "postalCode": "05201",
    "state": "Vermont",
    "countryCode": "US",
    "website": "https://stores.hannaford.com/vt/bennington/8301",
    "phone": "(802) 442-3642",
    "phoneUnformatted": "+18024423642",
    "claimThisBusiness": false,
    "location": {
      "lat": 42.9069499,
      "lng": -73.2227477
    },
    "totalScore": 4.8,
    "permanentlyClosed": false,
    "temporarilyClosed": false,
    "placeId": "ChIJYWQeN-eW4IkRNIQI7uuZ60s",
    "categories": [
      "Pharmacy"
    ],
    "fid": "0x89e096e7371e6461:0x4beb99ebee088434",
    "cid": "5470635410961499188",
    "reviewsCount": 6,
    "imagesCount": 7,
    "imageCategories": [],
    "scrapedAt": "2025-06-23T06:11:06.165Z",
    "googleFoodUrl": null,
    "hotelAds": [],
    "openingHours": [
      {
        "day": "Monday",
        "hours": "9 AM to 8 PM"
      },
      {
        "day": "Tuesday",
        "hours": "9 AM to 8 PM"
      },
      {
        "day": "Wednesday",
        "hours": "9 AM to 8 PM"
      },
      {
        "day": "Thursday",
        "hours": "9 AM to 8 PM"
      },
      {
        "day": "Friday",
        "hours": "9 AM to 8 PM"
      },
      {
        "day": "Saturday",
        "hours": "9:30 AM to 4 PM"
      },
      {
        "day": "Sunday",
        "hours": "9:30 AM to 2 PM"
      }
    ],
    "peopleAlsoSearch": [],
    "placesTags": [],
    "reviewsTags": [],
    "additionalInfo": {
      "Service options": [
        {
          "Curbside pickup": true
        },
        {
          "Delivery": true
        },
        {
          "In-store pickup": true
        },
        {
          "Same-day delivery": true
        }
      ],
      "Accessibility": [
        {
          "Wheelchair accessible entrance": true
        },
        {
          "Wheelchair accessible parking lot": true
        }
      ],
      "Amenities": [
        {
          "Wi-Fi": true
        },
        {
          "Free Wi-Fi": true
        }
      ],
      "Planning": [
        {
          "Quick visit": true
        }
      ],
      "Payments": [
        {
          "Checks": true
        },
        {
          "Credit cards": true
        },
        {
          "Debit cards": true
        }
      ]
    },
    "gasPrices": [],
    "url": "https://www.google.com/maps/search/?api=1&query=Hannaford%20Pharmacy&query_place_id=ChIJYWQeN-eW4IkRNIQI7uuZ60s",
    "searchPageUrl": "https://www.google.com/maps/search/pharmacies%20in%20Bennington,%20VT%20in%20Bennington,%20VT/@51.839717812945175,-179.97595653707245,14z?hl=en",
    "searchString": "pharmacies in Bennington, VT in Bennington, VT",
    "language": "en",
    "rank": 4,
    "isAdvertisement": false,
    "imageUrl": "https://lh3.googleusercontent.com/gps-cs-s/AC9h4nrEjCXy1RqqcaxhRYR15YRNKP1oF5cyWfcANBoIjmKUOs9P632NXBkaYzBFf9630duzEEd761J33uV2xKwvUn0X87HsT2LHQU6Fe1e0-8uTRzHKm2SanP_iaQc-iFnRfVrijs_L=w408-h408-k-no",
    "kgmid": "/g/1pty_b5k_"
  },
  {
    "title": "Genoa Healthcare",
    "price": null,
    "categoryName": "Pharmacy",
    "address": "100 Ledgehill Rd suite p, Bennington, VT 05201",
    "neighborhood": "Bennington",
    "street": "100 Ledgehill Rd suite p",
    "city": "Bennington",
    "postalCode": "05201",
    "state": "Vermont",
    "countryCode": "US",
    "website": "http://www.genoahealthcare.com/",
    "phone": "(802) 681-4011",
    "phoneUnformatted": "+18026814011",
    "claimThisBusiness": false,
    "location": {
      "lat": 42.8724861,
      "lng": -73.2056212
    },
    "totalScore": 5,
    "permanentlyClosed": false,
    "temporarilyClosed": false,
    "placeId": "ChIJ2aOnokKX4IkR9rFmyS4L3Gs",
    "categories": [
      "Pharmacy"
    ],
    "fid": "0x89e09742a2a7a3d9:0x6bdc0b2ec966b1f6",
    "cid": "7772099352509985270",
    "reviewsCount": 2,
    "imagesCount": null,
    "imageCategories": [],
    "scrapedAt": "2025-06-23T06:11:06.166Z",
    "googleFoodUrl": null,
    "hotelAds": [],
    "openingHours": [
      {
        "day": "Monday",
        "hours": "8:30 AM to 12:30 PM, 1 to 5 PM"
      },
      {
        "day": "Tuesday",
        "hours": "8:30 AM to 12:30 PM, 1 to 5 PM"
      },
      {
        "day": "Wednesday",
        "hours": "8:30 AM to 12:30 PM, 1 to 5 PM"
      },
      {
        "day": "Thursday",
        "hours": "8:30 AM to 12:30 PM, 1 to 5 PM"
      },
      {
        "day": "Friday",
        "hours": "8:30 AM to 12:30 PM, 1 to 5 PM"
      },
      {
        "day": "Saturday",
        "hours": "Closed"
      },
      {
        "day": "Sunday",
        "hours": "Closed"
      }
    ],
    "peopleAlsoSearch": [],
    "placesTags": [],
    "reviewsTags": [],
    "additionalInfo": {
      "Accessibility": [
        {
          "Wheelchair accessible entrance": true
        },
        {
          "Wheelchair accessible parking lot": true
        }
      ],
      "Payments": [
        {
          "Credit cards": true
        }
      ]
    },
    "gasPrices": [],
    "url": "https://www.google.com/maps/search/?api=1&query=Genoa%20Healthcare&query_place_id=ChIJ2aOnokKX4IkR9rFmyS4L3Gs",
    "searchPageUrl": "https://www.google.com/maps/search/pharmacies%20in%20Bennington,%20VT%20in%20Bennington,%20VT/@51.839717812945175,-179.97595653707245,14z?hl=en",
    "searchString": "pharmacies in Bennington, VT in Bennington, VT",
    "language": "en",
    "rank": 5,
    "isAdvertisement": false,
    "kgmid": "/g/11fq91tz54"
  },
  {
    "title": "CVS",
    "description": "Drugstore chain selling a variety of beauty & health products, plus some grocery & household items.",
    "price": null,
    "categoryName": "Drug store",
    "address": "8 Kocher Dr, Bennington, VT 05201",
    "neighborhood": null,
    "street": "8 Kocher Dr",
    "city": "Bennington",
    "postalCode": "05201",
    "state": "Vermont",
    "countryCode": "US",
    "website": "https://www.cvs.com/store-locator/bennington-vt-pharmacies/8-kocher-dr-bennington-vt-05201/storeid=337?WT.mc_id=LS_GOOGLE_FS_337",
    "phone": "(802) 442-8369",
    "phoneUnformatted": "+18024428369",
    "claimThisBusiness": false,
    "location": {
      "lat": 42.8952734,
      "lng": -73.2020308
    },
    "locatedIn": "CVS Pharmacy",
    "totalScore": 3.4,
    "permanentlyClosed": false,
    "temporarilyClosed": false,
    "placeId": "ChIJ_SWWkI2W4IkRACjczqLZSDI",
    "categories": [
      "Drug store",
      "Beauty supply store",
      "Beer store",
      "Convenience store",
      "Cosmetics store",
      "Greeting card shop",
      "Perfume store",
      "Stationery store",
      "Vitamin & supplements store",
      "Wine store"
    ],
    "fid": "0x89e0968d909625fd:0x3248d9a2cedc2800",
    "cid": "3623385193498028032",
    "reviewsCount": 35,
    "imagesCount": 6,
    "imageCategories": [],
    "scrapedAt": "2025-06-23T06:11:06.166Z",
    "googleFoodUrl": null,
    "hotelAds": [],
    "openingHours": [
      {
        "day": "Monday",
        "hours": "8 AM to 9 PM"
      },
      {
        "day": "Tuesday",
        "hours": "8 AM to 9 PM"
      },
      {
        "day": "Wednesday",
        "hours": "8 AM to 9 PM"
      },
      {
        "day": "Thursday",
        "hours": "8 AM to 9 PM"
      },
      {
        "day": "Friday",
        "hours": "8 AM to 9 PM"
      },
      {
        "day": "Saturday",
        "hours": "8 AM to 9 PM"
      },
      {
        "day": "Sunday",
        "hours": "8 AM to 9 PM"
      }
    ],
    "additionalOpeningHours": {
      "CVS Pharmacy": [
        {
          "day": "Monday",
          "hours": "9 AM–1:30 PM"
        },
        {
          "day": "Tuesday",
          "hours": "9 AM–1:30 PM"
        },
        {
          "day": "Wednesday",
          "hours": "9 AM–1:30 PM"
        },
        {
          "day": "Thursday",
          "hours": "9 AM–1:30 PM"
        },
        {
          "day": "Friday",
          "hours": "9 AM–1:30 PM"
        },
        {
          "day": "Saturday",
          "hours": "10 AM–1:30 PM"
        },
        {
          "day": "Sunday",
          "hours": "10 AM–1:30 PM"
        }
      ],
      "CVS Photo": [
        {
          "day": "Monday",
          "hours": "8 AM–9 PM"
        },
        {
          "day": "Tuesday",
          "hours": "8 AM–9 PM"
        },
        {
          "day": "Wednesday",
          "hours": "8 AM–9 PM"
        },
        {
          "day": "Thursday",
          "hours": "8 AM–9 PM"
        },
        {
          "day": "Friday",
          "hours": "8 AM–9 PM"
        },
        {
          "day": "Saturday",
          "hours": "8 AM–9 PM"
        },
        {
          "day": "Sunday",
          "hours": "8 AM–9 PM"
        }
      ]
    },
    "peopleAlsoSearch": [],
    "placesTags": [],
    "reviewsTags": [],
    "additionalInfo": {
      "Service options": [
        {
          "Delivery": true
        },
        {
          "Drive-through": true
        },
        {
          "In-store shopping": true
        },
        {
          "Same-day delivery": false
        }
      ],
      "Accessibility": [
        {
          "Wheelchair accessible entrance": true
        },
        {
          "Wheelchair accessible parking lot": true
        }
      ],
      "Offerings": [
        {
          "Passport photos": true
        }
      ],
      "Crowd": [
        {
          "LGBTQ+ friendly": true
        },
        {
          "Transgender safespace": true
        }
      ],
      "Planning": [
        {
          "Quick visit": true
        }
      ],
      "Payments": [
        {
          "Credit cards": true
        },
        {
          "Debit cards": true
        },
        {
          "Credit cards": true
        }
      ]
    },
    "gasPrices": [],
    "url": "https://www.google.com/maps/search/?api=1&query=CVS&query_place_id=ChIJ_SWWkI2W4IkRACjczqLZSDI",
    "searchPageUrl": "https://www.google.com/maps/search/pharmacies%20in%20Bennington,%20VT%20in%20Bennington,%20VT/@51.839717812945175,-179.97595653707245,14z?hl=en",
    "searchString": "pharmacies in Bennington, VT in Bennington, VT",
    "language": "en",
    "rank": 6,
    "isAdvertisement": false,
    "imageUrl": "https://lh3.googleusercontent.com/p/AF1QipNBoUkDxBd2po1Coi9hsx2EU9V5ka3_Xte9Be3A=w408-h272-k-no",
    "kgmid": "/g/1tggbzq5"
  },
  {
    "title": "Walgreens",
    "description": "Drugstore chain with health & beauty aids, prescriptions & photo services, plus mini-mart basics.",
    "price": "$$",
    "categoryName": "Drug store",
    "address": "194 North St, Bennington, VT 05201",
    "neighborhood": "Bennington",
    "street": "194 North St",
    "city": "Bennington",
    "postalCode": "05201",
    "state": "Vermont",
    "countryCode": "US",
    "website": "https://www.walgreens.com/locator/walgreens-194+north+street-bennington-vt-05201/id=17631",
    "phone": "(802) 442-2240",
    "phoneUnformatted": "+18024422240",
    "claimThisBusiness": false,
    "location": {
      "lat": 42.8814044,
      "lng": -73.1982013
    },
    "locatedIn": "Walgreens Pharmacy",
    "totalScore": 2.9,
    "permanentlyClosed": false,
    "temporarilyClosed": false,
    "placeId": "ChIJF1JzbFWX4IkRUWP6vXH_T6Q",
    "categories": [
      "Drug store",
      "Beauty supply store",
      "Convenience store",
      "Cosmetics store",
      "Greeting card shop",
      "Perfume store",
      "Stationery store"
    ],
    "fid": "0x89e097556c735217:0xa44fff71bdfa6351",
    "cid": "11839962809364013905",
    "reviewsCount": 23,
    "imagesCount": 6,
    "imageCategories": [],
    "scrapedAt": "2025-06-23T06:11:06.166Z",
    "googleFoodUrl": null,
    "hotelAds": [],
    "openingHours": [
      {
        "day": "Monday",
        "hours": "8 AM to 9 PM"
      },
      {
        "day": "Tuesday",
        "hours": "8 AM to 9 PM"
      },
      {
        "day": "Wednesday",
        "hours": "8 AM to 9 PM"
      },
      {
        "day": "Thursday",
        "hours": "8 AM to 9 PM"
      },
      {
        "day": "Friday",
        "hours": "8 AM to 9 PM"
      },
      {
        "day": "Saturday",
        "hours": "8 AM to 9 PM"
      },
      {
        "day": "Sunday",
        "hours": "9 AM to 6 PM"
      }
    ],
    "additionalOpeningHours": {
      "Walgreens Pharmacy": [
        {
          "day": "Monday",
          "hours": "9 AM–1:30 PM"
        },
        {
          "day": "Tuesday",
          "hours": "9 AM–1:30 PM"
        },
        {
          "day": "Wednesday",
          "hours": "9 AM–1:30 PM"
        },
        {
          "day": "Thursday",
          "hours": "9 AM–1:30 PM"
        },
        {
          "day": "Friday",
          "hours": "9 AM–1:30 PM"
        },
        {
          "day": "Saturday",
          "hours": "9 AM–1:30 PM"
        },
        {
          "day": "Sunday",
          "hours": "Closed"
        }
      ],
      "Walgreens Photo": [
        {
          "day": "Monday",
          "hours": "8 AM–9 PM"
        },
        {
          "day": "Tuesday",
          "hours": "8 AM–9 PM"
        },
        {
          "day": "Wednesday",
          "hours": "8 AM–9 PM"
        },
        {
          "day": "Thursday",
          "hours": "8 AM–9 PM"
        },
        {
          "day": "Friday",
          "hours": "8 AM–9 PM"
        },
        {
          "day": "Saturday",
          "hours": "8 AM–9 PM"
        },
        {
          "day": "Sunday",
          "hours": "9 AM–6 PM"
        }
      ],
      "Pickup": [
        {
          "day": "Monday",
          "hours": "8 AM–9 PM"
        },
        {
          "day": "Tuesday",
          "hours": "8 AM–9 PM"
        },
        {
          "day": "Wednesday",
          "hours": "8 AM–9 PM"
        },
        {
          "day": "Thursday",
          "hours": "8 AM–9 PM"
        },
        {
          "day": "Friday",
          "hours": "8 AM–9 PM"
        },
        {
          "day": "Saturday",
          "hours": "8 AM–9 PM"
        },
        {
          "day": "Sunday",
          "hours": "9 AM–6 PM"
        }
      ]
    },
    "peopleAlsoSearch": [],
    "placesTags": [],
    "reviewsTags": [],
    "additionalInfo": {
      "Service options": [
        {
          "Curbside pickup": true
        },
        {
          "Delivery": true
        },
        {
          "In-store pickup": true
        },
        {
          "Onsite services": true
        },
        {
          "Same-day delivery": false
        }
      ],
      "Accessibility": [
        {
          "Wheelchair accessible entrance": true
        },
        {
          "Wheelchair accessible parking lot": true
        }
      ],
      "Offerings": [
        {
          "Naloxone": true
        },
        {
          "Passport photos": true
        }
      ],
      "Planning": [
        {
          "Quick visit": true
        }
      ],
      "Payments": [
        {
          "Credit cards": true
        },
        {
          "Debit cards": true
        },
        {
          "NFC mobile payments": true
        },
        {
          "SNAP/EBT": true
        },
        {
          "Credit cards": true
        }
      ]
    },
    "gasPrices": [],
    "url": "https://www.google.com/maps/search/?api=1&query=Walgreens&query_place_id=ChIJF1JzbFWX4IkRUWP6vXH_T6Q",
    "searchPageUrl": "https://www.google.com/maps/search/pharmacies%20in%20Bennington,%20VT%20in%20Bennington,%20VT/@51.839717812945175,-179.97595653707245,14z?hl=en",
    "searchString": "pharmacies in Bennington, VT in Bennington, VT",
    "language": "en",
    "rank": 7,
    "isAdvertisement": false,
    "imageUrl": "https://lh3.googleusercontent.com/gps-cs-s/AC9h4no1Yhe7uIo26_7TfVVM8zHPtBPZUCQBRfUQgl7m3N_q3wkuv-0qtTepSoVY9PA8aL7BbO8gMAjFYRicSd-NrH1S2l7UhBHtiA-KMe-X1VaNy8i6iOlL9deGQ0Ek6tiwaYuc4jLF=w408-h407-k-no",
    "kgmid": "/g/11gsn0419v"
  },
  {
    "title": "Walmart Pharmacy",
    "price": "$",
    "categoryName": "Pharmacy",
    "address": "210 Northside Dr, Bennington, VT 05201",
    "neighborhood": null,
    "street": "210 Northside Dr",
    "city": "Bennington",
    "postalCode": "05201",
    "state": "Vermont",
    "countryCode": "US",
    "website": "https://www.walmart.com/store/2289-bennington-vt/pharmacy/?veh=seo_loc",
    "phone": "(802) 442-6822",
    "phoneUnformatted": "+18024426822",
    "claimThisBusiness": false,
    "location": {
      "lat": 42.8983402,
      "lng": -73.210368
    },
    "totalScore": 4.3,
    "permanentlyClosed": false,
    "temporarilyClosed": false,
    "placeId": "ChIJlbz47u2W4IkR-hNNwFLeU6E",
    "categories": [
      "Pharmacy",
      "Herbal medicine store",
      "Medical supply store",
      "Parapharmacy",
      "Vitamin & supplements store"
    ],
    "fid": "0x89e096edeef8bc95:0xa153de52c04d13fa",
    "cid": "11624879510168343546",
    "reviewsCount": 10,
    "imagesCount": 5,
    "imageCategories": [],
    "scrapedAt": "2025-06-23T06:11:06.166Z",
    "googleFoodUrl": null,
    "hotelAds": [],
    "openingHours": [
      {
        "day": "Monday",
        "hours": "8 AM to 7 PM"
      },
      {
        "day": "Tuesday",
        "hours": "8 AM to 7 PM"
      },
      {
        "day": "Wednesday",
        "hours": "8 AM to 7 PM"
      },
      {
        "day": "Thursday",
        "hours": "8 AM to 7 PM"
      },
      {
        "day": "Friday",
        "hours": "8 AM to 7 PM"
      },
      {
        "day": "Saturday",
        "hours": "9 AM to 7 PM"
      },
      {
        "day": "Sunday",
        "hours": "10 AM to 6 PM"
      }
    ],
    "peopleAlsoSearch": [],
    "placesTags": [],
    "reviewsTags": [],
    "additionalInfo": {
      "Service options": [
        {
          "Curbside pickup": true
        },
        {
          "In-store pickup": true
        },
        {
          "In-store shopping": true
        },
        {
          "Onsite services": true
        },
        {
          "Same-day delivery": false
        }
      ],
      "Accessibility": [
        {
          "Wheelchair accessible entrance": true
        },
        {
          "Wheelchair accessible parking lot": true
        },
        {
          "Wheelchair accessible restroom": true
        }
      ],
      "Offerings": [
        {
          "Passport photos": true
        }
      ],
      "Amenities": [
        {
          "Wi-Fi": true
        },
        {
          "Free Wi-Fi": true
        }
      ],
      "Planning": [
        {
          "Quick visit": true
        }
      ],
      "Payments": [
        {
          "Credit cards": true
        },
        {
          "Debit cards": true
        },
        {
          "Credit cards": true
        }
      ]
    },
    "gasPrices": [],
    "url": "https://www.google.com/maps/search/?api=1&query=Walmart%20Pharmacy&query_place_id=ChIJlbz47u2W4IkR-hNNwFLeU6E",
    "searchPageUrl": "https://www.google.com/maps/search/pharmacies%20in%20Bennington,%20VT%20in%20Bennington,%20VT/@51.839717812945175,-179.97595653707245,14z?hl=en",
    "searchString": "pharmacies in Bennington, VT in Bennington, VT",
    "language": "en",
    "rank": 8,
    "isAdvertisement": false,
    "imageUrl": "https://lh3.googleusercontent.com/p/AF1QipMbfhBCuhALWv4uTGUNDjl-qZtkvassnxMoApfZ=w408-h306-k-no",
    "kgmid": "/g/1tcvk2w_"
  },
  {
    "title": "The Pharmacy, Inc.",
    "price": null,
    "categoryName": "Pharmacy",
    "address": "205 North St, Bennington, VT 05201",
    "neighborhood": "Bennington",
    "street": "205 North St",
    "city": "Bennington",
    "postalCode": "05201",
    "state": "Vermont",
    "countryCode": "US",
    "website": "http://www.pharmacyinc.net/",
    "phone": "(802) 442-5602",
    "phoneUnformatted": "+18024425602",
    "claimThisBusiness": false,
    "location": {
      "lat": 42.8818299,
      "lng": -73.1968392
    },
    "totalScore": 3.9,
    "permanentlyClosed": true,
    "temporarilyClosed": false,
    "placeId": "ChIJgeg8dmOW4IkRhn64JbXUa6o",
    "categories": [
      "Pharmacy"
    ],
    "fid": "0x89e09663763ce881:0xaa6bd4b525b87e86",
    "cid": "12280142683442806406",
    "reviewsCount": 45,
    "imagesCount": 16,
    "imageCategories": [],
    "scrapedAt": "2025-06-23T06:11:06.166Z",
    "googleFoodUrl": null,
    "hotelAds": [],
    "openingHours": [],
    "peopleAlsoSearch": [],
    "placesTags": [],
    "reviewsTags": [],
    "additionalInfo": {
      "From the business": [
        {
          "Small business": true
        }
      ],
      "Service options": [
        {
          "Curbside pickup": true
        },
        {
          "Delivery": true
        },
        {
          "In-store pickup": true
        },
        {
          "In-store shopping": true
        },
        {
          "Same-day delivery": true
        }
      ],
      "Accessibility": [
        {
          "Wheelchair accessible entrance": true
        },
        {
          "Wheelchair accessible parking lot": true
        }
      ],
      "Payments": [
        {
          "Checks": true
        },
        {
          "Credit cards": true
        },
        {
          "Debit cards": true
        },
        {
          "NFC mobile payments": true
        },
        {
          "Credit cards": true
        }
      ],
      "Parking": [
        {
          "Free parking lot": true
        },
        {
          "Free street parking": true
        }
      ]
    },
    "gasPrices": [],
    "url": "https://www.google.com/maps/search/?api=1&query=The%20Pharmacy%2C%20Inc.&query_place_id=ChIJgeg8dmOW4IkRhn64JbXUa6o",
    "searchPageUrl": "https://www.google.com/maps/search/pharmacies%20in%20Bennington,%20VT%20in%20Bennington,%20VT/@51.839717812945175,-179.97595653707245,14z?hl=en",
    "searchString": "pharmacies in Bennington, VT in Bennington, VT",
    "language": "en",
    "rank": 9,
    "isAdvertisement": false,
    "imageUrl": "https://lh3.googleusercontent.com/p/AF1QipOUH5wG1oW6qL2A9rrHPJSokBx_tAMCNQe3QXZv=w420-h240-k-no",
    "kgmid": "/g/1tjwjrg7"
  },
  {
    "title": "Health Mart Pharmacy",
    "price": null,
    "categoryName": "Pharmacy",
    "address": "15817 Center West Hadan Dr, Bennington, NE 68007, United States",
    "neighborhood": null,
    "street": "15817 Center West Hadan Dr",
    "city": "Bennington",
    "postalCode": "68007",
    "state": "Nebraska",
    "countryCode": "US",
    "website": "http://www.gunsndrugs.com/",
    "phone": "+1 402-932-5556",
    "phoneUnformatted": "+14029325556",
    "claimThisBusiness": false,
    "location": {
      "lat": 41.3720535,
      "lng": -96.1616465
    },
    "totalScore": 4.5,
    "permanentlyClosed": false,
    "temporarilyClosed": false,
    "placeId": "ChIJadV0UUPpk4cRR0xRWfRa4i4",
    "categories": [
      "Pharmacy"
    ],
    "fid": "0x8793e9435174d569:0x2ee25af459514c47",
    "cid": "3378362675998313543",
    "reviewsCount": 30,
    "imagesCount": 5,
    "imageCategories": [],
    "scrapedAt": "2025-06-23T06:11:06.737Z",
    "googleFoodUrl": null,
    "hotelAds": [],
    "openingHours": [
      {
        "day": "Monday",
        "hours": "9:30 AM to 6 PM"
      },
      {
        "day": "Tuesday",
        "hours": "9:30 AM to 6 PM"
      },
      {
        "day": "Wednesday",
        "hours": "9:30 AM to 6 PM"
      },
      {
        "day": "Thursday",
        "hours": "9:30 AM to 6 PM"
      },
      {
        "day": "Friday",
        "hours": "9:30 AM to 6 PM"
      },
      {
        "day": "Saturday",
        "hours": "10 AM to 2 PM"
      },
      {
        "day": "Sunday",
        "hours": "Closed"
      }
    ],
    "peopleAlsoSearch": [],
    "placesTags": [],
    "reviewsTags": [],
    "additionalInfo": {
      "Service options": [
        {
          "Delivery": false
        },
        {
          "Same-day delivery": false
        }
      ],
      "Accessibility": [
        {
          "Wheelchair-accessible car park": true
        },
        {
          "Wheelchair-accessible entrance": true
        }
      ],
      "Offerings": [
        {
          "Medication disposal": true
        }
      ],
      "Planning": [
        {
          "Quick visit": true
        }
      ],
      "Payments": [
        {
          "Credit cards": true
        },
        {
          "Debit cards": true
        },
        {
          "NFC mobile payments": true
        },
        {
          "Credit cards": true
        }
      ]
    },
    "gasPrices": [],
    "url": "https://www.google.com/maps/search/?api=1&query=Health%20Mart%20Pharmacy&query_place_id=ChIJadV0UUPpk4cRR0xRWfRa4i4",
    "searchPageUrl": "https://www.google.com/maps/search/pharmacies%20in%20Bennington,%20VT%20in%20Bennington,%20VT/@68.51690656216455,-142.75332010026844,9z?hl=en",
    "searchString": "pharmacies in Bennington, VT in Bennington, VT",
    "language": "en",
    "rank": 8,
    "isAdvertisement": false,
    "imageUrl": "https://lh3.googleusercontent.com/p/AF1QipPpcz_TRDYV2tA6OJjVCxH80iY8ZfNOQoNjhJsS=w408-h245-k-no",
    "kgmid": "/g/1td_hrp3"
  }
]