[
  {
    "title": "Cvs Pharmacy",
    "price": null,
    "categoryName": "Pharmacy",
    "address": "214 Third Ave, St Albans, WV 25177",
    "neighborhood": null,
    "street": "214 Third Ave",
    "city": "St Albans",
    "postalCode": "25177",
    "state": "West Virginia",
    "countryCode": "US",
    "claimThisBusiness": true,
    "location": {
      "lat": 38.3888188,
      "lng": -81.8344886
    },
    "totalScore": 5,
    "permanentlyClosed": false,
    "temporarilyClosed": false,
    "placeId": "ChIJWTrOvMLKSIgR1fWV_ySoOB8",
    "categories": [
      "Pharmacy"
    ],
    "fid": "0x8848cac2bcce3a59:0x1f38a824ff95f5d5",
    "cid": "2249732890731869653",
    "reviewsCount": 2,
    "imagesCount": 1,
    "imageCategories": [],
    "scrapedAt": "2025-06-23T06:19:31.426Z",
    "googleFoodUrl": null,
    "hotelAds": [],
    "openingHours": [],
    "peopleAlsoSearch": [],
    "placesTags": [],
    "reviewsTags": [],
    "additionalInfo": {
      "Service options": [
        {
          "Drive-through": true
        },
        {
          "In-store pickup": true
        }
      ],
      "Accessibility": [
        {
          "Wheelchair accessible entrance": true
        },
        {
          "Wheelchair accessible parking lot": true
        }
      ],
      "Planning": [
        {
          "Quick visit": true
        }
      ],
      "Payments": [
        {
          "Credit cards": true
        }
      ]
    },
    "gasPrices": [],
    "url": "https://www.google.com/maps/search/?api=1&query=Cvs%20Pharmacy&query_place_id=ChIJWTrOvMLKSIgR1fWV_ySoOB8",
    "searchPageUrl": "https://www.google.com/maps/search/pharmacies%20in%20St.%20Albans,%20WV%20in%20St.%20Albans,%20WV/@63.653579074253855,-148.50731502864818,9z?hl=en",
    "searchString": "pharmacies in St. Albans, WV in St. Albans, WV",
    "language": "en",
    "rank": 1,
    "isAdvertisement": false,
    "imageUrl": "https://streetviewpixels-pa.googleapis.com/v1/thumbnail?panoid=AFCrY0YUUmSsTSly148jsg&cb_client=search.gws-prod.gps&w=408&h=240&yaw=21.110209&pitch=0&thumbfov=100",
    "kgmid": "/g/11tnvh3fkv"
  },
  {
    "title": "CVS Pharmacy",
    "price": null,
    "categoryName": "Pharmacy",
    "address": "201 Maccorkle Ave, St Albans, WV 25177",
    "neighborhood": null,
    "street": "201 Maccorkle Ave",
    "city": "St Albans",
    "postalCode": "25177",
    "state": "West Virginia",
    "countryCode": "US",
    "website": "https://www.cvs.com/store-locator/saint-albans-wv-pharmacies/201-maccorkle-avenue-saint-albans-wv-25177/storeid=6306?WT.mc_id=LS_GOOGLE_RX_6306",
    "phone": "(304) 722-3335",
    "phoneUnformatted": "+13047223335",
    "claimThisBusiness": false,
    "location": {
      "lat": 38.3894319,
      "lng": -81.834596
    },
    "totalScore": 3.9,
    "permanentlyClosed": false,
    "temporarilyClosed": false,
    "placeId": "ChIJSyU8HujKSIgRkLzlEYqbr9w",
    "categories": [
      "Pharmacy"
    ],
    "fid": "0x8848cae81e3c254b:0xdcaf9b8a11e5bc90",
    "cid": "15902099826576571536",
    "reviewsCount": 42,
    "imagesCount": 10,
    "imageCategories": [],
    "scrapedAt": "2025-06-23T06:19:31.427Z",
    "googleFoodUrl": null,
    "hotelAds": [],
    "openingHours": [
      {
        "day": "Monday",
        "hours": "8 AM to 12:30 PM, 1 to 10 PM"
      },
      {
        "day": "Tuesday",
        "hours": "8 AM to 12:30 PM, 1 to 10 PM"
      },
      {
        "day": "Wednesday",
        "hours": "8 AM to 12:30 PM, 1 to 10 PM"
      },
      {
        "day": "Thursday",
        "hours": "8 AM to 12:30 PM, 1 to 10 PM"
      },
      {
        "day": "Friday",
        "hours": "8 AM to 12:30 PM, 1 to 10 PM"
      },
      {
        "day": "Saturday",
        "hours": "9 AM to 12:30 PM, 1 to 8 PM"
      },
      {
        "day": "Sunday",
        "hours": "10 AM to 12:30 PM, 1 to 6 PM"
      }
    ],
    "peopleAlsoSearch": [],
    "placesTags": [],
    "reviewsTags": [],
    "additionalInfo": {
      "Service options": [
        {
          "Delivery": true
        },
        {
          "Drive-through": true
        },
        {
          "In-store pickup": true
        },
        {
          "In-store shopping": true
        },
        {
          "Onsite services": true
        }
      ],
      "Accessibility": [
        {
          "Wheelchair accessible entrance": true
        },
        {
          "Wheelchair accessible parking lot": true
        }
      ],
      "Offerings": [
        {
          "Medication disposal": true
        },
        {
          "Naloxone": true
        },
        {
          "Passport photos": true
        }
      ],
      "Crowd": [
        {
          "LGBTQ+ friendly": true
        },
        {
          "Transgender safespace": true
        }
      ],
      "Planning": [
        {
          "Quick visit": true
        }
      ],
      "Payments": [
        {
          "Credit cards": true
        },
        {
          "Debit cards": true
        },
        {
          "NFC mobile payments": true
        },
        {
          "SNAP/EBT": true
        },
        {
          "Credit cards": true
        }
      ]
    },
    "gasPrices": [],
    "url": "https://www.google.com/maps/search/?api=1&query=CVS%20Pharmacy&query_place_id=ChIJSyU8HujKSIgRkLzlEYqbr9w",
    "searchPageUrl": "https://www.google.com/maps/search/pharmacies%20in%20St.%20Albans,%20WV%20in%20St.%20Albans,%20WV/@63.653579074253855,-148.50731502864818,9z?hl=en",
    "searchString": "pharmacies in St. Albans, WV in St. Albans, WV",
    "language": "en",
    "rank": 2,
    "isAdvertisement": false,
    "imageUrl": "https://lh3.googleusercontent.com/p/AF1QipOKbVZ0ZaEmjwbYFuLzryBChOPdiQSqA4DRAQ2I=w408-h272-k-no",
    "kgmid": "/g/11f0l494m0"
  },
  {
    "title": "CVS",
    "description": "Drugstore chain selling a variety of beauty & health products, plus some grocery & household items.",
    "price": null,
    "categoryName": "Drug store",
    "address": "201 Maccorkle Ave, St Albans, WV 25177",
    "neighborhood": null,
    "street": "201 Maccorkle Ave",
    "city": "St Albans",
    "postalCode": "25177",
    "state": "West Virginia",
    "countryCode": "US",
    "website": "https://www.cvs.com/store-locator/saint-albans-wv-pharmacies/201-maccorkle-avenue-saint-albans-wv-25177/storeid=6306?WT.mc_id=LS_GOOGLE_FS_6306",
    "phone": "(304) 722-3335",
    "phoneUnformatted": "+13047223335",
    "claimThisBusiness": false,
    "location": {
      "lat": 38.3894319,
      "lng": -81.834596
    },
    "locatedIn": "CVS Pharmacy",
    "totalScore": 3,
    "permanentlyClosed": false,
    "temporarilyClosed": false,
    "placeId": "ChIJ16Wg0tHKSIgRT7e6cpC1jgY",
    "categories": [
      "Drug store",
      "Beauty supply store",
      "Beer store",
      "Convenience store",
      "Cosmetics store",
      "Greeting card shop",
      "Perfume store",
      "Stationery store",
      "Vitamin & supplements store",
      "Wine store"
    ],
    "fid": "0x8848cad1d2a0a5d7:0x68eb59072bab74f",
    "cid": "472514642925238095",
    "reviewsCount": 55,
    "imagesCount": 9,
    "imageCategories": [],
    "scrapedAt": "2025-06-23T06:19:31.427Z",
    "googleFoodUrl": null,
    "hotelAds": [],
    "openingHours": [
      {
        "day": "Monday",
        "hours": "8 AM to 10 PM"
      },
      {
        "day": "Tuesday",
        "hours": "8 AM to 10 PM"
      },
      {
        "day": "Wednesday",
        "hours": "8 AM to 10 PM"
      },
      {
        "day": "Thursday",
        "hours": "8 AM to 10 PM"
      },
      {
        "day": "Friday",
        "hours": "8 AM to 10 PM"
      },
      {
        "day": "Saturday",
        "hours": "8 AM to 10 PM"
      },
      {
        "day": "Sunday",
        "hours": "8 AM to 10 PM"
      }
    ],
    "additionalOpeningHours": {
      "CVS Pharmacy": [
        {
          "day": "Monday",
          "hours": "8 AM–12:30 PM"
        },
        {
          "day": "Tuesday",
          "hours": "8 AM–12:30 PM"
        },
        {
          "day": "Wednesday",
          "hours": "8 AM–12:30 PM"
        },
        {
          "day": "Thursday",
          "hours": "8 AM–12:30 PM"
        },
        {
          "day": "Friday",
          "hours": "8 AM–12:30 PM"
        },
        {
          "day": "Saturday",
          "hours": "9 AM–12:30 PM"
        },
        {
          "day": "Sunday",
          "hours": "10 AM–12:30 PM"
        }
      ],
      "CVS Photo": [
        {
          "day": "Monday",
          "hours": "8 AM–10 PM"
        },
        {
          "day": "Tuesday",
          "hours": "8 AM–10 PM"
        },
        {
          "day": "Wednesday",
          "hours": "8 AM–10 PM"
        },
        {
          "day": "Thursday",
          "hours": "8 AM–10 PM"
        },
        {
          "day": "Friday",
          "hours": "8 AM–10 PM"
        },
        {
          "day": "Saturday",
          "hours": "8 AM–10 PM"
        },
        {
          "day": "Sunday",
          "hours": "8 AM–10 PM"
        }
      ],
      "LibertyX Bitcoin ATM": [
        {
          "day": "Monday",
          "hours": "8 AM–10 PM"
        },
        {
          "day": "Tuesday",
          "hours": "8 AM–10 PM"
        },
        {
          "day": "Wednesday",
          "hours": "8 AM–10 PM"
        },
        {
          "day": "Thursday",
          "hours": "8 AM–10 PM"
        },
        {
          "day": "Friday",
          "hours": "8 AM–10 PM"
        },
        {
          "day": "Saturday",
          "hours": "8 AM–10 PM"
        },
        {
          "day": "Sunday",
          "hours": "8 AM–10 PM"
        }
      ]
    },
    "peopleAlsoSearch": [],
    "placesTags": [],
    "reviewsTags": [],
    "additionalInfo": {
      "Service options": [
        {
          "Delivery": true
        },
        {
          "Drive-through": true
        },
        {
          "In-store pickup": true
        },
        {
          "In-store shopping": true
        },
        {
          "Same-day delivery": false
        }
      ],
      "Accessibility": [
        {
          "Wheelchair accessible entrance": true
        },
        {
          "Wheelchair accessible parking lot": true
        }
      ],
      "Crowd": [
        {
          "LGBTQ+ friendly": true
        },
        {
          "Transgender safespace": true
        }
      ],
      "Planning": [
        {
          "Quick visit": true
        }
      ],
      "Payments": [
        {
          "Credit cards": true
        },
        {
          "Debit cards": true
        },
        {
          "Credit cards": true
        }
      ]
    },
    "gasPrices": [],
    "url": "https://www.google.com/maps/search/?api=1&query=CVS&query_place_id=ChIJ16Wg0tHKSIgRT7e6cpC1jgY",
    "searchPageUrl": "https://www.google.com/maps/search/pharmacies%20in%20St.%20Albans,%20WV%20in%20St.%20Albans,%20WV/@63.653579074253855,-148.50731502864818,9z?hl=en",
    "searchString": "pharmacies in St. Albans, WV in St. Albans, WV",
    "language": "en",
    "rank": 3,
    "isAdvertisement": false,
    "imageUrl": "https://lh3.googleusercontent.com/gps-cs-s/AC9h4nrClD8J_ujzOORuIlqenY66bza0UMDY-uJ-Y_s53Xhe5jx4do3CkFnNtiuQMjswwEd65BZLM17OySpig56hhXCklHAapnWpydcfztCrDFnIQcgdI08otK-O_2gClXlhvPARReXI=w474-h240-k-no",
    "kgmid": "/g/1tdkycby"
  },
  {
    "title": "Walgreens Pharmacy",
    "description": "Department of the Walgreens chain providing prescription medications & other health-related items.",
    "price": null,
    "categoryName": "Pharmacy",
    "address": "305 6th Ave, St Albans, WV 25177",
    "neighborhood": null,
    "street": "305 6th Ave",
    "city": "St Albans",
    "postalCode": "25177",
    "state": "West Virginia",
    "countryCode": "US",
    "website": "https://www.walgreens.com/locator/walgreens-305+6th+ave-saint+albans-wv-25177/id=17111",
    "phone": "(304) 722-4617",
    "phoneUnformatted": "+13047224617",
    "claimThisBusiness": false,
    "location": {
      "lat": 38.3853618,
      "lng": -81.8344407
    },
    "totalScore": 3.9,
    "permanentlyClosed": false,
    "temporarilyClosed": false,
    "placeId": "ChIJd4rd2zTLSIgRUPvbvy9-yZY",
    "categories": [
      "Pharmacy"
    ],
    "fid": "0x8848cb34dbdd8a77:0x96c97e2fbfdbfb50",
    "cid": "10865354319555459920",
    "reviewsCount": 10,
    "imagesCount": 3,
    "imageCategories": [],
    "scrapedAt": "2025-06-23T06:19:31.428Z",
    "googleFoodUrl": null,
    "hotelAds": [],
    "openingHours": [
      {
        "day": "Monday",
        "hours": "9 AM to 1:30 PM, 2 to 7 PM"
      },
      {
        "day": "Tuesday",
        "hours": "9 AM to 1:30 PM, 2 to 7 PM"
      },
      {
        "day": "Wednesday",
        "hours": "9 AM to 1:30 PM, 2 to 7 PM"
      },
      {
        "day": "Thursday",
        "hours": "9 AM to 1:30 PM, 2 to 7 PM"
      },
      {
        "day": "Friday",
        "hours": "9 AM to 1:30 PM, 2 to 7 PM"
      },
      {
        "day": "Saturday",
        "hours": "9 AM to 1:30 PM, 2 to 6 PM"
      },
      {
        "day": "Sunday",
        "hours": "10 AM to 1:30 PM, 2 to 6 PM"
      }
    ],
    "additionalOpeningHours": {
      "Drive through": [
        {
          "day": "Monday",
          "hours": "9 AM–1:30 PM"
        },
        {
          "day": "Tuesday",
          "hours": "9 AM–1:30 PM"
        },
        {
          "day": "Wednesday",
          "hours": "9 AM–1:30 PM"
        },
        {
          "day": "Thursday",
          "hours": "9 AM–1:30 PM"
        },
        {
          "day": "Friday",
          "hours": "9 AM–1:30 PM"
        },
        {
          "day": "Saturday",
          "hours": "9 AM–1:30 PM"
        },
        {
          "day": "Sunday",
          "hours": "10 AM–1:30 PM"
        }
      ]
    },
    "peopleAlsoSearch": [],
    "placesTags": [],
    "reviewsTags": [],
    "additionalInfo": {
      "Service options": [
        {
          "Curbside pickup": true
        },
        {
          "Delivery": true
        },
        {
          "In-store pickup": true
        },
        {
          "Onsite services": true
        }
      ],
      "Accessibility": [
        {
          "Wheelchair accessible entrance": true
        },
        {
          "Wheelchair accessible parking lot": true
        }
      ],
      "Planning": [
        {
          "Quick visit": true
        }
      ],
      "Payments": [
        {
          "Credit cards": true
        }
      ]
    },
    "gasPrices": [],
    "url": "https://www.google.com/maps/search/?api=1&query=Walgreens%20Pharmacy&query_place_id=ChIJd4rd2zTLSIgRUPvbvy9-yZY",
    "searchPageUrl": "https://www.google.com/maps/search/pharmacies%20in%20St.%20Albans,%20WV%20in%20St.%20Albans,%20WV/@63.653579074253855,-148.50731502864818,9z?hl=en",
    "searchString": "pharmacies in St. Albans, WV in St. Albans, WV",
    "language": "en",
    "rank": 4,
    "isAdvertisement": false,
    "imageUrl": "https://lh3.googleusercontent.com/p/AF1QipOWkxKqLF_6h5_I-M3nzZlOUHA_GU43ME06HxEd=w525-h240-k-no",
    "kgmid": "/g/11h9ld_9mz"
  },
  {
    "title": "Walgreens",
    "description": "Drugstore chain with health & beauty aids, prescriptions & photo services, plus mini-mart basics.",
    "price": null,
    "categoryName": "Drug store",
    "address": "305 6th Ave, St Albans, WV 25177",
    "neighborhood": null,
    "street": "305 6th Ave",
    "city": "St Albans",
    "postalCode": "25177",
    "state": "West Virginia",
    "countryCode": "US",
    "website": "https://www.walgreens.com/locator/walgreens-305+6th+ave-saint+albans-wv-25177/id=17111",
    "phone": "(304) 722-4617",
    "phoneUnformatted": "+13047224617",
    "claimThisBusiness": false,
    "location": {
      "lat": 38.3853618,
      "lng": -81.8344407
    },
    "locatedIn": "Walgreens Pharmacy",
    "totalScore": 3.1,
    "permanentlyClosed": false,
    "temporarilyClosed": false,
    "placeId": "ChIJTxDBqD3LSIgR2AurZpKY2RU",
    "categories": [
      "Drug store",
      "Beauty supply store",
      "Convenience store",
      "Cosmetics store",
      "Greeting card shop",
      "Perfume store",
      "Stationery store"
    ],
    "fid": "0x8848cb3da8c1104f:0x15d9989266ab0bd8",
    "cid": "1574457299297831896",
    "reviewsCount": 25,
    "imagesCount": 12,
    "imageCategories": [],
    "scrapedAt": "2025-06-23T06:19:31.428Z",
    "googleFoodUrl": null,
    "hotelAds": [],
    "openingHours": [
      {
        "day": "Monday",
        "hours": "8 AM to 10 PM"
      },
      {
        "day": "Tuesday",
        "hours": "8 AM to 10 PM"
      },
      {
        "day": "Wednesday",
        "hours": "8 AM to 10 PM"
      },
      {
        "day": "Thursday",
        "hours": "8 AM to 10 PM"
      },
      {
        "day": "Friday",
        "hours": "8 AM to 10 PM"
      },
      {
        "day": "Saturday",
        "hours": "8 AM to 10 PM"
      },
      {
        "day": "Sunday",
        "hours": "9 AM to 9 PM"
      }
    ],
    "additionalOpeningHours": {
      "Walgreens Pharmacy": [
        {
          "day": "Monday",
          "hours": "9 AM–1:30 PM"
        },
        {
          "day": "Tuesday",
          "hours": "9 AM–1:30 PM"
        },
        {
          "day": "Wednesday",
          "hours": "9 AM–1:30 PM"
        },
        {
          "day": "Thursday",
          "hours": "9 AM–1:30 PM"
        },
        {
          "day": "Friday",
          "hours": "9 AM–1:30 PM"
        },
        {
          "day": "Saturday",
          "hours": "9 AM–1:30 PM"
        },
        {
          "day": "Sunday",
          "hours": "10 AM–1:30 PM"
        }
      ],
      "Walgreens Photo": [
        {
          "day": "Monday",
          "hours": "8 AM–10 PM"
        },
        {
          "day": "Tuesday",
          "hours": "8 AM–10 PM"
        },
        {
          "day": "Wednesday",
          "hours": "8 AM–10 PM"
        },
        {
          "day": "Thursday",
          "hours": "8 AM–10 PM"
        },
        {
          "day": "Friday",
          "hours": "8 AM–10 PM"
        },
        {
          "day": "Saturday",
          "hours": "8 AM–10 PM"
        },
        {
          "day": "Sunday",
          "hours": "9 AM–9 PM"
        }
      ],
      "Pickup": [
        {
          "day": "Monday",
          "hours": "8 AM–10 PM"
        },
        {
          "day": "Tuesday",
          "hours": "8 AM–10 PM"
        },
        {
          "day": "Wednesday",
          "hours": "8 AM–10 PM"
        },
        {
          "day": "Thursday",
          "hours": "8 AM–10 PM"
        },
        {
          "day": "Friday",
          "hours": "8 AM–10 PM"
        },
        {
          "day": "Saturday",
          "hours": "8 AM–10 PM"
        },
        {
          "day": "Sunday",
          "hours": "9 AM–9 PM"
        }
      ]
    },
    "peopleAlsoSearch": [],
    "placesTags": [],
    "reviewsTags": [],
    "additionalInfo": {
      "Service options": [
        {
          "Curbside pickup": true
        },
        {
          "Delivery": true
        },
        {
          "In-store pickup": true
        },
        {
          "Onsite services": true
        },
        {
          "Same-day delivery": true
        }
      ],
      "Accessibility": [
        {
          "Wheelchair accessible entrance": true
        },
        {
          "Wheelchair accessible parking lot": true
        }
      ],
      "Offerings": [
        {
          "Passport photos": true
        }
      ],
      "Planning": [
        {
          "Quick visit": true
        }
      ],
      "Payments": [
        {
          "Credit cards": true
        },
        {
          "Debit cards": true
        },
        {
          "NFC mobile payments": true
        },
        {
          "SNAP/EBT": true
        },
        {
          "Credit cards": true
        }
      ]
    },
    "gasPrices": [],
    "url": "https://www.google.com/maps/search/?api=1&query=Walgreens&query_place_id=ChIJTxDBqD3LSIgR2AurZpKY2RU",
    "searchPageUrl": "https://www.google.com/maps/search/pharmacies%20in%20St.%20Albans,%20WV%20in%20St.%20Albans,%20WV/@63.653579074253855,-148.50731502864818,9z?hl=en",
    "searchString": "pharmacies in St. Albans, WV in St. Albans, WV",
    "language": "en",
    "rank": 5,
    "isAdvertisement": false,
    "imageUrl": "https://lh3.googleusercontent.com/gps-cs-s/AC9h4nobS_UWaSb6POj3LUGfFx2G7gwesZSa4rqKu0-QOTpbr5YFqLI_WDMvxmMyVXtYC6ZlFFCVZaNcoGZKcKlH7dqxd3wOMlc8EaoctV_WYxKxq7xp8P9tjncwREBakEXKw5oDopNk=w408-h725-k-no",
    "kgmid": "/g/11j4ff0qjj"
  },
  {
    "title": "Kroger Pharmacy",
    "price": "$$",
    "categoryName": "Pharmacy",
    "address": "1439 MacCorkle Ave, St Albans, WV 25177",
    "neighborhood": null,
    "street": "1439 MacCorkle Ave",
    "city": "St Albans",
    "postalCode": "25177",
    "state": "West Virginia",
    "countryCode": "US",
    "website": "https://www.kroger.com/rx/pharmacy/details/029/00725?cid=loc_02900725P_gmb",
    "phone": "(304) 722-5086",
    "phoneUnformatted": "+13047225086",
    "claimThisBusiness": false,
    "location": {
      "lat": 38.3870824,
      "lng": -81.8260646
    },
    "totalScore": 4.1,
    "permanentlyClosed": false,
    "temporarilyClosed": false,
    "placeId": "ChIJ9YYwQd7KSIgR8ywjL7MCYBM",
    "categories": [
      "Pharmacy",
      "Drug store",
      "Health counselor",
      "Home health care service"
    ],
    "fid": "0x8848cade413086f5:0x136002b32f232cf3",
    "cid": "1396118853098089715",
    "reviewsCount": 14,
    "imagesCount": 17,
    "imageCategories": [],
    "scrapedAt": "2025-06-23T06:19:31.428Z",
    "googleFoodUrl": null,
    "hotelAds": [],
    "openingHours": [
      {
        "day": "Monday",
        "hours": "8 AM to 1 PM, 1:30 to 8 PM"
      },
      {
        "day": "Tuesday",
        "hours": "8 AM to 1 PM, 1:30 to 8 PM"
      },
      {
        "day": "Wednesday",
        "hours": "8 AM to 1 PM, 1:30 to 8 PM"
      },
      {
        "day": "Thursday",
        "hours": "8 AM to 1 PM, 1:30 to 8 PM"
      },
      {
        "day": "Friday",
        "hours": "8 AM to 1 PM, 1:30 to 8 PM"
      },
      {
        "day": "Saturday",
        "hours": "9 AM to 1 PM, 1:30 to 6 PM"
      },
      {
        "day": "Sunday",
        "hours": "10 AM to 1 PM, 1:30 to 5 PM"
      }
    ],
    "peopleAlsoSearch": [],
    "placesTags": [],
    "reviewsTags": [],
    "additionalInfo": {
      "Service options": [
        {
          "Curbside pickup": true
        },
        {
          "Delivery": true
        },
        {
          "In-store pickup": true
        },
        {
          "In-store shopping": true
        },
        {
          "Same-day delivery": true
        }
      ],
      "Accessibility": [
        {
          "Wheelchair accessible entrance": true
        },
        {
          "Wheelchair accessible parking lot": true
        },
        {
          "Wheelchair accessible restroom": true
        },
        {
          "Wheelchair accessible seating": true
        }
      ],
      "Offerings": [
        {
          "Passport photos": true
        }
      ],
      "Crowd": [
        {
          "LGBTQ+ friendly": true
        },
        {
          "Transgender safespace": true
        }
      ],
      "Planning": [
        {
          "Quick visit": true
        }
      ],
      "Payments": [
        {
          "Checks": true
        },
        {
          "Credit cards": true
        },
        {
          "Debit cards": true
        },
        {
          "NFC mobile payments": true
        },
        {
          "Credit cards": true
        }
      ]
    },
    "gasPrices": [],
    "url": "https://www.google.com/maps/search/?api=1&query=Kroger%20Pharmacy&query_place_id=ChIJ9YYwQd7KSIgR8ywjL7MCYBM",
    "searchPageUrl": "https://www.google.com/maps/search/pharmacies%20in%20St.%20Albans,%20WV%20in%20St.%20Albans,%20WV/@63.653579074253855,-148.50731502864818,9z?hl=en",
    "searchString": "pharmacies in St. Albans, WV in St. Albans, WV",
    "language": "en",
    "rank": 6,
    "isAdvertisement": false,
    "imageUrl": "https://lh3.googleusercontent.com/gps-cs-s/AC9h4nrwepZwfGSnnIR8XpI_I_s1qZr6SWdWeSvhpyg-xH4-iMvsnewRzrZEy1JjyjnmAAIQgGnYSag7098HXKaeuOfyxeG93OfUnhG-BAErCcmoh2AJYhP_7h1E9Nyh0Exk88j3wI4=w408-h544-k-no",
    "kgmid": "/g/1ptyc_kxg"
  },
  {
    "title": "Family Health Care - Baldwin Medical",
    "price": null,
    "categoryName": "Pharmacy",
    "address": "1615 Michigan Ave, Baldwin, MI 49304",
    "neighborhood": null,
    "street": "1615 Michigan Ave",
    "city": "Baldwin",
    "postalCode": "49304",
    "state": "Michigan",
    "countryCode": "US",
    "website": "https://www.familyhealthcare.org/",
    "phone": "(231) 745-4624",
    "phoneUnformatted": "+12317454624",
    "claimThisBusiness": false,
    "location": {
      "lat": 43.904113,
      "lng": -85.852407
    },
    "totalScore": 3.6,
    "permanentlyClosed": false,
    "temporarilyClosed": false,
    "placeId": "ChIJYSad837GHogRJbVi5Jqko5M",
    "categories": [
      "Pharmacy",
      "Counselor",
      "Dental clinic",
      "Doctor",
      "Laboratory",
      "Medical Center"
    ],
    "fid": "0x881ec67ef39d2661:0x93a3a49ae462b525",
    "cid": "10638527729942836517",
    "reviewsCount": 29,
    "reviewsDistribution": {
      "oneStar": 6,
      "twoStar": 3,
      "threeStar": 3,
      "fourStar": 3,
      "fiveStar": 14
    },
    "imagesCount": 1,
    "imageCategories": [],
    "scrapedAt": "2025-06-23T06:19:34.426Z",
    "googleFoodUrl": null,
    "hotelAds": [],
    "openingHours": [
      {
        "day": "Monday",
        "hours": "7:30 AM to 7 PM"
      },
      {
        "day": "Tuesday",
        "hours": "7:30 AM to 7 PM"
      },
      {
        "day": "Wednesday",
        "hours": "7:30 AM to 7 PM"
      },
      {
        "day": "Thursday",
        "hours": "7:30 AM to 7 PM"
      },
      {
        "day": "Friday",
        "hours": "7:30 AM to 5 PM"
      },
      {
        "day": "Saturday",
        "hours": "8 AM to 12 PM"
      },
      {
        "day": "Sunday",
        "hours": "Closed"
      }
    ],
    "peopleAlsoSearch": [],
    "placesTags": [],
    "reviewsTags": [],
    "additionalInfo": {
      "Accessibility": [
        {
          "Wheelchair accessible entrance": true
        },
        {
          "Wheelchair accessible parking lot": true
        },
        {
          "Wheelchair accessible restroom": true
        }
      ],
      "Amenities": [
        {
          "Restroom": true
        }
      ],
      "Planning": [
        {
          "Appointments recommended": true
        }
      ],
      "Payments": [
        {
          "Credit cards": true
        },
        {
          "Offers free or low-cost care based on individual circumstances": true
        }
      ]
    },
    "gasPrices": [],
    "url": "https://www.google.com/maps/search/?api=1&query=Family%20Health%20Care%20-%20Baldwin%20Medical&query_place_id=ChIJYSad837GHogRJbVi5Jqko5M",
    "searchPageUrl": "https://www.google.com/maps/search/pharmacies%20in%20St.%20Albans,%20WV%20in%20St.%20Albans,%20WV/@42.54640259466427,-83.31984582886456,8z?hl=en",
    "searchString": "pharmacies in St. Albans, WV in St. Albans, WV",
    "language": "en",
    "rank": 21,
    "isAdvertisement": false,
    "imageUrl": "https://lh3.googleusercontent.com/p/AF1QipPQjpRcLq-BR_cyoTjByKGN7g1DvjsDXDwXwNoP=w639-h240-k-no",
    "kgmid": "/g/1thzphz4"
  },
  {
    "title": "💨 DELTA-8 OSU 🥳 D8 GUMMIES 🎉 1HR DELIVERY AVAILABLE - DISPOSABLES & CARTS , CBD, HHC, D8, THC Carts, THC-O, THC-V, THC-P",
    "price": null,
    "categoryName": "Pharmacy",
    "address": null,
    "phone": "(614) 900-8586",
    "phoneUnformatted": "+16149008586",
    "claimThisBusiness": false,
    "location": {
      "lat": 40.0665985,
      "lng": -82.8636236
    },
    "totalScore": 5,
    "permanentlyClosed": false,
    "temporarilyClosed": false,
    "placeId": "ChIJxXlls5mPOIgR-_jg0HOxdCY",
    "categories": [
      "Pharmacy",
      "Service establishment",
      "Herbal medicine store",
      "Herbalist",
      "Organic drug store",
      "Pain control clinic",
      "Physical therapist",
      "Sleep clinic",
      "Smoke shop"
    ],
    "fid": "0x88388f99b36579c5:0x2674b173d0e0f8fb",
    "cid": "2771034781723457787",
    "reviewsCount": 14,
    "reviewsDistribution": {
      "oneStar": 0,
      "twoStar": 0,
      "threeStar": 0,
      "fourStar": 0,
      "fiveStar": 14
    },
    "imagesCount": null,
    "imageCategories": [],
    "scrapedAt": "2025-06-23T06:20:44.019Z",
    "googleFoodUrl": null,
    "hotelAds": [],
    "openingHours": [
      {
        "day": "Monday",
        "hours": "9 AM to 10 PM"
      },
      {
        "day": "Tuesday",
        "hours": "9 AM to 10 PM"
      },
      {
        "day": "Wednesday",
        "hours": "9 AM to 10 PM"
      },
      {
        "day": "Thursday",
        "hours": "9 AM to 10 PM"
      },
      {
        "day": "Friday",
        "hours": "9 AM to 11 PM"
      },
      {
        "day": "Saturday",
        "hours": "10:30 AM to 11 PM"
      },
      {
        "day": "Sunday",
        "hours": "11 AM to 10 PM"
      }
    ],
    "additionalOpeningHours": {
      "Drive through": [
        {
          "day": "Monday",
          "hours": "9 AM–9 PM"
        },
        {
          "day": "Tuesday",
          "hours": "9 AM–9 PM"
        },
        {
          "day": "Wednesday",
          "hours": "9 AM–9 PM"
        },
        {
          "day": "Thursday",
          "hours": "9 AM–9 PM"
        },
        {
          "day": "Friday",
          "hours": "9 AM–9 PM"
        },
        {
          "day": "Saturday",
          "hours": "9 AM–9 PM"
        },
        {
          "day": "Sunday",
          "hours": "9 AM–9 PM"
        }
      ],
      "Delivery": [
        {
          "day": "Monday",
          "hours": "9 AM–10 PM"
        },
        {
          "day": "Tuesday",
          "hours": "9 AM–10 PM"
        },
        {
          "day": "Wednesday",
          "hours": "9 AM–10 PM"
        },
        {
          "day": "Thursday",
          "hours": "9 AM–10 PM"
        },
        {
          "day": "Friday",
          "hours": "9 AM–10 PM"
        },
        {
          "day": "Saturday",
          "hours": "9 AM–10 PM"
        },
        {
          "day": "Sunday",
          "hours": "9 AM–10 PM"
        }
      ],
      "Pickup": [
        {
          "day": "Monday",
          "hours": "9 AM–10 PM"
        },
        {
          "day": "Tuesday",
          "hours": "9 AM–10 PM"
        },
        {
          "day": "Wednesday",
          "hours": "9 AM–10 PM"
        },
        {
          "day": "Thursday",
          "hours": "9 AM–10 PM"
        },
        {
          "day": "Friday",
          "hours": "9 AM–10 PM"
        },
        {
          "day": "Saturday",
          "hours": "9 AM–10 PM"
        },
        {
          "day": "Sunday",
          "hours": "9 AM–9 PM"
        }
      ]
    },
    "peopleAlsoSearch": [],
    "placesTags": [],
    "reviewsTags": [],
    "additionalInfo": {
      "Service options": [
        {
          "Delivery": true
        },
        {
          "American Sign Language": true
        }
      ],
      "Crowd": [
        {
          "LGBTQ+ friendly": true
        }
      ],
      "Payments": [
        {
          "Credit cards": true
        }
      ]
    },
    "gasPrices": [],
    "url": "https://www.google.com/maps/search/?api=1&query=%F0%9F%92%A8%20DELTA-8%20OSU%20%F0%9F%A5%B3%20D8%20GUMMIES%20%F0%9F%8E%89%201HR%20DELIVERY%20AVAILABLE%20-%20DISPOSABLES%20%26%20CARTS%20%2C%20CBD%2C%20HHC%2C%20D8%2C%20THC%20Carts%2C%20THC-O%2C%20THC-V%2C%20THC-P&query_place_id=ChIJxXlls5mPOIgR-_jg0HOxdCY",
    "searchPageUrl": "https://www.google.com/maps/search/pharmacies%20in%20St.%20Albans,%20WV%20in%20St.%20Albans,%20WV/@39.68245004733214,-86.48607177164843,8z?hl=en",
    "searchString": "pharmacies in St. Albans, WV in St. Albans, WV",
    "language": "en",
    "rank": 21,
    "isAdvertisement": false,
    "kgmid": "/g/11rggrwmw0"
  },
  {
    "title": "St. Albans Pharmacy",
    "price": null,
    "categoryName": "Pharmacy",
    "address": "3 Crest Rd, St Albans City, VT 05478, United States",
    "neighborhood": null,
    "street": "3 Crest Rd",
    "city": "St Albans City",
    "postalCode": "05478",
    "state": "Vermont",
    "countryCode": "US",
    "website": "https://notchvt.org/",
    "phone": "+1 802-527-6700",
    "phoneUnformatted": "+18025276700",
    "claimThisBusiness": false,
    "location": {
      "lat": 44.8068554,
      "lng": -73.0706089
    },
    "totalScore": 4.5,
    "permanentlyClosed": false,
    "temporarilyClosed": false,
    "placeId": "ChIJPVforY4bykwR1sxBQswG1Tk",
    "categories": [
      "Pharmacy"
    ],
    "fid": "0x4cca1b8eade8573d:0x39d506cc4241ccd6",
    "cid": "4167244504555965654",
    "reviewsCount": 2,
    "imagesCount": null,
    "imageCategories": [],
    "scrapedAt": "2025-06-23T06:22:21.753Z",
    "googleFoodUrl": null,
    "hotelAds": [],
    "openingHours": [
      {
        "day": "Monday",
        "hours": "8:30 AM to 5:30 PM"
      },
      {
        "day": "Tuesday",
        "hours": "8:30 AM to 5:30 PM"
      },
      {
        "day": "Wednesday",
        "hours": "8:30 AM to 5:30 PM"
      },
      {
        "day": "Thursday",
        "hours": "8:30 AM to 5:30 PM"
      },
      {
        "day": "Friday",
        "hours": "8:30 AM to 5:30 PM"
      },
      {
        "day": "Saturday",
        "hours": "9 AM to 12 PM"
      },
      {
        "day": "Sunday",
        "hours": "Closed"
      }
    ],
    "peopleAlsoSearch": [],
    "placesTags": [],
    "reviewsTags": [],
    "additionalInfo": {
      "Service options": [
        {
          "In-store shopping": true
        }
      ],
      "Accessibility": [
        {
          "Wheelchair-accessible car park": true
        },
        {
          "Wheelchair-accessible entrance": true
        }
      ],
      "Planning": [
        {
          "Quick visit": true
        }
      ],
      "Payments": [
        {
          "Credit cards": true
        },
        {
          "Debit cards": true
        },
        {
          "NFC mobile payments": true
        },
        {
          "Credit cards": true
        }
      ]
    },
    "gasPrices": [],
    "url": "https://www.google.com/maps/search/?api=1&query=St.%20Albans%20Pharmacy&query_place_id=ChIJPVforY4bykwR1sxBQswG1Tk",
    "searchPageUrl": "https://www.google.com/maps/search/pharmacies%20in%20St.%20Albans,%20WV%20in%20St.%20Albans,%20WV/@45.410355141996405,-73.82116800051296,8z?hl=en",
    "searchString": "pharmacies in St. Albans, WV in St. Albans, WV",
    "language": "en",
    "rank": 1,
    "isAdvertisement": false,
    "kgmid": "/g/11k9g_k7l8"
  }
]