[
  {
    "title": "PharmaExpressrx",
    "price": null,
    "categoryName": "Pharmacy",
    "address": "Le Chantier Building, Rue de la Possession, Victoria",
    "neighborhood": null,
    "street": "Le Chantier Building, Rue de la Possession",
    "city": "LA",
    "postalCode": null,
    "state": "California",
    "countryCode": "SC",
    "website": "https://www.pharmaexpressrx.com/",
    "phone": "+1 888-571-3440",
    "phoneUnformatted": "+18885713440",
    "claimThisBusiness": false,
    "location": {
      "lat": -4.625242,
      "lng": 55.4532216
    },
    "totalScore": 3,
    "permanentlyClosed": false,
    "temporarilyClosed": false,
    "placeId": "ChIJf8KNfIAp4CIREJ_1f6QBYWI",
    "categories": [
      "Pharmacy"
    ],
    "fid": "0x22e029807c8dc27f:0x626101a47ff59f10",
    "cid": "7088949094490939152",
    "reviewsCount": 2,
    "imagesCount": 5,
    "imageCategories": [],
    "scrapedAt": "2025-06-20T20:03:43.039Z",
    "googleFoodUrl": null,
    "hotelAds": [],
    "openingHours": [
      {
        "day": "Monday",
        "hours": "Open 24 hours"
      },
      {
        "day": "Tuesday",
        "hours": "Open 24 hours"
      },
      {
        "day": "Wednesday",
        "hours": "Open 24 hours"
      },
      {
        "day": "Thursday",
        "hours": "Open 24 hours"
      },
      {
        "day": "Friday",
        "hours": "Open 24 hours"
      },
      {
        "day": "Saturday",
        "hours": "Open 24 hours"
      },
      {
        "day": "Sunday",
        "hours": "Open 24 hours"
      }
    ],
    "peopleAlsoSearch": [],
    "placesTags": [],
    "reviewsTags": [],
    "additionalInfo": {
      "Service options": [
        {
          "Delivery": true
        }
      ],
      "Planning": [
        {
          "Quick visit": true
        }
      ],
      "Payments": [
        {
          "Credit cards": true
        }
      ]
    },
    "gasPrices": [],
    "url": "https://www.google.com/maps/search/?api=1&query=PharmaExpressrx&query_place_id=ChIJf8KNfIAp4CIREJ_1f6QBYWI",
    "searchPageUrl": "https://www.google.com/maps/search/pharmacy?hl=en",
    "searchString": "pharmacy",
    "language": "en",
    "rank": 1,
    "isAdvertisement": false,
    "imageUrl": "https://lh3.googleusercontent.com/p/AF1QipNLdSqDdDzXQmejo7nmp1WAsL7UdMrH1X-grVIL=w408-h261-k-no",
    "kgmid": "/g/11y4bjq8qp",
    "query": "pharmacy",
    "scraped_at": "2025-06-20T20:03:55.672952"
  },
  {
    "title": "D'Offay Pharmacy (Airport)",
    "price": null,
    "categoryName": "Pharmacy",
    "address": "8GH6+HFF",
    "neighborhood": null,
    "street": "8GH6+HFF",
    "city": "LA",
    "postalCode": null,
    "state": "California",
    "countryCode": "SC",
    "website": "https://www.facebook.com/doffaypharmacy",
    "phone": "4 374 400",
    "phoneUnformatted": "4374400",
    "claimThisBusiness": true,
    "location": {
      "lat": -4.6710561,
      "lng": 55.5111694
    },
    "totalScore": 5,
    "permanentlyClosed": false,
    "temporarilyClosed": false,
    "placeId": "ChIJ76ij8KPVHyMRyoUVjfbBTqI",
    "categories": [
      "Pharmacy"
    ],
    "fid": "0x231fd5a3f0a3a8ef:0xa24ec1f68d1585ca",
    "cid": "11695498547000870346",
    "reviewsCount": 5,
    "imagesCount": 2,
    "imageCategories": [],
    "scrapedAt": "2025-06-20T20:03:43.040Z",
    "googleFoodUrl": null,
    "hotelAds": [],
    "openingHours": [
      {
        "day": "Monday",
        "hours": "5\u202fAM to 11\u202fPM"
      },
      {
        "day": "Tuesday",
        "hours": "5\u202fAM to 11\u202fPM"
      },
      {
        "day": "Wednesday",
        "hours": "5\u202fAM to 11\u202fPM"
      },
      {
        "day": "Thursday",
        "hours": "5\u202fAM to 11\u202fPM"
      },
      {
        "day": "Friday",
        "hours": "5\u202fAM to 11\u202fPM"
      },
      {
        "day": "Saturday",
        "hours": "5\u202fAM to 11\u202fPM"
      },
      {
        "day": "Sunday",
        "hours": "5\u202fAM to 11\u202fPM"
      }
    ],
    "peopleAlsoSearch": [],
    "placesTags": [],
    "reviewsTags": [],
    "additionalInfo": {
      "Planning": [
        {
          "Quick visit": true
        }
      ]
    },
    "gasPrices": [],
    "url": "https://www.google.com/maps/search/?api=1&query=D'Offay%20Pharmacy%20(Airport)&query_place_id=ChIJ76ij8KPVHyMRyoUVjfbBTqI",
    "searchPageUrl": "https://www.google.com/maps/search/pharmacy?hl=en",
    "searchString": "pharmacy",
    "language": "en",
    "rank": 2,
    "isAdvertisement": false,
    "imageUrl": "https://lh3.googleusercontent.com/gps-cs-s/AC9h4noY5bdn2Hu7UkdaqsqPz2WRrf540ITGp8rqsQzD8yM368FdetrIY8ps9uCu_dcNS_sgf1TV-gZZwU1oClvR0mhIVjLSvwz2IrBkTAIjuO8uf0sd511DwWeasVC8RTTzWcGt2a8=w521-h240-k-no",
    "kgmid": "/g/11sgfh3kk0",
    "query": "pharmacy",
    "scraped_at": "2025-06-20T20:03:55.672968"
  },
  {
    "title": "Eden Pharmacy",
    "price": null,
    "categoryName": "Pharmacy",
    "address": "103, Eden Plaza, Eden Island, Roch Caiman",
    "neighborhood": null,
    "street": "103, Eden Plaza, Eden Island",
    "city": "LA",
    "postalCode": null,
    "state": "California",
    "countryCode": "SC",
    "website": "http://www.euromedical.info/",
    "claimThisBusiness": false,
    "location": {
      "lat": -4.640573,
      "lng": 55.475862
    },
    "totalScore": 4.6,
    "permanentlyClosed": false,
    "temporarilyClosed": false,
    "placeId": "ChIJHeTum-kp4CIRXXWQE_fFtCg",
    "categories": [
      "Pharmacy"
    ],
    "fid": "0x22e029e99beee41d:0x28b4c5f71390755d",
    "cid": "2933186922300863837",
    "reviewsCount": 15,
    "imagesCount": 74,
    "imageCategories": [],
    "scrapedAt": "2025-06-20T20:03:43.040Z",
    "googleFoodUrl": null,
    "hotelAds": [],
    "openingHours": [
      {
        "day": "Monday",
        "hours": "9\u202fAM to 7\u202fPM"
      },
      {
        "day": "Tuesday",
        "hours": "9\u202fAM to 7\u202fPM"
      },
      {
        "day": "Wednesday",
        "hours": "9\u202fAM to 7\u202fPM"
      },
      {
        "day": "Thursday",
        "hours": "9\u202fAM to 7\u202fPM"
      },
      {
        "day": "Friday",
        "hours": "9\u202fAM to 7\u202fPM"
      },
      {
        "day": "Saturday",
        "hours": "10\u202fAM to 6\u202fPM"
      },
      {
        "day": "Sunday",
        "hours": "10\u202fAM to 3\u202fPM"
      }
    ],
    "peopleAlsoSearch": [],
    "placesTags": [],
    "reviewsTags": [],
    "additionalInfo": {
      "Accessibility": [
        {
          "Wheelchair-accessible car park": true
        },
        {
          "Wheelchair-accessible entrance": true
        }
      ],
      "Amenities": [
        {
          "Wi-Fi": true
        },
        {
          "Free Wi-Fi": true
        }
      ],
      "Planning": [
        {
          "Quick visit": true
        }
      ],
      "Payments": [
        {
          "Cheques": true
        },
        {
          "Credit cards": true
        },
        {
          "Debit cards": true
        },
        {
          "Credit cards": true
        }
      ]
    },
    "gasPrices": [],
    "url": "https://www.google.com/maps/search/?api=1&query=Eden%20Pharmacy&query_place_id=ChIJHeTum-kp4CIRXXWQE_fFtCg",
    "searchPageUrl": "https://www.google.com/maps/search/pharmacy?hl=en",
    "searchString": "pharmacy",
    "language": "en",
    "rank": 3,
    "isAdvertisement": false,
    "imageUrl": "https://lh3.googleusercontent.com/p/AF1QipO_Ew0yddWO_Zzbttc19PFq08o8v724WYsDBNde=w408-h271-k-no",
    "kgmid": "/g/11c6dmlmkc",
    "query": "pharmacy",
    "scraped_at": "2025-06-20T20:03:55.672971"
  },
  {
    "title": "Medicare pharmacy",
    "price": null,
    "categoryName": "Pharmacy",
    "address": "9FX5+W8, De Quincy",
    "neighborhood": null,
    "street": "9FX5+W8",
    "city": "LA",
    "postalCode": null,
    "state": "California",
    "countryCode": "SC",
    "claimThisBusiness": true,
    "location": {
      "lat": -4.6002415,
      "lng": 55.4582897
    },
    "permanentlyClosed": false,
    "temporarilyClosed": false,
    "placeId": "ChIJNeUlSAAp4CIRqM-Iy5tr5hI",
    "categories": [
      "Pharmacy"
    ],
    "fid": "0x22e029004825e535:0x12e66b9bcb88cfa8",
    "cid": "1361894254204997544",
    "reviewsCount": 0,
    "imagesCount": null,
    "imageCategories": [],
    "scrapedAt": "2025-06-20T20:03:43.041Z",
    "googleFoodUrl": null,
    "hotelAds": [],
    "openingHours": [],
    "peopleAlsoSearch": [],
    "placesTags": [],
    "reviewsTags": [],
    "additionalInfo": {
      "Planning": [
        {
          "Quick visit": true
        }
      ]
    },
    "gasPrices": [],
    "url": "https://www.google.com/maps/search/?api=1&query=Medicare%20pharmacy&query_place_id=ChIJNeUlSAAp4CIRqM-Iy5tr5hI",
    "searchPageUrl": "https://www.google.com/maps/search/pharmacy?hl=en",
    "searchString": "pharmacy",
    "language": "en",
    "rank": 4,
    "isAdvertisement": false,
    "kgmid": "/g/11vwdx2rfm",
    "query": "pharmacy",
    "scraped_at": "2025-06-20T20:03:55.672973"
  },
  {
    "title": "Behram's Plaisance Pharmacy",
    "price": null,
    "categoryName": "Pharmacy",
    "address": "E Coast Rd, Mahe",
    "neighborhood": null,
    "street": "E Coast Rd",
    "city": "LA",
    "postalCode": null,
    "state": "California",
    "countryCode": "SC",
    "website": "https://www.facebook.com/PlaisancePharmacySeychelles/",
    "phone": "4 345 783",
    "phoneUnformatted": "4345783",
    "claimThisBusiness": false,
    "location": {
      "lat": -4.639687,
      "lng": 55.4655493
    },
    "totalScore": 4.4,
    "permanentlyClosed": false,
    "temporarilyClosed": false,
    "placeId": "ChIJq3NcuZUp4CIRgaE5BaEzHio",
    "categories": [
      "Pharmacy"
    ],
    "fid": "0x22e02995b95c73ab:0x2a1e33a10539a181",
    "cid": "3034919965564707201",
    "reviewsCount": 7,
    "imagesCount": 4,
    "imageCategories": [],
    "scrapedAt": "2025-06-20T20:03:43.041Z",
    "googleFoodUrl": null,
    "hotelAds": [],
    "openingHours": [
      {
        "day": "Monday",
        "hours": "9\u202fAM to 1:30\u202fPM, 2:30 to 5:30\u202fPM"
      },
      {
        "day": "Tuesday",
        "hours": "9\u202fAM to 1:30\u202fPM, 2:30 to 5:30\u202fPM"
      },
      {
        "day": "Wednesday",
        "hours": "9\u202fAM to 1:30\u202fPM, 2:30 to 5:30\u202fPM"
      },
      {
        "day": "Thursday",
        "hours": "9\u202fAM to 1:30\u202fPM, 2:30 to 5:30\u202fPM"
      },
      {
        "day": "Friday",
        "hours": "9\u202fAM to 1:30\u202fPM, 2:30 to 5:30\u202fPM"
      },
      {
        "day": "Saturday",
        "hours": "9\u202fAM to 1\u202fPM"
      },
      {
        "day": "Sunday",
        "hours": "Closed"
      }
    ],
    "peopleAlsoSearch": [],
    "placesTags": [],
    "reviewsTags": [],
    "additionalInfo": {
      "Accessibility": [
        {
          "Wheelchair-accessible car park": true
        }
      ],
      "Planning": [
        {
          "Quick visit": true
        }
      ],
      "Payments": [
        {
          "Credit cards": true
        }
      ]
    },
    "gasPrices": [],
    "url": "https://www.google.com/maps/search/?api=1&query=Behram's%20Plaisance%20Pharmacy&query_place_id=ChIJq3NcuZUp4CIRgaE5BaEzHio",
    "searchPageUrl": "https://www.google.com/maps/search/pharmacy?hl=en",
    "searchString": "pharmacy",
    "language": "en",
    "rank": 5,
    "isAdvertisement": false,
    "imageUrl": "https://lh3.googleusercontent.com/gps-cs-s/AC9h4nrauCng9-lMtf8zPYmk2ZVT1NDDy2VUqfpmNxcAxamnebhNyUWjE-fh7mubIdXBrzeUw4yxMZ_NQ2UvJVVjw_ocSvb3BaOe9Z-HGhS1S1SxkKSDrBPrMmOcllfnGyQxi3xO4wdh=w408-h544-k-no",
    "kgmid": "/g/11g9vq85mx",
    "query": "pharmacy",
    "scraped_at": "2025-06-20T20:03:55.672977"
  }
]