[
  {
    "name": "Walgreens Pharmacy",
    "address": "498 Castro St, San Francisco, CA 94114, United States",
    "city": "San Francisco",
    "state": "CA",
    "zip": "United States",
    "phone": "+1 415-861-3136",
    "latitude": 37.7610063,
    "longitude": -122.4351993,
    "website": "https://www.walgreens.com/locator/walgreens-498+castro+st-san+francisco-ca-94114/id=1327",
    "source": "apify",
    "scraped_at": "2025-06-20T16:58:57.061Z",
    "raw_data": {
      "title": "Walgreens Pharmacy",
      "description": "Department of the Walgreens chain providing prescription medications & other health-related items.",
      "price": "$$",
      "categoryName": "Pharmacy",
      "address": "498 Castro St, San Francisco, CA 94114, United States",
      "neighborhood": "The Castro",
      "street": "498 Castro St",
      "city": "San Francisco",
      "postalCode": "94114",
      "state": "California",
      "countryCode": "US",
      "website": "https://www.walgreens.com/locator/walgreens-498+castro+st-san+francisco-ca-94114/id=1327",
      "phone": "+1 415-861-3136",
      "phoneUnformatted": "+14158613136",
      "claimThisBusiness": false,
      "location": {
        "lat": 37.7610063,
        "lng": -122.4351993
      },
      "locatedIn": "Walgreens Photo",
      "totalScore": 3.5,
      "permanentlyClosed": false,
      "temporarilyClosed": false,
      "placeId": "ChIJl7b8NBt-j4ARx1_FPb0tqrE",
      "categories": [
        "Pharmacy"
      ],
      "fid": "0x808f7e1b34fcb697:0xb1aa2dbd3dc55fc7",
      "cid": "12802095181562470343",
      "reviewsCount": 164,
      "imagesCount": 125,
      "imageCategories": [],
      "scrapedAt": "2025-06-20T16:58:57.061Z",
      "googleFoodUrl": null,
      "hotelAds": [],
      "openingHours": [
        {
          "day": "Monday",
          "hours": "2\u202fAM to 1:30\u202fam"
        },
        {
          "day": "Tuesday",
          "hours": "2\u202fAM to 1:30\u202fam"
        },
        {
          "day": "Wednesday",
          "hours": "2\u202fAM to 1:30\u202fam"
        },
        {
          "day": "Thursday",
          "hours": "2\u202fAM to 1:30\u202fam"
        },
        {
          "day": "Friday",
          "hours": "2\u202fAM to 1:30\u202fam"
        },
        {
          "day": "Saturday",
          "hours": "2\u202fAM to 1:30\u202fam"
        },
        {
          "day": "Sunday",
          "hours": "2\u202fAM to 1:30\u202fam"
        }
      ],
      "additionalOpeningHours": {
        "Walgreens Photo": [
          {
            "day": "Monday",
            "hours": "Open 24 hours"
          },
          {
            "day": "Tuesday",
            "hours": "Open 24 hours"
          },
          {
            "day": "Wednesday",
            "hours": "Open 24 hours"
          },
          {
            "day": "Thursday",
            "hours": "Open 24 hours"
          },
          {
            "day": "Friday",
            "hours": "Open 24 hours"
          },
          {
            "day": "Saturday",
            "hours": "Open 24 hours"
          },
          {
            "day": "Sunday",
            "hours": "Open 24 hours"
          }
        ],
        "Drive through": [
          {
            "day": "Monday",
            "hours": "2\u202fam\u20131:30\u202fam"
          },
          {
            "day": "Tuesday",
            "hours": "2\u202fam\u20131:30\u202fam"
          },
          {
            "day": "Wednesday",
            "hours": "2\u202fam\u20131:30\u202fam"
          },
          {
            "day": "Thursday",
            "hours": "2\u202fam\u20131:30\u202fam"
          },
          {
            "day": "Friday",
            "hours": "2\u202fam\u20131:30\u202fam"
          },
          {
            "day": "Saturday",
            "hours": "2\u202fam\u20131:30\u202fam"
          },
          {
            "day": "Sunday",
            "hours": "2\u202fam\u20131:30\u202fam"
          }
        ]
      },
      "peopleAlsoSearch": [],
      "placesTags": [],
      "reviewsTags": [],
      "additionalInfo": {
        "Service options": [
          {
            "Kerbside pickup": true
          },
          {
            "Delivery": true
          },
          {
            "Drive-through": true
          },
          {
            "In-store pick-up": true
          },
          {
            "On-site services": true
          },
          {
            "Same-day delivery": true
          }
        ],
        "Accessibility": [
          {
            "Wheelchair-accessible car park": true
          },
          {
            "Wheelchair-accessible entrance": true
          }
        ],
        "Offerings": [
          {
            "Medication disposal": true
          },
          {
            "Naloxone": true
          },
          {
            "Passport photos": true
          }
        ],
        "Planning": [
          {
            "Appointment required": true
          },
          {
            "Quick visit": true
          }
        ],
        "Payments": [
          {
            "Credit cards": true
          },
          {
            "Debit cards": true
          },
          {
            "NFC mobile payments": true
          },
          {
            "Credit cards": true
          }
        ]
      },
      "gasPrices": [],
      "url": "https://www.google.com/maps/search/?api=1&query=Walgreens%20Pharmacy&query_place_id=ChIJl7b8NBt-j4ARx1_FPb0tqrE",
      "searchPageUrl": "https://www.google.com/maps/search/pharmacy%20in%20San%20Francisco,%20CA?hl=en",
      "searchString": "pharmacy in San Francisco, CA",
      "language": "en",
      "rank": 1,
      "isAdvertisement": false,
      "imageUrl": "https://lh3.googleusercontent.com/gps-cs-s/AC9h4nokgkWeDtPzaDMnEpvFf5gNdmxPfWEy0qMm2KaHMggPsmzw2F-fuDwZeeeYPNVPGWznrac_bp-Ydc8gy9v3lBO-1303kn1jEDvc05HUtd3Z9Jd14frwk-63PEDdgRmZ9MA5KxZB=w408-h306-k-no",
      "kgmid": "/g/1td6b2yw"
    }
  },
  {
    "name": "Walgreens Pharmacy",
    "address": "2690 Mission St, San Francisco, CA 94110, United States",
    "city": "San Francisco",
    "state": "CA",
    "zip": "United States",
    "phone": "+1 415-285-1576",
    "latitude": 37.7540708,
    "longitude": -122.4191098,
    "website": "https://www.walgreens.com/locator/walgreens-2690+mission+st-san+francisco-ca-94110/id=4231",
    "source": "apify",
    "scraped_at": "2025-06-20T16:58:57.063Z",
    "raw_data": {
      "title": "Walgreens Pharmacy",
      "description": "Department of the Walgreens chain providing prescription medications & other health-related items.",
      "price": "$$",
      "categoryName": "Pharmacy",
      "address": "2690 Mission St, San Francisco, CA 94110, United States",
      "neighborhood": "Mission District",
      "street": "2690 Mission St",
      "city": "San Francisco",
      "postalCode": "94110",
      "state": "California",
      "countryCode": "US",
      "website": "https://www.walgreens.com/locator/walgreens-2690+mission+st-san+francisco-ca-94110/id=4231",
      "phone": "+1 415-285-1576",
      "phoneUnformatted": "+14152851576",
      "claimThisBusiness": false,
      "location": {
        "lat": 37.7540708,
        "lng": -122.4191098
      },
      "totalScore": 2.8,
      "permanentlyClosed": false,
      "temporarilyClosed": false,
      "placeId": "ChIJo4kzTz9-j4ARheA1x3Dau1c",
      "categories": [
        "Pharmacy"
      ],
      "fid": "0x808f7e3f4f3389a3:0x57bbda70c735e085",
      "cid": "6321886679858012293",
      "reviewsCount": 50,
      "imagesCount": 10,
      "imageCategories": [],
      "scrapedAt": "2025-06-20T16:58:57.063Z",
      "googleFoodUrl": null,
      "hotelAds": [],
      "openingHours": [
        {
          "day": "Monday",
          "hours": "8\u202fAM to 9\u202fPM"
        },
        {
          "day": "Tuesday",
          "hours": "8\u202fAM to 9\u202fPM"
        },
        {
          "day": "Wednesday",
          "hours": "8\u202fAM to 9\u202fPM"
        },
        {
          "day": "Thursday",
          "hours": "8\u202fAM to 9\u202fPM"
        },
        {
          "day": "Friday",
          "hours": "8\u202fAM to 9\u202fPM"
        },
        {
          "day": "Saturday",
          "hours": "9\u202fAM to 1:30\u202fPM, 2 to 5\u202fPM"
        },
        {
          "day": "Sunday",
          "hours": "10\u202fAM to 1:30\u202fPM, 2 to 6\u202fPM"
        }
      ],
      "additionalOpeningHours": {
        "Drive through": [
          {
            "day": "Monday",
            "hours": "8\u202fam\u20139\u202fpm"
          },
          {
            "day": "Tuesday",
            "hours": "8\u202fam\u20139\u202fpm"
          },
          {
            "day": "Wednesday",
            "hours": "8\u202fam\u20139\u202fpm"
          },
          {
            "day": "Thursday",
            "hours": "8\u202fam\u20139\u202fpm"
          },
          {
            "day": "Friday",
            "hours": "8\u202fam\u20139\u202fpm"
          },
          {
            "day": "Saturday",
            "hours": "9\u202fam\u20131:30\u202fpm"
          },
          {
            "day": "Sunday",
            "hours": "10\u202fam\u20131:30\u202fpm"
          }
        ]
      },
      "peopleAlsoSearch": [],
      "placesTags": [],
      "reviewsTags": [],
      "additionalInfo": {
        "Service options": [
          {
            "Delivery": true
          },
          {
            "In-store pick-up": true
          },
          {
            "On-site services": true
          }
        ],
        "Accessibility": [
          {
            "Wheelchair-accessible car park": true
          },
          {
            "Wheelchair-accessible entrance": true
          }
        ],
        "Offerings": [
          {
            "Medication disposal": true
          },
          {
            "Naloxone": true
          }
        ],
        "Planning": [
          {
            "Quick visit": true
          }
        ],
        "Payments": [
          {
            "Credit cards": true
          },
          {
            "Debit cards": true
          }
        ]
      },
      "gasPrices": [],
      "url": "https://www.google.com/maps/search/?api=1&query=Walgreens%20Pharmacy&query_place_id=ChIJo4kzTz9-j4ARheA1x3Dau1c",
      "searchPageUrl": "https://www.google.com/maps/search/pharmacy%20in%20San%20Francisco,%20CA?hl=en",
      "searchString": "pharmacy in San Francisco, CA",
      "language": "en",
      "rank": 2,
      "isAdvertisement": false,
      "imageUrl": "https://lh3.googleusercontent.com/gps-cs-s/AC9h4noCwHFfEyYNtMCAIrMnZJzWhb-egTdpNY9oVTZLwIIQPr3TocLpU9rK2w-aE-HuIgd4RvIgGkJ1XpSrcMG5O7DXNjhg0yTpWcwUXheg0nOWMuYAWSlQ8PQMJwtHxOAutr-55eE7=w408-h408-k-no",
      "kgmid": "/g/11cn96v0kb"
    }
  },
  {
    "name": "Walgreens Pharmacy",
    "address": "2145 Market St, San Francisco, CA 94114, United States",
    "city": "San Francisco",
    "state": "CA",
    "zip": "United States",
    "phone": "+1 415-355-0800",
    "latitude": 37.7665692,
    "longitude": -122.4298506,
    "website": "https://www.walgreens.com/locator/walgreens-2145+market+st-san+francisco-ca-94114/id=4529",
    "source": "apify",
    "scraped_at": "2025-06-20T16:58:57.063Z",
    "raw_data": {
      "title": "Walgreens Pharmacy",
      "description": "Department of the Walgreens chain providing prescription medications & other health-related items.",
      "price": "$$",
      "categoryName": "Pharmacy",
      "address": "2145 Market St, San Francisco, CA 94114, United States",
      "neighborhood": "Mission Dolores",
      "street": "2145 Market St",
      "city": "San Francisco",
      "postalCode": "94114",
      "state": "California",
      "countryCode": "US",
      "website": "https://www.walgreens.com/locator/walgreens-2145+market+st-san+francisco-ca-94114/id=4529",
      "phone": "+1 415-355-0800",
      "phoneUnformatted": "+14153550800",
      "claimThisBusiness": false,
      "location": {
        "lat": 37.7665692,
        "lng": -122.4298506
      },
      "totalScore": 2.8,
      "permanentlyClosed": false,
      "temporarilyClosed": false,
      "placeId": "ChIJk6oTgB5-j4ARK9cyROOVHng",
      "categories": [
        "Pharmacy"
      ],
      "fid": "0x808f7e1e8013aa93:0x781e95e34432d72b",
      "cid": "8655520337186969387",
      "reviewsCount": 22,
      "imagesCount": 5,
      "imageCategories": [],
      "scrapedAt": "2025-06-20T16:58:57.063Z",
      "googleFoodUrl": null,
      "hotelAds": [],
      "openingHours": [
        {
          "day": "Monday",
          "hours": "8\u202fAM to 9\u202fPM"
        },
        {
          "day": "Tuesday",
          "hours": "8\u202fAM to 9\u202fPM"
        },
        {
          "day": "Wednesday",
          "hours": "8\u202fAM to 9\u202fPM"
        },
        {
          "day": "Thursday",
          "hours": "8\u202fAM to 9\u202fPM"
        },
        {
          "day": "Friday",
          "hours": "8\u202fAM to 9\u202fPM"
        },
        {
          "day": "Saturday",
          "hours": "9\u202fAM to 1:30\u202fPM, 2 to 5\u202fPM"
        },
        {
          "day": "Sunday",
          "hours": "10\u202fAM to 1:30\u202fPM, 2 to 6\u202fPM"
        }
      ],
      "additionalOpeningHours": {
        "Drive through": [
          {
            "day": "Monday",
            "hours": "8\u202fam\u20139\u202fpm"
          },
          {
            "day": "Tuesday",
            "hours": "8\u202fam\u20139\u202fpm"
          },
          {
            "day": "Wednesday",
            "hours": "8\u202fam\u20139\u202fpm"
          },
          {
            "day": "Thursday",
            "hours": "8\u202fam\u20139\u202fpm"
          },
          {
            "day": "Friday",
            "hours": "8\u202fam\u20139\u202fpm"
          },
          {
            "day": "Saturday",
            "hours": "9\u202fam\u20131:30\u202fpm"
          },
          {
            "day": "Sunday",
            "hours": "10\u202fam\u20131:30\u202fpm"
          }
        ]
      },
      "peopleAlsoSearch": [],
      "placesTags": [],
      "reviewsTags": [],
      "additionalInfo": {
        "Service options": [
          {
            "Delivery": true
          },
          {
            "In-store pick-up": true
          }
        ],
        "Accessibility": [
          {
            "Wheelchair-accessible entrance": true
          }
        ],
        "Planning": [
          {
            "Quick visit": true
          }
        ],
        "Payments": [
          {
            "Credit cards": true
          },
          {
            "Debit cards": true
          }
        ]
      },
      "gasPrices": [],
      "url": "https://www.google.com/maps/search/?api=1&query=Walgreens%20Pharmacy&query_place_id=ChIJk6oTgB5-j4ARK9cyROOVHng",
      "searchPageUrl": "https://www.google.com/maps/search/pharmacy%20in%20San%20Francisco,%20CA?hl=en",
      "searchString": "pharmacy in San Francisco, CA",
      "language": "en",
      "rank": 3,
      "isAdvertisement": false,
      "imageUrl": "https://lh3.googleusercontent.com/gps-cs-s/AC9h4nrKBpKoxzYhhc3BAKfwxULZPRt2vqYB6B_KAHFX8YajQ78OWO8Xxk_-n3J2ZCBAUNDjFsYMhSml4hatuvaCJ-M-iSvX-YVAoCg9BiBZ9Qkj0r_XXcWyqDnaHFXGBdbk_DEfJg_J=w408-h306-k-no",
      "kgmid": "/g/11cn974jlz"
    }
  },
  {
    "name": "Alto Pharmacy",
    "address": "1400 Tennessee St #2, San Francisco, CA 94107, United States",
    "city": "San Francisco",
    "state": "CA",
    "zip": "United States",
    "phone": "+1 800-874-5881",
    "latitude": 37.7538924,
    "longitude": -122.3891308,
    "website": "https://www.alto.com/",
    "source": "apify",
    "scraped_at": "2025-06-20T16:58:57.063Z",
    "raw_data": {
      "title": "Alto Pharmacy",
      "price": null,
      "categoryName": "Pharmacy",
      "address": "1400 Tennessee St #2, San Francisco, CA 94107, United States",
      "neighborhood": "Central Waterfront",
      "street": "1400 Tennessee St #2",
      "city": "San Francisco",
      "postalCode": "94107",
      "state": "California",
      "countryCode": "US",
      "website": "https://www.alto.com/",
      "phone": "+1 800-874-5881",
      "phoneUnformatted": "+18008745881",
      "claimThisBusiness": false,
      "location": {
        "lat": 37.7538924,
        "lng": -122.3891308
      },
      "totalScore": 3.9,
      "permanentlyClosed": false,
      "temporarilyClosed": false,
      "placeId": "ChIJoTtlvrp_j4ARJ9GqTGv-bZQ",
      "categories": [
        "Pharmacy"
      ],
      "fid": "0x808f7fbabe653ba1:0x946dfe6b4caad127",
      "cid": "10695484426876014887",
      "reviewsCount": 882,
      "imagesCount": 16,
      "imageCategories": [],
      "scrapedAt": "2025-06-20T16:58:57.063Z",
      "googleFoodUrl": null,
      "hotelAds": [],
      "openingHours": [
        {
          "day": "Monday",
          "hours": "9\u202fAM to 6\u202fPM"
        },
        {
          "day": "Tuesday",
          "hours": "9\u202fAM to 6\u202fPM"
        },
        {
          "day": "Wednesday",
          "hours": "9\u202fAM to 6\u202fPM"
        },
        {
          "day": "Thursday",
          "hours": "9\u202fAM to 6\u202fPM"
        },
        {
          "day": "Friday",
          "hours": "9\u202fAM to 6\u202fPM"
        },
        {
          "day": "Saturday",
          "hours": "8\u202fAM to 4:30\u202fPM"
        },
        {
          "day": "Sunday",
          "hours": "8\u202fAM to 4:30\u202fPM"
        }
      ],
      "additionalOpeningHours": {
        "Online service hours": [
          {
            "day": "Monday",
            "hours": "6\u202fam\u20139\u202fpm"
          },
          {
            "day": "Tuesday",
            "hours": "6\u202fam\u20139\u202fpm"
          },
          {
            "day": "Wednesday",
            "hours": "6\u202fam\u20139\u202fpm"
          },
          {
            "day": "Thursday",
            "hours": "6\u202fam\u20139\u202fpm"
          },
          {
            "day": "Friday",
            "hours": "6\u202fam\u20139\u202fpm"
          },
          {
            "day": "Saturday",
            "hours": "7\u202fam\u20136\u202fpm"
          },
          {
            "day": "Sunday",
            "hours": "7\u202fam\u20136\u202fpm"
          }
        ]
      },
      "peopleAlsoSearch": [],
      "placesTags": [],
      "reviewsTags": [],
      "additionalInfo": {
        "Service options": [
          {
            "Delivery": true
          },
          {
            "In-store pick-up": true
          },
          {
            "Same-day delivery": true
          }
        ],
        "Accessibility": [
          {
            "Wheelchair-accessible entrance": true
          }
        ],
        "Crowd": [
          {
            "LGBTQ+ friendly": true
          },
          {
            "Transgender safe space": true
          }
        ],
        "Payments": [
          {
            "Credit cards": true
          },
          {
            "Debit cards": true
          },
          {
            "NFC mobile payments": true
          },
          {
            "Credit cards": true
          }
        ]
      },
      "gasPrices": [],
      "url": "https://www.google.com/maps/search/?api=1&query=Alto%20Pharmacy&query_place_id=ChIJoTtlvrp_j4ARJ9GqTGv-bZQ",
      "searchPageUrl": "https://www.google.com/maps/search/pharmacy%20in%20San%20Francisco,%20CA?hl=en",
      "searchString": "pharmacy in San Francisco, CA",
      "language": "en",
      "rank": 4,
      "isAdvertisement": false,
      "imageUrl": "https://lh3.googleusercontent.com/p/AF1QipNdlo4Ja5ykVeBX4IMKs5fF0IBeKodUnSuUsiTh=w408-h272-k-no",
      "kgmid": "/g/11bzt6jbrg"
    }
  },
  {
    "name": "Parnassus Heights Pharmacy",
    "address": "350 Parnassus Ave Ste 100, San Francisco, CA 94117, United States",
    "city": "San Francisco",
    "state": "CA",
    "zip": "United States",
    "phone": "+1 415-564-9191",
    "latitude": 37.7642347,
    "longitude": -122.4562335,
    "website": "https://parnassusheightsrx.com/",
    "source": "apify",
    "scraped_at": "2025-06-20T16:58:57.063Z",
    "raw_data": {
      "title": "Parnassus Heights Pharmacy",
      "price": null,
      "categoryName": "Pharmacy",
      "address": "350 Parnassus Ave Ste 100, San Francisco, CA 94117, United States",
      "neighborhood": "Parnassus Heights",
      "street": "350 Parnassus Ave Ste 100",
      "city": "San Francisco",
      "postalCode": "94117",
      "state": "California",
      "countryCode": "US",
      "website": "https://parnassusheightsrx.com/",
      "phone": "+1 415-564-9191",
      "phoneUnformatted": "+14155649191",
      "claimThisBusiness": false,
      "location": {
        "lat": 37.7642347,
        "lng": -122.4562335
      },
      "totalScore": 4.8,
      "permanentlyClosed": false,
      "temporarilyClosed": false,
      "placeId": "ChIJUfiUFleHhYARA0hMzaudAmM",
      "categories": [
        "Pharmacy"
      ],
      "fid": "0x808587571694f851:0x63029dabcd4c4803",
      "cid": "7134438120917583875",
      "reviewsCount": 33,
      "imagesCount": 4,
      "imageCategories": [],
      "scrapedAt": "2025-06-20T16:58:57.063Z",
      "googleFoodUrl": null,
      "hotelAds": [],
      "openingHours": [
        {
          "day": "Monday",
          "hours": "9:30\u202fAM to 5:30\u202fPM"
        },
        {
          "day": "Tuesday",
          "hours": "9:30\u202fAM to 5:30\u202fPM"
        },
        {
          "day": "Wednesday",
          "hours": "9:30\u202fAM to 5:30\u202fPM"
        },
        {
          "day": "Thursday",
          "hours": "9:30\u202fAM to 5:30\u202fPM"
        },
        {
          "day": "Friday",
          "hours": "9:30\u202fAM to 5:30\u202fPM"
        },
        {
          "day": "Saturday",
          "hours": "Closed"
        },
        {
          "day": "Sunday",
          "hours": "Closed"
        }
      ],
      "peopleAlsoSearch": [],
      "placesTags": [],
      "reviewsTags": [],
      "additionalInfo": {
        "Service options": [
          {
            "Delivery": true
          }
        ],
        "Accessibility": [
          {
            "Wheelchair-accessible car park": true
          },
          {
            "Wheelchair-accessible entrance": true
          }
        ],
        "Payments": [
          {
            "Credit cards": true
          },
          {
            "Debit cards": true
          },
          {
            "NFC mobile payments": true
          },
          {
            "Credit cards": true
          }
        ]
      },
      "gasPrices": [],
      "url": "https://www.google.com/maps/search/?api=1&query=Parnassus%20Heights%20Pharmacy&query_place_id=ChIJUfiUFleHhYARA0hMzaudAmM",
      "searchPageUrl": "https://www.google.com/maps/search/pharmacy%20in%20San%20Francisco,%20CA?hl=en",
      "searchString": "pharmacy in San Francisco, CA",
      "language": "en",
      "rank": 5,
      "isAdvertisement": false,
      "imageUrl": "https://lh3.googleusercontent.com/gps-cs-s/AC9h4npbOu5RBW-OSjlfXKalv503bSw950NTkkdLRhRO0SorKWYAFbNVjRNQOmlESKn7lwPnrFpP7QbjLf1dHA_GFY-PObsV0rF4uYA0GWkxq_1oXw3LWjWluheNgOpO5foPTShEQUGqIA=w426-h240-k-no",
      "kgmid": "/g/1tdv_36n"
    }
  }
]