[
  {
    "title": "Lakeside Pharmacy",
    "price": null,
    "categoryName": "Pharmacy",
    "address": "242 Pearl St, Burlington, VT 05401",
    "neighborhood": "Old North End",
    "street": "242 Pearl St",
    "city": "Burlington",
    "postalCode": "05401",
    "state": "Vermont",
    "countryCode": "US",
    "website": "http://www.lakerx.org/",
    "phone": "(802) 862-1491",
    "phoneUnformatted": "+18028621491",
    "claimThisBusiness": false,
    "location": {
      "lat": 44.4807158,
      "lng": -73.2090145
    },
    "totalScore": 5,
    "permanentlyClosed": false,
    "temporarilyClosed": false,
    "placeId": "ChIJU_ds5_V6ykwRWVFUSJrB0SU",
    "categories": [
      "Pharmacy"
    ],
    "fid": "0x4cca7af5e76cf753:0x25d1c19a48545159",
    "cid": "2725172117918470489",
    "reviewsCount": 83,
    "imagesCount": 9,
    "imageCategories": [],
    "scrapedAt": "2025-06-23T06:30:57.581Z",
    "googleFoodUrl": null,
    "hotelAds": [],
    "openingHours": [
      {
        "day": "Monday",
        "hours": "8 AM to 7 PM"
      },
      {
        "day": "Tuesday",
        "hours": "8 AM to 7 PM"
      },
      {
        "day": "Wednesday",
        "hours": "8 AM to 7 PM"
      },
      {
        "day": "Thursday",
        "hours": "8 AM to 7 PM"
      },
      {
        "day": "Friday",
        "hours": "8 AM to 7 PM"
      },
      {
        "day": "Saturday",
        "hours": "9 AM to 4 PM"
      },
      {
        "day": "Sunday",
        "hours": "Closed"
      }
    ],
    "additionalOpeningHours": {
      "Delivery": [
        {
          "day": "Monday",
          "hours": "9 AM–5 PM"
        },
        {
          "day": "Tuesday",
          "hours": "9 AM–5 PM"
        },
        {
          "day": "Wednesday",
          "hours": "9 AM–5 PM"
        },
        {
          "day": "Thursday",
          "hours": "9 AM–5 PM"
        },
        {
          "day": "Friday",
          "hours": "9 AM–5 PM"
        },
        {
          "day": "Saturday",
          "hours": "Closed"
        },
        {
          "day": "Sunday",
          "hours": "Closed"
        }
      ]
    },
    "peopleAlsoSearch": [],
    "placesTags": [],
    "reviewsTags": [],
    "additionalInfo": {
      "From the business": [
        {
          "Small business": true
        }
      ],
      "Service options": [
        {
          "Curbside pickup": true
        },
        {
          "Delivery": true
        },
        {
          "Drive-through": true
        },
        {
          "In-store pickup": true
        },
        {
          "In-store shopping": true
        },
        {
          "Same-day delivery": true
        },
        {
          "English": true
        }
      ],
      "Accessibility": [
        {
          "Wheelchair accessible entrance": true
        },
        {
          "Wheelchair accessible parking lot": true
        },
        {
          "Wheelchair accessible seating": true
        }
      ],
      "Offerings": [
        {
          "Medication disposal": true
        }
      ],
      "Amenities": [
        {
          "Wi-Fi": true
        },
        {
          "Free Wi-Fi": true
        }
      ],
      "Crowd": [
        {
          "LGBTQ+ friendly": true
        },
        {
          "Transgender safespace": true
        }
      ],
      "Planning": [
        {
          "Quick visit": true
        }
      ],
      "Payments": [
        {
          "Credit cards": true
        },
        {
          "Debit cards": true
        },
        {
          "NFC mobile payments": true
        },
        {
          "Credit cards": true
        }
      ],
      "Parking": [
        {
          "Free parking lot": true
        },
        {
          "Free street parking": true
        },
        {
          "On-site parking": true
        }
      ]
    },
    "gasPrices": [],
    "url": "https://www.google.com/maps/search/?api=1&query=Lakeside%20Pharmacy&query_place_id=ChIJU_ds5_V6ykwRWVFUSJrB0SU",
    "searchPageUrl": "https://www.google.com/maps/search/independent%20pharmacies%20in%20Burlington,%20VT%20in%20Burlington,%20VT/@64.34834014395538,-157.71370691405576,9z?hl=en",
    "searchString": "independent pharmacies in Burlington, VT in Burlington, VT",
    "language": "en",
    "rank": 1,
    "isAdvertisement": false,
    "imageUrl": "https://lh3.googleusercontent.com/gps-cs-s/AC9h4nr74m_4p3cBwOxSKEcOZO-f1gvPFVY7bZ3HQ0OaFespoPo-O5xtoXBqzEBlJssLcLEo6O2jXTVR1Mm59NJ9kR3ma1ylt7CfZHEPV4Frx21_fDzhkz2ZygkfLAeTzleizDFi8TPMfg=w408-h271-k-no",
    "kgmid": "/g/1td42378"
  },
  {
    "title": "Vermont Family Pharmacy",
    "price": null,
    "categoryName": "Pharmacy",
    "address": "1219 North Ave, Burlington, VT 05408",
    "neighborhood": "New North End",
    "street": "1219 North Ave",
    "city": "Burlington",
    "postalCode": "05408",
    "state": "Vermont",
    "countryCode": "US",
    "website": "https://www.vtfamilyrx.com/",
    "phone": "(802) 658-9664",
    "phoneUnformatted": "+18026589664",
    "claimThisBusiness": false,
    "location": {
      "lat": 44.508597,
      "lng": -73.247381
    },
    "totalScore": 4.7,
    "permanentlyClosed": false,
    "temporarilyClosed": false,
    "placeId": "ChIJO-B3vVVlykwRE5ISMX0rg9A",
    "categories": [
      "Pharmacy"
    ],
    "fid": "0x4cca6555bd77e03b:0xd0832b7d31129213",
    "cid": "15024900598532313619",
    "reviewsCount": 23,
    "imagesCount": 4,
    "imageCategories": [],
    "scrapedAt": "2025-06-23T06:30:57.584Z",
    "googleFoodUrl": null,
    "hotelAds": [],
    "openingHours": [
      {
        "day": "Monday",
        "hours": "9 AM to 6 PM"
      },
      {
        "day": "Tuesday",
        "hours": "9 AM to 6 PM"
      },
      {
        "day": "Wednesday",
        "hours": "9 AM to 6 PM"
      },
      {
        "day": "Thursday",
        "hours": "9 AM to 6 PM"
      },
      {
        "day": "Friday",
        "hours": "9 AM to 6 PM"
      },
      {
        "day": "Saturday",
        "hours": "10 AM to 1 PM"
      },
      {
        "day": "Sunday",
        "hours": "Closed"
      }
    ],
    "peopleAlsoSearch": [],
    "placesTags": [],
    "reviewsTags": [],
    "additionalInfo": {
      "From the business": [
        {
          "Small business": true
        }
      ],
      "Service options": [
        {
          "Delivery": true
        },
        {
          "In-store pickup": true
        }
      ],
      "Accessibility": [
        {
          "Wheelchair accessible parking lot": true
        },
        {
          "Wheelchair accessible entrance": false
        },
        {
          "Wheelchair accessible restroom": false
        },
        {
          "Wheelchair accessible seating": false
        }
      ],
      "Planning": [
        {
          "Quick visit": true
        }
      ],
      "Payments": [
        {
          "Credit cards": true
        },
        {
          "Debit cards": true
        },
        {
          "NFC mobile payments": true
        },
        {
          "Credit cards": true
        }
      ]
    },
    "gasPrices": [],
    "url": "https://www.google.com/maps/search/?api=1&query=Vermont%20Family%20Pharmacy&query_place_id=ChIJO-B3vVVlykwRE5ISMX0rg9A",
    "searchPageUrl": "https://www.google.com/maps/search/independent%20pharmacies%20in%20Burlington,%20VT%20in%20Burlington,%20VT/@64.34834014395538,-157.71370691405576,9z?hl=en",
    "searchString": "independent pharmacies in Burlington, VT in Burlington, VT",
    "language": "en",
    "rank": 2,
    "isAdvertisement": false,
    "imageUrl": "https://lh3.googleusercontent.com/gps-cs-s/AC9h4nrbOcmrg3_bfK_q8-sZH_4sGGZibhd15YJY2P5apKm7SRBWmrBlHpqnGgywmVko7zoXsztzxLWaJhcO-qjtNiCH8xUITLdCG0Ckf0mPnoEaNDhoTmYaOFakWBgaAYFHc0JDUCrs=w408-h497-k-no",
    "kgmid": "/g/1tf57hvs"
  },
  {
    "title": "Community Health Centers - Pharmacy",
    "price": null,
    "categoryName": "Pharmacy",
    "address": "617 Riverside Ave. Suite 1, Burlington, VT 05401",
    "neighborhood": "Old North End",
    "street": "617 Riverside Ave. Suite 1",
    "city": "Burlington",
    "postalCode": "05401",
    "state": "Vermont",
    "countryCode": "US",
    "website": "https://www.chcb.org/services/pharmacy/",
    "phone": "(802) 318-4191",
    "phoneUnformatted": "+18023184191",
    "claimThisBusiness": false,
    "location": {
      "lat": 44.4901289,
      "lng": -73.2061206
    },
    "totalScore": 4.7,
    "permanentlyClosed": false,
    "temporarilyClosed": false,
    "placeId": "ChIJxxNiSUJ7ykwRF7-DeCRHDJg",
    "categories": [
      "Pharmacy"
    ],
    "fid": "0x4cca7b42496213c7:0x980c47247883bf17",
    "cid": "10956210215451868951",
    "reviewsCount": 3,
    "imagesCount": 2,
    "imageCategories": [],
    "scrapedAt": "2025-06-23T06:30:57.584Z",
    "googleFoodUrl": null,
    "hotelAds": [],
    "openingHours": [
      {
        "day": "Monday",
        "hours": "8:30 AM to 5 PM"
      },
      {
        "day": "Tuesday",
        "hours": "8:30 AM to 5 PM"
      },
      {
        "day": "Wednesday",
        "hours": "8:30 AM to 5 PM"
      },
      {
        "day": "Thursday",
        "hours": "8:30 AM to 5 PM"
      },
      {
        "day": "Friday",
        "hours": "8:30 AM to 5 PM"
      },
      {
        "day": "Saturday",
        "hours": "Closed"
      },
      {
        "day": "Sunday",
        "hours": "Closed"
      }
    ],
    "peopleAlsoSearch": [],
    "placesTags": [],
    "reviewsTags": [],
    "additionalInfo": {
      "From the business": [
        {
          "Small business": true
        }
      ],
      "Service options": [
        {
          "In-store shopping": true
        },
        {
          "Delivery": false
        },
        {
          "Same-day delivery": false
        }
      ],
      "Accessibility": [
        {
          "Wheelchair accessible entrance": true
        },
        {
          "Wheelchair accessible parking lot": true
        },
        {
          "Wheelchair accessible restroom": true
        },
        {
          "Wheelchair accessible seating": true
        }
      ],
      "Crowd": [
        {
          "LGBTQ+ friendly": true
        },
        {
          "Transgender safespace": true
        }
      ],
      "Payments": [
        {
          "Credit cards": true
        }
      ],
      "Parking": [
        {
          "Free parking garage": true
        },
        {
          "Free street parking": true
        },
        {
          "On-site parking": true
        }
      ]
    },
    "gasPrices": [],
    "url": "https://www.google.com/maps/search/?api=1&query=Community%20Health%20Centers%20-%20Pharmacy&query_place_id=ChIJxxNiSUJ7ykwRF7-DeCRHDJg",
    "searchPageUrl": "https://www.google.com/maps/search/independent%20pharmacies%20in%20Burlington,%20VT%20in%20Burlington,%20VT/@64.34834014395538,-157.71370691405576,9z?hl=en",
    "searchString": "independent pharmacies in Burlington, VT in Burlington, VT",
    "language": "en",
    "rank": 3,
    "isAdvertisement": false,
    "imageUrl": "https://lh3.googleusercontent.com/p/AF1QipPxshF8GR5o3d6fLp2QFCzLipKdVj5YsLknG6Ga=w426-h240-k-no",
    "kgmid": "/g/11kryg5_mc"
  },
  {
    "title": "Shaw's Pharmacy",
    "price": "$$",
    "categoryName": "Pharmacy",
    "address": "570 Shelburne Rd, Burlington, VT 05401",
    "neighborhood": null,
    "street": "570 Shelburne Rd",
    "city": "Burlington",
    "postalCode": "05401",
    "state": "Vermont",
    "countryCode": "US",
    "website": "https://local.pharmacy.shaws.com/vt/burlington/570-shelburne-rd.html",
    "phone": "(802) 860-3311",
    "phoneUnformatted": "+18028603311",
    "claimThisBusiness": false,
    "location": {
      "lat": 44.4494115,
      "lng": -73.2071768
    },
    "totalScore": 3.7,
    "permanentlyClosed": false,
    "temporarilyClosed": false,
    "placeId": "ChIJbw_5Lrx7ykwReMfi3ESkWFw",
    "categories": [
      "Pharmacy",
      "Drug store",
      "Vitamin & supplements store"
    ],
    "fid": "0x4cca7bbc2ef90f6f:0x5c58a444dce2c778",
    "cid": "6654249065110488952",
    "reviewsCount": 15,
    "imagesCount": 1,
    "imageCategories": [],
    "scrapedAt": "2025-06-23T06:30:57.584Z",
    "googleFoodUrl": null,
    "hotelAds": [],
    "openingHours": [
      {
        "day": "Monday",
        "hours": "9 AM to 2 PM, 2:30 to 8 PM"
      },
      {
        "day": "Tuesday",
        "hours": "9 AM to 2 PM, 2:30 to 8 PM"
      },
      {
        "day": "Wednesday",
        "hours": "9 AM to 2 PM, 2:30 to 8 PM"
      },
      {
        "day": "Thursday",
        "hours": "9 AM to 2 PM, 2:30 to 8 PM"
      },
      {
        "day": "Friday",
        "hours": "9 AM to 2 PM, 2:30 to 8 PM"
      },
      {
        "day": "Saturday",
        "hours": "9 AM to 2 PM, 2:30 to 5 PM"
      },
      {
        "day": "Sunday",
        "hours": "10 AM to 2 PM, 2:30 to 5 PM"
      }
    ],
    "peopleAlsoSearch": [],
    "placesTags": [],
    "reviewsTags": [],
    "additionalInfo": {
      "Service options": [
        {
          "Delivery": true
        },
        {
          "In-store pickup": true
        },
        {
          "In-store shopping": true
        },
        {
          "Same-day delivery": true
        }
      ],
      "Accessibility": [
        {
          "Wheelchair accessible entrance": true
        },
        {
          "Wheelchair accessible parking lot": true
        }
      ],
      "Crowd": [
        {
          "LGBTQ+ friendly": true
        }
      ],
      "Planning": [
        {
          "Appointment required": true
        },
        {
          "Quick visit": true
        }
      ],
      "Payments": [
        {
          "Checks": true
        },
        {
          "Debit cards": true
        },
        {
          "Credit cards": true
        }
      ]
    },
    "gasPrices": [],
    "url": "https://www.google.com/maps/search/?api=1&query=Shaw's%20Pharmacy&query_place_id=ChIJbw_5Lrx7ykwReMfi3ESkWFw",
    "searchPageUrl": "https://www.google.com/maps/search/independent%20pharmacies%20in%20Burlington,%20VT%20in%20Burlington,%20VT/@64.34834014395538,-157.71370691405576,9z?hl=en",
    "searchString": "independent pharmacies in Burlington, VT in Burlington, VT",
    "language": "en",
    "rank": 4,
    "isAdvertisement": false,
    "imageUrl": "https://streetviewpixels-pa.googleapis.com/v1/thumbnail?panoid=Egn_obW-atdyECeDft-iJw&cb_client=search.gws-prod.gps&w=408&h=240&yaw=94.16014&pitch=0&thumbfov=100",
    "kgmid": "/g/1wbf_0h2"
  },
  {
    "title": "Market 32 Pharmacy",
    "price": "$$",
    "categoryName": "Pharmacy",
    "address": "595 Shelburne Rd, Burlington, VT 05401",
    "neighborhood": "South End",
    "street": "595 Shelburne Rd",
    "city": "Burlington",
    "postalCode": "05401",
    "state": "Vermont",
    "countryCode": "US",
    "website": "https://www.pricechopper.com/stores/vt/burlington/pharmacy-165.html",
    "phone": "(802) 651-9835",
    "phoneUnformatted": "+18026519835",
    "claimThisBusiness": false,
    "location": {
      "lat": 44.4487887,
      "lng": -73.2109316
    },
    "totalScore": 3.9,
    "permanentlyClosed": false,
    "temporarilyClosed": false,
    "placeId": "ChIJJ4mKHL17ykwRiaPAdVn31D0",
    "categories": [
      "Pharmacy",
      "Drug store",
      "Vitamin & supplements store"
    ],
    "fid": "0x4cca7bbd1c8a8927:0x3dd4f75975c0a389",
    "cid": "4455457894975972233",
    "reviewsCount": 17,
    "imagesCount": 6,
    "imageCategories": [],
    "scrapedAt": "2025-06-23T06:30:57.584Z",
    "googleFoodUrl": null,
    "hotelAds": [],
    "openingHours": [
      {
        "day": "Monday",
        "hours": "8 AM to 1:30 PM, 2 to 7 PM"
      },
      {
        "day": "Tuesday",
        "hours": "8 AM to 1:30 PM, 2 to 7 PM"
      },
      {
        "day": "Wednesday",
        "hours": "8 AM to 1:30 PM, 2 to 7 PM"
      },
      {
        "day": "Thursday",
        "hours": "8 AM to 1:30 PM, 2 to 7 PM"
      },
      {
        "day": "Friday",
        "hours": "8 AM to 1:30 PM, 2 to 7 PM"
      },
      {
        "day": "Saturday",
        "hours": "9 AM to 2 AM"
      },
      {
        "day": "Sunday",
        "hours": "Closed"
      }
    ],
    "peopleAlsoSearch": [],
    "placesTags": [],
    "reviewsTags": [],
    "additionalInfo": {
      "Service options": [
        {
          "Delivery": true
        },
        {
          "In-store pickup": true
        }
      ],
      "Accessibility": [
        {
          "Wheelchair accessible entrance": true
        },
        {
          "Wheelchair accessible parking lot": true
        }
      ],
      "Planning": [
        {
          "Quick visit": true
        }
      ],
      "Payments": [
        {
          "Checks": true
        },
        {
          "Credit cards": true
        }
      ]
    },
    "gasPrices": [],
    "url": "https://www.google.com/maps/search/?api=1&query=Market%2032%20Pharmacy&query_place_id=ChIJJ4mKHL17ykwRiaPAdVn31D0",
    "searchPageUrl": "https://www.google.com/maps/search/independent%20pharmacies%20in%20Burlington,%20VT%20in%20Burlington,%20VT/@64.34834014395538,-157.71370691405576,9z?hl=en",
    "searchString": "independent pharmacies in Burlington, VT in Burlington, VT",
    "language": "en",
    "rank": 5,
    "isAdvertisement": false,
    "imageUrl": "https://lh3.googleusercontent.com/p/AF1QipPQQREDRepXT1RDvEdtOYIb2vXh3SOXhkF8Scsc=w426-h240-k-no",
    "kgmid": "/g/11b66fk2ms"
  },
  {
    "title": "Pharmacy - 1 South Prospect, University of Vermont Medical Center",
    "price": null,
    "categoryName": "Pharmacy",
    "address": "1 South Prospect Street Arnold, Level 1, Burlington, VT 05401",
    "neighborhood": null,
    "street": "1 South Prospect Street Arnold, Level 1",
    "city": "Burlington",
    "postalCode": "05401",
    "state": "VT",
    "countryCode": "US",
    "website": "https://www.uvmhealth.org/medcenter/Pages/Departments-and-Programs/pharmacy-services.aspx",
    "phone": "(802) 847-3784",
    "phoneUnformatted": "+18028473784",
    "claimThisBusiness": false,
    "location": {
      "lat": 44.4802153,
      "lng": -73.2012794
    },
    "totalScore": 3.5,
    "permanentlyClosed": false,
    "temporarilyClosed": false,
    "placeId": "ChIJCfJ4oF56ykwRDBhbZGG1X_I",
    "categories": [
      "Pharmacy"
    ],
    "fid": "0x4cca7a5ea078f209:0xf25fb561645b180c",
    "cid": "17464877309866219532",
    "reviewsCount": 14,
    "imagesCount": 7,
    "imageCategories": [],
    "scrapedAt": "2025-06-23T06:31:00.037Z",
    "googleFoodUrl": null,
    "hotelAds": [],
    "openingHours": [
      {
        "day": "Monday",
        "hours": "8:30 AM to 5 PM"
      },
      {
        "day": "Tuesday",
        "hours": "8:30 AM to 5 PM"
      },
      {
        "day": "Wednesday",
        "hours": "8:30 AM to 5 PM"
      },
      {
        "day": "Thursday",
        "hours": "8:30 AM to 5 PM"
      },
      {
        "day": "Friday",
        "hours": "8:30 AM to 5 PM"
      },
      {
        "day": "Saturday",
        "hours": "Closed"
      },
      {
        "day": "Sunday",
        "hours": "Closed"
      }
    ],
    "peopleAlsoSearch": [],
    "placesTags": [],
    "reviewsTags": [],
    "additionalInfo": {
      "Service options": [
        {
          "Delivery": true
        }
      ],
      "Accessibility": [
        {
          "Wheelchair accessible parking lot": true
        }
      ],
      "Offerings": [
        {
          "Medication disposal": true
        }
      ],
      "Payments": [
        {
          "Debit cards": true
        },
        {
          "Credit cards": true
        }
      ]
    },
    "gasPrices": [],
    "url": "https://www.google.com/maps/search/?api=1&query=Pharmacy%20-%201%20South%20Prospect%2C%20University%20of%20Vermont%20Medical%20Center&query_place_id=ChIJCfJ4oF56ykwRDBhbZGG1X_I",
    "searchPageUrl": "https://www.google.com/maps/search/independent%20pharmacies%20in%20Burlington,%20VT%20in%20Burlington,%20VT/@25.995147870820777,-174.19072204180355,13z?hl=en",
    "searchString": "independent pharmacies in Burlington, VT in Burlington, VT",
    "language": "en",
    "rank": 6,
    "isAdvertisement": false,
    "imageUrl": "https://lh3.googleusercontent.com/gps-cs-s/AC9h4npjoiezD8hD3yKX8VGPPKdwLkjuqy8beVz7BEVOGnl8VRu3VuWUjo7xbhZh5FIA5G3ShOm-f0yymuHI_qesAR8i3ZVmzfv7IG_Uu8CdhJC3Vk5cKry6VgzPXndd2p905D7gP31_eg=w408-h240-k-no-pi-0-ya2.0100057-ro-0-fo100",
    "kgmid": "/g/1txnp2c5"
  },
  {
    "title": "Pharmacy, University of Vermont Medical Center",
    "price": null,
    "categoryName": "Pharmacy",
    "address": "Main Campus, Main Lobby, 111 Colchester Ave Level 3, Burlington, VT 05401",
    "neighborhood": "Centennial",
    "street": "Main Campus, Main Lobby, 111 Colchester Ave Level 3",
    "city": "Burlington",
    "postalCode": "05401",
    "state": "Vermont",
    "countryCode": "US",
    "website": "https://www.uvmhealth.org/medcenter/Pages/Departments-and-Programs/pharmacy-services.aspx",
    "phone": "(802) 847-2821",
    "phoneUnformatted": "+18028472821",
    "claimThisBusiness": false,
    "location": {
      "lat": 44.479779,
      "lng": -73.194611
    },
    "totalScore": 4.5,
    "permanentlyClosed": false,
    "temporarilyClosed": false,
    "placeId": "ChIJg9x5OkN6ykwRPsAQogsYpSU",
    "categories": [
      "Pharmacy"
    ],
    "fid": "0x4cca7a433a79dc83:0x25a5180ba210c03e",
    "cid": "2712600788803305534",
    "reviewsCount": 20,
    "imagesCount": 6,
    "imageCategories": [],
    "scrapedAt": "2025-06-23T06:31:00.037Z",
    "googleFoodUrl": null,
    "hotelAds": [],
    "openingHours": [
      {
        "day": "Monday",
        "hours": "7:30 AM to 9 PM"
      },
      {
        "day": "Tuesday",
        "hours": "7:30 AM to 9 PM"
      },
      {
        "day": "Wednesday",
        "hours": "7:30 AM to 9 PM"
      },
      {
        "day": "Thursday",
        "hours": "7:30 AM to 9 PM"
      },
      {
        "day": "Friday",
        "hours": "7:30 AM to 9 PM"
      },
      {
        "day": "Saturday",
        "hours": "8:30 AM to 5 PM"
      },
      {
        "day": "Sunday",
        "hours": "8:30 AM to 5 PM"
      }
    ],
    "peopleAlsoSearch": [],
    "placesTags": [],
    "reviewsTags": [],
    "additionalInfo": {
      "Accessibility": [
        {
          "Wheelchair accessible parking lot": true
        }
      ],
      "Offerings": [
        {
          "Medication disposal": true
        }
      ]
    },
    "gasPrices": [],
    "url": "https://www.google.com/maps/search/?api=1&query=Pharmacy%2C%20University%20of%20Vermont%20Medical%20Center&query_place_id=ChIJg9x5OkN6ykwRPsAQogsYpSU",
    "searchPageUrl": "https://www.google.com/maps/search/independent%20pharmacies%20in%20Burlington,%20VT%20in%20Burlington,%20VT/@25.995147870820777,-174.19072204180355,13z?hl=en",
    "searchString": "independent pharmacies in Burlington, VT in Burlington, VT",
    "language": "en",
    "rank": 7,
    "isAdvertisement": false,
    "imageUrl": "https://lh3.googleusercontent.com/gps-cs-s/AC9h4npr3Z0FLxbzRzwMdn_V4lzps675nB3AeOhq28SKw9riGnn508fX1XL2avvhIEb9Fa8Ats-mlFYydp8DtoW7wnsj-6HXdXO2j2DbAZNt2AMl2af2sD-37hOhtJ2k9Ikk1PlAMQM5=w408-h544-k-no",
    "kgmid": "/g/1td1_wyh"
  },
  {
    "title": "Kinney Drugs",
    "price": null,
    "categoryName": "Drug store",
    "address": "308 Shelburne Rd, Burlington, VT 05401",
    "neighborhood": "South End",
    "street": "308 Shelburne Rd",
    "city": "Burlington",
    "postalCode": "05401",
    "state": "Vermont",
    "countryCode": "US",
    "website": "https://kinneydrugs.com/locations/pharmacy/29/",
    "phone": "(802) 864-8154",
    "phoneUnformatted": "+18028648154",
    "claimThisBusiness": false,
    "location": {
      "lat": 44.4567404,
      "lng": -73.2080123
    },
    "locatedIn": "Kinney Drugs Pharmacy",
    "totalScore": 4.3,
    "permanentlyClosed": false,
    "temporarilyClosed": false,
    "placeId": "ChIJwd-YCLB7ykwRfZ_F4Exzknk",
    "categories": [
      "Drug store",
      "Convenience store",
      "General store"
    ],
    "fid": "0x4cca7bb00898dfc1:0x7992734ce0c59f7d",
    "cid": "8760190999214792573",
    "reviewsCount": 55,
    "imagesCount": 6,
    "imageCategories": [],
    "scrapedAt": "2025-06-23T06:31:00.037Z",
    "googleFoodUrl": null,
    "hotelAds": [],
    "openingHours": [
      {
        "day": "Monday",
        "hours": "8 AM to 9 PM"
      },
      {
        "day": "Tuesday",
        "hours": "8 AM to 9 PM"
      },
      {
        "day": "Wednesday",
        "hours": "8 AM to 9 PM"
      },
      {
        "day": "Thursday",
        "hours": "8 AM to 9 PM"
      },
      {
        "day": "Friday",
        "hours": "8 AM to 9 PM"
      },
      {
        "day": "Saturday",
        "hours": "8 AM to 9 PM"
      },
      {
        "day": "Sunday",
        "hours": "9 AM to 6 PM"
      }
    ],
    "additionalOpeningHours": {
      "Kinney Drugs Pharmacy": [
        {
          "day": "Monday",
          "hours": "9 AM–1 PM"
        },
        {
          "day": "Tuesday",
          "hours": "9 AM–1 PM"
        },
        {
          "day": "Wednesday",
          "hours": "9 AM–1 PM"
        },
        {
          "day": "Thursday",
          "hours": "9 AM–1 PM"
        },
        {
          "day": "Friday",
          "hours": "9 AM–1 PM"
        },
        {
          "day": "Saturday",
          "hours": "9 AM–1 PM"
        },
        {
          "day": "Sunday",
          "hours": "9 AM–1 PM"
        }
      ]
    },
    "peopleAlsoSearch": [],
    "placesTags": [],
    "reviewsTags": [],
    "additionalInfo": {
      "Service options": [
        {
          "Curbside pickup": true
        },
        {
          "Delivery": true
        },
        {
          "Drive-through": true
        },
        {
          "In-store shopping": true
        },
        {
          "Onsite services": true
        }
      ],
      "Accessibility": [
        {
          "Assistive hearing loop": true
        },
        {
          "Wheelchair accessible entrance": true
        },
        {
          "Wheelchair accessible parking lot": true
        },
        {
          "Wheelchair accessible restroom": true
        },
        {
          "Wheelchair accessible seating": true
        }
      ],
      "Offerings": [
        {
          "Passport photos": true
        }
      ],
      "Amenities": [
        {
          "Gender-neutral restroom": true
        }
      ],
      "Crowd": [
        {
          "LGBTQ+ friendly": true
        }
      ],
      "Planning": [
        {
          "Quick visit": true
        }
      ],
      "Payments": [
        {
          "Checks": true
        },
        {
          "Debit cards": true
        },
        {
          "NFC mobile payments": true
        },
        {
          "SNAP/EBT": true
        },
        {
          "Credit cards": true
        }
      ]
    },
    "gasPrices": [],
    "url": "https://www.google.com/maps/search/?api=1&query=Kinney%20Drugs&query_place_id=ChIJwd-YCLB7ykwRfZ_F4Exzknk",
    "searchPageUrl": "https://www.google.com/maps/search/independent%20pharmacies%20in%20Burlington,%20VT%20in%20Burlington,%20VT/@25.995147870820777,-174.19072204180355,13z?hl=en",
    "searchString": "independent pharmacies in Burlington, VT in Burlington, VT",
    "language": "en",
    "rank": 8,
    "isAdvertisement": false,
    "imageUrl": "https://lh3.googleusercontent.com/gps-cs-s/AC9h4nr4MyMgHYLf1lsy7vz2b25SwoBZ388xLSYJepLxaYGhYJVxJsWhzh8Cd4bE3V2h5hlSg4irvi2QnaqUdOeQZolXvRzxDLIshmW3Z4dlUdfNK1AMX2Vjl7WJuE5ggd4kquPv2HA=w408-h544-k-no",
    "kgmid": "/g/1vs1rhdy"
  },
  {
    "title": "Kinney Drugs Pharmacy",
    "price": null,
    "categoryName": "Pharmacy",
    "address": "308 Shelburne Rd, Burlington, VT 05401",
    "neighborhood": "South End",
    "street": "308 Shelburne Rd",
    "city": "Burlington",
    "postalCode": "05401",
    "state": "Vermont",
    "countryCode": "US",
    "website": "https://kinneydrugs.com/locations/pharmacy/29/",
    "phone": "(802) 864-8154",
    "phoneUnformatted": "+18028648154",
    "claimThisBusiness": false,
    "location": {
      "lat": 44.4567738,
      "lng": -73.2080074
    },
    "totalScore": 4.6,
    "permanentlyClosed": false,
    "temporarilyClosed": false,
    "placeId": "ChIJFX6pVZB7ykwRcq2mzL4R6Ys",
    "categories": [
      "Pharmacy"
    ],
    "fid": "0x4cca7b9055a97e15:0x8be911becca6ad72",
    "cid": "10081608752020499826",
    "reviewsCount": 7,
    "imagesCount": 4,
    "imageCategories": [],
    "scrapedAt": "2025-06-23T06:31:00.037Z",
    "googleFoodUrl": null,
    "hotelAds": [],
    "openingHours": [
      {
        "day": "Monday",
        "hours": "9 AM to 1 PM, 1:30 to 7 PM"
      },
      {
        "day": "Tuesday",
        "hours": "9 AM to 1 PM, 1:30 to 7 PM"
      },
      {
        "day": "Wednesday",
        "hours": "9 AM to 1 PM, 1:30 to 7 PM"
      },
      {
        "day": "Thursday",
        "hours": "9 AM to 1 PM, 1:30 to 7 PM"
      },
      {
        "day": "Friday",
        "hours": "9 AM to 1 PM, 1:30 to 7 PM"
      },
      {
        "day": "Saturday",
        "hours": "9 AM to 1 PM, 1:30 to 5 PM"
      },
      {
        "day": "Sunday",
        "hours": "9 AM to 1 PM, 1:30 to 3 PM"
      }
    ],
    "peopleAlsoSearch": [],
    "placesTags": [],
    "reviewsTags": [],
    "additionalInfo": {
      "Service options": [
        {
          "Curbside pickup": true
        },
        {
          "Delivery": true
        },
        {
          "Drive-through": true
        },
        {
          "In-store shopping": true
        }
      ],
      "Accessibility": [
        {
          "Wheelchair accessible entrance": true
        },
        {
          "Wheelchair accessible parking lot": true
        },
        {
          "Wheelchair accessible restroom": true
        },
        {
          "Wheelchair accessible seating": true
        }
      ],
      "Offerings": [
        {
          "Passport photos": true
        }
      ],
      "Amenities": [
        {
          "Gender-neutral restroom": true
        }
      ],
      "Crowd": [
        {
          "LGBTQ+ friendly": true
        }
      ],
      "Planning": [
        {
          "Quick visit": true
        }
      ],
      "Payments": [
        {
          "Checks": true
        },
        {
          "Credit cards": true
        },
        {
          "Debit cards": true
        },
        {
          "NFC mobile payments": true
        },
        {
          "Credit cards": true
        }
      ]
    },
    "gasPrices": [],
    "url": "https://www.google.com/maps/search/?api=1&query=Kinney%20Drugs%20Pharmacy&query_place_id=ChIJFX6pVZB7ykwRcq2mzL4R6Ys",
    "searchPageUrl": "https://www.google.com/maps/search/independent%20pharmacies%20in%20Burlington,%20VT%20in%20Burlington,%20VT/@25.995147870820777,-174.19072204180355,13z?hl=en",
    "searchString": "independent pharmacies in Burlington, VT in Burlington, VT",
    "language": "en",
    "rank": 9,
    "isAdvertisement": false,
    "imageUrl": "https://lh3.googleusercontent.com/p/AF1QipMNpuvx6TWdpjjwetFF9OxtBTJpnuTj5k3A4fCK=w427-h240-k-no",
    "kgmid": "/g/11sw3k4l3t"
  },
  {
    "title": "CVS Pharmacy",
    "price": null,
    "categoryName": "Pharmacy",
    "address": "35 Church St, Burlington, VT 05401",
    "neighborhood": null,
    "street": "35 Church St",
    "city": "Burlington",
    "postalCode": "05401",
    "state": "Vermont",
    "countryCode": "US",
    "website": "https://www.cvs.com/store-locator/burlington-vt-pharmacies/35-church-st-burlington-vt-05401/storeid=11037?WT.mc_id=LS_GOOGLE_RX_11037",
    "phone": "(802) 651-1018",
    "phoneUnformatted": "+18026511018",
    "claimThisBusiness": false,
    "location": {
      "lat": 44.4795166,
      "lng": -73.2128901
    },
    "totalScore": 2.5,
    "permanentlyClosed": false,
    "temporarilyClosed": false,
    "placeId": "ChIJT7Vh6fZ6ykwRYWoQ4CArYL0",
    "categories": [
      "Pharmacy"
    ],
    "fid": "0x4cca7af6e961b54f:0xbd602b20e0106a61",
    "cid": "13645954291130722913",
    "reviewsCount": 10,
    "imagesCount": 7,
    "imageCategories": [],
    "scrapedAt": "2025-06-23T06:31:00.037Z",
    "googleFoodUrl": null,
    "hotelAds": [],
    "openingHours": [
      {
        "day": "Monday",
        "hours": "9 AM to 1:30 PM, 2 to 7 PM"
      },
      {
        "day": "Tuesday",
        "hours": "9 AM to 1:30 PM, 2 to 7 PM"
      },
      {
        "day": "Wednesday",
        "hours": "9 AM to 1:30 PM, 2 to 7 PM"
      },
      {
        "day": "Thursday",
        "hours": "9 AM to 1:30 PM, 2 to 7 PM"
      },
      {
        "day": "Friday",
        "hours": "9 AM to 1:30 PM, 2 to 7 PM"
      },
      {
        "day": "Saturday",
        "hours": "10 AM to 1:30 PM, 2 to 6 PM"
      },
      {
        "day": "Sunday",
        "hours": "11 AM to 1:30 PM, 2 to 5 PM"
      }
    ],
    "peopleAlsoSearch": [],
    "placesTags": [],
    "reviewsTags": [],
    "additionalInfo": {
      "Service options": [
        {
          "Delivery": true
        },
        {
          "In-store shopping": true
        }
      ],
      "Accessibility": [
        {
          "Wheelchair accessible entrance": true
        },
        {
          "Wheelchair accessible parking lot": true
        }
      ],
      "Offerings": [
        {
          "Naloxone": true
        },
        {
          "Passport photos": true
        }
      ],
      "Crowd": [
        {
          "LGBTQ+ friendly": true
        },
        {
          "Transgender safespace": true
        }
      ],
      "Planning": [
        {
          "Quick visit": true
        }
      ],
      "Payments": [
        {
          "Credit cards": true
        },
        {
          "Debit cards": true
        },
        {
          "NFC mobile payments": true
        },
        {
          "Credit cards": true
        }
      ]
    },
    "gasPrices": [],
    "url": "https://www.google.com/maps/search/?api=1&query=CVS%20Pharmacy&query_place_id=ChIJT7Vh6fZ6ykwRYWoQ4CArYL0",
    "searchPageUrl": "https://www.google.com/maps/search/independent%20pharmacies%20in%20Burlington,%20VT%20in%20Burlington,%20VT/@25.995147870820777,-174.19072204180355,13z?hl=en",
    "searchString": "independent pharmacies in Burlington, VT in Burlington, VT",
    "language": "en",
    "rank": 10,
    "isAdvertisement": false,
    "imageUrl": "https://lh3.googleusercontent.com/p/AF1QipPU2XldqockQvqtmioHLYNBieKb1j-ZGq_AQShX=w408-h272-k-no",
    "kgmid": "/g/11c5ss245c"
  }
]