[
  {
    "title": "Clark's Family Pharmacy",
    "price": null,
    "categoryName": "Pharmacy",
    "address": "4501 MacCorkle Ave SW Suite 101, South Charleston, WV 25309",
    "neighborhood": null,
    "street": "4501 MacCorkle Ave SW Suite 101",
    "city": "South Charleston",
    "postalCode": "25309",
    "state": "West Virginia",
    "countryCode": "US",
    "website": "https://www.facebook.com/Clarks-Family-Pharmacy-107631275098056/",
    "phone": "(304) 766-8484",
    "phoneUnformatted": "+13047668484",
    "claimThisBusiness": false,
    "location": {
      "lat": 38.3560305,
      "lng": -81.7248414
    },
    "totalScore": 4.5,
    "permanentlyClosed": false,
    "temporarilyClosed": false,
    "placeId": "ChIJNZuP2WozT4gRTpYMkZO4PuU",
    "categories": [
      "Pharmacy",
      "Drug store"
    ],
    "fid": "0x884f336ad98f9b35:0xe53eb893910c964e",
    "cid": "16518843427174782542",
    "reviewsCount": 32,
    "imagesCount": 2,
    "imageCategories": [],
    "scrapedAt": "2025-06-23T06:15:57.986Z",
    "googleFoodUrl": null,
    "hotelAds": [],
    "openingHours": [
      {
        "day": "Monday",
        "hours": "9 AM to 7 PM"
      },
      {
        "day": "Tuesday",
        "hours": "9 AM to 7 PM"
      },
      {
        "day": "Wednesday",
        "hours": "9 AM to 7 PM"
      },
      {
        "day": "Thursday",
        "hours": "9 AM to 7 PM"
      },
      {
        "day": "Friday",
        "hours": "9 AM to 7 PM"
      },
      {
        "day": "Saturday",
        "hours": "9 AM to 2 PM"
      },
      {
        "day": "Sunday",
        "hours": "Closed"
      }
    ],
    "peopleAlsoSearch": [],
    "placesTags": [],
    "reviewsTags": [],
    "additionalInfo": {
      "From the business": [
        {
          "Small business": true
        }
      ],
      "Service options": [
        {
          "Delivery": true
        },
        {
          "In-store pickup": true
        },
        {
          "In-store shopping": true
        },
        {
          "Onsite services": true
        },
        {
          "Same-day delivery": true
        }
      ],
      "Accessibility": [
        {
          "Wheelchair accessible entrance": true
        },
        {
          "Wheelchair accessible parking lot": true
        }
      ],
      "Planning": [
        {
          "Quick visit": true
        }
      ],
      "Payments": [
        {
          "Credit cards": true
        },
        {
          "Debit cards": true
        },
        {
          "NFC mobile payments": true
        },
        {
          "Credit cards": true
        }
      ]
    },
    "gasPrices": [],
    "url": "https://www.google.com/maps/search/?api=1&query=Clark's%20Family%20Pharmacy&query_place_id=ChIJNZuP2WozT4gRTpYMkZO4PuU",
    "searchPageUrl": "https://www.google.com/maps/search/pharmacies%20in%20South%20Charleston,%20WV%20in%20South%20Charleston,%20WV/@25.58561541405634,-171.5257266528475,13z?hl=en",
    "searchString": "pharmacies in South Charleston, WV in South Charleston, WV",
    "language": "en",
    "rank": 1,
    "isAdvertisement": false,
    "imageUrl": "https://lh3.googleusercontent.com/p/AF1QipOJXjHYgoJh__Fq7ewst9EdEWOq_gf-Cbkq7m34=w408-h497-k-no",
    "kgmid": "/g/11pyc6hj64"
  },
  {
    "title": "CVS Pharmacy",
    "price": null,
    "categoryName": "Pharmacy",
    "address": "30 RHL Blvd, South Charleston, WV 25309",
    "neighborhood": null,
    "street": "30 RHL Blvd",
    "city": "South Charleston",
    "postalCode": "25309",
    "state": "West Virginia",
    "countryCode": "US",
    "website": "https://www.cvs.com/store-locator/south-charleston-wv-pharmacies/30-rhl-blvd-south-charleston-wv-25309/storeid=16609?WT.mc_id=LS_GOOGLE_RX_16609",
    "phone": "(304) 746-0820",
    "phoneUnformatted": "+13047460820",
    "claimThisBusiness": false,
    "location": {
      "lat": 38.3386985,
      "lng": -81.7149336
    },
    "totalScore": 4.5,
    "permanentlyClosed": false,
    "temporarilyClosed": false,
    "placeId": "ChIJg6yoSJUyT4gRv4GePFrZdwY",
    "categories": [
      "Pharmacy"
    ],
    "fid": "0x884f329548a8ac83:0x677d95a3c9e81bf",
    "cid": "466080068043440575",
    "reviewsCount": 21,
    "imagesCount": 5,
    "imageCategories": [],
    "scrapedAt": "2025-06-23T06:15:57.987Z",
    "googleFoodUrl": null,
    "hotelAds": [],
    "openingHours": [
      {
        "day": "Monday",
        "hours": "9 AM to 1:30 PM, 2 to 7 PM"
      },
      {
        "day": "Tuesday",
        "hours": "9 AM to 1:30 PM, 2 to 7 PM"
      },
      {
        "day": "Wednesday",
        "hours": "9 AM to 1:30 PM, 2 to 7 PM"
      },
      {
        "day": "Thursday",
        "hours": "9 AM to 1:30 PM, 2 to 7 PM"
      },
      {
        "day": "Friday",
        "hours": "9 AM to 1:30 PM, 2 to 7 PM"
      },
      {
        "day": "Saturday",
        "hours": "9 AM to 1:30 PM, 2 to 5 PM"
      },
      {
        "day": "Sunday",
        "hours": "11 AM to 1:30 PM, 2 to 5 PM"
      }
    ],
    "peopleAlsoSearch": [],
    "placesTags": [],
    "reviewsTags": [],
    "additionalInfo": {
      "Service options": [
        {
          "Delivery": true
        },
        {
          "In-store shopping": true
        },
        {
          "Onsite services": true
        }
      ],
      "Accessibility": [
        {
          "Wheelchair accessible entrance": true
        },
        {
          "Wheelchair accessible parking lot": true
        }
      ],
      "Offerings": [
        {
          "Naloxone": true
        }
      ],
      "Crowd": [
        {
          "LGBTQ+ friendly": true
        },
        {
          "Transgender safespace": true
        }
      ],
      "Planning": [
        {
          "Quick visit": true
        }
      ],
      "Payments": [
        {
          "Credit cards": true
        },
        {
          "Debit cards": true
        },
        {
          "Credit cards": true
        }
      ]
    },
    "gasPrices": [],
    "url": "https://www.google.com/maps/search/?api=1&query=CVS%20Pharmacy&query_place_id=ChIJg6yoSJUyT4gRv4GePFrZdwY",
    "searchPageUrl": "https://www.google.com/maps/search/pharmacies%20in%20South%20Charleston,%20WV%20in%20South%20Charleston,%20WV/@25.58561541405634,-171.5257266528475,13z?hl=en",
    "searchString": "pharmacies in South Charleston, WV in South Charleston, WV",
    "language": "en",
    "rank": 2,
    "isAdvertisement": false,
    "imageUrl": "https://lh3.googleusercontent.com/p/AF1QipPMZLtqeDprRnE8UJGkp_yBNaJtEAd7qMBJAw5v=w408-h272-k-no",
    "kgmid": "/g/1tsr3xd6"
  },
  {
    "title": "WVU Medicine Family Pharmacy at Hospital",
    "price": null,
    "categoryName": "Pharmacy",
    "address": "4605 MacCorkle Ave SW, South Charleston, WV 25309",
    "neighborhood": null,
    "street": "4605 MacCorkle Ave SW",
    "city": "South Charleston",
    "postalCode": "25309",
    "state": "West Virginia",
    "countryCode": "US",
    "phone": "(304) 414-4820",
    "phoneUnformatted": "+13044144820",
    "claimThisBusiness": true,
    "location": {
      "lat": 38.3548337,
      "lng": -81.7259584
    },
    "totalScore": 4.8,
    "permanentlyClosed": false,
    "temporarilyClosed": false,
    "placeId": "ChIJsf_7gNEyT4gRY6KiVBssj-I",
    "categories": [
      "Pharmacy"
    ],
    "fid": "0x884f32d180fbffb1:0xe28f2c1b54a2a263",
    "cid": "16325315670137021027",
    "reviewsCount": 14,
    "imagesCount": 1,
    "imageCategories": [],
    "scrapedAt": "2025-06-23T06:15:57.987Z",
    "googleFoodUrl": null,
    "hotelAds": [],
    "openingHours": [
      {
        "day": "Monday",
        "hours": "7 AM to 6 PM"
      },
      {
        "day": "Tuesday",
        "hours": "7 AM to 6 PM"
      },
      {
        "day": "Wednesday",
        "hours": "7 AM to 6 PM"
      },
      {
        "day": "Thursday",
        "hours": "7 AM to 6 PM"
      },
      {
        "day": "Friday",
        "hours": "7 AM to 6 PM"
      },
      {
        "day": "Saturday",
        "hours": "Closed"
      },
      {
        "day": "Sunday",
        "hours": "Closed"
      }
    ],
    "peopleAlsoSearch": [],
    "placesTags": [],
    "reviewsTags": [],
    "additionalInfo": {
      "Service options": [
        {
          "Delivery": false
        },
        {
          "Same-day delivery": false
        }
      ],
      "Accessibility": [
        {
          "Wheelchair accessible entrance": true
        },
        {
          "Wheelchair accessible parking lot": true
        }
      ],
      "Payments": [
        {
          "Credit cards": true
        },
        {
          "Debit cards": true
        },
        {
          "NFC mobile payments": true
        },
        {
          "Credit cards": true
        }
      ]
    },
    "gasPrices": [],
    "url": "https://www.google.com/maps/search/?api=1&query=WVU%20Medicine%20Family%20Pharmacy%20at%20Hospital&query_place_id=ChIJsf_7gNEyT4gRY6KiVBssj-I",
    "searchPageUrl": "https://www.google.com/maps/search/pharmacies%20in%20South%20Charleston,%20WV%20in%20South%20Charleston,%20WV/@25.58561541405634,-171.5257266528475,13z?hl=en",
    "searchString": "pharmacies in South Charleston, WV in South Charleston, WV",
    "language": "en",
    "rank": 3,
    "isAdvertisement": false,
    "imageUrl": "https://streetviewpixels-pa.googleapis.com/v1/thumbnail?panoid=fUp9qCzrHdLVq3rSLNNcuw&cb_client=search.gws-prod.gps&w=408&h=240&yaw=257.9862&pitch=0&thumbfov=100",
    "kgmid": "/g/1jmczj4xh"
  },
  {
    "title": "Walgreens Pharmacy",
    "description": "Department of the Walgreens chain providing prescription medications & other health-related items.",
    "price": null,
    "categoryName": "Pharmacy",
    "address": "333 MacCorkle Ave SW, South Charleston, WV 25303",
    "neighborhood": null,
    "street": "333 MacCorkle Ave SW",
    "city": "South Charleston",
    "postalCode": "25303",
    "state": "West Virginia",
    "countryCode": "US",
    "website": "https://www.walgreens.com/locator/walgreens-333+maccorkle+ave+sw-south+charleston-wv-25303/id=17738",
    "phone": "(304) 744-8362",
    "phoneUnformatted": "+13047448362",
    "claimThisBusiness": false,
    "location": {
      "lat": 38.369786,
      "lng": -81.6951852
    },
    "totalScore": 4.4,
    "permanentlyClosed": false,
    "temporarilyClosed": false,
    "placeId": "ChIJv7YU3VnNSIgRQZQX-AR34FQ",
    "categories": [
      "Pharmacy"
    ],
    "fid": "0x8848cd59dd14b6bf:0x54e07704f8179441",
    "cid": "6116019157195002945",
    "reviewsCount": 5,
    "imagesCount": 3,
    "imageCategories": [],
    "scrapedAt": "2025-06-23T06:15:57.987Z",
    "googleFoodUrl": null,
    "hotelAds": [],
    "openingHours": [
      {
        "day": "Monday",
        "hours": "9 AM to 1:30 PM, 2 to 8 PM"
      },
      {
        "day": "Tuesday",
        "hours": "9 AM to 1:30 PM, 2 to 8 PM"
      },
      {
        "day": "Wednesday",
        "hours": "9 AM to 1:30 PM, 2 to 8 PM"
      },
      {
        "day": "Thursday",
        "hours": "9 AM to 1:30 PM, 2 to 8 PM"
      },
      {
        "day": "Friday",
        "hours": "9 AM to 1:30 PM, 2 to 8 PM"
      },
      {
        "day": "Saturday",
        "hours": "9 AM to 1:30 PM, 2 to 6 PM"
      },
      {
        "day": "Sunday",
        "hours": "10 AM to 1:30 PM, 2 to 6 PM"
      }
    ],
    "additionalOpeningHours": {
      "Drive through": [
        {
          "day": "Monday",
          "hours": "9 AM–1:30 PM"
        },
        {
          "day": "Tuesday",
          "hours": "9 AM–1:30 PM"
        },
        {
          "day": "Wednesday",
          "hours": "9 AM–1:30 PM"
        },
        {
          "day": "Thursday",
          "hours": "9 AM–1:30 PM"
        },
        {
          "day": "Friday",
          "hours": "9 AM–1:30 PM"
        },
        {
          "day": "Saturday",
          "hours": "9 AM–1:30 PM"
        },
        {
          "day": "Sunday",
          "hours": "10 AM–1:30 PM"
        }
      ]
    },
    "peopleAlsoSearch": [],
    "placesTags": [],
    "reviewsTags": [],
    "additionalInfo": {
      "Service options": [
        {
          "Curbside pickup": true
        },
        {
          "Drive-through": true
        },
        {
          "In-store pickup": true
        }
      ],
      "Accessibility": [
        {
          "Wheelchair accessible entrance": true
        },
        {
          "Wheelchair accessible parking lot": true
        }
      ],
      "Planning": [
        {
          "Appointment required": true
        },
        {
          "Quick visit": true
        }
      ],
      "Payments": [
        {
          "Credit cards": true
        }
      ]
    },
    "gasPrices": [],
    "url": "https://www.google.com/maps/search/?api=1&query=Walgreens%20Pharmacy&query_place_id=ChIJv7YU3VnNSIgRQZQX-AR34FQ",
    "searchPageUrl": "https://www.google.com/maps/search/pharmacies%20in%20South%20Charleston,%20WV%20in%20South%20Charleston,%20WV/@25.58561541405634,-171.5257266528475,13z?hl=en",
    "searchString": "pharmacies in South Charleston, WV in South Charleston, WV",
    "language": "en",
    "rank": 4,
    "isAdvertisement": false,
    "imageUrl": "https://lh3.googleusercontent.com/p/AF1QipOc3qo29KeL7P3x3NaNJen2fhewZLVMsO0TqkjJ=w525-h240-k-no",
    "kgmid": "/g/11mx3y5ry3"
  },
  {
    "title": "Sam's Club Pharmacy",
    "price": "$",
    "categoryName": "Pharmacy",
    "address": "2500 Mountaineer Blvd, South Charleston, WV 25309",
    "neighborhood": null,
    "street": "2500 Mountaineer Blvd",
    "city": "South Charleston",
    "postalCode": "25309",
    "state": "West Virginia",
    "countryCode": "US",
    "website": "https://www.samsclub.com/local/pharmacy/s-charleston-wv-sams-club/6457",
    "phone": "(304) 744-3649",
    "phoneUnformatted": "+13047443649",
    "claimThisBusiness": false,
    "location": {
      "lat": 38.3217425,
      "lng": -81.7120476
    },
    "totalScore": 4.5,
    "permanentlyClosed": false,
    "temporarilyClosed": false,
    "placeId": "ChIJycmTWosyT4gRbb-coAgjhyI",
    "categories": [
      "Pharmacy"
    ],
    "fid": "0x884f328b5a93c9c9:0x22872308a09cbf6d",
    "cid": "2487995839106826093",
    "reviewsCount": 8,
    "imagesCount": 8,
    "imageCategories": [],
    "scrapedAt": "2025-06-23T06:15:57.988Z",
    "googleFoodUrl": null,
    "hotelAds": [],
    "openingHours": [
      {
        "day": "Monday",
        "hours": "9 AM to 7 PM"
      },
      {
        "day": "Tuesday",
        "hours": "9 AM to 7 PM"
      },
      {
        "day": "Wednesday",
        "hours": "9 AM to 7 PM"
      },
      {
        "day": "Thursday",
        "hours": "9 AM to 7 PM"
      },
      {
        "day": "Friday",
        "hours": "9 AM to 7 PM"
      },
      {
        "day": "Saturday",
        "hours": "9 AM to 6 PM"
      },
      {
        "day": "Sunday",
        "hours": "Closed"
      }
    ],
    "peopleAlsoSearch": [],
    "placesTags": [],
    "reviewsTags": [],
    "additionalInfo": {
      "Service options": [
        {
          "Curbside pickup": true
        },
        {
          "Delivery": true
        },
        {
          "In-store pickup": true
        },
        {
          "In-store shopping": true
        },
        {
          "Onsite services": true
        },
        {
          "Same-day delivery": true
        }
      ],
      "Accessibility": [
        {
          "Wheelchair accessible entrance": true
        },
        {
          "Wheelchair accessible parking lot": true
        }
      ],
      "Planning": [
        {
          "Quick visit": true
        }
      ],
      "Payments": [
        {
          "Credit cards": true
        },
        {
          "Debit cards": true
        },
        {
          "Credit cards": true
        }
      ]
    },
    "gasPrices": [],
    "url": "https://www.google.com/maps/search/?api=1&query=Sam's%20Club%20Pharmacy&query_place_id=ChIJycmTWosyT4gRbb-coAgjhyI",
    "searchPageUrl": "https://www.google.com/maps/search/pharmacies%20in%20South%20Charleston,%20WV%20in%20South%20Charleston,%20WV/@25.58561541405634,-171.5257266528475,13z?hl=en",
    "searchString": "pharmacies in South Charleston, WV in South Charleston, WV",
    "language": "en",
    "rank": 5,
    "isAdvertisement": false,
    "imageUrl": "https://lh3.googleusercontent.com/p/AF1QipMYL7ghQjXB8ADOFCjwbvpaS4uznoEEvh6gthkY=w408-h272-k-no",
    "kgmid": "/g/1th0c3wd"
  },
  {
    "title": "Walmart Pharmacy",
    "price": "$",
    "categoryName": "Pharmacy",
    "address": "2700 Mountaineer Blvd, South Charleston, WV 25309",
    "neighborhood": null,
    "street": "2700 Mountaineer Blvd",
    "city": "South Charleston",
    "postalCode": "25309",
    "state": "West Virginia",
    "countryCode": "US",
    "website": "https://www.walmart.com/store/2036-south-charleston-wv/pharmacy/?veh=seo_loc",
    "phone": "(304) 746-1725",
    "phoneUnformatted": "+13047461725",
    "claimThisBusiness": false,
    "location": {
      "lat": 38.3191258,
      "lng": -81.714506
    },
    "totalScore": 4.7,
    "permanentlyClosed": false,
    "temporarilyClosed": false,
    "placeId": "ChIJtbCeIIsyT4gRSO_MCvDlC2E",
    "categories": [
      "Pharmacy",
      "Herbal medicine store",
      "Medical supply store",
      "Parapharmacy",
      "Vitamin & supplements store"
    ],
    "fid": "0x884f328b209eb0b5:0x610be5f00accef48",
    "cid": "6992935665558941512",
    "reviewsCount": 20,
    "imagesCount": 5,
    "imageCategories": [],
    "scrapedAt": "2025-06-23T06:15:57.988Z",
    "googleFoodUrl": null,
    "hotelAds": [],
    "openingHours": [
      {
        "day": "Monday",
        "hours": "9 AM to 7 PM"
      },
      {
        "day": "Tuesday",
        "hours": "9 AM to 7 PM"
      },
      {
        "day": "Wednesday",
        "hours": "9 AM to 7 PM"
      },
      {
        "day": "Thursday",
        "hours": "9 AM to 7 PM"
      },
      {
        "day": "Friday",
        "hours": "9 AM to 7 PM"
      },
      {
        "day": "Saturday",
        "hours": "9 AM to 7 PM"
      },
      {
        "day": "Sunday",
        "hours": "10 AM to 6 PM"
      }
    ],
    "peopleAlsoSearch": [],
    "placesTags": [],
    "reviewsTags": [],
    "additionalInfo": {
      "Service options": [
        {
          "Curbside pickup": true
        },
        {
          "Delivery": true
        },
        {
          "In-store pickup": true
        },
        {
          "In-store shopping": true
        },
        {
          "Onsite services": true
        }
      ],
      "Accessibility": [
        {
          "Wheelchair accessible entrance": true
        },
        {
          "Wheelchair accessible parking lot": true
        },
        {
          "Wheelchair accessible restroom": true
        }
      ],
      "Offerings": [
        {
          "Passport photos": true
        }
      ],
      "Amenities": [
        {
          "Wi-Fi": true
        },
        {
          "Free Wi-Fi": true
        }
      ],
      "Planning": [
        {
          "Quick visit": true
        }
      ],
      "Payments": [
        {
          "Credit cards": true
        },
        {
          "Debit cards": true
        },
        {
          "Credit cards": true
        }
      ]
    },
    "gasPrices": [],
    "url": "https://www.google.com/maps/search/?api=1&query=Walmart%20Pharmacy&query_place_id=ChIJtbCeIIsyT4gRSO_MCvDlC2E",
    "searchPageUrl": "https://www.google.com/maps/search/pharmacies%20in%20South%20Charleston,%20WV%20in%20South%20Charleston,%20WV/@25.58561541405634,-171.5257266528475,13z?hl=en",
    "searchString": "pharmacies in South Charleston, WV in South Charleston, WV",
    "language": "en",
    "rank": 6,
    "isAdvertisement": false,
    "imageUrl": "https://lh3.googleusercontent.com/p/AF1QipPrJD0HzFHJQdOnYcElI7qtT_3mco-a2R7lno4=w408-h306-k-no",
    "kgmid": "/g/1tggbny3"
  },
  {
    "title": "Kroger Pharmacy",
    "price": "$$",
    "categoryName": "Pharmacy",
    "address": "5 River Walk Mall, South Charleston, WV 25303",
    "neighborhood": null,
    "street": "5 River Walk Mall",
    "city": "South Charleston",
    "postalCode": "25303",
    "state": "West Virginia",
    "countryCode": "US",
    "website": "https://www.kroger.com/rx/pharmacy/details/029/00769?cid=loc_02900769P_gmb",
    "phone": "(304) 744-5128",
    "phoneUnformatted": "+13047445128",
    "claimThisBusiness": false,
    "location": {
      "lat": 38.3652519,
      "lng": -81.7102548
    },
    "totalScore": 2.2,
    "permanentlyClosed": false,
    "temporarilyClosed": false,
    "placeId": "ChIJwy0BozXNSIgRjolynOYDhk0",
    "categories": [
      "Pharmacy",
      "Drug store",
      "Health counselor",
      "Home health care service"
    ],
    "fid": "0x8848cd35a3012dc3:0x4d8603e69c72898e",
    "cid": "5586156676801792398",
    "reviewsCount": 12,
    "imagesCount": 15,
    "imageCategories": [],
    "scrapedAt": "2025-06-23T06:15:57.988Z",
    "googleFoodUrl": null,
    "hotelAds": [],
    "openingHours": [
      {
        "day": "Monday",
        "hours": "9 AM to 1 PM, 1:30 to 8 PM"
      },
      {
        "day": "Tuesday",
        "hours": "9 AM to 1 PM, 1:30 to 8 PM"
      },
      {
        "day": "Wednesday",
        "hours": "9 AM to 1 PM, 1:30 to 8 PM"
      },
      {
        "day": "Thursday",
        "hours": "9 AM to 1 PM, 1:30 to 8 PM"
      },
      {
        "day": "Friday",
        "hours": "9 AM to 1 PM, 1:30 to 8 PM"
      },
      {
        "day": "Saturday",
        "hours": "9 AM to 1 PM, 1:30 to 6 PM"
      },
      {
        "day": "Sunday",
        "hours": "11 AM to 1 PM, 1:30 to 5 PM"
      }
    ],
    "peopleAlsoSearch": [],
    "placesTags": [],
    "reviewsTags": [],
    "additionalInfo": {
      "Service options": [
        {
          "Curbside pickup": true
        },
        {
          "Delivery": true
        },
        {
          "In-store pickup": true
        },
        {
          "In-store shopping": true
        },
        {
          "Same-day delivery": true
        }
      ],
      "Accessibility": [
        {
          "Wheelchair accessible entrance": true
        },
        {
          "Wheelchair accessible parking lot": true
        },
        {
          "Wheelchair accessible restroom": true
        },
        {
          "Wheelchair accessible seating": true
        }
      ],
      "Offerings": [
        {
          "Passport photos": true
        }
      ],
      "Crowd": [
        {
          "LGBTQ+ friendly": true
        },
        {
          "Transgender safespace": true
        }
      ],
      "Planning": [
        {
          "Quick visit": true
        }
      ],
      "Payments": [
        {
          "Checks": true
        },
        {
          "Credit cards": true
        },
        {
          "Debit cards": true
        },
        {
          "NFC mobile payments": true
        },
        {
          "Credit cards": true
        }
      ]
    },
    "gasPrices": [],
    "url": "https://www.google.com/maps/search/?api=1&query=Kroger%20Pharmacy&query_place_id=ChIJwy0BozXNSIgRjolynOYDhk0",
    "searchPageUrl": "https://www.google.com/maps/search/pharmacies%20in%20South%20Charleston,%20WV%20in%20South%20Charleston,%20WV/@25.58561541405634,-171.5257266528475,13z?hl=en",
    "searchString": "pharmacies in South Charleston, WV in South Charleston, WV",
    "language": "en",
    "rank": 7,
    "isAdvertisement": false,
    "imageUrl": "https://lh3.googleusercontent.com/p/AF1QipMQ0eWhy1r3nLDzOuEe2lcs6B6Z7aZqKsX1h2xU=w426-h240-k-no",
    "kgmid": "/g/1tdyrgxg"
  },
  {
    "title": "Walgreens",
    "description": "Drugstore chain with health & beauty aids, prescriptions & photo services, plus mini-mart basics.",
    "price": null,
    "categoryName": "Drug store",
    "address": "333 MacCorkle Ave SW, South Charleston, WV 25303",
    "neighborhood": null,
    "street": "333 MacCorkle Ave SW",
    "city": "South Charleston",
    "postalCode": "25303",
    "state": "West Virginia",
    "countryCode": "US",
    "website": "https://www.walgreens.com/locator/walgreens-333+maccorkle+ave+sw-south+charleston-wv-25303/id=17738",
    "phone": "(304) 744-8362",
    "phoneUnformatted": "+13047448362",
    "claimThisBusiness": false,
    "location": {
      "lat": 38.36978,
      "lng": -81.69516
    },
    "locatedIn": "John S. Paul, Prarmd",
    "totalScore": 3.6,
    "permanentlyClosed": false,
    "temporarilyClosed": false,
    "placeId": "ChIJ4Q4nNp3NSIgRIQWQeSC1w84",
    "categories": [
      "Drug store",
      "Beauty supply store",
      "Convenience store",
      "Cosmetics store",
      "Greeting card shop",
      "Perfume store",
      "Stationery store"
    ],
    "fid": "0x8848cd9d36270ee1:0xcec3b52079900521",
    "cid": "14898951143354795297",
    "reviewsCount": 36,
    "imagesCount": 7,
    "imageCategories": [],
    "scrapedAt": "2025-06-23T06:15:57.988Z",
    "googleFoodUrl": null,
    "hotelAds": [],
    "openingHours": [
      {
        "day": "Monday",
        "hours": "8 AM to 10 PM"
      },
      {
        "day": "Tuesday",
        "hours": "8 AM to 10 PM"
      },
      {
        "day": "Wednesday",
        "hours": "8 AM to 10 PM"
      },
      {
        "day": "Thursday",
        "hours": "8 AM to 10 PM"
      },
      {
        "day": "Friday",
        "hours": "8 AM to 10 PM"
      },
      {
        "day": "Saturday",
        "hours": "8 AM to 10 PM"
      },
      {
        "day": "Sunday",
        "hours": "8 AM to 10 PM"
      }
    ],
    "additionalOpeningHours": {
      "Walgreens Pharmacy": [
        {
          "day": "Monday",
          "hours": "9 AM–1:30 PM"
        },
        {
          "day": "Tuesday",
          "hours": "9 AM–1:30 PM"
        },
        {
          "day": "Wednesday",
          "hours": "9 AM–1:30 PM"
        },
        {
          "day": "Thursday",
          "hours": "9 AM–1:30 PM"
        },
        {
          "day": "Friday",
          "hours": "9 AM–1:30 PM"
        },
        {
          "day": "Saturday",
          "hours": "9 AM–1:30 PM"
        },
        {
          "day": "Sunday",
          "hours": "10 AM–1:30 PM"
        }
      ],
      "Walgreens Photo": [
        {
          "day": "Monday",
          "hours": "8 AM–10 PM"
        },
        {
          "day": "Tuesday",
          "hours": "8 AM–10 PM"
        },
        {
          "day": "Wednesday",
          "hours": "8 AM–10 PM"
        },
        {
          "day": "Thursday",
          "hours": "8 AM–10 PM"
        },
        {
          "day": "Friday",
          "hours": "8 AM–10 PM"
        },
        {
          "day": "Saturday",
          "hours": "8 AM–10 PM"
        },
        {
          "day": "Sunday",
          "hours": "8 AM–10 PM"
        }
      ],
      "Pickup": [
        {
          "day": "Monday",
          "hours": "8 AM–10 PM"
        },
        {
          "day": "Tuesday",
          "hours": "8 AM–10 PM"
        },
        {
          "day": "Wednesday",
          "hours": "8 AM–10 PM"
        },
        {
          "day": "Thursday",
          "hours": "8 AM–10 PM"
        },
        {
          "day": "Friday",
          "hours": "8 AM–10 PM"
        },
        {
          "day": "Saturday",
          "hours": "8 AM–10 PM"
        },
        {
          "day": "Sunday",
          "hours": "8 AM–10 PM"
        }
      ]
    },
    "peopleAlsoSearch": [],
    "placesTags": [],
    "reviewsTags": [],
    "additionalInfo": {
      "Service options": [
        {
          "Curbside pickup": true
        },
        {
          "Delivery": true
        },
        {
          "Drive-through": true
        },
        {
          "In-store pickup": true
        },
        {
          "Onsite services": true
        }
      ],
      "Accessibility": [
        {
          "Wheelchair accessible entrance": true
        },
        {
          "Wheelchair accessible parking lot": true
        }
      ],
      "Offerings": [
        {
          "Passport photos": true
        }
      ],
      "Planning": [
        {
          "Quick visit": true
        }
      ],
      "Payments": [
        {
          "Credit cards": true
        },
        {
          "Debit cards": true
        },
        {
          "NFC mobile payments": true
        },
        {
          "SNAP/EBT": true
        },
        {
          "Credit cards": true
        }
      ]
    },
    "gasPrices": [],
    "url": "https://www.google.com/maps/search/?api=1&query=Walgreens&query_place_id=ChIJ4Q4nNp3NSIgRIQWQeSC1w84",
    "searchPageUrl": "https://www.google.com/maps/search/pharmacies%20in%20South%20Charleston,%20WV%20in%20South%20Charleston,%20WV/@25.58561541405634,-171.5257266528475,13z?hl=en",
    "searchString": "pharmacies in South Charleston, WV in South Charleston, WV",
    "language": "en",
    "rank": 8,
    "isAdvertisement": false,
    "imageUrl": "https://lh3.googleusercontent.com/gps-cs-s/AC9h4nq6iYEmK8_FAUcLr_yK8UUEishcmP4OoTzyfB3Y_lYfqktYG5HApbQxd9sI2MyZj8PrmAvwGJwI5X0SwHVp-KSW50Nh-lgur-n5Pn2n4EIcmZOLDJh819a3M9djI-MzvuSaZhxMXA=w408-h544-k-no",
    "kgmid": "/g/11j461pll2"
  },
  {
    "title": "Trinity Infusion",
    "price": null,
    "categoryName": "Pharmacy",
    "address": "327 6th Ave, South Charleston, WV 25303",
    "neighborhood": null,
    "street": "327 6th Ave",
    "city": "South Charleston",
    "postalCode": "25303",
    "state": "West Virginia",
    "countryCode": "US",
    "website": "https://www.tpswv.com/",
    "phone": "(304) 746-7201",
    "phoneUnformatted": "+13047467201",
    "claimThisBusiness": false,
    "location": {
      "lat": 38.3685323,
      "lng": -81.6949399
    },
    "totalScore": 4.7,
    "permanentlyClosed": false,
    "temporarilyClosed": false,
    "placeId": "ChIJE9Y_b1fNSIgRKlEqOEBMEh4",
    "categories": [
      "Pharmacy",
      "Medical supply store"
    ],
    "fid": "0x8848cd576f3fd613:0x1e124c40382a512a",
    "cid": "2166878209422545194",
    "reviewsCount": 7,
    "imagesCount": 1,
    "imageCategories": [],
    "scrapedAt": "2025-06-23T06:15:57.988Z",
    "googleFoodUrl": null,
    "hotelAds": [],
    "openingHours": [],
    "peopleAlsoSearch": [],
    "placesTags": [],
    "reviewsTags": [],
    "additionalInfo": {
      "From the business": [
        {
          "Small business": true
        }
      ],
      "Service options": [
        {
          "Delivery": true
        }
      ],
      "Accessibility": [
        {
          "Wheelchair accessible entrance": true
        },
        {
          "Wheelchair accessible parking lot": true
        }
      ],
      "Payments": [
        {
          "Credit cards": true
        },
        {
          "Debit cards": true
        },
        {
          "Credit cards": true
        }
      ]
    },
    "gasPrices": [],
    "url": "https://www.google.com/maps/search/?api=1&query=Trinity%20Infusion&query_place_id=ChIJE9Y_b1fNSIgRKlEqOEBMEh4",
    "searchPageUrl": "https://www.google.com/maps/search/pharmacies%20in%20South%20Charleston,%20WV%20in%20South%20Charleston,%20WV/@25.58561541405634,-171.5257266528475,13z?hl=en",
    "searchString": "pharmacies in South Charleston, WV in South Charleston, WV",
    "language": "en",
    "rank": 9,
    "isAdvertisement": false,
    "imageUrl": "https://streetviewpixels-pa.googleapis.com/v1/thumbnail?panoid=vL7Ve9e05EpK1C9ZDimG9g&cb_client=search.gws-prod.gps&w=408&h=240&yaw=338.65494&pitch=0&thumbfov=100",
    "kgmid": "/g/11gly3dqv_"
  },
  {
    "title": "Valley Wellness Pharmacy/MobilityPlus of Charleston WV",
    "price": null,
    "categoryName": "Pharmacy",
    "address": "3715 MacCorkle Ave SE, Charleston, WV 25304",
    "neighborhood": null,
    "street": "3715 MacCorkle Ave SE",
    "city": "Charleston",
    "postalCode": "25304",
    "state": "West Virginia",
    "countryCode": "US",
    "website": "http://www.valleywellnesspharmacy.com/",
    "phone": "(304) 932-0032",
    "phoneUnformatted": "+13049320032",
    "claimThisBusiness": false,
    "location": {
      "lat": 38.3275244,
      "lng": -81.5943973
    },
    "totalScore": 3.6,
    "permanentlyClosed": false,
    "temporarilyClosed": false,
    "placeId": "ChIJaXOjt2crT4gRfndFAHCyPD8",
    "categories": [
      "Pharmacy",
      "Mobility equipment supplier"
    ],
    "fid": "0x884f2b67b7a37369:0x3f3cb2700045777e",
    "cid": "4556713117102733182",
    "reviewsCount": 35,
    "imagesCount": 39,
    "imageCategories": [],
    "scrapedAt": "2025-06-23T06:16:05.509Z",
    "googleFoodUrl": null,
    "hotelAds": [],
    "openingHours": [
      {
        "day": "Monday",
        "hours": "9 AM to 6 PM"
      },
      {
        "day": "Tuesday",
        "hours": "9 AM to 6 PM"
      },
      {
        "day": "Wednesday",
        "hours": "9 AM to 6 PM"
      },
      {
        "day": "Thursday",
        "hours": "9 AM to 6 PM"
      },
      {
        "day": "Friday",
        "hours": "9 AM to 6 PM"
      },
      {
        "day": "Saturday",
        "hours": "9 AM to 2 PM"
      },
      {
        "day": "Sunday",
        "hours": "Closed"
      }
    ],
    "peopleAlsoSearch": [],
    "placesTags": [],
    "reviewsTags": [],
    "additionalInfo": {
      "From the business": [
        {
          "Small business": true
        }
      ],
      "Service options": [
        {
          "Delivery": true
        },
        {
          "Drive-through": true
        },
        {
          "In-store pickup": true
        },
        {
          "Same-day delivery": true
        }
      ],
      "Accessibility": [
        {
          "Wheelchair accessible entrance": true
        },
        {
          "Wheelchair accessible parking lot": true
        }
      ],
      "Planning": [
        {
          "Quick visit": true
        }
      ],
      "Payments": [
        {
          "Credit cards": true
        },
        {
          "Debit cards": true
        },
        {
          "NFC mobile payments": true
        },
        {
          "Credit cards": true
        }
      ]
    },
    "gasPrices": [],
    "url": "https://www.google.com/maps/search/?api=1&query=Valley%20Wellness%20Pharmacy%2FMobilityPlus%20of%20Charleston%20WV&query_place_id=ChIJaXOjt2crT4gRfndFAHCyPD8",
    "searchPageUrl": "https://www.google.com/maps/search/pharmacies%20in%20South%20Charleston,%20WV%20in%20South%20Charleston,%20WV/@-10.989466511638566,-171.28449674564223,13z?hl=en",
    "searchString": "pharmacies in South Charleston, WV in South Charleston, WV",
    "language": "en",
    "rank": 9,
    "isAdvertisement": false,
    "imageUrl": "https://lh3.googleusercontent.com/p/AF1QipOkY2jx2PSgAnmGH4bdRxexMBhHFoVsnplZXfuo=w408-h306-k-no",
    "kgmid": "/g/11cn9mfvn7"
  }
]