[
  {
    "title": "CVS Pharmacy",
    "price": null,
    "categoryName": "Pharmacy",
    "address": "701 E Main St, Clarksburg, WV 26301",
    "neighborhood": null,
    "street": "701 E Main St",
    "city": "Clarksburg",
    "postalCode": "26301",
    "state": "West Virginia",
    "countryCode": "US",
    "website": "https://www.cvs.com/store-locator/clarksburg-wv-pharmacies/701-east-main-st-clarksburg-wv-26301/storeid=3186?WT.mc_id=LS_GOOGLE_RX_3186",
    "phone": "(304) 624-0161",
    "phoneUnformatted": "+13046240161",
    "claimThisBusiness": false,
    "location": {
      "lat": 39.2726869,
      "lng": -80.3233126
    },
    "totalScore": 4,
    "permanentlyClosed": false,
    "temporarilyClosed": false,
    "placeId": "ChIJDWtR5bRpSogRpV89uIRUdm8",
    "categories": [
      "Pharmacy"
    ],
    "fid": "0x884a69b4e5516b0d:0x6f765484b83d5fa5",
    "cid": "8031699914465304485",
    "reviewsCount": 32,
    "imagesCount": 9,
    "imageCategories": [],
    "scrapedAt": "2025-06-23T06:14:37.265Z",
    "googleFoodUrl": null,
    "hotelAds": [],
    "openingHours": [
      {
        "day": "Monday",
        "hours": "8 AM to 12:30 PM, 1 to 8 PM"
      },
      {
        "day": "Tuesday",
        "hours": "8 AM to 12:30 PM, 1 to 8 PM"
      },
      {
        "day": "Wednesday",
        "hours": "8 AM to 12:30 PM, 1 to 8 PM"
      },
      {
        "day": "Thursday",
        "hours": "8 AM to 12:30 PM, 1 to 8 PM"
      },
      {
        "day": "Friday",
        "hours": "8 AM to 12:30 PM, 1 to 8 PM"
      },
      {
        "day": "Saturday",
        "hours": "9 AM to 12:30 PM, 1 to 8 PM"
      },
      {
        "day": "Sunday",
        "hours": "10 AM to 12:30 PM, 1 to 6 PM"
      }
    ],
    "peopleAlsoSearch": [],
    "placesTags": [],
    "reviewsTags": [],
    "additionalInfo": {
      "Service options": [
        {
          "Delivery": true
        },
        {
          "Drive-through": true
        },
        {
          "In-store pickup": true
        },
        {
          "In-store shopping": true
        },
        {
          "Onsite services": true
        }
      ],
      "Accessibility": [
        {
          "Wheelchair accessible entrance": true
        },
        {
          "Wheelchair accessible parking lot": true
        }
      ],
      "Offerings": [
        {
          "Medication disposal": true
        },
        {
          "Naloxone": true
        },
        {
          "Passport photos": true
        }
      ],
      "Crowd": [
        {
          "LGBTQ+ friendly": true
        },
        {
          "Transgender safespace": true
        }
      ],
      "Planning": [
        {
          "Quick visit": true
        }
      ],
      "Payments": [
        {
          "Credit cards": true
        },
        {
          "Debit cards": true
        },
        {
          "NFC mobile payments": true
        },
        {
          "SNAP/EBT": true
        },
        {
          "Credit cards": true
        }
      ]
    },
    "gasPrices": [],
    "url": "https://www.google.com/maps/search/?api=1&query=CVS%20Pharmacy&query_place_id=ChIJDWtR5bRpSogRpV89uIRUdm8",
    "searchPageUrl": "https://www.google.com/maps/search/pharmacies%20in%20Clarksburg,%20WV%20in%20Clarksburg,%20WV/@0.7385981862251749,-176.48042014151343,13z?hl=en",
    "searchString": "pharmacies in Clarksburg, WV in Clarksburg, WV",
    "language": "en",
    "rank": 1,
    "isAdvertisement": false,
    "imageUrl": "https://lh3.googleusercontent.com/p/AF1QipMy72jLQJ9y7nskFiBoujn6UipwAKcHZl2wE5ZY=w408-h275-k-no",
    "kgmid": "/g/1q6h_qncm"
  },
  {
    "title": "Victory Pharmacy",
    "price": null,
    "categoryName": "Pharmacy",
    "address": "1724 Adams Ave, Clarksburg, WV 26301",
    "neighborhood": null,
    "street": "1724 Adams Ave",
    "city": "Clarksburg",
    "postalCode": "26301",
    "state": "West Virginia",
    "countryCode": "US",
    "website": "https://www.facebook.com/profile.php?id=100089509481463",
    "phone": "(304) 918-9037",
    "phoneUnformatted": "+13049189037",
    "claimThisBusiness": false,
    "location": {
      "lat": 39.2924251,
      "lng": -80.3596585
    },
    "totalScore": 5,
    "permanentlyClosed": false,
    "temporarilyClosed": false,
    "placeId": "ChIJNU5_VyZpSogRzwF1LVeoiyQ",
    "categories": [
      "Pharmacy"
    ],
    "fid": "0x884a6926577f4e35:0x248ba8572d7501cf",
    "cid": "2633383499506450895",
    "reviewsCount": 13,
    "imagesCount": 3,
    "imageCategories": [],
    "scrapedAt": "2025-06-23T06:14:37.267Z",
    "googleFoodUrl": null,
    "hotelAds": [],
    "openingHours": [
      {
        "day": "Monday",
        "hours": "9 AM to 6 PM"
      },
      {
        "day": "Tuesday",
        "hours": "9 AM to 6 PM"
      },
      {
        "day": "Wednesday",
        "hours": "9 AM to 6 PM"
      },
      {
        "day": "Thursday",
        "hours": "9 AM to 6 PM"
      },
      {
        "day": "Friday",
        "hours": "9 AM to 6 PM"
      },
      {
        "day": "Saturday",
        "hours": "9 AM to 1 PM"
      },
      {
        "day": "Sunday",
        "hours": "Closed"
      }
    ],
    "peopleAlsoSearch": [],
    "placesTags": [],
    "reviewsTags": [],
    "additionalInfo": {
      "From the business": [
        {
          "Small business": true
        }
      ],
      "Accessibility": [
        {
          "Wheelchair accessible entrance": true
        },
        {
          "Wheelchair accessible parking lot": true
        }
      ],
      "Payments": [
        {
          "Credit cards": true
        },
        {
          "Debit cards": true
        },
        {
          "NFC mobile payments": true
        },
        {
          "Credit cards": true
        }
      ]
    },
    "gasPrices": [],
    "url": "https://www.google.com/maps/search/?api=1&query=Victory%20Pharmacy&query_place_id=ChIJNU5_VyZpSogRzwF1LVeoiyQ",
    "searchPageUrl": "https://www.google.com/maps/search/pharmacies%20in%20Clarksburg,%20WV%20in%20Clarksburg,%20WV/@0.7385981862251749,-176.48042014151343,13z?hl=en",
    "searchString": "pharmacies in Clarksburg, WV in Clarksburg, WV",
    "language": "en",
    "rank": 2,
    "isAdvertisement": false,
    "imageUrl": "https://lh3.googleusercontent.com/gps-cs-s/AC9h4np6QrBG8W8-za9ZdTeDRFHimfd-jtX_-_h2JsoyqXh0qtTpJZKgTt2A7HxrazdrkTFJm97IV8oxeeDA7PIjUM_7PMW7tY3w1APM2fpFtgrL2pkZzDO_AakpzJc5rZbO-kLU83A=w408-h306-k-no",
    "kgmid": "/g/11kb9jcn6y"
  },
  {
    "title": "Byard-Mercer Pharmacy",
    "price": null,
    "categoryName": "Pharmacy",
    "address": "440 W Main St, Clarksburg, WV 26301",
    "neighborhood": null,
    "street": "440 W Main St",
    "city": "Clarksburg",
    "postalCode": "26301",
    "state": "West Virginia",
    "countryCode": "US",
    "website": "http://www.byardmercer.com/",
    "phone": "(304) 624-5679",
    "phoneUnformatted": "+13046245679",
    "claimThisBusiness": false,
    "location": {
      "lat": 39.2801247,
      "lng": -80.3419407
    },
    "totalScore": 4.6,
    "permanentlyClosed": false,
    "temporarilyClosed": false,
    "placeId": "ChIJNX9-Z71pSogRHg2m5N5g-vg",
    "categories": [
      "Pharmacy",
      "Drug store"
    ],
    "fid": "0x884a69bd677e7f35:0xf8fa60dee4a60d1e",
    "cid": "17940758576018885918",
    "reviewsCount": 37,
    "imagesCount": 9,
    "imageCategories": [],
    "scrapedAt": "2025-06-23T06:14:37.267Z",
    "googleFoodUrl": null,
    "hotelAds": [],
    "openingHours": [
      {
        "day": "Monday",
        "hours": "9 AM to 6 PM"
      },
      {
        "day": "Tuesday",
        "hours": "9 AM to 6 PM"
      },
      {
        "day": "Wednesday",
        "hours": "9 AM to 6 PM"
      },
      {
        "day": "Thursday",
        "hours": "9 AM to 6 PM"
      },
      {
        "day": "Friday",
        "hours": "9 AM to 6 PM"
      },
      {
        "day": "Saturday",
        "hours": "9 AM to 1 PM"
      },
      {
        "day": "Sunday",
        "hours": "Closed"
      }
    ],
    "peopleAlsoSearch": [],
    "placesTags": [],
    "reviewsTags": [],
    "additionalInfo": {
      "From the business": [
        {
          "Small business": true
        }
      ],
      "Service options": [
        {
          "Curbside pickup": true
        },
        {
          "Delivery": true
        },
        {
          "In-store pickup": true
        },
        {
          "In-store shopping": true
        },
        {
          "Onsite services": true
        },
        {
          "Same-day delivery": true
        }
      ],
      "Accessibility": [
        {
          "Wheelchair accessible entrance": true
        },
        {
          "Wheelchair accessible parking lot": true
        }
      ],
      "Planning": [
        {
          "Quick visit": true
        }
      ],
      "Payments": [
        {
          "Checks": true
        },
        {
          "Credit cards": true
        },
        {
          "Debit cards": true
        },
        {
          "NFC mobile payments": true
        },
        {
          "Credit cards": true
        }
      ]
    },
    "gasPrices": [],
    "url": "https://www.google.com/maps/search/?api=1&query=Byard-Mercer%20Pharmacy&query_place_id=ChIJNX9-Z71pSogRHg2m5N5g-vg",
    "searchPageUrl": "https://www.google.com/maps/search/pharmacies%20in%20Clarksburg,%20WV%20in%20Clarksburg,%20WV/@0.7385981862251749,-176.48042014151343,13z?hl=en",
    "searchString": "pharmacies in Clarksburg, WV in Clarksburg, WV",
    "language": "en",
    "rank": 3,
    "isAdvertisement": false,
    "imageUrl": "https://lh3.googleusercontent.com/gps-cs-s/AC9h4nojxZHqnWFj0V8Sc2OGhE5gl8hHIUpPgOVVWCbY7nHtKxRjemiqzyn5EdBHjn1aVKI_0TtqG83miPX0sXyZn_kP8dVk3wuwdgM9_hK64H2OEY7Rd4G0mOrRfAxZI_lQbkhQpnu-=w408-h253-k-no",
    "kgmid": "/g/1w0j091k"
  },
  {
    "title": "CVS",
    "description": "Drugstore chain selling a variety of beauty & health products, plus some grocery & household items.",
    "price": null,
    "categoryName": "Drug store",
    "address": "701 E Main St, Clarksburg, WV 26301",
    "neighborhood": null,
    "street": "701 E Main St",
    "city": "Clarksburg",
    "postalCode": "26301",
    "state": "West Virginia",
    "countryCode": "US",
    "website": "https://www.cvs.com/store-locator/clarksburg-wv-pharmacies/701-east-main-st-clarksburg-wv-26301/storeid=3186?WT.mc_id=LS_GOOGLE_FS_3186",
    "phone": "(304) 624-0161",
    "phoneUnformatted": "+13046240161",
    "claimThisBusiness": false,
    "location": {
      "lat": 39.2728764,
      "lng": -80.3233447
    },
    "locatedIn": "CVS Pharmacy",
    "totalScore": 3.2,
    "permanentlyClosed": false,
    "temporarilyClosed": false,
    "placeId": "ChIJZcI-4aRpSogRxxXsI4zVZQA",
    "categories": [
      "Drug store",
      "Beauty supply store",
      "Beer store",
      "Convenience store",
      "Cosmetics store",
      "Greeting card shop",
      "Perfume store",
      "Stationery store",
      "Vitamin & supplements store",
      "Wine store"
    ],
    "fid": "0x884a69a4e13ec265:0x65d58c23ec15c7",
    "cid": "28663770522588615",
    "reviewsCount": 88,
    "imagesCount": 7,
    "imageCategories": [],
    "scrapedAt": "2025-06-23T06:14:37.267Z",
    "googleFoodUrl": null,
    "hotelAds": [],
    "openingHours": [
      {
        "day": "Monday",
        "hours": "8 AM to 10 PM"
      },
      {
        "day": "Tuesday",
        "hours": "8 AM to 10 PM"
      },
      {
        "day": "Wednesday",
        "hours": "8 AM to 10 PM"
      },
      {
        "day": "Thursday",
        "hours": "8 AM to 10 PM"
      },
      {
        "day": "Friday",
        "hours": "8 AM to 10 PM"
      },
      {
        "day": "Saturday",
        "hours": "9 AM to 10 PM"
      },
      {
        "day": "Sunday",
        "hours": "10 AM to 9 PM"
      }
    ],
    "additionalOpeningHours": {
      "CVS Pharmacy": [
        {
          "day": "Monday",
          "hours": "8 AM–12:30 PM"
        },
        {
          "day": "Tuesday",
          "hours": "8 AM–12:30 PM"
        },
        {
          "day": "Wednesday",
          "hours": "8 AM–12:30 PM"
        },
        {
          "day": "Thursday",
          "hours": "8 AM–12:30 PM"
        },
        {
          "day": "Friday",
          "hours": "8 AM–12:30 PM"
        },
        {
          "day": "Saturday",
          "hours": "9 AM–12:30 PM"
        },
        {
          "day": "Sunday",
          "hours": "10 AM–12:30 PM"
        }
      ],
      "CVS Photo": [
        {
          "day": "Monday",
          "hours": "8 AM–10 PM"
        },
        {
          "day": "Tuesday",
          "hours": "8 AM–10 PM"
        },
        {
          "day": "Wednesday",
          "hours": "8 AM–10 PM"
        },
        {
          "day": "Thursday",
          "hours": "8 AM–10 PM"
        },
        {
          "day": "Friday",
          "hours": "8 AM–10 PM"
        },
        {
          "day": "Saturday",
          "hours": "9 AM–10 PM"
        },
        {
          "day": "Sunday",
          "hours": "10 AM–9 PM"
        }
      ],
      "LibertyX Bitcoin ATM": [
        {
          "day": "Monday",
          "hours": "8 AM–10 PM"
        },
        {
          "day": "Tuesday",
          "hours": "8 AM–10 PM"
        },
        {
          "day": "Wednesday",
          "hours": "8 AM–10 PM"
        },
        {
          "day": "Thursday",
          "hours": "8 AM–10 PM"
        },
        {
          "day": "Friday",
          "hours": "8 AM–10 PM"
        },
        {
          "day": "Saturday",
          "hours": "8 AM–10 PM"
        },
        {
          "day": "Sunday",
          "hours": "8 AM–10 PM"
        }
      ]
    },
    "peopleAlsoSearch": [],
    "placesTags": [],
    "reviewsTags": [],
    "additionalInfo": {
      "Service options": [
        {
          "Delivery": true
        },
        {
          "Drive-through": true
        },
        {
          "In-store pickup": true
        },
        {
          "In-store shopping": true
        },
        {
          "Same-day delivery": false
        }
      ],
      "Accessibility": [
        {
          "Wheelchair accessible entrance": true
        },
        {
          "Wheelchair accessible parking lot": true
        }
      ],
      "Offerings": [
        {
          "Passport photos": true
        }
      ],
      "Crowd": [
        {
          "LGBTQ+ friendly": true
        },
        {
          "Transgender safespace": true
        }
      ],
      "Planning": [
        {
          "Quick visit": true
        }
      ],
      "Payments": [
        {
          "Credit cards": true
        },
        {
          "Debit cards": true
        }
      ]
    },
    "gasPrices": [],
    "url": "https://www.google.com/maps/search/?api=1&query=CVS&query_place_id=ChIJZcI-4aRpSogRxxXsI4zVZQA",
    "searchPageUrl": "https://www.google.com/maps/search/pharmacies%20in%20Clarksburg,%20WV%20in%20Clarksburg,%20WV/@0.7385981862251749,-176.48042014151343,13z?hl=en",
    "searchString": "pharmacies in Clarksburg, WV in Clarksburg, WV",
    "language": "en",
    "rank": 4,
    "isAdvertisement": false,
    "imageUrl": "https://lh3.googleusercontent.com/gps-cs-s/AC9h4npxhr1gfMm7IiESVzZeirbe4KAk_nFc2hfNoK5-WILnvsN8sM_X6Kx0CEJweRq-3jv7Ltquy5wdVpEsKMShAmYPLciWEu2RXF7YUNcwMBgI3Xu0wZo2oxNqAF7RvHnrwdyqzPb5gg=w408-h544-k-no",
    "kgmid": "/g/1wk7rk47"
  },
  {
    "title": "Sam's Club Pharmacy",
    "price": "$",
    "categoryName": "Pharmacy",
    "address": "200 Emily Dr, Clarksburg, WV 26301",
    "neighborhood": null,
    "street": "200 Emily Dr",
    "city": "Clarksburg",
    "postalCode": "26301",
    "state": "West Virginia",
    "countryCode": "US",
    "website": "https://www.samsclub.com/local/pharmacy/clarksburg-wv-sams-club/8189",
    "phone": "(304) 918-6056",
    "phoneUnformatted": "+13049186056",
    "claimThisBusiness": false,
    "location": {
      "lat": 39.2758377,
      "lng": -80.2788371
    },
    "totalScore": 5,
    "permanentlyClosed": false,
    "temporarilyClosed": false,
    "placeId": "ChIJ-9MUuXhoSogRmGESwIod3zc",
    "categories": [
      "Pharmacy"
    ],
    "fid": "0x884a6878b914d3fb:0x37df1d8ac0126198",
    "cid": "4025969073657635224",
    "reviewsCount": 8,
    "imagesCount": 8,
    "imageCategories": [],
    "scrapedAt": "2025-06-23T06:14:37.267Z",
    "googleFoodUrl": null,
    "hotelAds": [],
    "openingHours": [
      {
        "day": "Monday",
        "hours": "9 AM to 7 PM"
      },
      {
        "day": "Tuesday",
        "hours": "9 AM to 7 PM"
      },
      {
        "day": "Wednesday",
        "hours": "9 AM to 7 PM"
      },
      {
        "day": "Thursday",
        "hours": "9 AM to 7 PM"
      },
      {
        "day": "Friday",
        "hours": "9 AM to 7 PM"
      },
      {
        "day": "Saturday",
        "hours": "9 AM to 6 PM"
      },
      {
        "day": "Sunday",
        "hours": "Closed"
      }
    ],
    "peopleAlsoSearch": [],
    "placesTags": [],
    "reviewsTags": [],
    "additionalInfo": {
      "Service options": [
        {
          "Curbside pickup": true
        },
        {
          "Delivery": true
        },
        {
          "In-store pickup": true
        },
        {
          "In-store shopping": true
        },
        {
          "Onsite services": true
        },
        {
          "Same-day delivery": true
        }
      ],
      "Accessibility": [
        {
          "Wheelchair accessible entrance": true
        },
        {
          "Wheelchair accessible parking lot": true
        }
      ],
      "Planning": [
        {
          "Quick visit": true
        }
      ],
      "Payments": [
        {
          "Credit cards": true
        },
        {
          "Debit cards": true
        },
        {
          "Credit cards": true
        }
      ]
    },
    "gasPrices": [],
    "url": "https://www.google.com/maps/search/?api=1&query=Sam's%20Club%20Pharmacy&query_place_id=ChIJ-9MUuXhoSogRmGESwIod3zc",
    "searchPageUrl": "https://www.google.com/maps/search/pharmacies%20in%20Clarksburg,%20WV%20in%20Clarksburg,%20WV/@0.7385981862251749,-176.48042014151343,13z?hl=en",
    "searchString": "pharmacies in Clarksburg, WV in Clarksburg, WV",
    "language": "en",
    "rank": 5,
    "isAdvertisement": false,
    "imageUrl": "https://lh3.googleusercontent.com/p/AF1QipORZht3Dd7jaE208hX-dYd18G1U7yH-YVIoZWX9=w408-h272-k-no",
    "kgmid": "/g/11bv2fmk7x"
  },
  {
    "title": "Walmart Pharmacy",
    "price": "$",
    "categoryName": "Pharmacy",
    "address": "550 Emily Dr, Clarksburg, WV 26301",
    "neighborhood": null,
    "street": "550 Emily Dr",
    "city": "Clarksburg",
    "postalCode": "26301",
    "state": "West Virginia",
    "countryCode": "US",
    "website": "https://www.walmart.com/store/1544-clarksburg-wv/pharmacy/?veh=seo_loc",
    "phone": "(304) 622-2784",
    "phoneUnformatted": "+13046222784",
    "claimThisBusiness": false,
    "location": {
      "lat": 39.2634006,
      "lng": -80.2857582
    },
    "totalScore": 3.7,
    "permanentlyClosed": false,
    "temporarilyClosed": false,
    "placeId": "ChIJ39jQJgxoSogRgAEJGTZeKDY",
    "categories": [
      "Pharmacy",
      "Herbal medicine store",
      "Medical supply store",
      "Parapharmacy",
      "Vitamin & supplements store"
    ],
    "fid": "0x884a680c26d0d8df:0x36285e3619090180",
    "cid": "3902472663557800320",
    "reviewsCount": 29,
    "imagesCount": 6,
    "imageCategories": [],
    "scrapedAt": "2025-06-23T06:14:37.267Z",
    "googleFoodUrl": null,
    "hotelAds": [],
    "openingHours": [
      {
        "day": "Monday",
        "hours": "9 AM to 7 PM"
      },
      {
        "day": "Tuesday",
        "hours": "9 AM to 7 PM"
      },
      {
        "day": "Wednesday",
        "hours": "9 AM to 7 PM"
      },
      {
        "day": "Thursday",
        "hours": "9 AM to 7 PM"
      },
      {
        "day": "Friday",
        "hours": "9 AM to 7 PM"
      },
      {
        "day": "Saturday",
        "hours": "9 AM to 7 PM"
      },
      {
        "day": "Sunday",
        "hours": "10 AM to 6 PM"
      }
    ],
    "peopleAlsoSearch": [],
    "placesTags": [],
    "reviewsTags": [],
    "additionalInfo": {
      "Service options": [
        {
          "Delivery": true
        },
        {
          "In-store pickup": true
        },
        {
          "In-store shopping": true
        }
      ],
      "Accessibility": [
        {
          "Wheelchair accessible entrance": true
        },
        {
          "Wheelchair accessible parking lot": true
        },
        {
          "Wheelchair accessible restroom": true
        }
      ],
      "Offerings": [
        {
          "Passport photos": true
        }
      ],
      "Amenities": [
        {
          "Wi-Fi": true
        },
        {
          "Free Wi-Fi": true
        }
      ],
      "Planning": [
        {
          "Quick visit": true
        }
      ],
      "Payments": [
        {
          "Credit cards": true
        },
        {
          "Debit cards": true
        },
        {
          "Credit cards": true
        }
      ]
    },
    "gasPrices": [],
    "url": "https://www.google.com/maps/search/?api=1&query=Walmart%20Pharmacy&query_place_id=ChIJ39jQJgxoSogRgAEJGTZeKDY",
    "searchPageUrl": "https://www.google.com/maps/search/pharmacies%20in%20Clarksburg,%20WV%20in%20Clarksburg,%20WV/@0.7385981862251749,-176.48042014151343,13z?hl=en",
    "searchString": "pharmacies in Clarksburg, WV in Clarksburg, WV",
    "language": "en",
    "rank": 6,
    "isAdvertisement": false,
    "imageUrl": "https://lh3.googleusercontent.com/p/AF1QipN3mTWhH06itEpUVkvCpwXuuQQi7JmBCizvNOYF=w408-h306-k-no",
    "kgmid": "/g/1tf16kq8"
  },
  {
    "title": "Kroger Pharmacy",
    "price": null,
    "categoryName": "Pharmacy",
    "address": "102 Emily Dr, Clarksburg, WV 26301",
    "neighborhood": null,
    "street": "102 Emily Dr",
    "city": "Clarksburg",
    "postalCode": "26301",
    "state": "West Virginia",
    "countryCode": "US",
    "website": "https://www.kroger.com/rx/pharmacy/details/029/00774?cid=loc_02900774P_gmb",
    "phone": "(304) 623-1482",
    "phoneUnformatted": "+13046231482",
    "claimThisBusiness": false,
    "location": {
      "lat": 39.2789813,
      "lng": -80.2796585
    },
    "totalScore": 3.8,
    "permanentlyClosed": false,
    "temporarilyClosed": false,
    "placeId": "ChIJN16Bb15pSogR0f1aE2JIb_c",
    "categories": [
      "Pharmacy",
      "Drug store",
      "Health counselor",
      "Home health care service"
    ],
    "fid": "0x884a695e6f815e37:0xf76f4862135afdd1",
    "cid": "17829549035851808209",
    "reviewsCount": 8,
    "imagesCount": 11,
    "imageCategories": [],
    "scrapedAt": "2025-06-23T06:14:37.267Z",
    "googleFoodUrl": null,
    "hotelAds": [],
    "openingHours": [
      {
        "day": "Monday",
        "hours": "8 AM to 1 PM, 1:30 to 8 PM"
      },
      {
        "day": "Tuesday",
        "hours": "8 AM to 1 PM, 1:30 to 8 PM"
      },
      {
        "day": "Wednesday",
        "hours": "8 AM to 1 PM, 1:30 to 8 PM"
      },
      {
        "day": "Thursday",
        "hours": "8 AM to 1 PM, 1:30 to 8 PM"
      },
      {
        "day": "Friday",
        "hours": "8 AM to 1 PM, 1:30 to 8 PM"
      },
      {
        "day": "Saturday",
        "hours": "9 AM to 1 PM, 1:30 to 6 PM"
      },
      {
        "day": "Sunday",
        "hours": "10 AM to 1 PM, 1:30 to 5 PM"
      }
    ],
    "additionalOpeningHours": {
      "Drive through": [
        {
          "day": "Monday",
          "hours": "8 AM–1 PM"
        },
        {
          "day": "Tuesday",
          "hours": "8 AM–1 PM"
        },
        {
          "day": "Wednesday",
          "hours": "8 AM–1 PM"
        },
        {
          "day": "Thursday",
          "hours": "8 AM–1 PM"
        },
        {
          "day": "Friday",
          "hours": "8 AM–1 PM"
        },
        {
          "day": "Saturday",
          "hours": "9 AM–1 PM"
        },
        {
          "day": "Sunday",
          "hours": "10 AM–1 PM"
        }
      ]
    },
    "peopleAlsoSearch": [],
    "placesTags": [],
    "reviewsTags": [],
    "additionalInfo": {
      "Service options": [
        {
          "Curbside pickup": true
        },
        {
          "Delivery": true
        },
        {
          "Drive-through": true
        },
        {
          "In-store pickup": true
        },
        {
          "In-store shopping": true
        },
        {
          "Same-day delivery": true
        }
      ],
      "Accessibility": [
        {
          "Wheelchair accessible entrance": true
        },
        {
          "Wheelchair accessible parking lot": true
        },
        {
          "Wheelchair accessible restroom": true
        },
        {
          "Wheelchair accessible seating": true
        }
      ],
      "Crowd": [
        {
          "LGBTQ+ friendly": true
        },
        {
          "Transgender safespace": true
        }
      ],
      "Planning": [
        {
          "Quick visit": true
        }
      ],
      "Payments": [
        {
          "Checks": true
        },
        {
          "Credit cards": true
        },
        {
          "Debit cards": true
        },
        {
          "NFC mobile payments": true
        },
        {
          "Credit cards": true
        }
      ]
    },
    "gasPrices": [],
    "url": "https://www.google.com/maps/search/?api=1&query=Kroger%20Pharmacy&query_place_id=ChIJN16Bb15pSogR0f1aE2JIb_c",
    "searchPageUrl": "https://www.google.com/maps/search/pharmacies%20in%20Clarksburg,%20WV%20in%20Clarksburg,%20WV/@0.7385981862251749,-176.48042014151343,13z?hl=en",
    "searchString": "pharmacies in Clarksburg, WV in Clarksburg, WV",
    "language": "en",
    "rank": 7,
    "isAdvertisement": false,
    "imageUrl": "https://lh3.googleusercontent.com/p/AF1QipPl47xgg_m5nR-DRyUpAP9D_-FfwVZO4jVZ5jZa=w426-h240-k-no",
    "kgmid": "/g/11jylxr8c9"
  },
  {
    "title": "Newpointe Pharmacy",
    "price": null,
    "categoryName": "Pharmacy",
    "address": "463 Emily Dr, Clarksburg, WV 26301",
    "neighborhood": null,
    "street": "463 Emily Dr",
    "city": "Clarksburg",
    "postalCode": "26301",
    "state": "West Virginia",
    "countryCode": "US",
    "phone": "(304) 423-5000",
    "phoneUnformatted": "+13044235000",
    "claimThisBusiness": false,
    "location": {
      "lat": 39.2710944,
      "lng": -80.2857541
    },
    "totalScore": 5,
    "permanentlyClosed": false,
    "temporarilyClosed": true,
    "placeId": "ChIJndtJWHJoSogR2Lj-CqLNtIE",
    "categories": [
      "Pharmacy",
      "Candle store",
      "Vitamin & supplements store"
    ],
    "fid": "0x884a68725849db9d:0x81b4cda20afeb8d8",
    "cid": "9346321222553483480",
    "reviewsCount": 7,
    "imagesCount": 3,
    "imageCategories": [],
    "scrapedAt": "2025-06-23T06:14:37.267Z",
    "googleFoodUrl": null,
    "hotelAds": [],
    "openingHours": [],
    "peopleAlsoSearch": [],
    "placesTags": [],
    "reviewsTags": [],
    "gasPrices": [],
    "url": "https://www.google.com/maps/search/?api=1&query=Newpointe%20Pharmacy&query_place_id=ChIJndtJWHJoSogR2Lj-CqLNtIE",
    "searchPageUrl": "https://www.google.com/maps/search/pharmacies%20in%20Clarksburg,%20WV%20in%20Clarksburg,%20WV/@0.7385981862251749,-176.48042014151343,13z?hl=en",
    "searchString": "pharmacies in Clarksburg, WV in Clarksburg, WV",
    "language": "en",
    "rank": 8,
    "isAdvertisement": false,
    "imageUrl": "https://lh3.googleusercontent.com/gps-cs-s/AC9h4nqw0tNIgR2FT-AMK9ly9hIY4ERWbQsSce_-h3TBzZREvSH0CsAPmAiH67iBI0kpdYvODjZK8L0z-3FoFT4E97epEXiutqeI67yOnCbS_CVktndBqRnJhQvNZq-8Rr4lUxKDBC3Lfw=w426-h240-k-no",
    "kgmid": "/g/1w9y1svw"
  },
  {
    "title": "Westbrook Linda J",
    "price": null,
    "categoryName": "Pharmacy",
    "address": "1 Med Center Dr, Clarksburg, WV 26301",
    "neighborhood": null,
    "street": "1 Med Center Dr",
    "city": "Clarksburg",
    "postalCode": "26301",
    "state": "West Virginia",
    "countryCode": "US",
    "phone": "(304) 623-3461",
    "phoneUnformatted": "+13046233461",
    "claimThisBusiness": true,
    "location": {
      "lat": 39.2700026,
      "lng": -80.36264
    },
    "permanentlyClosed": false,
    "temporarilyClosed": false,
    "placeId": "ChIJo_i1-PRpSogR2c7G_wgHjGU",
    "categories": [
      "Pharmacy"
    ],
    "fid": "0x884a69f4f8b5f8a3:0x658c0708ffc6ced9",
    "cid": "7317231229802565337",
    "reviewsCount": 0,
    "imagesCount": 1,
    "imageCategories": [],
    "scrapedAt": "2025-06-23T06:14:37.635Z",
    "googleFoodUrl": null,
    "hotelAds": [],
    "openingHours": [],
    "peopleAlsoSearch": [],
    "placesTags": [],
    "reviewsTags": [],
    "additionalInfo": {
      "Accessibility": [
        {
          "Wheelchair accessible parking lot": true
        }
      ]
    },
    "gasPrices": [],
    "url": "https://www.google.com/maps/search/?api=1&query=Westbrook%20Linda%20J&query_place_id=ChIJo_i1-PRpSogR2c7G_wgHjGU",
    "searchPageUrl": "https://www.google.com/maps/search/pharmacies%20in%20Clarksburg,%20WV%20in%20Clarksburg,%20WV/@58.79025158634311,-138.15012415756465,9z?hl=en",
    "searchString": "pharmacies in Clarksburg, WV in Clarksburg, WV",
    "language": "en",
    "rank": 6,
    "isAdvertisement": false,
    "imageUrl": "https://streetviewpixels-pa.googleapis.com/v1/thumbnail?panoid=OYzOz44ZXU4dZytnocPeXg&cb_client=search.gws-prod.gps&w=408&h=240&yaw=142.20915&pitch=0&thumbfov=100",
    "kgmid": "/g/1tmg77dl"
  }
]