[
  {
    "title": "Wingate's Pharmacy",
    "price": null,
    "categoryName": "Pharmacy",
    "address": "129 Main St, Nashua, NH 03060",
    "neighborhood": null,
    "street": "129 Main St",
    "city": "Nashua",
    "postalCode": "03060",
    "state": "New Hampshire",
    "countryCode": "US",
    "website": "http://www.wingatespharmacy.com/",
    "phone": "(603) 882-9733",
    "phoneUnformatted": "+16038829733",
    "claimThisBusiness": false,
    "location": {
      "lat": 42.7616943,
      "lng": -71.465923
    },
    "plusCode": "QG6M+MJ Nashua, New Hampshire",
    "totalScore": 4.1,
    "permanentlyClosed": false,
    "temporarilyClosed": false,
    "placeId": "ChIJw6GF-dew44kRobbea6P_PjU",
    "categories": [
      "Pharmacy"
    ],
    "fid": "0x89e3b0d7f985a1c3:0x353effa36bdeb6a1",
    "cid": "3836785009920751265",
    "reviewsCount": 58,
    "reviewsDistribution": {
      "oneStar": 6,
      "twoStar": 3,
      "threeStar": 6,
      "fourStar": 5,
      "fiveStar": 38
    },
    "imagesCount": 8,
    "imageCategories": [
      "All",
      "By owner",
      "Street View & 360°"
    ],
    "scrapedAt": "2025-06-23T06:29:12.066Z",
    "googleFoodUrl": null,
    "hotelAds": [],
    "openingHours": [
      {
        "day": "Monday",
        "hours": "8:30 AM to 5 PM"
      },
      {
        "day": "Tuesday",
        "hours": "8:30 AM to 5 PM"
      },
      {
        "day": "Wednesday",
        "hours": "8:30 AM to 5 PM"
      },
      {
        "day": "Thursday",
        "hours": "8:30 AM to 5 PM"
      },
      {
        "day": "Friday",
        "hours": "8:30 AM to 5 PM"
      },
      {
        "day": "Saturday",
        "hours": "8:30 AM to 1 PM"
      },
      {
        "day": "Sunday",
        "hours": "Closed"
      }
    ],
    "peopleAlsoSearch": [
      {
        "category": "People also search for",
        "title": "Health Haven Pharmacy",
        "reviewsCount": 0,
        "totalScore": 0
      },
      {
        "category": "People also search for",
        "title": "Genoa Healthcare",
        "reviewsCount": 7,
        "totalScore": 3.9
      },
      {
        "category": "People also search for",
        "title": "Shaw's Pharmacy",
        "reviewsCount": 31,
        "totalScore": 3.9
      },
      {
        "category": "People also search for",
        "title": "Medicine World & Holistic Health Center",
        "reviewsCount": 53,
        "totalScore": 4.8
      },
      {
        "category": "People also search for",
        "title": "CVS Pharmacy",
        "reviewsCount": 52,
        "totalScore": 4.1
      }
    ],
    "placesTags": [],
    "reviewsTags": [
      {
        "title": "compounded",
        "count": 8
      },
      {
        "title": "pet",
        "count": 7
      },
      {
        "title": "priced",
        "count": 7
      },
      {
        "title": "call",
        "count": 5
      },
      {
        "title": "mail",
        "count": 3
      },
      {
        "title": "vet",
        "count": 2
      },
      {
        "title": "friday",
        "count": 2
      },
      {
        "title": "insurance",
        "count": 2
      },
      {
        "title": "medicine",
        "count": 2
      }
    ],
    "additionalInfo": {
      "From the business": [
        {
          "Small business": true
        }
      ],
      "Service options": [
        {
          "Delivery": true
        },
        {
          "In-store pickup": true
        },
        {
          "In-store shopping": true
        },
        {
          "Same-day delivery": true
        }
      ],
      "Accessibility": [
        {
          "Wheelchair accessible entrance": true
        },
        {
          "Wheelchair accessible parking lot": true
        }
      ],
      "Planning": [
        {
          "Quick visit": true
        }
      ],
      "Payments": [
        {
          "Checks": true
        },
        {
          "Credit cards": true
        },
        {
          "Debit cards": true
        },
        {
          "NFC mobile payments": true
        },
        {
          "Credit cards": true
        }
      ]
    },
    "gasPrices": [],
    "url": "https://www.google.com/maps/search/?api=1&query=Wingate's%20Pharmacy&query_place_id=ChIJw6GF-dew44kRobbea6P_PjU",
    "searchPageUrl": "https://www.google.com/maps/search/independent%20pharmacies%20in%20Nashua,%20NH%20in%20Nashua,%20NH/@61.56929586514925,-153.11051097135197,9z?hl=en",
    "searchString": "independent pharmacies in Nashua, NH in Nashua, NH",
    "language": "en",
    "rank": 1,
    "isAdvertisement": false,
    "imageUrl": "https://lh3.googleusercontent.com/gps-cs-s/AC9h4nqKlYPmGVqPWo3qgb6AoeP2Yyo6l79cB9q7MgrsxxEiokyTvD8ko-lHuyZXd-OVUvlT2S_QbKpFcekTcE0tcpK3HcbXwIdwCp8R6VSINuVSsQnhujeiYDopVZWlhli2evlJWBxyzw=w408-h306-k-no",
    "kgmid": "/g/1v27whyt"
  },
  {
    "title": "Genoa Healthcare",
    "price": null,
    "categoryName": "Pharmacy",
    "address": "7 Prospect St #100, Nashua, NH 03060",
    "neighborhood": null,
    "street": "7 Prospect St #100",
    "city": "Nashua",
    "postalCode": "03060",
    "state": "New Hampshire",
    "countryCode": "US",
    "website": "http://www.genoahealthcare.com/",
    "phone": "(603) 318-2058",
    "phoneUnformatted": "+16033182058",
    "claimThisBusiness": false,
    "location": {
      "lat": 42.7557401,
      "lng": -71.4611549
    },
    "totalScore": 3.9,
    "permanentlyClosed": false,
    "temporarilyClosed": false,
    "placeId": "ChIJJRsN6Nuw44kRJzMIGRCeCRI",
    "categories": [
      "Pharmacy"
    ],
    "fid": "0x89e3b0dbe80d1b25:0x12099e1019083327",
    "cid": "1299743759449731879",
    "reviewsCount": 7,
    "imagesCount": 1,
    "imageCategories": [],
    "scrapedAt": "2025-06-23T06:29:30.767Z",
    "googleFoodUrl": null,
    "hotelAds": [],
    "openingHours": [
      {
        "day": "Monday",
        "hours": "8:30 AM to 12:30 PM, 1 to 5 PM"
      },
      {
        "day": "Tuesday",
        "hours": "8:30 AM to 12:30 PM, 1 to 5 PM"
      },
      {
        "day": "Wednesday",
        "hours": "8:30 AM to 12:30 PM, 1 to 5 PM"
      },
      {
        "day": "Thursday",
        "hours": "8:30 AM to 12:30 PM, 1 to 5 PM"
      },
      {
        "day": "Friday",
        "hours": "8:30 AM to 12:30 PM, 1 to 5 PM"
      },
      {
        "day": "Saturday",
        "hours": "Closed"
      },
      {
        "day": "Sunday",
        "hours": "Closed"
      }
    ],
    "peopleAlsoSearch": [],
    "placesTags": [],
    "reviewsTags": [],
    "additionalInfo": {
      "Accessibility": [
        {
          "Wheelchair accessible entrance": true
        },
        {
          "Wheelchair accessible parking lot": true
        }
      ],
      "Payments": [
        {
          "Credit cards": true
        },
        {
          "Debit cards": true
        },
        {
          "NFC mobile payments": true
        },
        {
          "Credit cards": true
        }
      ]
    },
    "gasPrices": [],
    "url": "https://www.google.com/maps/search/?api=1&query=Genoa%20Healthcare&query_place_id=ChIJJRsN6Nuw44kRJzMIGRCeCRI",
    "searchPageUrl": "https://www.google.com/maps/search/independent%20pharmacies%20in%20Nashua,%20NH%20in%20Nashua,%20NH/@15.950682338564983,146.12683604375687,13z?hl=en",
    "searchString": "independent pharmacies in Nashua, NH in Nashua, NH",
    "language": "en",
    "rank": 2,
    "isAdvertisement": false,
    "imageUrl": "https://streetviewpixels-pa.googleapis.com/v1/thumbnail?panoid=pWdXEyG07VXg_KJI4cEExg&cb_client=search.gws-prod.gps&w=408&h=240&yaw=112.04181&pitch=0&thumbfov=100",
    "kgmid": "/g/11cn12k9q8"
  },
  {
    "title": "Medicine World & Holistic Health Center",
    "price": null,
    "categoryName": "Pharmacy",
    "address": "262 Main Dunstable Rd STE 1, Nashua, NH 03062",
    "neighborhood": null,
    "street": "262 Main Dunstable Rd STE 1",
    "city": "Nashua",
    "postalCode": "03062",
    "state": "New Hampshire",
    "countryCode": "US",
    "website": "http://www.medicineworldnh.com/",
    "phone": "(603) 881-9500",
    "phoneUnformatted": "+16038819500",
    "claimThisBusiness": false,
    "location": {
      "lat": 42.7415624,
      "lng": -71.4945862
    },
    "totalScore": 4.8,
    "permanentlyClosed": false,
    "temporarilyClosed": false,
    "placeId": "ChIJXaMEd0S344kRS0LKGG6SfJo",
    "categories": [
      "Pharmacy",
      "Vitamin & supplements store"
    ],
    "fid": "0x89e3b7447704a35d:0x9a7c926e18ca424b",
    "cid": "11131933380512989771",
    "reviewsCount": 53,
    "imagesCount": 2,
    "imageCategories": [],
    "scrapedAt": "2025-06-23T06:29:30.767Z",
    "googleFoodUrl": null,
    "hotelAds": [],
    "openingHours": [
      {
        "day": "Monday",
        "hours": "9 AM to 7 PM"
      },
      {
        "day": "Tuesday",
        "hours": "9 AM to 6 PM"
      },
      {
        "day": "Wednesday",
        "hours": "9 AM to 6 PM"
      },
      {
        "day": "Thursday",
        "hours": "9 AM to 6 PM"
      },
      {
        "day": "Friday",
        "hours": "9 AM to 6 PM"
      },
      {
        "day": "Saturday",
        "hours": "9 AM to 2 PM"
      },
      {
        "day": "Sunday",
        "hours": "Closed"
      }
    ],
    "peopleAlsoSearch": [],
    "placesTags": [],
    "reviewsTags": [],
    "additionalInfo": {
      "From the business": [
        {
          "Small business": true
        }
      ],
      "Service options": [
        {
          "Curbside pickup": true
        },
        {
          "In-store pickup": true
        },
        {
          "In-store shopping": true
        }
      ],
      "Accessibility": [
        {
          "Wheelchair accessible entrance": true
        },
        {
          "Wheelchair accessible parking lot": true
        }
      ],
      "Planning": [
        {
          "Quick visit": true
        }
      ],
      "Payments": [
        {
          "Checks": true
        },
        {
          "Credit cards": true
        },
        {
          "Debit cards": true
        },
        {
          "NFC mobile payments": true
        },
        {
          "Credit cards": true
        }
      ],
      "Parking": [
        {
          "On-site parking": true
        }
      ]
    },
    "gasPrices": [],
    "url": "https://www.google.com/maps/search/?api=1&query=Medicine%20World%20%26%20Holistic%20Health%20Center&query_place_id=ChIJXaMEd0S344kRS0LKGG6SfJo",
    "searchPageUrl": "https://www.google.com/maps/search/independent%20pharmacies%20in%20Nashua,%20NH%20in%20Nashua,%20NH/@15.950682338564983,146.12683604375687,13z?hl=en",
    "searchString": "independent pharmacies in Nashua, NH in Nashua, NH",
    "language": "en",
    "rank": 3,
    "isAdvertisement": false,
    "imageUrl": "https://lh3.googleusercontent.com/gps-cs-s/AC9h4nrXUjWEeqPlwf2JrrYaZbOZUjo8XbFsUalSdt0VAxXXtwSseSv-qzFDzoiaasT0OXjNRQhooNKeua1AEyAV7Z1Vel3--cus3W5rF3CjSFVEUAGYGKOaQzIWPvPsmwD-8oyAd940Jg=w408-h306-k-no",
    "kgmid": "/g/1trqj734"
  },
  {
    "title": "Harbor Care Pharmacy",
    "price": null,
    "categoryName": "Pharmacy",
    "address": "45 High St, Nashua, NH 03060",
    "neighborhood": null,
    "street": "45 High St",
    "city": "Nashua",
    "postalCode": "03060",
    "state": "New Hampshire",
    "countryCode": "US",
    "website": "https://www.harborcarenh.org/pharmacy",
    "phone": "(603) 816-1966",
    "phoneUnformatted": "+16038161966",
    "claimThisBusiness": false,
    "location": {
      "lat": 42.7608546,
      "lng": -71.467527
    },
    "totalScore": 3,
    "permanentlyClosed": false,
    "temporarilyClosed": false,
    "placeId": "ChIJlUZxwyOx44kR5IZMpIc50yA",
    "categories": [
      "Pharmacy"
    ],
    "fid": "0x89e3b123c3714695:0x20d33987a44c86e4",
    "cid": "2365297484039489252",
    "reviewsCount": 2,
    "imagesCount": 4,
    "imageCategories": [],
    "scrapedAt": "2025-06-23T06:29:30.767Z",
    "googleFoodUrl": null,
    "hotelAds": [],
    "openingHours": [
      {
        "day": "Monday",
        "hours": "8:30 AM to 5:30 PM"
      },
      {
        "day": "Tuesday",
        "hours": "8:30 AM to 5:30 PM"
      },
      {
        "day": "Wednesday",
        "hours": "8:30 AM to 5:30 PM"
      },
      {
        "day": "Thursday",
        "hours": "8:30 AM to 5:30 PM"
      },
      {
        "day": "Friday",
        "hours": "8:30 AM to 5:30 PM"
      },
      {
        "day": "Saturday",
        "hours": "Closed"
      },
      {
        "day": "Sunday",
        "hours": "Closed"
      }
    ],
    "peopleAlsoSearch": [],
    "placesTags": [],
    "reviewsTags": [],
    "additionalInfo": {
      "From the business": [
        {
          "Small business": true
        }
      ],
      "Accessibility": [
        {
          "Wheelchair accessible entrance": true
        },
        {
          "Wheelchair accessible parking lot": true
        }
      ],
      "Payments": [
        {
          "Credit cards": true
        }
      ]
    },
    "gasPrices": [],
    "url": "https://www.google.com/maps/search/?api=1&query=Harbor%20Care%20Pharmacy&query_place_id=ChIJlUZxwyOx44kR5IZMpIc50yA",
    "searchPageUrl": "https://www.google.com/maps/search/independent%20pharmacies%20in%20Nashua,%20NH%20in%20Nashua,%20NH/@15.950682338564983,146.12683604375687,13z?hl=en",
    "searchString": "independent pharmacies in Nashua, NH in Nashua, NH",
    "language": "en",
    "rank": 4,
    "isAdvertisement": false,
    "imageUrl": "https://lh3.googleusercontent.com/p/AF1QipP2txx0ReIrCLjaFk3R56HFab7W2XPQ5Jd84Y4b=w408-h400-k-no",
    "kgmid": "/g/11spn4mgt0"
  },
  {
    "title": "Mary Winkels, PHA",
    "price": null,
    "categoryName": "Pharmacy",
    "address": "173 Daniel Webster Hwy, Nashua, NH 03060",
    "neighborhood": null,
    "street": "173 Daniel Webster Hwy",
    "city": "Nashua",
    "postalCode": "03060",
    "state": "New Hampshire",
    "countryCode": "US",
    "phone": "(603) 891-4400",
    "phoneUnformatted": "+16038914400",
    "claimThisBusiness": true,
    "location": {
      "lat": 42.7205069,
      "lng": -71.4436957
    },
    "permanentlyClosed": false,
    "temporarilyClosed": false,
    "placeId": "ChIJHU89X52w44kRDQSzsCnJ8bM",
    "categories": [
      "Pharmacy"
    ],
    "fid": "0x89e3b09d5f3d4f1d:0xb3f1c929b0b3040d",
    "cid": "12966365983071732749",
    "reviewsCount": 0,
    "imagesCount": 1,
    "imageCategories": [],
    "scrapedAt": "2025-06-23T06:29:30.767Z",
    "googleFoodUrl": null,
    "hotelAds": [],
    "openingHours": [
      {
        "day": "Monday",
        "hours": "7 AM to 9 PM"
      },
      {
        "day": "Tuesday",
        "hours": "7 AM to 9 PM"
      },
      {
        "day": "Wednesday",
        "hours": "7 AM to 9 PM"
      },
      {
        "day": "Thursday",
        "hours": "7 AM to 9 PM"
      },
      {
        "day": "Friday",
        "hours": "7 AM to 9 PM"
      },
      {
        "day": "Saturday",
        "hours": "7 AM to 9 PM"
      },
      {
        "day": "Sunday",
        "hours": "7 AM to 9 PM"
      }
    ],
    "peopleAlsoSearch": [],
    "placesTags": [],
    "reviewsTags": [],
    "additionalInfo": {
      "Accessibility": [
        {
          "Wheelchair accessible entrance": true
        },
        {
          "Wheelchair accessible parking lot": true
        }
      ],
      "Amenities": [
        {
          "Wi-Fi": true
        },
        {
          "Free Wi-Fi": true
        }
      ]
    },
    "gasPrices": [],
    "url": "https://www.google.com/maps/search/?api=1&query=Mary%20Winkels%2C%20PHA&query_place_id=ChIJHU89X52w44kRDQSzsCnJ8bM",
    "searchPageUrl": "https://www.google.com/maps/search/independent%20pharmacies%20in%20Nashua,%20NH%20in%20Nashua,%20NH/@15.950682338564983,146.12683604375687,13z?hl=en",
    "searchString": "independent pharmacies in Nashua, NH in Nashua, NH",
    "language": "en",
    "rank": 5,
    "isAdvertisement": false,
    "imageUrl": "https://streetviewpixels-pa.googleapis.com/v1/thumbnail?panoid=e65ZAMA-WqXxJ_Rig3M9tg&cb_client=search.gws-prod.gps&w=408&h=240&yaw=248.84732&pitch=0&thumbfov=100",
    "kgmid": "/g/1tjhynxh"
  },
  {
    "title": "Shaw's Pharmacy",
    "description": "Supermarket chain offering meat, produce, staples, deli & bakery items (some with pharmacies).",
    "price": "$$",
    "categoryName": "Pharmacy",
    "address": "300 Main St, Nashua, NH 03060",
    "neighborhood": null,
    "street": "300 Main St",
    "city": "Nashua",
    "postalCode": "03060",
    "state": "New Hampshire",
    "countryCode": "US",
    "website": "https://local.pharmacy.shaws.com/nh/nashua/300-main-st.html",
    "phone": "(603) 579-5445",
    "phoneUnformatted": "+16035795445",
    "claimThisBusiness": false,
    "location": {
      "lat": 42.7538483,
      "lng": -71.4593788
    },
    "totalScore": 3.9,
    "permanentlyClosed": false,
    "temporarilyClosed": false,
    "placeId": "ChIJR8_ghtyw44kRCyb6SDqa6cU",
    "categories": [
      "Pharmacy",
      "Drug store",
      "Vitamin & supplements store"
    ],
    "fid": "0x89e3b0dc86e0cf47:0xc5e99a3a48fa260b",
    "cid": "14261099270168520203",
    "reviewsCount": 31,
    "imagesCount": 6,
    "imageCategories": [],
    "scrapedAt": "2025-06-23T06:29:30.767Z",
    "googleFoodUrl": null,
    "hotelAds": [],
    "openingHours": [
      {
        "day": "Monday",
        "hours": "9 AM to 2 PM, 2:30 to 8 PM"
      },
      {
        "day": "Tuesday",
        "hours": "9 AM to 2 PM, 2:30 to 8 PM"
      },
      {
        "day": "Wednesday",
        "hours": "9 AM to 2 PM, 2:30 to 8 PM"
      },
      {
        "day": "Thursday",
        "hours": "9 AM to 2 PM, 2:30 to 8 PM"
      },
      {
        "day": "Friday",
        "hours": "9 AM to 2 PM, 2:30 to 8 PM"
      },
      {
        "day": "Saturday",
        "hours": "9 AM to 2 PM, 2:30 to 5 PM"
      },
      {
        "day": "Sunday",
        "hours": "10 AM to 2 PM, 2:30 to 5 PM"
      }
    ],
    "peopleAlsoSearch": [],
    "placesTags": [],
    "reviewsTags": [],
    "additionalInfo": {
      "Service options": [
        {
          "Delivery": true
        },
        {
          "In-store pickup": true
        },
        {
          "In-store shopping": true
        },
        {
          "Same-day delivery": true
        }
      ],
      "Accessibility": [
        {
          "Wheelchair accessible entrance": true
        },
        {
          "Wheelchair accessible parking lot": true
        }
      ],
      "Crowd": [
        {
          "LGBTQ+ friendly": true
        }
      ],
      "Planning": [
        {
          "Appointment required": true
        },
        {
          "Quick visit": true
        }
      ],
      "Payments": [
        {
          "Checks": true
        },
        {
          "Debit cards": true
        },
        {
          "Credit cards": true
        }
      ]
    },
    "gasPrices": [],
    "url": "https://www.google.com/maps/search/?api=1&query=Shaw's%20Pharmacy&query_place_id=ChIJR8_ghtyw44kRCyb6SDqa6cU",
    "searchPageUrl": "https://www.google.com/maps/search/independent%20pharmacies%20in%20Nashua,%20NH%20in%20Nashua,%20NH/@15.950682338564983,146.12683604375687,13z?hl=en",
    "searchString": "independent pharmacies in Nashua, NH in Nashua, NH",
    "language": "en",
    "rank": 6,
    "isAdvertisement": false,
    "imageUrl": "https://lh3.googleusercontent.com/gps-cs-s/AC9h4noqaWEEXKRS2hkyQ_nwIgFkn6N09ONnIKlmLZnZoRYhtWzTtmnr87HUNru92B7NBALN9H-s_zmYMl1sy36hExHsOGnIf45y8kiYrQu2akpf2j8FXNyJwxWf-i9i4rv0qNBLR1H_=w408-h306-k-no",
    "kgmid": "/g/1tdyrt9b"
  },
  {
    "title": "CVS Pharmacy",
    "price": null,
    "categoryName": "Pharmacy",
    "address": "242 Main St, Nashua, NH 03060",
    "neighborhood": null,
    "street": "242 Main St",
    "city": "Nashua",
    "postalCode": "03060",
    "state": "New Hampshire",
    "countryCode": "US",
    "website": "https://www.cvs.com/store-locator/nashua-nh-pharmacies/242-main-street-nashua-nh-03060/storeid=639?WT.mc_id=LS_GOOGLE_RX_639",
    "phone": "(603) 886-1786",
    "phoneUnformatted": "+16038861786",
    "claimThisBusiness": false,
    "location": {
      "lat": 42.7576283,
      "lng": -71.4634231
    },
    "totalScore": 4.1,
    "permanentlyClosed": false,
    "temporarilyClosed": false,
    "placeId": "ChIJExeMhNmw44kRm6EqfGKsu-A",
    "categories": [
      "Pharmacy"
    ],
    "fid": "0x89e3b0d9848c1713:0xe0bbac627c2aa19b",
    "cid": "16193726424130691483",
    "reviewsCount": 52,
    "imagesCount": 27,
    "imageCategories": [],
    "scrapedAt": "2025-06-23T06:29:30.767Z",
    "googleFoodUrl": null,
    "hotelAds": [],
    "openingHours": [
      {
        "day": "Monday",
        "hours": "7 AM to 1:30 PM, 2 to 10 PM"
      },
      {
        "day": "Tuesday",
        "hours": "7 AM to 1:30 PM, 2 to 10 PM"
      },
      {
        "day": "Wednesday",
        "hours": "7 AM to 1:30 PM, 2 to 10 PM"
      },
      {
        "day": "Thursday",
        "hours": "7 AM to 1:30 PM, 2 to 10 PM"
      },
      {
        "day": "Friday",
        "hours": "7 AM to 1:30 PM, 2 to 10 PM"
      },
      {
        "day": "Saturday",
        "hours": "9 AM to 1:30 PM, 2 to 7 PM"
      },
      {
        "day": "Sunday",
        "hours": "9 AM to 1:30 PM, 2 to 7 PM"
      }
    ],
    "peopleAlsoSearch": [],
    "placesTags": [],
    "reviewsTags": [],
    "additionalInfo": {
      "Service options": [
        {
          "Delivery": true
        },
        {
          "Drive-through": true
        },
        {
          "In-store shopping": true
        }
      ],
      "Accessibility": [
        {
          "Wheelchair accessible entrance": true
        },
        {
          "Wheelchair accessible parking lot": true
        }
      ],
      "Offerings": [
        {
          "Medication disposal": true
        },
        {
          "Naloxone": true
        },
        {
          "Passport photos": true
        }
      ],
      "Crowd": [
        {
          "LGBTQ+ friendly": true
        },
        {
          "Transgender safespace": true
        }
      ],
      "Planning": [
        {
          "Quick visit": true
        }
      ],
      "Payments": [
        {
          "Credit cards": true
        },
        {
          "Debit cards": true
        },
        {
          "NFC mobile payments": true
        },
        {
          "SNAP/EBT": true
        },
        {
          "Credit cards": true
        }
      ]
    },
    "gasPrices": [],
    "url": "https://www.google.com/maps/search/?api=1&query=CVS%20Pharmacy&query_place_id=ChIJExeMhNmw44kRm6EqfGKsu-A",
    "searchPageUrl": "https://www.google.com/maps/search/independent%20pharmacies%20in%20Nashua,%20NH%20in%20Nashua,%20NH/@15.950682338564983,146.12683604375687,13z?hl=en",
    "searchString": "independent pharmacies in Nashua, NH in Nashua, NH",
    "language": "en",
    "rank": 7,
    "isAdvertisement": false,
    "imageUrl": "https://lh3.googleusercontent.com/p/AF1QipNro_hvVYQ7kRvLgaSGBxjgXhCQW23E_BqTq4k=w408-h272-k-no",
    "kgmid": "/g/11c469h23b"
  },
  {
    "title": "CVS Pharmacy",
    "price": null,
    "categoryName": "Pharmacy",
    "address": "214 Daniel Webster Hwy, Nashua, NH 03060",
    "neighborhood": null,
    "street": "214 Daniel Webster Hwy",
    "city": "Nashua",
    "postalCode": "03060",
    "state": "New Hampshire",
    "countryCode": "US",
    "website": "https://www.cvs.com/store-locator/nashua-nh-pharmacies/214-daniel-webster-highway-nashua-nh-03060/storeid=1003?WT.mc_id=LS_GOOGLE_RX_1003",
    "phone": "(603) 888-4354",
    "phoneUnformatted": "+16038884354",
    "claimThisBusiness": false,
    "location": {
      "lat": 42.7139059,
      "lng": -71.4418565
    },
    "totalScore": 4.5,
    "permanentlyClosed": false,
    "temporarilyClosed": false,
    "placeId": "ChIJqWMBmLa744kRAu-F9JWtmmk",
    "categories": [
      "Pharmacy"
    ],
    "fid": "0x89e3bbb6980163a9:0x699aad95f485ef02",
    "cid": "7609585379960024834",
    "reviewsCount": 11,
    "imagesCount": 43,
    "imageCategories": [],
    "scrapedAt": "2025-06-23T06:29:30.767Z",
    "googleFoodUrl": null,
    "hotelAds": [],
    "openingHours": [
      {
        "day": "Monday",
        "hours": "8 AM to 1:30 PM, 2 to 9 PM"
      },
      {
        "day": "Tuesday",
        "hours": "8 AM to 1:30 PM, 2 to 9 PM"
      },
      {
        "day": "Wednesday",
        "hours": "8 AM to 1:30 PM, 2 to 9 PM"
      },
      {
        "day": "Thursday",
        "hours": "8 AM to 1:30 PM, 2 to 9 PM"
      },
      {
        "day": "Friday",
        "hours": "8 AM to 1:30 PM, 2 to 9 PM"
      },
      {
        "day": "Saturday",
        "hours": "9 AM to 1:30 PM, 2 to 7 PM"
      },
      {
        "day": "Sunday",
        "hours": "9 AM to 1:30 PM, 2 to 5 PM"
      }
    ],
    "peopleAlsoSearch": [],
    "placesTags": [],
    "reviewsTags": [],
    "additionalInfo": {
      "Service options": [
        {
          "Delivery": true
        },
        {
          "Drive-through": true
        },
        {
          "In-store pickup": true
        },
        {
          "In-store shopping": true
        },
        {
          "Onsite services": true
        }
      ],
      "Accessibility": [
        {
          "Wheelchair accessible entrance": true
        },
        {
          "Wheelchair accessible parking lot": true
        }
      ],
      "Crowd": [
        {
          "LGBTQ+ friendly": true
        },
        {
          "Transgender safespace": true
        }
      ],
      "Planning": [
        {
          "Quick visit": true
        }
      ],
      "Payments": [
        {
          "Credit cards": true
        },
        {
          "Debit cards": true
        },
        {
          "NFC mobile payments": true
        },
        {
          "SNAP/EBT": true
        },
        {
          "Credit cards": true
        }
      ]
    },
    "gasPrices": [],
    "url": "https://www.google.com/maps/search/?api=1&query=CVS%20Pharmacy&query_place_id=ChIJqWMBmLa744kRAu-F9JWtmmk",
    "searchPageUrl": "https://www.google.com/maps/search/independent%20pharmacies%20in%20Nashua,%20NH%20in%20Nashua,%20NH/@15.950682338564983,146.12683604375687,13z?hl=en",
    "searchString": "independent pharmacies in Nashua, NH in Nashua, NH",
    "language": "en",
    "rank": 8,
    "isAdvertisement": false,
    "imageUrl": "https://lh3.googleusercontent.com/p/AF1QipMNHe7MH1aCxnC5uUQmGhPAOQzNNAStnqLJKpWd=w408-h272-k-no",
    "kgmid": "/g/11hfjyvkkk"
  },
  {
    "title": "CVS Pharmacy",
    "price": null,
    "categoryName": "Pharmacy",
    "address": "310 Daniel Webster Hwy, Nashua, NH 03060",
    "neighborhood": null,
    "street": "310 Daniel Webster Hwy",
    "city": "Nashua",
    "postalCode": "03060",
    "state": "New Hampshire",
    "countryCode": "US",
    "website": "https://www.cvs.com/store-locator/nashua-nh-pharmacies/310-daniel-webster-hwy-nashua-nh-03060/storeid=16583?WT.mc_id=LS_GOOGLE_RX_16583",
    "phone": "(603) 891-4869",
    "phoneUnformatted": "+16038914869",
    "claimThisBusiness": false,
    "location": {
      "lat": 42.702665,
      "lng": -71.436987
    },
    "totalScore": 3.5,
    "permanentlyClosed": false,
    "temporarilyClosed": false,
    "placeId": "ChIJeadj8me644kRopHaQplsEeY",
    "categories": [
      "Pharmacy"
    ],
    "fid": "0x89e3ba67f263a779:0xe6116c9942da91a2",
    "cid": "16578151108834922914",
    "reviewsCount": 16,
    "imagesCount": 8,
    "imageCategories": [],
    "scrapedAt": "2025-06-23T06:29:30.768Z",
    "googleFoodUrl": null,
    "hotelAds": [],
    "openingHours": [
      {
        "day": "Monday",
        "hours": "10 AM to 1:30 PM, 2 to 6 PM"
      },
      {
        "day": "Tuesday",
        "hours": "10 AM to 1:30 PM, 2 to 6 PM"
      },
      {
        "day": "Wednesday",
        "hours": "10 AM to 1:30 PM, 2 to 6 PM"
      },
      {
        "day": "Thursday",
        "hours": "10 AM to 1:30 PM, 2 to 6 PM"
      },
      {
        "day": "Friday",
        "hours": "10 AM to 1:30 PM, 2 to 6 PM"
      },
      {
        "day": "Saturday",
        "hours": "11 AM to 1:30 PM, 2 to 5 PM"
      },
      {
        "day": "Sunday",
        "hours": "12 to 5 PM"
      }
    ],
    "peopleAlsoSearch": [],
    "placesTags": [],
    "reviewsTags": [],
    "additionalInfo": {
      "Service options": [
        {
          "Delivery": true
        },
        {
          "In-store shopping": true
        },
        {
          "Onsite services": true
        }
      ],
      "Accessibility": [
        {
          "Wheelchair accessible entrance": true
        },
        {
          "Wheelchair accessible parking lot": true
        }
      ],
      "Offerings": [
        {
          "Naloxone": true
        }
      ],
      "Crowd": [
        {
          "LGBTQ+ friendly": true
        },
        {
          "Transgender safespace": true
        }
      ],
      "Planning": [
        {
          "Quick visit": true
        }
      ],
      "Payments": [
        {
          "Credit cards": true
        },
        {
          "Debit cards": true
        },
        {
          "Credit cards": true
        }
      ]
    },
    "gasPrices": [],
    "url": "https://www.google.com/maps/search/?api=1&query=CVS%20Pharmacy&query_place_id=ChIJeadj8me644kRopHaQplsEeY",
    "searchPageUrl": "https://www.google.com/maps/search/independent%20pharmacies%20in%20Nashua,%20NH%20in%20Nashua,%20NH/@15.950682338564983,146.12683604375687,13z?hl=en",
    "searchString": "independent pharmacies in Nashua, NH in Nashua, NH",
    "language": "en",
    "rank": 9,
    "isAdvertisement": false,
    "imageUrl": "https://lh3.googleusercontent.com/p/AF1QipPtYh9Pim5WrHbSmzQSjtXNaNWTJYXsFOyA9kkp=w408-h272-k-no",
    "kgmid": "/g/1tgc0sxw"
  },
  {
    "title": "CVS Pharmacy",
    "price": null,
    "categoryName": "Pharmacy",
    "address": "600 Amherst St, Nashua, NH 03063",
    "neighborhood": null,
    "street": "600 Amherst St",
    "city": "Nashua",
    "postalCode": "03063",
    "state": "New Hampshire",
    "countryCode": "US",
    "website": "https://www.cvs.com/store-locator/nashua-nh-pharmacies/600-amherst-st-nashua-nh-03063/storeid=16862?WT.mc_id=LS_GOOGLE_RX_16862",
    "phone": "(603) 324-0040",
    "phoneUnformatted": "+16033240040",
    "claimThisBusiness": false,
    "location": {
      "lat": 42.7983802,
      "lng": -71.5366005
    },
    "totalScore": 3,
    "permanentlyClosed": false,
    "temporarilyClosed": false,
    "placeId": "ChIJqaj1nWW244kRGYZ_n9lmc6s",
    "categories": [
      "Pharmacy"
    ],
    "fid": "0x89e3b6659df5a8a9:0xab7366d99f7f8619",
    "cid": "12354331287677273625",
    "reviewsCount": 12,
    "imagesCount": 5,
    "imageCategories": [],
    "scrapedAt": "2025-06-23T06:29:30.768Z",
    "googleFoodUrl": null,
    "hotelAds": [],
    "openingHours": [
      {
        "day": "Monday",
        "hours": "10 AM to 1:30 PM, 2 to 7 PM"
      },
      {
        "day": "Tuesday",
        "hours": "10 AM to 1:30 PM, 2 to 7 PM"
      },
      {
        "day": "Wednesday",
        "hours": "10 AM to 1:30 PM, 2 to 7 PM"
      },
      {
        "day": "Thursday",
        "hours": "10 AM to 1:30 PM, 2 to 7 PM"
      },
      {
        "day": "Friday",
        "hours": "10 AM to 1:30 PM, 2 to 7 PM"
      },
      {
        "day": "Saturday",
        "hours": "11 AM to 1:30 PM, 2 to 5 PM"
      },
      {
        "day": "Sunday",
        "hours": "11 AM to 1:30 PM, 2 to 5 PM"
      }
    ],
    "peopleAlsoSearch": [],
    "placesTags": [],
    "reviewsTags": [],
    "additionalInfo": {
      "Service options": [
        {
          "Delivery": true
        },
        {
          "In-store shopping": true
        },
        {
          "Onsite services": true
        }
      ],
      "Accessibility": [
        {
          "Wheelchair accessible entrance": true
        },
        {
          "Wheelchair accessible parking lot": true
        }
      ],
      "Offerings": [
        {
          "Naloxone": true
        }
      ],
      "Amenities": [
        {
          "Wi-Fi": true
        }
      ],
      "Crowd": [
        {
          "LGBTQ+ friendly": true
        },
        {
          "Transgender safespace": true
        }
      ],
      "Planning": [
        {
          "Quick visit": true
        }
      ],
      "Payments": [
        {
          "Credit cards": true
        },
        {
          "Debit cards": true
        },
        {
          "Credit cards": true
        }
      ]
    },
    "gasPrices": [],
    "url": "https://www.google.com/maps/search/?api=1&query=CVS%20Pharmacy&query_place_id=ChIJqaj1nWW244kRGYZ_n9lmc6s",
    "searchPageUrl": "https://www.google.com/maps/search/independent%20pharmacies%20in%20Nashua,%20NH%20in%20Nashua,%20NH/@15.950682338564983,146.12683604375687,13z?hl=en",
    "searchString": "independent pharmacies in Nashua, NH in Nashua, NH",
    "language": "en",
    "rank": 10,
    "isAdvertisement": false,
    "imageUrl": "https://lh3.googleusercontent.com/p/AF1QipOxKsvsYjVt2n5uuW75jPr-yV3bvKYQLJPrDbgD=w408-h272-k-no",
    "kgmid": "/g/1thqhs6c"
  }
]