[
  {
    "title": "Bridgeport Pharmacy",
    "price": null,
    "categoryName": "Pharmacy",
    "address": "527 Medical Park Dr #105a, Bridgeport, WV 26330",
    "neighborhood": null,
    "street": "527 Medical Park Dr #105a",
    "city": "Bridgeport",
    "postalCode": "26330",
    "state": "West Virginia",
    "countryCode": "US",
    "website": "https://wvumedicine.org/uhc-family-medicine/directions/",
    "phone": "(304) 933-3880",
    "phoneUnformatted": "+13049333880",
    "claimThisBusiness": false,
    "location": {
      "lat": 39.3271039,
      "lng": -80.2398629
    },
    "totalScore": 5,
    "permanentlyClosed": false,
    "temporarilyClosed": false,
    "placeId": "ChIJ2yre-dZlSogRn70dM8JjTME",
    "categories": [
      "Pharmacy"
    ],
    "fid": "0x884a65d6f9de2adb:0xc14c63c2331dbd9f",
    "cid": "13928617433282493855",
    "reviewsCount": 12,
    "imagesCount": 2,
    "imageCategories": [],
    "scrapedAt": "2025-06-23T06:23:01.407Z",
    "googleFoodUrl": null,
    "hotelAds": [],
    "openingHours": [
      {
        "day": "Monday",
        "hours": "9 AM to 5 PM"
      },
      {
        "day": "Tuesday",
        "hours": "9 AM to 5 PM"
      },
      {
        "day": "Wednesday",
        "hours": "9 AM to 5 PM"
      },
      {
        "day": "Thursday",
        "hours": "9 AM to 5 PM"
      },
      {
        "day": "Friday",
        "hours": "9 AM to 5 PM"
      },
      {
        "day": "Saturday",
        "hours": "Closed"
      },
      {
        "day": "Sunday",
        "hours": "Closed"
      }
    ],
    "peopleAlsoSearch": [],
    "placesTags": [],
    "reviewsTags": [],
    "additionalInfo": {
      "From the business": [
        {
          "Small business": true
        }
      ],
      "Accessibility": [
        {
          "Wheelchair accessible entrance": true
        },
        {
          "Wheelchair accessible parking lot": true
        }
      ],
      "Payments": [
        {
          "Credit cards": true
        }
      ]
    },
    "gasPrices": [],
    "url": "https://www.google.com/maps/search/?api=1&query=Bridgeport%20Pharmacy&query_place_id=ChIJ2yre-dZlSogRn70dM8JjTME",
    "searchPageUrl": "https://www.google.com/maps/search/pharmacies%20in%20Bridgeport,%20WV%20in%20Bridgeport,%20WV/@70.60118977126913,-142.75332010026844,9z?hl=en",
    "searchString": "pharmacies in Bridgeport, WV in Bridgeport, WV",
    "language": "en",
    "rank": 1,
    "isAdvertisement": false,
    "imageUrl": "https://lh3.googleusercontent.com/gps-cs-s/AC9h4nrKKRu7qMK0dIVnTyBtUkAOzC9IY8tCWNQmAFTGzBX-cP1v5u3qbkxYRkPjaldY1MICL8oN0AhSu9AdsY6Uo6GYC2LGG5RbuXFgN2PwdzN2wKkN12PIHr59ZNv38ADSpzfbOLpt=w408-h544-k-no",
    "kgmid": "/g/11b6v67jt9"
  },
  {
    "title": "Bridgeport Family Pharmacy",
    "price": null,
    "categoryName": "Pharmacy",
    "address": "460 E Main St, Bridgeport, WV 26330",
    "neighborhood": null,
    "street": "460 E Main St",
    "city": "Bridgeport",
    "postalCode": "26330",
    "state": "West Virginia",
    "countryCode": "US",
    "website": "http://www.bridgeportfamilyrx.com/",
    "phone": "(304) 848-9500",
    "phoneUnformatted": "+13048489500",
    "claimThisBusiness": false,
    "location": {
      "lat": 39.2891835,
      "lng": -80.2429769
    },
    "totalScore": 4.5,
    "permanentlyClosed": false,
    "temporarilyClosed": false,
    "placeId": "ChIJNfmDAYBmSogRr6hQPY9t_OQ",
    "categories": [
      "Pharmacy"
    ],
    "fid": "0x884a66800183f935:0xe4fc6d8f3d50a8af",
    "cid": "16500183596755101871",
    "reviewsCount": 18,
    "imagesCount": 38,
    "imageCategories": [],
    "scrapedAt": "2025-06-23T06:23:01.408Z",
    "googleFoodUrl": null,
    "hotelAds": [],
    "openingHours": [
      {
        "day": "Monday",
        "hours": "9 AM to 6 PM"
      },
      {
        "day": "Tuesday",
        "hours": "9 AM to 6 PM"
      },
      {
        "day": "Wednesday",
        "hours": "9 AM to 6 PM"
      },
      {
        "day": "Thursday",
        "hours": "9 AM to 6 PM"
      },
      {
        "day": "Friday",
        "hours": "9 AM to 6 PM"
      },
      {
        "day": "Saturday",
        "hours": "9 AM to 1 PM"
      },
      {
        "day": "Sunday",
        "hours": "Closed"
      }
    ],
    "peopleAlsoSearch": [],
    "placesTags": [],
    "reviewsTags": [],
    "additionalInfo": {
      "From the business": [
        {
          "Small business": true
        }
      ],
      "Service options": [
        {
          "Delivery": true
        },
        {
          "In-store pickup": true
        }
      ],
      "Accessibility": [
        {
          "Wheelchair accessible entrance": true
        },
        {
          "Wheelchair accessible parking lot": true
        }
      ],
      "Planning": [
        {
          "Quick visit": true
        }
      ],
      "Payments": [
        {
          "Credit cards": true
        },
        {
          "Debit cards": true
        },
        {
          "NFC mobile payments": true
        },
        {
          "Credit cards": true
        }
      ]
    },
    "gasPrices": [],
    "url": "https://www.google.com/maps/search/?api=1&query=Bridgeport%20Family%20Pharmacy&query_place_id=ChIJNfmDAYBmSogRr6hQPY9t_OQ",
    "searchPageUrl": "https://www.google.com/maps/search/pharmacies%20in%20Bridgeport,%20WV%20in%20Bridgeport,%20WV/@70.60118977126913,-142.75332010026844,9z?hl=en",
    "searchString": "pharmacies in Bridgeport, WV in Bridgeport, WV",
    "language": "en",
    "rank": 2,
    "isAdvertisement": false,
    "imageUrl": "https://lh3.googleusercontent.com/p/AF1QipOURnRVvAcV1Csf8H-AUcCDC3MsszAobFjJ9oqz=w426-h240-k-no",
    "kgmid": "/g/1pv6xnyv6"
  },
  {
    "title": "Community Pharmacy of Bridgeport",
    "price": null,
    "categoryName": "Pharmacy",
    "address": "1212 Johnson Ave, Bridgeport, WV 26330",
    "neighborhood": null,
    "street": "1212 Johnson Ave",
    "city": "Bridgeport",
    "postalCode": "26330",
    "state": "West Virginia",
    "countryCode": "US",
    "website": "http://www.communityrxbport.com/",
    "phone": "(304) 842-3223",
    "phoneUnformatted": "+13048423223",
    "claimThisBusiness": false,
    "location": {
      "lat": 39.2998144,
      "lng": -80.2760669
    },
    "totalScore": 4.3,
    "permanentlyClosed": false,
    "temporarilyClosed": false,
    "placeId": "ChIJvYrFiJ1oSogRvVFVyiNV6mA",
    "categories": [
      "Pharmacy",
      "Candle store",
      "Diabetes center",
      "Drug store",
      "Greeting card shop",
      "Home health care service",
      "Hose supplier",
      "Hospice",
      "Medical supply store",
      "Vitamin & supplements store"
    ],
    "fid": "0x884a689d88c58abd:0x60ea5523ca5551bd",
    "cid": "6983487784398180797",
    "reviewsCount": 12,
    "imagesCount": 11,
    "imageCategories": [],
    "scrapedAt": "2025-06-23T06:23:01.411Z",
    "googleFoodUrl": null,
    "hotelAds": [],
    "openingHours": [
      {
        "day": "Monday",
        "hours": "9 AM to 6 PM"
      },
      {
        "day": "Tuesday",
        "hours": "9 AM to 6 PM"
      },
      {
        "day": "Wednesday",
        "hours": "9 AM to 6 PM"
      },
      {
        "day": "Thursday",
        "hours": "9 AM to 6 PM"
      },
      {
        "day": "Friday",
        "hours": "9 AM to 6 PM"
      },
      {
        "day": "Saturday",
        "hours": "9 AM to 1 PM"
      },
      {
        "day": "Sunday",
        "hours": "Closed"
      }
    ],
    "peopleAlsoSearch": [],
    "placesTags": [],
    "reviewsTags": [],
    "additionalInfo": {
      "From the business": [
        {
          "Small business": true
        }
      ],
      "Service options": [
        {
          "Delivery": true
        },
        {
          "In-store pickup": true
        }
      ],
      "Accessibility": [
        {
          "Wheelchair accessible entrance": true
        },
        {
          "Wheelchair accessible parking lot": true
        }
      ],
      "Planning": [
        {
          "Quick visit": true
        }
      ],
      "Payments": [
        {
          "Credit cards": true
        },
        {
          "Debit cards": true
        },
        {
          "NFC mobile payments": true
        },
        {
          "Credit cards": true
        }
      ]
    },
    "gasPrices": [],
    "url": "https://www.google.com/maps/search/?api=1&query=Community%20Pharmacy%20of%20Bridgeport&query_place_id=ChIJvYrFiJ1oSogRvVFVyiNV6mA",
    "searchPageUrl": "https://www.google.com/maps/search/pharmacies%20in%20Bridgeport,%20WV%20in%20Bridgeport,%20WV/@70.60118977126913,-142.75332010026844,9z?hl=en",
    "searchString": "pharmacies in Bridgeport, WV in Bridgeport, WV",
    "language": "en",
    "rank": 3,
    "isAdvertisement": false,
    "imageUrl": "https://lh3.googleusercontent.com/gps-cs-s/AC9h4nr-bX2VI_nUTWYtVwe1ComcMWeRGXLJTaighsNgPsr1cNurRfT1eI82kGoz_-_Bjg_ZgtavTrf1KbUJwIoJSNJaM9XD8lYYO7kcK3MxNeZa4AYppb0V6_A50Lcr5HpHWh0b6QzU3w=w408-h306-k-no",
    "kgmid": "/g/11b5wmz8n3"
  },
  {
    "title": "Walgreens Pharmacy",
    "description": "Department of the Walgreens chain providing prescription medications & other health-related items.",
    "price": "$$",
    "categoryName": "Pharmacy",
    "address": "1240 W Main St, Bridgeport, WV 26330",
    "neighborhood": null,
    "street": "1240 W Main St",
    "city": "Bridgeport",
    "postalCode": "26330",
    "state": "West Virginia",
    "countryCode": "US",
    "website": "https://www.walgreens.com/locator/walgreens-1240+w+main+st-bridgeport-wv-26330/id=12276",
    "phone": "(304) 842-0647",
    "phoneUnformatted": "+13048420647",
    "claimThisBusiness": false,
    "location": {
      "lat": 39.2815011,
      "lng": -80.277374
    },
    "totalScore": 3.4,
    "permanentlyClosed": false,
    "temporarilyClosed": false,
    "placeId": "ChIJHybsUX9oSogR4qCM3-XwNgg",
    "categories": [
      "Pharmacy"
    ],
    "fid": "0x884a687f51ec261f:0x836f0e5df8ca0e2",
    "cid": "591925271134511330",
    "reviewsCount": 17,
    "imagesCount": 5,
    "imageCategories": [],
    "scrapedAt": "2025-06-23T06:23:01.411Z",
    "googleFoodUrl": null,
    "hotelAds": [],
    "openingHours": [
      {
        "day": "Monday",
        "hours": "9 AM to 1:30 PM, 2 to 8 PM"
      },
      {
        "day": "Tuesday",
        "hours": "9 AM to 1:30 PM, 2 to 8 PM"
      },
      {
        "day": "Wednesday",
        "hours": "9 AM to 1:30 PM, 2 to 8 PM"
      },
      {
        "day": "Thursday",
        "hours": "9 AM to 1:30 PM, 2 to 8 PM"
      },
      {
        "day": "Friday",
        "hours": "9 AM to 1:30 PM, 2 to 8 PM"
      },
      {
        "day": "Saturday",
        "hours": "9 AM to 1:30 PM, 2 to 6 PM"
      },
      {
        "day": "Sunday",
        "hours": "10 AM to 1:30 PM, 2 to 6 PM"
      }
    ],
    "additionalOpeningHours": {
      "Drive through": [
        {
          "day": "Monday",
          "hours": "9 AM–1:30 PM"
        },
        {
          "day": "Tuesday",
          "hours": "9 AM–1:30 PM"
        },
        {
          "day": "Wednesday",
          "hours": "9 AM–1:30 PM"
        },
        {
          "day": "Thursday",
          "hours": "9 AM–1:30 PM"
        },
        {
          "day": "Friday",
          "hours": "9 AM–1:30 PM"
        },
        {
          "day": "Saturday",
          "hours": "9 AM–1:30 PM"
        },
        {
          "day": "Sunday",
          "hours": "10 AM–1:30 PM"
        }
      ]
    },
    "peopleAlsoSearch": [],
    "placesTags": [],
    "reviewsTags": [],
    "additionalInfo": {
      "Service options": [
        {
          "Drive-through": true
        },
        {
          "In-store pickup": true
        },
        {
          "Onsite services": true
        }
      ],
      "Accessibility": [
        {
          "Wheelchair accessible entrance": true
        },
        {
          "Wheelchair accessible parking lot": true
        }
      ],
      "Offerings": [
        {
          "Medication disposal": true
        },
        {
          "Naloxone": true
        }
      ],
      "Planning": [
        {
          "Quick visit": true
        }
      ],
      "Payments": [
        {
          "Checks": true
        },
        {
          "Credit cards": true
        },
        {
          "Debit cards": true
        }
      ]
    },
    "gasPrices": [],
    "url": "https://www.google.com/maps/search/?api=1&query=Walgreens%20Pharmacy&query_place_id=ChIJHybsUX9oSogR4qCM3-XwNgg",
    "searchPageUrl": "https://www.google.com/maps/search/pharmacies%20in%20Bridgeport,%20WV%20in%20Bridgeport,%20WV/@70.60118977126913,-142.75332010026844,9z?hl=en",
    "searchString": "pharmacies in Bridgeport, WV in Bridgeport, WV",
    "language": "en",
    "rank": 4,
    "isAdvertisement": false,
    "imageUrl": "https://lh3.googleusercontent.com/gps-cs-s/AC9h4noUnVg89FPkdUI9_SJgXdaREjlH_kxa1gvVurOlGczzzt0qSCNLgKkHpXO7nudyS6w5P2_iJ-pnsfM29hF2-GzhcSjaCpzRrad6FteMjFYvVk65NYcKNxvoVyyGmmzCc_ekBMoc1g=w519-h240-k-no",
    "kgmid": "/g/11cn93fyhw"
  },
  {
    "title": "Community Care Pharmacy of Bridgeport",
    "price": null,
    "categoryName": "Pharmacy",
    "address": "100 Marketplace Ave, Bridgeport, WV 26330",
    "neighborhood": null,
    "street": "100 Marketplace Ave",
    "city": "Bridgeport",
    "postalCode": "26330",
    "state": "West Virginia",
    "countryCode": "US",
    "website": "https://www.ccwv.org/",
    "phone": "(304) 848-5774",
    "phoneUnformatted": "+13048485774",
    "claimThisBusiness": false,
    "location": {
      "lat": 39.322742,
      "lng": -80.2293672
    },
    "totalScore": 5,
    "permanentlyClosed": false,
    "temporarilyClosed": false,
    "placeId": "ChIJyZ5lCsxnSogRdr9yDMiFjHE",
    "categories": [
      "Pharmacy"
    ],
    "fid": "0x884a67cc0a659ec9:0x718c85c80c72bf76",
    "cid": "8182061717274148726",
    "reviewsCount": 1,
    "imagesCount": 9,
    "imageCategories": [],
    "scrapedAt": "2025-06-23T06:23:01.411Z",
    "googleFoodUrl": null,
    "hotelAds": [],
    "openingHours": [
      {
        "day": "Monday",
        "hours": "8 AM to 8 PM"
      },
      {
        "day": "Tuesday",
        "hours": "8 AM to 8 PM"
      },
      {
        "day": "Wednesday",
        "hours": "8 AM to 8 PM"
      },
      {
        "day": "Thursday",
        "hours": "8 AM to 8 PM"
      },
      {
        "day": "Friday",
        "hours": "8 AM to 8 PM"
      },
      {
        "day": "Saturday",
        "hours": "8 AM to 4 PM"
      },
      {
        "day": "Sunday",
        "hours": "Closed"
      }
    ],
    "peopleAlsoSearch": [],
    "placesTags": [],
    "reviewsTags": [],
    "gasPrices": [],
    "url": "https://www.google.com/maps/search/?api=1&query=Community%20Care%20Pharmacy%20of%20Bridgeport&query_place_id=ChIJyZ5lCsxnSogRdr9yDMiFjHE",
    "searchPageUrl": "https://www.google.com/maps/search/pharmacies%20in%20Bridgeport,%20WV%20in%20Bridgeport,%20WV/@70.60118977126913,-142.75332010026844,9z?hl=en",
    "searchString": "pharmacies in Bridgeport, WV in Bridgeport, WV",
    "language": "en",
    "rank": 5,
    "isAdvertisement": false,
    "imageUrl": "https://lh3.googleusercontent.com/gps-cs-s/AC9h4nouS2L9I41yR96g25wg6FUbD-PvLrjSe4RJiDSilw0M14rc_GFva2ndRBEPsjVvXPALLt_jmSNZHl4xDSxl4nXVIa78uO36yilyQnjxh5kPbc6KZFAM8lDwP8FrUEGAcmzbtRxd_IzsxN9_=w426-h240-k-no",
    "kgmid": "/g/11yf56p4nr"
  },
  {
    "title": "Champion Pharmacy and Wellness",
    "price": null,
    "categoryName": "Pharmacy",
    "address": "319 S Virginia Ave, Bridgeport, WV 26330",
    "neighborhood": null,
    "street": "319 S Virginia Ave",
    "city": "Bridgeport",
    "postalCode": "26330",
    "state": "West Virginia",
    "countryCode": "US",
    "website": "https://www.facebook.com/championpharmacyandwellness/",
    "phone": "(304) 842-7979",
    "phoneUnformatted": "+13048427979",
    "claimThisBusiness": false,
    "location": {
      "lat": 39.2810304,
      "lng": -80.2568583
    },
    "totalScore": 4.9,
    "permanentlyClosed": false,
    "temporarilyClosed": false,
    "placeId": "ChIJz-wN6TZnSogROpvJiwmRnAs",
    "categories": [
      "Pharmacy"
    ],
    "fid": "0x884a6736e90deccf:0xb9c91098bc99b3a",
    "cid": "836703100970048314",
    "reviewsCount": 18,
    "imagesCount": 9,
    "imageCategories": [],
    "scrapedAt": "2025-06-23T06:23:01.412Z",
    "googleFoodUrl": null,
    "hotelAds": [],
    "openingHours": [
      {
        "day": "Monday",
        "hours": "9 AM to 6 PM"
      },
      {
        "day": "Tuesday",
        "hours": "9 AM to 6 PM"
      },
      {
        "day": "Wednesday",
        "hours": "9 AM to 6 PM"
      },
      {
        "day": "Thursday",
        "hours": "9 AM to 6 PM"
      },
      {
        "day": "Friday",
        "hours": "9 AM to 6 PM"
      },
      {
        "day": "Saturday",
        "hours": "9 AM to 3 PM"
      },
      {
        "day": "Sunday",
        "hours": "Closed"
      }
    ],
    "peopleAlsoSearch": [],
    "placesTags": [],
    "reviewsTags": [],
    "additionalInfo": {
      "From the business": [
        {
          "Small business": true
        }
      ],
      "Service options": [
        {
          "Drive-through": true
        },
        {
          "In-store pickup": true
        },
        {
          "In-store shopping": true
        },
        {
          "Onsite services": true
        }
      ],
      "Accessibility": [
        {
          "Wheelchair accessible entrance": true
        },
        {
          "Wheelchair accessible parking lot": true
        }
      ],
      "Crowd": [
        {
          "LGBTQ+ friendly": true
        },
        {
          "Transgender safespace": true
        }
      ],
      "Planning": [
        {
          "Quick visit": true
        }
      ],
      "Payments": [
        {
          "Checks": true
        },
        {
          "Credit cards": true
        },
        {
          "Debit cards": true
        },
        {
          "NFC mobile payments": true
        },
        {
          "Credit cards": true
        }
      ]
    },
    "gasPrices": [],
    "url": "https://www.google.com/maps/search/?api=1&query=Champion%20Pharmacy%20and%20Wellness&query_place_id=ChIJz-wN6TZnSogROpvJiwmRnAs",
    "searchPageUrl": "https://www.google.com/maps/search/pharmacies%20in%20Bridgeport,%20WV%20in%20Bridgeport,%20WV/@70.60118977126913,-142.75332010026844,9z?hl=en",
    "searchString": "pharmacies in Bridgeport, WV in Bridgeport, WV",
    "language": "en",
    "rank": 6,
    "isAdvertisement": false,
    "imageUrl": "https://lh3.googleusercontent.com/p/AF1QipNu5hpJIENfUpAVipQr0htLUurM8ZW-o0JjyHVF=w408-h408-k-no",
    "kgmid": "/g/11qk4dl94d"
  },
  {
    "title": "CVS Pharmacy",
    "description": "Drugstore chain selling a variety of beauty & health products, plus some grocery & household items.",
    "price": null,
    "categoryName": "Pharmacy",
    "address": "2800 Meadowbrook Mall Rd, Bridgeport, WV 26330",
    "neighborhood": null,
    "street": "2800 Meadowbrook Mall Rd",
    "city": "Bridgeport",
    "postalCode": "26330",
    "state": "West Virginia",
    "countryCode": "US",
    "website": "https://www.cvs.com/store-locator/bridgeport-wv-pharmacies/2800-meadowbrook-mall-bridgeport-wv-26330/storeid=16949?WT.mc_id=LS_GOOGLE_RX_16949",
    "phone": "(304) 842-7779",
    "phoneUnformatted": "+13048427779",
    "claimThisBusiness": false,
    "location": {
      "lat": 39.3112286,
      "lng": -80.2737673
    },
    "totalScore": 4.1,
    "permanentlyClosed": false,
    "temporarilyClosed": false,
    "placeId": "ChIJhZllcUhvSogRqlWTlsfNGfs",
    "categories": [
      "Pharmacy"
    ],
    "fid": "0x884a6f4871659985:0xfb19cdc7969355aa",
    "cid": "18093719235046102442",
    "reviewsCount": 19,
    "imagesCount": 8,
    "imageCategories": [],
    "scrapedAt": "2025-06-23T06:23:01.412Z",
    "googleFoodUrl": null,
    "hotelAds": [],
    "openingHours": [
      {
        "day": "Monday",
        "hours": "9 AM to 1:30 PM, 2 to 7 PM"
      },
      {
        "day": "Tuesday",
        "hours": "9 AM to 1:30 PM, 2 to 7 PM"
      },
      {
        "day": "Wednesday",
        "hours": "9 AM to 1:30 PM, 2 to 7 PM"
      },
      {
        "day": "Thursday",
        "hours": "9 AM to 1:30 PM, 2 to 7 PM"
      },
      {
        "day": "Friday",
        "hours": "9 AM to 1:30 PM, 2 to 7 PM"
      },
      {
        "day": "Saturday",
        "hours": "9 AM to 1:30 PM, 2 to 5 PM"
      },
      {
        "day": "Sunday",
        "hours": "11 AM to 1:30 PM, 2 to 5 PM"
      }
    ],
    "peopleAlsoSearch": [],
    "placesTags": [],
    "reviewsTags": [],
    "additionalInfo": {
      "Service options": [
        {
          "Delivery": true
        },
        {
          "In-store shopping": true
        },
        {
          "Onsite services": true
        }
      ],
      "Accessibility": [
        {
          "Wheelchair accessible entrance": true
        },
        {
          "Wheelchair accessible parking lot": true
        }
      ],
      "Offerings": [
        {
          "Naloxone": true
        }
      ],
      "Crowd": [
        {
          "LGBTQ+ friendly": true
        },
        {
          "Transgender safespace": true
        }
      ],
      "Planning": [
        {
          "Quick visit": true
        }
      ],
      "Payments": [
        {
          "Credit cards": true
        },
        {
          "Debit cards": true
        },
        {
          "Credit cards": true
        }
      ]
    },
    "gasPrices": [],
    "url": "https://www.google.com/maps/search/?api=1&query=CVS%20Pharmacy&query_place_id=ChIJhZllcUhvSogRqlWTlsfNGfs",
    "searchPageUrl": "https://www.google.com/maps/search/pharmacies%20in%20Bridgeport,%20WV%20in%20Bridgeport,%20WV/@70.60118977126913,-142.75332010026844,9z?hl=en",
    "searchString": "pharmacies in Bridgeport, WV in Bridgeport, WV",
    "language": "en",
    "rank": 7,
    "isAdvertisement": false,
    "imageUrl": "https://lh3.googleusercontent.com/p/AF1QipMHlFWroRkLaX8bbq2lKHWina7X9hQAeQER4Pan=w408-h272-k-no",
    "kgmid": "/g/1tjy25sf"
  },
  {
    "title": "Walgreens",
    "description": "Drugstore chain with health & beauty aids, prescriptions & photo services, plus mini-mart basics.",
    "price": "$$",
    "categoryName": "Drug store",
    "address": "1240 W Main St, Bridgeport, WV 26330",
    "neighborhood": null,
    "street": "1240 W Main St",
    "city": "Bridgeport",
    "postalCode": "26330",
    "state": "West Virginia",
    "countryCode": "US",
    "website": "https://www.walgreens.com/locator/walgreens-1240+w+main+st-bridgeport-wv-26330/id=12276",
    "phone": "(304) 842-0647",
    "phoneUnformatted": "+13048420647",
    "claimThisBusiness": false,
    "location": {
      "lat": 39.2815022,
      "lng": -80.2773947
    },
    "locatedIn": "Walgreens Pharmacy",
    "totalScore": 3,
    "permanentlyClosed": false,
    "temporarilyClosed": false,
    "placeId": "ChIJB92OTX9oSogRSAxyJDN6nVc",
    "categories": [
      "Drug store",
      "Beauty supply store",
      "Convenience store",
      "Cosmetics store",
      "Greeting card shop",
      "Perfume store",
      "Stationery store"
    ],
    "fid": "0x884a687f4d8edd07:0x579d7a3324720c48",
    "cid": "6313336612716678216",
    "reviewsCount": 52,
    "imagesCount": 19,
    "imageCategories": [],
    "scrapedAt": "2025-06-23T06:23:01.412Z",
    "googleFoodUrl": null,
    "hotelAds": [],
    "openingHours": [
      {
        "day": "Monday",
        "hours": "8 AM to 10 PM"
      },
      {
        "day": "Tuesday",
        "hours": "8 AM to 10 PM"
      },
      {
        "day": "Wednesday",
        "hours": "8 AM to 10 PM"
      },
      {
        "day": "Thursday",
        "hours": "8 AM to 10 PM"
      },
      {
        "day": "Friday",
        "hours": "8 AM to 10 PM"
      },
      {
        "day": "Saturday",
        "hours": "8 AM to 10 PM"
      },
      {
        "day": "Sunday",
        "hours": "8 AM to 10 PM"
      }
    ],
    "additionalOpeningHours": {
      "Walgreens Pharmacy": [
        {
          "day": "Monday",
          "hours": "9 AM–1:30 PM"
        },
        {
          "day": "Tuesday",
          "hours": "9 AM–1:30 PM"
        },
        {
          "day": "Wednesday",
          "hours": "9 AM–1:30 PM"
        },
        {
          "day": "Thursday",
          "hours": "9 AM–1:30 PM"
        },
        {
          "day": "Friday",
          "hours": "9 AM–1:30 PM"
        },
        {
          "day": "Saturday",
          "hours": "9 AM–1:30 PM"
        },
        {
          "day": "Sunday",
          "hours": "10 AM–1:30 PM"
        }
      ],
      "Walgreens Photo": [
        {
          "day": "Monday",
          "hours": "8 AM–10 PM"
        },
        {
          "day": "Tuesday",
          "hours": "8 AM–10 PM"
        },
        {
          "day": "Wednesday",
          "hours": "8 AM–10 PM"
        },
        {
          "day": "Thursday",
          "hours": "8 AM–10 PM"
        },
        {
          "day": "Friday",
          "hours": "8 AM–10 PM"
        },
        {
          "day": "Saturday",
          "hours": "8 AM–10 PM"
        },
        {
          "day": "Sunday",
          "hours": "8 AM–10 PM"
        }
      ],
      "Pickup": [
        {
          "day": "Monday",
          "hours": "8 AM–10 PM"
        },
        {
          "day": "Tuesday",
          "hours": "8 AM–10 PM"
        },
        {
          "day": "Wednesday",
          "hours": "8 AM–10 PM"
        },
        {
          "day": "Thursday",
          "hours": "8 AM–10 PM"
        },
        {
          "day": "Friday",
          "hours": "8 AM–10 PM"
        },
        {
          "day": "Saturday",
          "hours": "8 AM–10 PM"
        },
        {
          "day": "Sunday",
          "hours": "8 AM–10 PM"
        }
      ]
    },
    "peopleAlsoSearch": [],
    "placesTags": [],
    "reviewsTags": [],
    "additionalInfo": {
      "Service options": [
        {
          "Curbside pickup": true
        },
        {
          "Delivery": true
        },
        {
          "Drive-through": true
        },
        {
          "In-store pickup": true
        },
        {
          "Onsite services": true
        }
      ],
      "Accessibility": [
        {
          "Wheelchair accessible entrance": true
        },
        {
          "Wheelchair accessible parking lot": true
        }
      ],
      "Planning": [
        {
          "Quick visit": true
        }
      ],
      "Payments": [
        {
          "Checks": true
        },
        {
          "Credit cards": true
        },
        {
          "Debit cards": true
        },
        {
          "NFC mobile payments": true
        },
        {
          "SNAP/EBT": true
        },
        {
          "Credit cards": true
        }
      ]
    },
    "gasPrices": [],
    "url": "https://www.google.com/maps/search/?api=1&query=Walgreens&query_place_id=ChIJB92OTX9oSogRSAxyJDN6nVc",
    "searchPageUrl": "https://www.google.com/maps/search/pharmacies%20in%20Bridgeport,%20WV%20in%20Bridgeport,%20WV/@70.60118977126913,-142.75332010026844,9z?hl=en",
    "searchString": "pharmacies in Bridgeport, WV in Bridgeport, WV",
    "language": "en",
    "rank": 8,
    "isAdvertisement": false,
    "imageUrl": "https://lh3.googleusercontent.com/gps-cs-s/AC9h4nocH_mqP7enaz-6u6zk5J9r3EOYi2TnvEsN9CEXObnqfmmwq0uLwdFzG3Ro39LuQ5tAsqOwz69r62ZyfG6aPc8NG9vsP5PXjVaFKmEWbwZsBdl9jkjQuM1Dn6b7avDp88Ps2vLc=w408-h306-k-no",
    "kgmid": "/g/1vvdvxkh"
  },
  {
    "title": "United Hospital Center Retail Pharmacy",
    "price": null,
    "categoryName": "Pharmacy",
    "address": "327 Medical Park Dr, Bridgeport, WV 26330",
    "neighborhood": null,
    "street": "327 Medical Park Dr",
    "city": "Bridgeport",
    "postalCode": "26330",
    "state": "West Virginia",
    "countryCode": "US",
    "website": "http://www.uhcwv.org/",
    "phone": "(681) 342-1580",
    "phoneUnformatted": "+16813421580",
    "claimThisBusiness": true,
    "location": {
      "lat": 39.3286505,
      "lng": -80.239753
    },
    "totalScore": 4.1,
    "permanentlyClosed": false,
    "temporarilyClosed": false,
    "placeId": "ChIJ59w5xdZlSogR90yVrtPbzqY",
    "categories": [
      "Pharmacy"
    ],
    "fid": "0x884a65d6c539dce7:0xa6cedbd3ae954cf7",
    "cid": "12019786157712035063",
    "reviewsCount": 8,
    "imagesCount": 2,
    "imageCategories": [],
    "scrapedAt": "2025-06-23T06:23:01.412Z",
    "googleFoodUrl": null,
    "hotelAds": [],
    "openingHours": [
      {
        "day": "Monday",
        "hours": "7 AM to 7 PM"
      },
      {
        "day": "Tuesday",
        "hours": "7 AM to 7 PM"
      },
      {
        "day": "Wednesday",
        "hours": "7 AM to 7 PM"
      },
      {
        "day": "Thursday",
        "hours": "7 AM to 7 PM"
      },
      {
        "day": "Friday",
        "hours": "7 AM to 7 PM"
      },
      {
        "day": "Saturday",
        "hours": "10 AM to 3 PM"
      },
      {
        "day": "Sunday",
        "hours": "Closed"
      }
    ],
    "peopleAlsoSearch": [],
    "placesTags": [],
    "reviewsTags": [],
    "additionalInfo": {
      "Accessibility": [
        {
          "Wheelchair accessible entrance": true
        },
        {
          "Wheelchair accessible parking lot": true
        }
      ],
      "Payments": [
        {
          "Credit cards": true
        },
        {
          "Debit cards": true
        },
        {
          "Credit cards": true
        }
      ]
    },
    "gasPrices": [],
    "url": "https://www.google.com/maps/search/?api=1&query=United%20Hospital%20Center%20Retail%20Pharmacy&query_place_id=ChIJ59w5xdZlSogR90yVrtPbzqY",
    "searchPageUrl": "https://www.google.com/maps/search/pharmacies%20in%20Bridgeport,%20WV%20in%20Bridgeport,%20WV/@70.60118977126913,-142.75332010026844,9z?hl=en",
    "searchString": "pharmacies in Bridgeport, WV in Bridgeport, WV",
    "language": "en",
    "rank": 9,
    "isAdvertisement": false,
    "imageUrl": "https://lh3.googleusercontent.com/gps-cs-s/AC9h4nrxOCoQhTqUWPK77On0_fOUDhWz4wNtOBbo8d_97724G8udOx35a0yjuNjcl2NkChv471B2VQOQ2edbJq8dU999LIQ69JR497-zbQXa7SS9iSCG5rOXnEg3Hl3GN8oJBK2ulHq4jQ=w408-h725-k-no",
    "kgmid": "/g/11f3zn4btj"
  },
  {
    "title": "Genoa Healthcare",
    "price": null,
    "categoryName": "Pharmacy",
    "address": "120 Professional Pl Room P, Bridgeport, WV 26330",
    "neighborhood": null,
    "street": "120 Professional Pl Room P",
    "city": "Bridgeport",
    "postalCode": "26330",
    "state": "West Virginia",
    "countryCode": "US",
    "website": "https://www.genoahealthcare.com/",
    "phone": "(681) 456-6195",
    "phoneUnformatted": "+16814566195",
    "claimThisBusiness": false,
    "location": {
      "lat": 39.3354032,
      "lng": -80.2339612
    },
    "totalScore": 5,
    "permanentlyClosed": false,
    "temporarilyClosed": false,
    "placeId": "ChIJA_tUfwBlSogRUNhrYawf_lg",
    "categories": [
      "Pharmacy"
    ],
    "fid": "0x884a65007f54fb03:0x58fe1fac616bd850",
    "cid": "6412597744651458640",
    "reviewsCount": 3,
    "imagesCount": null,
    "imageCategories": [],
    "scrapedAt": "2025-06-23T06:23:02.099Z",
    "googleFoodUrl": null,
    "hotelAds": [],
    "openingHours": [
      {
        "day": "Monday",
        "hours": "8 AM to 5 PM"
      },
      {
        "day": "Tuesday",
        "hours": "8 AM to 5 PM"
      },
      {
        "day": "Wednesday",
        "hours": "8 AM to 5 PM"
      },
      {
        "day": "Thursday",
        "hours": "8 AM to 5 PM"
      },
      {
        "day": "Friday",
        "hours": "8 AM to 2:30 PM"
      },
      {
        "day": "Saturday",
        "hours": "Closed"
      },
      {
        "day": "Sunday",
        "hours": "Closed"
      }
    ],
    "peopleAlsoSearch": [],
    "placesTags": [],
    "reviewsTags": [],
    "additionalInfo": {
      "Accessibility": [
        {
          "Wheelchair accessible entrance": true
        },
        {
          "Wheelchair accessible parking lot": true
        }
      ],
      "Payments": [
        {
          "Credit cards": true
        }
      ]
    },
    "gasPrices": [],
    "url": "https://www.google.com/maps/search/?api=1&query=Genoa%20Healthcare&query_place_id=ChIJA_tUfwBlSogRUNhrYawf_lg",
    "searchPageUrl": "https://www.google.com/maps/search/pharmacies%20in%20Bridgeport,%20WV%20in%20Bridgeport,%20WV/@53.23216302873083,-169.22169677081524,9z?hl=en",
    "searchString": "pharmacies in Bridgeport, WV in Bridgeport, WV",
    "language": "en",
    "rank": 9,
    "isAdvertisement": false,
    "kgmid": "/g/11y2bzm65n"
  }
]