[
  {
    "title": "The Prescription Center",
    "price": null,
    "categoryName": "Pharmacy",
    "address": "125 N Main St Suite 200, Concord, NH 03301",
    "neighborhood": null,
    "street": "125 N Main St Suite 200",
    "city": "Concord",
    "postalCode": "03301",
    "state": "New Hampshire",
    "countryCode": "US",
    "website": "http://www.prescription-center.com/",
    "phone": "(603) 224-9591",
    "phoneUnformatted": "+16032249591",
    "claimThisBusiness": false,
    "location": {
      "lat": 43.2081533,
      "lng": -71.5372033
    },
    "totalScore": 3.4,
    "permanentlyClosed": false,
    "temporarilyClosed": false,
    "placeId": "ChIJ-zRbvK9q4okRJYptzcX-KCk",
    "categories": [
      "Pharmacy"
    ],
    "fid": "0x89e26aafbc5b34fb:0x2928fec5cd6d8a25",
    "cid": "2965900480131992101",
    "reviewsCount": 76,
    "imagesCount": 3,
    "imageCategories": [],
    "scrapedAt": "2025-06-23T06:30:16.922Z",
    "googleFoodUrl": null,
    "hotelAds": [],
    "openingHours": [
      {
        "day": "Monday",
        "hours": "8 AM to 6 PM"
      },
      {
        "day": "Tuesday",
        "hours": "8 AM to 6 PM"
      },
      {
        "day": "Wednesday",
        "hours": "8 AM to 6 PM"
      },
      {
        "day": "Thursday",
        "hours": "8 AM to 6 PM"
      },
      {
        "day": "Friday",
        "hours": "8 AM to 6 PM"
      },
      {
        "day": "Saturday",
        "hours": "Closed"
      },
      {
        "day": "Sunday",
        "hours": "Closed"
      }
    ],
    "peopleAlsoSearch": [],
    "placesTags": [],
    "reviewsTags": [],
    "additionalInfo": {
      "From the business": [
        {
          "Small business": true
        }
      ],
      "Service options": [
        {
          "Curbside pickup": true
        },
        {
          "Delivery": true
        },
        {
          "In-store pickup": true
        },
        {
          "In-store shopping": true
        },
        {
          "Onsite services": true
        },
        {
          "Same-day delivery": true
        }
      ],
      "Accessibility": [
        {
          "Wheelchair accessible entrance": true
        },
        {
          "Wheelchair accessible parking lot": true
        }
      ],
      "Planning": [
        {
          "Quick visit": true
        }
      ],
      "Payments": [
        {
          "Credit cards": true
        },
        {
          "Debit cards": true
        },
        {
          "NFC mobile payments": true
        },
        {
          "Credit cards": true
        }
      ],
      "Parking": [
        {
          "Free parking lot": true
        }
      ]
    },
    "gasPrices": [],
    "url": "https://www.google.com/maps/search/?api=1&query=The%20Prescription%20Center&query_place_id=ChIJ-zRbvK9q4okRJYptzcX-KCk",
    "searchPageUrl": "https://www.google.com/maps/search/independent%20pharmacies%20in%20Concord,%20NH%20in%20Concord,%20NH/@0.876059113774825,-176.61788845,13z?hl=en",
    "searchString": "independent pharmacies in Concord, NH in Concord, NH",
    "language": "en",
    "rank": 1,
    "isAdvertisement": false,
    "imageUrl": "https://lh3.googleusercontent.com/gps-cs-s/AC9h4nqQ1m9TQEpvPOVV-xlxH4SViP5zcTDAg-YsCMtp8TiOI0Ssv94T8MoSKoWGl1n28u6FdVnKh72K170Lkp0wAGapyh9mIjAAXQ-Q_rJXZG1NmhzwoT47jwFbqqbhKQJTO79fHjeq=w438-h240-k-no",
    "kgmid": "/g/1td72_rl"
  },
  {
    "title": "Northeast Pharmacy",
    "price": null,
    "categoryName": "Pharmacy",
    "address": "1 Granite Pl, Concord, NH 03301",
    "neighborhood": null,
    "street": "1 Granite Pl",
    "city": "Concord",
    "postalCode": "03301",
    "state": "New Hampshire",
    "countryCode": "US",
    "website": "https://www.northeastrx.com/",
    "phone": "(603) 226-8686",
    "phoneUnformatted": "+16032268686",
    "claimThisBusiness": true,
    "location": {
      "lat": 43.2178577,
      "lng": -71.556492
    },
    "totalScore": 3.4,
    "permanentlyClosed": false,
    "temporarilyClosed": false,
    "placeId": "ChIJrYySYe1q4okRkLdEfDw4MP4",
    "categories": [
      "Pharmacy"
    ],
    "fid": "0x89e26aed61928cad:0xfe30383c7c44b790",
    "cid": "18316201516949878672",
    "reviewsCount": 5,
    "imagesCount": 1,
    "imageCategories": [],
    "scrapedAt": "2025-06-23T06:30:16.924Z",
    "googleFoodUrl": null,
    "hotelAds": [],
    "openingHours": [
      {
        "day": "Monday",
        "hours": "8 AM to 6 PM"
      },
      {
        "day": "Tuesday",
        "hours": "8 AM to 6 PM"
      },
      {
        "day": "Wednesday",
        "hours": "8 AM to 6 PM"
      },
      {
        "day": "Thursday",
        "hours": "8 AM to 6 PM"
      },
      {
        "day": "Friday",
        "hours": "8 AM to 6 PM"
      },
      {
        "day": "Saturday",
        "hours": "9 AM to 1 PM"
      },
      {
        "day": "Sunday",
        "hours": "Closed"
      }
    ],
    "peopleAlsoSearch": [],
    "placesTags": [],
    "reviewsTags": [],
    "additionalInfo": {
      "Service options": [
        {
          "Delivery": true
        }
      ],
      "Accessibility": [
        {
          "Wheelchair accessible entrance": true
        },
        {
          "Wheelchair accessible parking lot": true
        }
      ],
      "Payments": [
        {
          "Credit cards": true
        },
        {
          "Debit cards": true
        },
        {
          "Credit cards": true
        }
      ]
    },
    "gasPrices": [],
    "url": "https://www.google.com/maps/search/?api=1&query=Northeast%20Pharmacy&query_place_id=ChIJrYySYe1q4okRkLdEfDw4MP4",
    "searchPageUrl": "https://www.google.com/maps/search/independent%20pharmacies%20in%20Concord,%20NH%20in%20Concord,%20NH/@0.876059113774825,-176.61788845,13z?hl=en",
    "searchString": "independent pharmacies in Concord, NH in Concord, NH",
    "language": "en",
    "rank": 2,
    "isAdvertisement": false,
    "imageUrl": "https://streetviewpixels-pa.googleapis.com/v1/thumbnail?panoid=HFVAGhmBPobSoDoduR5gWg&cb_client=search.gws-prod.gps&w=408&h=240&yaw=187.14662&pitch=0&thumbfov=100",
    "kgmid": "/g/1tmqscff"
  },
  {
    "title": "PharMerica - Concord, NH",
    "price": null,
    "categoryName": "Pharmacy",
    "address": "38 Locke Rd #3, Concord, NH 03301",
    "neighborhood": null,
    "street": "38 Locke Rd #3",
    "city": "Concord",
    "postalCode": "03301",
    "state": "New Hampshire",
    "countryCode": "US",
    "website": "https://pharmerica.com/",
    "phone": "(888) 836-8930",
    "phoneUnformatted": "+18888368930",
    "claimThisBusiness": false,
    "location": {
      "lat": 43.24506,
      "lng": -71.5456126
    },
    "totalScore": 2.5,
    "permanentlyClosed": false,
    "temporarilyClosed": false,
    "placeId": "ChIJecRX1hRr4okRXXfqX6k0sZg",
    "categories": [
      "Pharmacy"
    ],
    "fid": "0x89e26b14d657c479:0x98b134a95fea775d",
    "cid": "11002633266706151261",
    "reviewsCount": 2,
    "imagesCount": 5,
    "imageCategories": [],
    "scrapedAt": "2025-06-23T06:30:16.924Z",
    "googleFoodUrl": null,
    "hotelAds": [],
    "openingHours": [
      {
        "day": "Monday",
        "hours": "Open 24 hours"
      },
      {
        "day": "Tuesday",
        "hours": "Open 24 hours"
      },
      {
        "day": "Wednesday",
        "hours": "Open 24 hours"
      },
      {
        "day": "Thursday",
        "hours": "Open 24 hours"
      },
      {
        "day": "Friday",
        "hours": "Open 24 hours"
      },
      {
        "day": "Saturday",
        "hours": "Open 24 hours"
      },
      {
        "day": "Sunday",
        "hours": "Open 24 hours"
      }
    ],
    "peopleAlsoSearch": [],
    "placesTags": [],
    "reviewsTags": [],
    "additionalInfo": {
      "Accessibility": [
        {
          "Wheelchair accessible entrance": true
        },
        {
          "Wheelchair accessible parking lot": true
        }
      ]
    },
    "gasPrices": [],
    "url": "https://www.google.com/maps/search/?api=1&query=PharMerica%20-%20Concord%2C%20NH&query_place_id=ChIJecRX1hRr4okRXXfqX6k0sZg",
    "searchPageUrl": "https://www.google.com/maps/search/independent%20pharmacies%20in%20Concord,%20NH%20in%20Concord,%20NH/@0.876059113774825,-176.61788845,13z?hl=en",
    "searchString": "independent pharmacies in Concord, NH in Concord, NH",
    "language": "en",
    "rank": 3,
    "isAdvertisement": false,
    "imageUrl": "https://lh3.googleusercontent.com/p/AF1QipPuUem4WN6_t-TxoxG8-bM5Qk-zcrTnxzMpOWQp=w408-h271-k-no",
    "kgmid": "/g/1tj2pgmd"
  },
  {
    "title": "Genoa Healthcare",
    "price": null,
    "categoryName": "Pharmacy",
    "address": "10 West St, Concord, NH 03301",
    "neighborhood": null,
    "street": "10 West St",
    "city": "Concord",
    "postalCode": "03301",
    "state": "New Hampshire",
    "countryCode": "US",
    "website": "https://www.genoahealthcare.com/",
    "phone": "(603) 369-4166",
    "phoneUnformatted": "+16033694166",
    "claimThisBusiness": false,
    "location": {
      "lat": 43.197247,
      "lng": -71.5323084
    },
    "totalScore": 3.5,
    "permanentlyClosed": false,
    "temporarilyClosed": false,
    "placeId": "ChIJq8TPyotr4okRxRAY1nV7wFw",
    "categories": [
      "Pharmacy"
    ],
    "fid": "0x89e26b8bcacfc4ab:0x5cc07b75d61810c5",
    "cid": "6683477593051107525",
    "reviewsCount": 6,
    "imagesCount": 1,
    "imageCategories": [],
    "scrapedAt": "2025-06-23T06:30:16.924Z",
    "googleFoodUrl": null,
    "hotelAds": [],
    "openingHours": [
      {
        "day": "Monday",
        "hours": "8:30 AM to 5 PM"
      },
      {
        "day": "Tuesday",
        "hours": "8:30 AM to 5 PM"
      },
      {
        "day": "Wednesday",
        "hours": "8:30 AM to 5 PM"
      },
      {
        "day": "Thursday",
        "hours": "8:30 AM to 5 PM"
      },
      {
        "day": "Friday",
        "hours": "8:30 AM to 5 PM"
      },
      {
        "day": "Saturday",
        "hours": "Closed"
      },
      {
        "day": "Sunday",
        "hours": "Closed"
      }
    ],
    "peopleAlsoSearch": [],
    "placesTags": [],
    "reviewsTags": [],
    "additionalInfo": {
      "Accessibility": [
        {
          "Wheelchair accessible entrance": true
        },
        {
          "Wheelchair accessible parking lot": true
        }
      ],
      "Payments": [
        {
          "Credit cards": true
        }
      ]
    },
    "gasPrices": [],
    "url": "https://www.google.com/maps/search/?api=1&query=Genoa%20Healthcare&query_place_id=ChIJq8TPyotr4okRxRAY1nV7wFw",
    "searchPageUrl": "https://www.google.com/maps/search/independent%20pharmacies%20in%20Concord,%20NH%20in%20Concord,%20NH/@0.876059113774825,-176.61788845,13z?hl=en",
    "searchString": "independent pharmacies in Concord, NH in Concord, NH",
    "language": "en",
    "rank": 4,
    "isAdvertisement": false,
    "imageUrl": "https://streetviewpixels-pa.googleapis.com/v1/thumbnail?panoid=OzeNspUga8xjq9DkxNbS3w&cb_client=search.gws-prod.gps&w=408&h=240&yaw=122.03703&pitch=0&thumbfov=100",
    "kgmid": "/g/11fj477cpx"
  },
  {
    "title": "Fisherville Pharmacy",
    "price": null,
    "categoryName": "Pharmacy",
    "address": "219 Fisherville Rd Unit c, Penacook, NH 03303",
    "neighborhood": "Penacook",
    "street": "219 Fisherville Rd Unit c",
    "city": "Penacook",
    "postalCode": "03303",
    "state": "New Hampshire",
    "countryCode": "US",
    "website": "http://fishervillerx.com/",
    "phone": "(603) 565-0210",
    "phoneUnformatted": "+16035650210",
    "claimThisBusiness": false,
    "location": {
      "lat": 43.2657906,
      "lng": -71.5867266
    },
    "totalScore": 4.6,
    "permanentlyClosed": false,
    "temporarilyClosed": false,
    "placeId": "ChIJz02i3KUU4okR_qejKnBlVus",
    "categories": [
      "Pharmacy"
    ],
    "fid": "0x89e214a5dca24dcf:0xeb5665702aa3a7fe",
    "cid": "16957852979336292350",
    "reviewsCount": 55,
    "imagesCount": 22,
    "imageCategories": [],
    "scrapedAt": "2025-06-23T06:30:16.924Z",
    "googleFoodUrl": null,
    "hotelAds": [],
    "openingHours": [
      {
        "day": "Monday",
        "hours": "9 AM to 7 PM"
      },
      {
        "day": "Tuesday",
        "hours": "9 AM to 7 PM"
      },
      {
        "day": "Wednesday",
        "hours": "9 AM to 7 PM"
      },
      {
        "day": "Thursday",
        "hours": "9 AM to 7 PM"
      },
      {
        "day": "Friday",
        "hours": "9 AM to 7 PM"
      },
      {
        "day": "Saturday",
        "hours": "9 AM to 3 PM"
      },
      {
        "day": "Sunday",
        "hours": "9 AM to 1 PM"
      }
    ],
    "peopleAlsoSearch": [],
    "placesTags": [],
    "reviewsTags": [],
    "additionalInfo": {
      "From the business": [
        {
          "Small business": true
        }
      ],
      "Service options": [
        {
          "Delivery": true
        },
        {
          "In-store pickup": true
        },
        {
          "In-store shopping": true
        },
        {
          "Same-day delivery": true
        }
      ],
      "Accessibility": [
        {
          "Wheelchair accessible entrance": true
        },
        {
          "Wheelchair accessible parking lot": true
        }
      ],
      "Planning": [
        {
          "Quick visit": true
        }
      ],
      "Payments": [
        {
          "Credit cards": true
        },
        {
          "Debit cards": true
        },
        {
          "NFC mobile payments": true
        },
        {
          "Credit cards": true
        }
      ]
    },
    "gasPrices": [],
    "url": "https://www.google.com/maps/search/?api=1&query=Fisherville%20Pharmacy&query_place_id=ChIJz02i3KUU4okR_qejKnBlVus",
    "searchPageUrl": "https://www.google.com/maps/search/independent%20pharmacies%20in%20Concord,%20NH%20in%20Concord,%20NH/@0.876059113774825,-176.61788845,13z?hl=en",
    "searchString": "independent pharmacies in Concord, NH in Concord, NH",
    "language": "en",
    "rank": 5,
    "isAdvertisement": false,
    "imageUrl": "https://lh3.googleusercontent.com/p/AF1QipNOjsZy1pn9YIqMCVYZfpnpJkUoa5aEM_JoCM5G=w426-h240-k-no",
    "kgmid": "/g/1tdw91r1"
  },
  {
    "title": "HealthDirect Pharmacy Services",
    "price": null,
    "categoryName": "Pharmacy",
    "address": "40 Terrill Park Dr #7315, Concord, NH 03301",
    "neighborhood": null,
    "street": "40 Terrill Park Dr #7315",
    "city": "Concord",
    "postalCode": "03301",
    "state": "New Hampshire",
    "countryCode": "US",
    "website": "http://www.hdrxservices.com/",
    "phone": "(855) 493-3823",
    "phoneUnformatted": "+18554933823",
    "claimThisBusiness": false,
    "location": {
      "lat": 43.1991794,
      "lng": -71.509076
    },
    "permanentlyClosed": false,
    "temporarilyClosed": false,
    "placeId": "ChIJbShRDmlq4okRftQQ8blCUU8",
    "categories": [
      "Pharmacy"
    ],
    "fid": "0x89e26a690e51286d:0x4f5142b9f110d47e",
    "cid": "5715422768490665086",
    "reviewsCount": 0,
    "imagesCount": 4,
    "imageCategories": [],
    "scrapedAt": "2025-06-23T06:30:16.924Z",
    "googleFoodUrl": null,
    "hotelAds": [],
    "openingHours": [
      {
        "day": "Monday",
        "hours": "8 AM to 6 PM"
      },
      {
        "day": "Tuesday",
        "hours": "8 AM to 6 PM"
      },
      {
        "day": "Wednesday",
        "hours": "8 AM to 6 PM"
      },
      {
        "day": "Thursday",
        "hours": "8 AM to 6 PM"
      },
      {
        "day": "Friday",
        "hours": "8 AM to 6 PM"
      },
      {
        "day": "Saturday",
        "hours": "8 AM to 3 PM"
      },
      {
        "day": "Sunday",
        "hours": "Closed"
      }
    ],
    "peopleAlsoSearch": [],
    "placesTags": [],
    "reviewsTags": [],
    "additionalInfo": {
      "Accessibility": [
        {
          "Wheelchair accessible parking lot": true
        }
      ]
    },
    "gasPrices": [],
    "url": "https://www.google.com/maps/search/?api=1&query=HealthDirect%20Pharmacy%20Services&query_place_id=ChIJbShRDmlq4okRftQQ8blCUU8",
    "searchPageUrl": "https://www.google.com/maps/search/independent%20pharmacies%20in%20Concord,%20NH%20in%20Concord,%20NH/@0.876059113774825,-176.61788845,13z?hl=en",
    "searchString": "independent pharmacies in Concord, NH in Concord, NH",
    "language": "en",
    "rank": 6,
    "isAdvertisement": false,
    "imageUrl": "https://lh3.googleusercontent.com/p/AF1QipNlg4ncE5b6GqrwowaALhKsLb6U6xOwFGYEIz06=w725-h240-k-no",
    "kgmid": "/g/11d_yb5d84"
  },
  {
    "title": "Shaw's Pharmacy",
    "description": "Supermarket chain offering meat, produce, staples, deli & bakery items (some with pharmacies).",
    "price": "$$",
    "categoryName": "Pharmacy",
    "address": "20 D'Amante Dr, Concord, NH 03301",
    "neighborhood": null,
    "street": "20 D'Amante Dr",
    "city": "Concord",
    "postalCode": "03301",
    "state": "New Hampshire",
    "countryCode": "US",
    "website": "https://local.pharmacy.shaws.com/nh/concord/20-d-amante-dr.html",
    "phone": "(603) 228-2279",
    "phoneUnformatted": "+16032282279",
    "claimThisBusiness": false,
    "location": {
      "lat": 43.2221279,
      "lng": -71.4897398
    },
    "totalScore": 4.2,
    "permanentlyClosed": false,
    "temporarilyClosed": false,
    "placeId": "ChIJ89Wb_c1r4okR-sx3WJQ-3DE",
    "categories": [
      "Pharmacy",
      "Drug store",
      "Vitamin & supplements store"
    ],
    "fid": "0x89e26bcdfd9bd5f3:0x31dc3e945877ccfa",
    "cid": "3592815409595141370",
    "reviewsCount": 14,
    "imagesCount": 3,
    "imageCategories": [],
    "scrapedAt": "2025-06-23T06:30:16.925Z",
    "googleFoodUrl": null,
    "hotelAds": [],
    "openingHours": [
      {
        "day": "Monday",
        "hours": "9 AM to 2 PM, 2:30 to 8 PM"
      },
      {
        "day": "Tuesday",
        "hours": "9 AM to 2 PM, 2:30 to 8 PM"
      },
      {
        "day": "Wednesday",
        "hours": "9 AM to 2 PM, 2:30 to 8 PM"
      },
      {
        "day": "Thursday",
        "hours": "9 AM to 2 PM, 2:30 to 8 PM"
      },
      {
        "day": "Friday",
        "hours": "9 AM to 2 PM, 2:30 to 8 PM"
      },
      {
        "day": "Saturday",
        "hours": "9 AM to 2 PM, 2:30 to 5 PM"
      },
      {
        "day": "Sunday",
        "hours": "10 AM to 2 PM, 2:30 to 5 PM"
      }
    ],
    "peopleAlsoSearch": [],
    "placesTags": [],
    "reviewsTags": [],
    "additionalInfo": {
      "Service options": [
        {
          "Delivery": true
        },
        {
          "In-store pickup": true
        },
        {
          "In-store shopping": true
        },
        {
          "Same-day delivery": true
        }
      ],
      "Accessibility": [
        {
          "Wheelchair accessible entrance": true
        },
        {
          "Wheelchair accessible parking lot": true
        }
      ],
      "Crowd": [
        {
          "LGBTQ+ friendly": true
        }
      ],
      "Planning": [
        {
          "Appointment required": true
        },
        {
          "Quick visit": true
        }
      ],
      "Payments": [
        {
          "Checks": true
        },
        {
          "Debit cards": true
        },
        {
          "Credit cards": true
        }
      ]
    },
    "gasPrices": [],
    "url": "https://www.google.com/maps/search/?api=1&query=Shaw's%20Pharmacy&query_place_id=ChIJ89Wb_c1r4okR-sx3WJQ-3DE",
    "searchPageUrl": "https://www.google.com/maps/search/independent%20pharmacies%20in%20Concord,%20NH%20in%20Concord,%20NH/@0.876059113774825,-176.61788845,13z?hl=en",
    "searchString": "independent pharmacies in Concord, NH in Concord, NH",
    "language": "en",
    "rank": 8,
    "isAdvertisement": false,
    "imageUrl": "https://lh3.googleusercontent.com/p/AF1QipMSNlNB3CA7R-D7KnDnN2C-NhcN3gjyQiC_Azw=w426-h240-k-no",
    "kgmid": "/g/1vhlz5s7"
  },
  {
    "title": "CVS Pharmacy",
    "price": null,
    "categoryName": "Pharmacy",
    "address": "4 Hall St, Concord, NH 03301",
    "neighborhood": null,
    "street": "4 Hall St",
    "city": "Concord",
    "postalCode": "03301",
    "state": "New Hampshire",
    "countryCode": "US",
    "website": "https://www.cvs.com/store-locator/concord-nh-pharmacies/4-hall-st-concord-nh-03301/storeid=841?WT.mc_id=LS_GOOGLE_RX_841",
    "phone": "(603) 224-3189",
    "phoneUnformatted": "+16032243189",
    "claimThisBusiness": false,
    "location": {
      "lat": 43.1945808,
      "lng": -71.5289223
    },
    "totalScore": 3.5,
    "permanentlyClosed": false,
    "temporarilyClosed": false,
    "placeId": "ChIJDeL9RoZq4okR07_MKcFBGGo",
    "categories": [
      "Pharmacy"
    ],
    "fid": "0x89e26a8646fde20d:0x6a1841c129ccbfd3",
    "cid": "7644932665347194835",
    "reviewsCount": 33,
    "imagesCount": 37,
    "imageCategories": [],
    "scrapedAt": "2025-06-23T06:30:16.925Z",
    "googleFoodUrl": null,
    "hotelAds": [],
    "openingHours": [
      {
        "day": "Monday",
        "hours": "8 AM to 1:30 PM, 2 to 8 PM"
      },
      {
        "day": "Tuesday",
        "hours": "8 AM to 1:30 PM, 2 to 8 PM"
      },
      {
        "day": "Wednesday",
        "hours": "8 AM to 1:30 PM, 2 to 8 PM"
      },
      {
        "day": "Thursday",
        "hours": "8 AM to 1:30 PM, 2 to 8 PM"
      },
      {
        "day": "Friday",
        "hours": "8 AM to 1:30 PM, 2 to 8 PM"
      },
      {
        "day": "Saturday",
        "hours": "9 AM to 1:30 PM, 2 to 6 PM"
      },
      {
        "day": "Sunday",
        "hours": "9 AM to 1:30 PM, 2 to 6 PM"
      }
    ],
    "peopleAlsoSearch": [],
    "placesTags": [],
    "reviewsTags": [],
    "additionalInfo": {
      "Service options": [
        {
          "Delivery": true
        },
        {
          "Drive-through": true
        },
        {
          "In-store shopping": true
        },
        {
          "Onsite services": true
        }
      ],
      "Accessibility": [
        {
          "Wheelchair accessible entrance": true
        },
        {
          "Wheelchair accessible parking lot": true
        }
      ],
      "Offerings": [
        {
          "Medication disposal": true
        },
        {
          "Naloxone": true
        }
      ],
      "Crowd": [
        {
          "LGBTQ+ friendly": true
        },
        {
          "Transgender safespace": true
        }
      ],
      "Planning": [
        {
          "Quick visit": true
        }
      ],
      "Payments": [
        {
          "Credit cards": true
        },
        {
          "Debit cards": true
        },
        {
          "NFC mobile payments": true
        },
        {
          "SNAP/EBT": true
        },
        {
          "Credit cards": true
        }
      ]
    },
    "gasPrices": [],
    "url": "https://www.google.com/maps/search/?api=1&query=CVS%20Pharmacy&query_place_id=ChIJDeL9RoZq4okR07_MKcFBGGo",
    "searchPageUrl": "https://www.google.com/maps/search/independent%20pharmacies%20in%20Concord,%20NH%20in%20Concord,%20NH/@0.876059113774825,-176.61788845,13z?hl=en",
    "searchString": "independent pharmacies in Concord, NH in Concord, NH",
    "language": "en",
    "rank": 9,
    "isAdvertisement": false,
    "imageUrl": "https://lh3.googleusercontent.com/p/AF1QipOx_ApqXwxXi8Stuj_Enq8sZLRoooxgl9xOTxEy=w408-h275-k-no",
    "kgmid": "/g/11c467wksw"
  },
  {
    "title": "CVS Pharmacy",
    "price": null,
    "categoryName": "Pharmacy",
    "address": "157 Loudon Rd, Concord, NH 03301",
    "neighborhood": null,
    "street": "157 Loudon Rd",
    "city": "Concord",
    "postalCode": "03301",
    "state": "New Hampshire",
    "countryCode": "US",
    "website": "https://www.cvs.com/store-locator/concord-nh-pharmacies/157-loudon-rd-concord-nh-03301/storeid=7122?WT.mc_id=LS_GOOGLE_RX_7122",
    "phone": "(603) 225-0793",
    "phoneUnformatted": "+16032250793",
    "claimThisBusiness": false,
    "location": {
      "lat": 43.2168761,
      "lng": -71.506894
    },
    "totalScore": 3.6,
    "permanentlyClosed": false,
    "temporarilyClosed": false,
    "placeId": "ChIJ_w6Tkktq4okRz4_9nHAi8eY",
    "categories": [
      "Pharmacy"
    ],
    "fid": "0x89e26a4b92930eff:0xe6f122709cfd8fcf",
    "cid": "16641119965176238031",
    "reviewsCount": 14,
    "imagesCount": 8,
    "imageCategories": [],
    "scrapedAt": "2025-06-23T06:30:16.925Z",
    "googleFoodUrl": null,
    "hotelAds": [],
    "openingHours": [
      {
        "day": "Monday",
        "hours": "9 AM to 1:30 PM, 2 to 7 PM"
      },
      {
        "day": "Tuesday",
        "hours": "9 AM to 1:30 PM, 2 to 7 PM"
      },
      {
        "day": "Wednesday",
        "hours": "9 AM to 1:30 PM, 2 to 7 PM"
      },
      {
        "day": "Thursday",
        "hours": "9 AM to 1:30 PM, 2 to 7 PM"
      },
      {
        "day": "Friday",
        "hours": "9 AM to 1:30 PM, 2 to 7 PM"
      },
      {
        "day": "Saturday",
        "hours": "9 AM to 1:30 PM, 2 to 5 PM"
      },
      {
        "day": "Sunday",
        "hours": "10 AM to 1:30 PM, 2 to 5 PM"
      }
    ],
    "peopleAlsoSearch": [],
    "placesTags": [],
    "reviewsTags": [],
    "additionalInfo": {
      "Service options": [
        {
          "Delivery": true
        },
        {
          "Drive-through": true
        },
        {
          "In-store pickup": true
        },
        {
          "In-store shopping": true
        },
        {
          "Onsite services": true
        }
      ],
      "Accessibility": [
        {
          "Wheelchair accessible entrance": true
        },
        {
          "Wheelchair accessible parking lot": true
        }
      ],
      "Offerings": [
        {
          "Naloxone": true
        },
        {
          "Passport photos": true
        }
      ],
      "Crowd": [
        {
          "LGBTQ+ friendly": true
        },
        {
          "Transgender safespace": true
        }
      ],
      "Planning": [
        {
          "Quick visit": true
        }
      ],
      "Payments": [
        {
          "Credit cards": true
        },
        {
          "Debit cards": true
        },
        {
          "SNAP/EBT": true
        },
        {
          "Credit cards": true
        }
      ]
    },
    "gasPrices": [],
    "url": "https://www.google.com/maps/search/?api=1&query=CVS%20Pharmacy&query_place_id=ChIJ_w6Tkktq4okRz4_9nHAi8eY",
    "searchPageUrl": "https://www.google.com/maps/search/independent%20pharmacies%20in%20Concord,%20NH%20in%20Concord,%20NH/@0.876059113774825,-176.61788845,13z?hl=en",
    "searchString": "independent pharmacies in Concord, NH in Concord, NH",
    "language": "en",
    "rank": 10,
    "isAdvertisement": false,
    "imageUrl": "https://lh3.googleusercontent.com/p/AF1QipOQnY3iJ-FKmkkZKHIYpNkTTK4nnfMeIGW5d_M=w408-h275-k-no",
    "kgmid": "/g/11c468k168"
  }
]