[
  {
    "title": "Pharmacy - Health West Rock Springs",
    "price": null,
    "categoryName": "Pharmacy",
    "address": "2620 Commercial Way #120, Rock Springs, WY 82901",
    "neighborhood": null,
    "street": "2620 Commercial Way #120",
    "city": "Rock Springs",
    "postalCode": "82901",
    "state": "Wyoming",
    "countryCode": "US",
    "website": "http://www.healthwestinc.org/",
    "phone": "(307) 212-5105",
    "phoneUnformatted": "+13072125105",
    "claimThisBusiness": false,
    "location": {
      "lat": 41.5816813,
      "lng": -109.2571223
    },
    "totalScore": 3.7,
    "permanentlyClosed": false,
    "temporarilyClosed": false,
    "placeId": "ChIJeQKBjRJhWocR4AJX86il4kg",
    "categories": [
      "Pharmacy"
    ],
    "fid": "0x875a61128d810279:0x48e2a5a8f35702e0",
    "cid": "5251942260523074272",
    "reviewsCount": 3,
    "imagesCount": 6,
    "imageCategories": [],
    "scrapedAt": "2025-06-23T05:43:59.907Z",
    "googleFoodUrl": null,
    "hotelAds": [],
    "openingHours": [
      {
        "day": "Monday",
        "hours": "8:30 AM to 5 PM"
      },
      {
        "day": "Tuesday",
        "hours": "8:30 AM to 5 PM"
      },
      {
        "day": "Wednesday",
        "hours": "8:30 AM to 5 PM"
      },
      {
        "day": "Thursday",
        "hours": "8:30 AM to 5 PM"
      },
      {
        "day": "Friday",
        "hours": "8:30 AM to 5 PM"
      },
      {
        "day": "Saturday",
        "hours": "Closed"
      },
      {
        "day": "Sunday",
        "hours": "Closed"
      }
    ],
    "peopleAlsoSearch": [],
    "placesTags": [],
    "reviewsTags": [],
    "additionalInfo": {
      "Service options": [
        {
          "In-store pickup": true
        },
        {
          "Arabic": true
        }
      ],
      "Accessibility": [
        {
          "Wheelchair accessible entrance": true
        },
        {
          "Wheelchair accessible parking lot": true
        }
      ],
      "Crowd": [
        {
          "LGBTQ+ friendly": true
        },
        {
          "Transgender safespace": true
        }
      ],
      "Payments": [
        {
          "Checks": true
        },
        {
          "Credit cards": true
        },
        {
          "Debit cards": true
        }
      ]
    },
    "gasPrices": [],
    "url": "https://www.google.com/maps/search/?api=1&query=Pharmacy%20-%20Health%20West%20Rock%20Springs&query_place_id=ChIJeQKBjRJhWocR4AJX86il4kg",
    "searchPageUrl": "https://www.google.com/maps/search/independent%20pharmacy%20in%20Rock%20Springs,%20WY/@60.5810187217634,-172.9390442428424,12z?hl=en",
    "searchString": "independent pharmacy in Rock Springs, WY",
    "language": "en",
    "rank": 1,
    "isAdvertisement": false,
    "imageUrl": "https://lh3.googleusercontent.com/p/AF1QipNY6ROSzqls-nScvr6E3_JKJsHOtx0hx0WaqmjK=w408-h306-k-no",
    "kgmid": "/g/11gcbb44_0"
  },
  {
    "title": "Smith's Pharmacy",
    "price": null,
    "categoryName": "Pharmacy",
    "address": "2531 Foothill Blvd, Rock Springs, WY 82901",
    "neighborhood": null,
    "street": "2531 Foothill Blvd",
    "city": "Rock Springs",
    "postalCode": "82901",
    "state": "Wyoming",
    "countryCode": "US",
    "website": "https://www.smithsfoodanddrug.com/rx/pharmacy/details/706/00182?cid=loc_70600182P_gmb",
    "phone": "(307) 362-1841",
    "phoneUnformatted": "+13073621841",
    "claimThisBusiness": false,
    "location": {
      "lat": 41.5828099,
      "lng": -109.2608073
    },
    "totalScore": 3.1,
    "permanentlyClosed": false,
    "temporarilyClosed": false,
    "placeId": "ChIJH8-rN21hWocR6xr-09OLozs",
    "categories": [
      "Pharmacy",
      "Drug store",
      "Health counselor",
      "Home health care service"
    ],
    "fid": "0x875a616d37abcf1f:0x3ba38bd3d3fe1aeb",
    "cid": "4297432211352591083",
    "reviewsCount": 33,
    "imagesCount": 9,
    "imageCategories": [],
    "scrapedAt": "2025-06-23T05:43:59.908Z",
    "googleFoodUrl": null,
    "hotelAds": [],
    "openingHours": [
      {
        "day": "Monday",
        "hours": "9 AM to 1 PM, 1:30 to 8 PM"
      },
      {
        "day": "Tuesday",
        "hours": "9 AM to 1 PM, 1:30 to 8 PM"
      },
      {
        "day": "Wednesday",
        "hours": "9 AM to 1 PM, 1:30 to 8 PM"
      },
      {
        "day": "Thursday",
        "hours": "9 AM to 1 PM, 1:30 to 8 PM"
      },
      {
        "day": "Friday",
        "hours": "9 AM to 1 PM, 1:30 to 8 PM"
      },
      {
        "day": "Saturday",
        "hours": "9 AM to 1 PM, 1:30 to 6 PM"
      },
      {
        "day": "Sunday",
        "hours": "10 AM to 1 PM, 1:30 to 5 PM"
      }
    ],
    "peopleAlsoSearch": [],
    "placesTags": [],
    "reviewsTags": [],
    "additionalInfo": {
      "Service options": [
        {
          "Curbside pickup": true
        },
        {
          "Delivery": true
        },
        {
          "In-store pickup": true
        },
        {
          "In-store shopping": true
        },
        {
          "Same-day delivery": true
        }
      ],
      "Accessibility": [
        {
          "Wheelchair accessible entrance": true
        },
        {
          "Wheelchair accessible parking lot": true
        },
        {
          "Wheelchair accessible restroom": true
        },
        {
          "Wheelchair accessible seating": true
        }
      ],
      "Offerings": [
        {
          "Passport photos": true
        }
      ],
      "Crowd": [
        {
          "LGBTQ+ friendly": true
        },
        {
          "Transgender safespace": true
        }
      ],
      "Planning": [
        {
          "Quick visit": true
        }
      ],
      "Payments": [
        {
          "Checks": true
        },
        {
          "Credit cards": true
        },
        {
          "Debit cards": true
        },
        {
          "NFC mobile payments": true
        },
        {
          "Credit cards": true
        }
      ]
    },
    "gasPrices": [],
    "url": "https://www.google.com/maps/search/?api=1&query=Smith's%20Pharmacy&query_place_id=ChIJH8-rN21hWocR6xr-09OLozs",
    "searchPageUrl": "https://www.google.com/maps/search/independent%20pharmacy%20in%20Rock%20Springs,%20WY/@60.5810187217634,-172.9390442428424,12z?hl=en",
    "searchString": "independent pharmacy in Rock Springs, WY",
    "language": "en",
    "rank": 2,
    "isAdvertisement": false,
    "imageUrl": "https://lh3.googleusercontent.com/p/AF1QipOluUtQsCf3DWifSRjQTtIKBgZqmEr6rRVL5fg4=w426-h240-k-no",
    "kgmid": "/g/1yfh_jx_l"
  },
  {
    "title": "Albertsons Pharmacy",
    "price": "$$",
    "categoryName": "Pharmacy",
    "address": "1323 Dewar Dr, Rock Springs, WY 82901",
    "neighborhood": null,
    "street": "1323 Dewar Dr",
    "city": "Rock Springs",
    "postalCode": "82901",
    "state": "Wyoming",
    "countryCode": "US",
    "website": "https://local.pharmacy.albertsons.com/wy/rock-springs/1323-dewar-dr.html",
    "phone": "(307) 362-9734",
    "phoneUnformatted": "+13073629734",
    "claimThisBusiness": false,
    "location": {
      "lat": 41.575715,
      "lng": -109.236245
    },
    "totalScore": 4.2,
    "permanentlyClosed": false,
    "temporarilyClosed": false,
    "placeId": "ChIJid8DMgBhWocRImqBlyAP1vM",
    "categories": [
      "Pharmacy",
      "Drug store",
      "Vitamin & supplements store"
    ],
    "fid": "0x875a61003203df89:0xf3d60f2097816a22",
    "cid": "17570247628887779874",
    "reviewsCount": 13,
    "imagesCount": 5,
    "imageCategories": [],
    "scrapedAt": "2025-06-23T05:43:59.909Z",
    "googleFoodUrl": null,
    "hotelAds": [],
    "openingHours": [
      {
        "day": "Monday",
        "hours": "8 AM to 8 PM"
      },
      {
        "day": "Tuesday",
        "hours": "8 AM to 8 PM"
      },
      {
        "day": "Wednesday",
        "hours": "8 AM to 8 PM"
      },
      {
        "day": "Thursday",
        "hours": "8 AM to 8 PM"
      },
      {
        "day": "Friday",
        "hours": "8 AM to 8 PM"
      },
      {
        "day": "Saturday",
        "hours": "9 AM to 6 PM"
      },
      {
        "day": "Sunday",
        "hours": "10 AM to 4 PM"
      }
    ],
    "peopleAlsoSearch": [],
    "placesTags": [],
    "reviewsTags": [],
    "additionalInfo": {
      "Service options": [
        {
          "Delivery": true
        },
        {
          "In-store pickup": true
        },
        {
          "In-store shopping": true
        },
        {
          "Same-day delivery": true
        }
      ],
      "Accessibility": [
        {
          "Wheelchair accessible entrance": true
        },
        {
          "Wheelchair accessible parking lot": true
        }
      ],
      "Crowd": [
        {
          "LGBTQ+ friendly": true
        }
      ],
      "Planning": [
        {
          "Appointment required": true
        },
        {
          "Quick visit": true
        }
      ],
      "Payments": [
        {
          "Checks": true
        },
        {
          "Debit cards": true
        },
        {
          "Credit cards": true
        }
      ]
    },
    "gasPrices": [],
    "url": "https://www.google.com/maps/search/?api=1&query=Albertsons%20Pharmacy&query_place_id=ChIJid8DMgBhWocRImqBlyAP1vM",
    "searchPageUrl": "https://www.google.com/maps/search/independent%20pharmacy%20in%20Rock%20Springs,%20WY/@60.5810187217634,-172.9390442428424,12z?hl=en",
    "searchString": "independent pharmacy in Rock Springs, WY",
    "language": "en",
    "rank": 3,
    "isAdvertisement": false,
    "imageUrl": "https://lh3.googleusercontent.com/p/AF1QipOJF4zDdrK5nzQIsIAd1C5eWEqGZZ4o76UOzbYf=w427-h240-k-no",
    "kgmid": "/g/1tdvq6pm"
  },
  {
    "title": "Walgreens Pharmacy",
    "description": "Department of the Walgreens chain providing prescription medications & other health-related items.",
    "price": "$$",
    "categoryName": "Pharmacy",
    "address": "70 Gateway Blvd, Rock Springs, WY 82901",
    "neighborhood": null,
    "street": "70 Gateway Blvd",
    "city": "Rock Springs",
    "postalCode": "82901",
    "state": "Wyoming",
    "countryCode": "US",
    "website": "https://www.walgreens.com/locator/walgreens-70+gateway+blvd-rock+springs-wy-82901/id=9092",
    "phone": "(307) 382-2536",
    "phoneUnformatted": "+13073822536",
    "claimThisBusiness": false,
    "location": {
      "lat": 41.5767224,
      "lng": -109.2489562
    },
    "totalScore": 2.6,
    "permanentlyClosed": false,
    "temporarilyClosed": false,
    "placeId": "ChIJ5ccgyAhhWocRbLjccSNaB6s",
    "categories": [
      "Pharmacy"
    ],
    "fid": "0x875a6108c820c7e5:0xab075a2371dcb86c",
    "cid": "12323918013603297388",
    "reviewsCount": 20,
    "imagesCount": 3,
    "imageCategories": [],
    "scrapedAt": "2025-06-23T05:43:59.909Z",
    "googleFoodUrl": null,
    "hotelAds": [],
    "openingHours": [
      {
        "day": "Monday",
        "hours": "9 AM to 1:30 PM, 2 to 7 PM"
      },
      {
        "day": "Tuesday",
        "hours": "9 AM to 1:30 PM, 2 to 7 PM"
      },
      {
        "day": "Wednesday",
        "hours": "9 AM to 1:30 PM, 2 to 7 PM"
      },
      {
        "day": "Thursday",
        "hours": "9 AM to 1:30 PM, 2 to 7 PM"
      },
      {
        "day": "Friday",
        "hours": "9 AM to 1:30 PM, 2 to 7 PM"
      },
      {
        "day": "Saturday",
        "hours": "9 AM to 1:30 PM, 2 to 6 PM"
      },
      {
        "day": "Sunday",
        "hours": "9 AM to 1:30 PM, 2 to 5 PM"
      }
    ],
    "additionalOpeningHours": {
      "Drive through": [
        {
          "day": "Monday",
          "hours": "9 AM–1:30 PM"
        },
        {
          "day": "Tuesday",
          "hours": "9 AM–1:30 PM"
        },
        {
          "day": "Wednesday",
          "hours": "9 AM–1:30 PM"
        },
        {
          "day": "Thursday",
          "hours": "9 AM–1:30 PM"
        },
        {
          "day": "Friday",
          "hours": "9 AM–1:30 PM"
        },
        {
          "day": "Saturday",
          "hours": "9 AM–1:30 PM"
        },
        {
          "day": "Sunday",
          "hours": "9 AM–1:30 PM"
        }
      ]
    },
    "peopleAlsoSearch": [],
    "placesTags": [],
    "reviewsTags": [],
    "additionalInfo": {
      "Service options": [
        {
          "Drive-through": true
        },
        {
          "In-store pickup": true
        }
      ],
      "Accessibility": [
        {
          "Wheelchair accessible entrance": true
        },
        {
          "Wheelchair accessible parking lot": true
        }
      ],
      "Offerings": [
        {
          "Medication disposal": true
        },
        {
          "Naloxone": true
        }
      ],
      "Planning": [
        {
          "Quick visit": true
        }
      ],
      "Payments": [
        {
          "Checks": true
        },
        {
          "Credit cards": true
        },
        {
          "Debit cards": true
        }
      ]
    },
    "gasPrices": [],
    "url": "https://www.google.com/maps/search/?api=1&query=Walgreens%20Pharmacy&query_place_id=ChIJ5ccgyAhhWocRbLjccSNaB6s",
    "searchPageUrl": "https://www.google.com/maps/search/independent%20pharmacy%20in%20Rock%20Springs,%20WY/@60.5810187217634,-172.9390442428424,12z?hl=en",
    "searchString": "independent pharmacy in Rock Springs, WY",
    "language": "en",
    "rank": 4,
    "isAdvertisement": false,
    "imageUrl": "https://lh3.googleusercontent.com/p/AF1QipMDRhOieE4BFG4JkHk6tZl0QnBKs3dSEovDZBGC=w525-h240-k-no",
    "kgmid": "/g/11cn96b2rg"
  },
  {
    "title": "Walgreens",
    "description": "Drugstore chain with health & beauty aids, prescriptions & photo services, plus mini-mart basics.",
    "price": "$$",
    "categoryName": "Drug store",
    "address": "70 Gateway Blvd, Rock Springs, WY 82901",
    "neighborhood": null,
    "street": "70 Gateway Blvd",
    "city": "Rock Springs",
    "postalCode": "82901",
    "state": "Wyoming",
    "countryCode": "US",
    "website": "https://www.walgreens.com/locator/walgreens-70+gateway+blvd-rock+springs-wy-82901/id=9092",
    "phone": "(307) 382-2536",
    "phoneUnformatted": "+13073822536",
    "claimThisBusiness": false,
    "location": {
      "lat": 41.5767788,
      "lng": -109.2490557
    },
    "locatedIn": "Walgreens Pharmacy",
    "totalScore": 2.5,
    "permanentlyClosed": false,
    "temporarilyClosed": false,
    "placeId": "ChIJK1f3twhhWocRebmSGQXTfoM",
    "categories": [
      "Drug store",
      "Beauty supply store",
      "Convenience store",
      "Cosmetics store",
      "Greeting card shop",
      "Perfume store",
      "Stationery store"
    ],
    "fid": "0x875a6108b7f7572b:0x837ed3051992b979",
    "cid": "9475242684891445625",
    "reviewsCount": 48,
    "imagesCount": 47,
    "imageCategories": [],
    "scrapedAt": "2025-06-23T05:43:59.909Z",
    "googleFoodUrl": null,
    "hotelAds": [],
    "openingHours": [
      {
        "day": "Monday",
        "hours": "7 AM to 10 PM"
      },
      {
        "day": "Tuesday",
        "hours": "7 AM to 10 PM"
      },
      {
        "day": "Wednesday",
        "hours": "7 AM to 10 PM"
      },
      {
        "day": "Thursday",
        "hours": "7 AM to 10 PM"
      },
      {
        "day": "Friday",
        "hours": "7 AM to 10 PM"
      },
      {
        "day": "Saturday",
        "hours": "7 AM to 10 PM"
      },
      {
        "day": "Sunday",
        "hours": "7 AM to 10 PM"
      }
    ],
    "additionalOpeningHours": {
      "Walgreens Pharmacy": [
        {
          "day": "Monday",
          "hours": "9 AM–1:30 PM"
        },
        {
          "day": "Tuesday",
          "hours": "9 AM–1:30 PM"
        },
        {
          "day": "Wednesday",
          "hours": "9 AM–1:30 PM"
        },
        {
          "day": "Thursday",
          "hours": "9 AM–1:30 PM"
        },
        {
          "day": "Friday",
          "hours": "9 AM–1:30 PM"
        },
        {
          "day": "Saturday",
          "hours": "9 AM–1:30 PM"
        },
        {
          "day": "Sunday",
          "hours": "9 AM–1:30 PM"
        }
      ],
      "Walgreens Photo": [
        {
          "day": "Monday",
          "hours": "7 AM–10 PM"
        },
        {
          "day": "Tuesday",
          "hours": "7 AM–10 PM"
        },
        {
          "day": "Wednesday",
          "hours": "7 AM–10 PM"
        },
        {
          "day": "Thursday",
          "hours": "7 AM–10 PM"
        },
        {
          "day": "Friday",
          "hours": "7 AM–10 PM"
        },
        {
          "day": "Saturday",
          "hours": "7 AM–10 PM"
        },
        {
          "day": "Sunday",
          "hours": "7 AM–10 PM"
        }
      ],
      "Pickup": [
        {
          "day": "Monday",
          "hours": "7 AM–10 PM"
        },
        {
          "day": "Tuesday",
          "hours": "7 AM–10 PM"
        },
        {
          "day": "Wednesday",
          "hours": "7 AM–10 PM"
        },
        {
          "day": "Thursday",
          "hours": "7 AM–10 PM"
        },
        {
          "day": "Friday",
          "hours": "7 AM–10 PM"
        },
        {
          "day": "Saturday",
          "hours": "7 AM–10 PM"
        },
        {
          "day": "Sunday",
          "hours": "7 AM–10 PM"
        }
      ]
    },
    "peopleAlsoSearch": [],
    "placesTags": [],
    "reviewsTags": [],
    "additionalInfo": {
      "Service options": [
        {
          "Curbside pickup": true
        },
        {
          "Delivery": true
        },
        {
          "Drive-through": true
        },
        {
          "In-store pickup": true
        },
        {
          "Onsite services": true
        },
        {
          "Same-day delivery": false
        }
      ],
      "Accessibility": [
        {
          "Wheelchair accessible entrance": true
        },
        {
          "Wheelchair accessible parking lot": true
        }
      ],
      "Planning": [
        {
          "Quick visit": true
        }
      ],
      "Payments": [
        {
          "Checks": true
        },
        {
          "Credit cards": true
        },
        {
          "Debit cards": true
        },
        {
          "NFC mobile payments": true
        },
        {
          "SNAP/EBT": true
        },
        {
          "Credit cards": true
        }
      ]
    },
    "gasPrices": [],
    "url": "https://www.google.com/maps/search/?api=1&query=Walgreens&query_place_id=ChIJK1f3twhhWocRebmSGQXTfoM",
    "searchPageUrl": "https://www.google.com/maps/search/independent%20pharmacy%20in%20Rock%20Springs,%20WY/@60.5810187217634,-172.9390442428424,12z?hl=en",
    "searchString": "independent pharmacy in Rock Springs, WY",
    "language": "en",
    "rank": 5,
    "isAdvertisement": false,
    "imageUrl": "https://lh3.googleusercontent.com/gps-cs-s/AC9h4nqvEmjvnHWN4JcZZ31iD9-2AJiuzmgVFUWbSDvCC4VHbHvqZFYPIVwQSvccXg8sdBIGGODrQNPxMsyUsgfQwGeW3B7xxoNB67adKj3m2d92xe7vq0EWnNJB7ym6Jb7BAlcn0YOq=w408-h544-k-no",
    "kgmid": "/g/1trrdpgs"
  },
  {
    "title": "Bi-Rite Medical",
    "price": null,
    "categoryName": "Pharmacy",
    "address": "409 Broadway St, Rock Springs, WY 82901",
    "neighborhood": null,
    "street": "409 Broadway St",
    "city": "Rock Springs",
    "postalCode": "82901",
    "state": "Wyoming",
    "countryCode": "US",
    "website": "https://www.birite.biz/",
    "phone": "(307) 362-6691",
    "phoneUnformatted": "+13073626691",
    "claimThisBusiness": false,
    "location": {
      "lat": 41.5859716,
      "lng": -109.2204531
    },
    "totalScore": 3.3,
    "permanentlyClosed": false,
    "temporarilyClosed": false,
    "placeId": "ChIJmQMoyvFgWocRMY8w_dNVsSE",
    "categories": [
      "Pharmacy",
      "Gift shop",
      "Medical supply store",
      "Oxygen equipment supplier",
      "Embroidery shop",
      "Wheelchair store"
    ],
    "fid": "0x875a60f1ca280399:0x21b155d3fd308f31",
    "cid": "2427816043103686449",
    "reviewsCount": 7,
    "imagesCount": 17,
    "imageCategories": [],
    "scrapedAt": "2025-06-23T05:43:59.910Z",
    "googleFoodUrl": null,
    "hotelAds": [],
    "openingHours": [
      {
        "day": "Monday",
        "hours": "10 AM to 5 PM"
      },
      {
        "day": "Tuesday",
        "hours": "10 AM to 5 PM"
      },
      {
        "day": "Wednesday",
        "hours": "10 AM to 5 PM"
      },
      {
        "day": "Thursday",
        "hours": "10 AM to 5 PM"
      },
      {
        "day": "Friday",
        "hours": "10 AM to 5 PM"
      },
      {
        "day": "Saturday",
        "hours": "Closed"
      },
      {
        "day": "Sunday",
        "hours": "Closed"
      }
    ],
    "peopleAlsoSearch": [],
    "placesTags": [],
    "reviewsTags": [],
    "additionalInfo": {
      "From the business": [
        {
          "Small business": true
        }
      ],
      "Accessibility": [
        {
          "Wheelchair accessible entrance": true
        },
        {
          "Wheelchair accessible parking lot": true
        }
      ],
      "Planning": [
        {
          "Quick visit": true
        }
      ],
      "Payments": [
        {
          "Credit cards": true
        },
        {
          "Debit cards": true
        },
        {
          "Credit cards": true
        }
      ]
    },
    "gasPrices": [],
    "url": "https://www.google.com/maps/search/?api=1&query=Bi-Rite%20Medical&query_place_id=ChIJmQMoyvFgWocRMY8w_dNVsSE",
    "searchPageUrl": "https://www.google.com/maps/search/independent%20pharmacy%20in%20Rock%20Springs,%20WY/@60.5810187217634,-172.9390442428424,12z?hl=en",
    "searchString": "independent pharmacy in Rock Springs, WY",
    "language": "en",
    "rank": 6,
    "isAdvertisement": false,
    "imageUrl": "https://lh3.googleusercontent.com/gps-cs-s/AC9h4nrZiuvuN9KnuSOFD2c9xhHQvHeOqXHhLL7A1nXC2rTGT6O1JmjTJBibcVh2VLndi1dIc2kp1OWVUpBiG5mdPeS16w4eSfBSDeYhemoOaR8Lgyx4aLAorCuChPSxyqNEVF_FnwiMUw=w408-h612-k-no",
    "kgmid": "/g/1tfctq2h"
  },
  {
    "title": "Walmart Pharmacy",
    "price": "$",
    "categoryName": "Pharmacy",
    "address": "201 Gateway Blvd, Rock Springs, WY 82901",
    "neighborhood": null,
    "street": "201 Gateway Blvd",
    "city": "Rock Springs",
    "postalCode": "82901",
    "state": "Wyoming",
    "countryCode": "US",
    "website": "https://www.walmart.com/store/1461-rock-springs-wy/pharmacy/?veh=seo_loc",
    "phone": "(307) 362-1967",
    "phoneUnformatted": "+13073621967",
    "claimThisBusiness": false,
    "location": {
      "lat": 41.5805834,
      "lng": -109.2513728
    },
    "totalScore": 3.3,
    "permanentlyClosed": false,
    "temporarilyClosed": false,
    "placeId": "ChIJN1t3pQ9hWocRMAB7OEEkNYo",
    "categories": [
      "Pharmacy",
      "Herbal medicine store",
      "Medical supply store",
      "Parapharmacy",
      "Vitamin & supplements store"
    ],
    "fid": "0x875a610fa5775b37:0x8a352441387b0030",
    "cid": "9958906013538779184",
    "reviewsCount": 23,
    "imagesCount": 5,
    "imageCategories": [],
    "scrapedAt": "2025-06-23T05:43:59.910Z",
    "googleFoodUrl": null,
    "hotelAds": [],
    "openingHours": [
      {
        "day": "Monday",
        "hours": "9 AM to 7 PM"
      },
      {
        "day": "Tuesday",
        "hours": "9 AM to 7 PM"
      },
      {
        "day": "Wednesday",
        "hours": "9 AM to 7 PM"
      },
      {
        "day": "Thursday",
        "hours": "9 AM to 7 PM"
      },
      {
        "day": "Friday",
        "hours": "9 AM to 7 PM"
      },
      {
        "day": "Saturday",
        "hours": "9 AM to 7 PM"
      },
      {
        "day": "Sunday",
        "hours": "10 AM to 6 PM"
      }
    ],
    "peopleAlsoSearch": [],
    "placesTags": [],
    "reviewsTags": [],
    "additionalInfo": {
      "Service options": [
        {
          "Delivery": true
        },
        {
          "In-store pickup": true
        }
      ],
      "Accessibility": [
        {
          "Wheelchair accessible entrance": true
        },
        {
          "Wheelchair accessible parking lot": true
        },
        {
          "Wheelchair accessible restroom": true
        }
      ],
      "Offerings": [
        {
          "Passport photos": true
        }
      ],
      "Amenities": [
        {
          "Wi-Fi": true
        },
        {
          "Free Wi-Fi": true
        }
      ],
      "Planning": [
        {
          "Quick visit": true
        }
      ],
      "Payments": [
        {
          "Credit cards": true
        },
        {
          "Debit cards": true
        },
        {
          "Credit cards": true
        }
      ]
    },
    "gasPrices": [],
    "url": "https://www.google.com/maps/search/?api=1&query=Walmart%20Pharmacy&query_place_id=ChIJN1t3pQ9hWocRMAB7OEEkNYo",
    "searchPageUrl": "https://www.google.com/maps/search/independent%20pharmacy%20in%20Rock%20Springs,%20WY/@60.5810187217634,-172.9390442428424,12z?hl=en",
    "searchString": "independent pharmacy in Rock Springs, WY",
    "language": "en",
    "rank": 7,
    "isAdvertisement": false,
    "imageUrl": "https://lh3.googleusercontent.com/p/AF1QipOoO1DAvUrTi7GljbwfaxEIkHdIaoce4uEBDQHb=w408-h306-k-no",
    "kgmid": "/g/1hf7h8m0g"
  },
  {
    "title": "Texan Pharmacy",
    "price": null,
    "categoryName": "Pharmacy",
    "address": "7201 Wyoming Springs Dr Unit 301, Round Rock, TX 78681",
    "neighborhood": null,
    "street": "7201 Wyoming Springs Dr Unit 301",
    "city": "Round Rock",
    "postalCode": "78681",
    "state": "Texas",
    "countryCode": "US",
    "website": "http://www.texanrx.com/",
    "phone": "(512) 296-2633",
    "phoneUnformatted": "+15122962633",
    "claimThisBusiness": false,
    "location": {
      "lat": 30.5125928,
      "lng": -97.7176969
    },
    "totalScore": 4.4,
    "permanentlyClosed": false,
    "temporarilyClosed": false,
    "placeId": "ChIJGwBw0TjSRIYR7IzhqnI1s7o",
    "categories": [
      "Pharmacy",
      "Convenience store",
      "Gift shop"
    ],
    "fid": "0x8644d238d170001b:0xbab33572aae18cec",
    "cid": "13453155278495255788",
    "reviewsCount": 104,
    "imagesCount": 22,
    "imageCategories": [],
    "scrapedAt": "2025-06-23T05:44:02.119Z",
    "googleFoodUrl": null,
    "hotelAds": [],
    "openingHours": [
      {
        "day": "Monday",
        "hours": "9 AM to 7 PM"
      },
      {
        "day": "Tuesday",
        "hours": "9 AM to 7 PM"
      },
      {
        "day": "Wednesday",
        "hours": "9 AM to 7 PM"
      },
      {
        "day": "Thursday",
        "hours": "9 AM to 7 PM"
      },
      {
        "day": "Friday",
        "hours": "9 AM to 7 PM"
      },
      {
        "day": "Saturday",
        "hours": "9 AM to 2 PM"
      },
      {
        "day": "Sunday",
        "hours": "Closed"
      }
    ],
    "peopleAlsoSearch": [],
    "placesTags": [],
    "reviewsTags": [],
    "additionalInfo": {
      "From the business": [
        {
          "Small business": true
        }
      ],
      "Service options": [
        {
          "Delivery": true
        },
        {
          "In-store pickup": true
        },
        {
          "In-store shopping": true
        },
        {
          "Same-day delivery": true
        }
      ],
      "Accessibility": [
        {
          "Wheelchair accessible entrance": true
        },
        {
          "Wheelchair accessible parking lot": true
        }
      ],
      "Planning": [
        {
          "Quick visit": true
        }
      ],
      "Payments": [
        {
          "Credit cards": true
        },
        {
          "Debit cards": true
        },
        {
          "NFC mobile payments": true
        },
        {
          "Credit cards": true
        }
      ]
    },
    "gasPrices": [],
    "url": "https://www.google.com/maps/search/?api=1&query=Texan%20Pharmacy&query_place_id=ChIJGwBw0TjSRIYR7IzhqnI1s7o",
    "searchPageUrl": "https://www.google.com/maps/search/independent%20pharmacy%20in%20Rock%20Springs,%20WY/@51.14639400957372,-179.4365489794267,11z?hl=en",
    "searchString": "independent pharmacy in Rock Springs, WY",
    "language": "en",
    "rank": 5,
    "isAdvertisement": false,
    "imageUrl": "https://lh3.googleusercontent.com/p/AF1QipNC9ydQjPIQMrEpdrCxXjCIAJgcUChgDVCcKP9Y=w408-h544-k-no",
    "kgmid": "/g/11c0rnbw9j"
  },
  {
    "title": "City Drug",
    "price": null,
    "categoryName": "Pharmacy",
    "address": "1722 Carey Ave, Cheyenne, WY 82001",
    "neighborhood": null,
    "street": "1722 Carey Ave",
    "city": "Cheyenne",
    "postalCode": "82001",
    "state": "Wyoming",
    "countryCode": "US",
    "website": "https://www.citydrugcheyenne.com/",
    "phone": "(307) 514-0200",
    "phoneUnformatted": "+13075140200",
    "claimThisBusiness": false,
    "location": {
      "lat": 41.1338161,
      "lng": -104.8176919
    },
    "totalScore": 4.9,
    "permanentlyClosed": false,
    "temporarilyClosed": false,
    "placeId": "ChIJBStRKUc7b4cR596CMcFjupM",
    "categories": [
      "Pharmacy"
    ],
    "fid": "0x876f3b4729512b05:0x93ba63c13182dee7",
    "cid": "10644930350654086887",
    "reviewsCount": 49,
    "imagesCount": 34,
    "imageCategories": [],
    "scrapedAt": "2025-06-23T05:44:54.280Z",
    "googleFoodUrl": null,
    "hotelAds": [],
    "openingHours": [
      {
        "day": "Monday",
        "hours": "8 AM to 5 PM"
      },
      {
        "day": "Tuesday",
        "hours": "8 AM to 5 PM"
      },
      {
        "day": "Wednesday",
        "hours": "8 AM to 5 PM"
      },
      {
        "day": "Thursday",
        "hours": "8 AM to 5 PM"
      },
      {
        "day": "Friday",
        "hours": "8 AM to 5 PM"
      },
      {
        "day": "Saturday",
        "hours": "9 AM to 12 PM"
      },
      {
        "day": "Sunday",
        "hours": "Closed"
      }
    ],
    "peopleAlsoSearch": [],
    "placesTags": [],
    "reviewsTags": [],
    "additionalInfo": {
      "From the business": [
        {
          "Small business": true
        }
      ],
      "Service options": [
        {
          "Delivery": true
        },
        {
          "In-store pickup": true
        },
        {
          "In-store shopping": true
        }
      ],
      "Accessibility": [
        {
          "Wheelchair accessible entrance": true
        },
        {
          "Wheelchair accessible parking lot": true
        }
      ],
      "Amenities": [
        {
          "Wi-Fi": true
        },
        {
          "Free Wi-Fi": true
        }
      ],
      "Planning": [
        {
          "Quick visit": true
        }
      ],
      "Payments": [
        {
          "Credit cards": true
        },
        {
          "Debit cards": true
        },
        {
          "NFC mobile payments": true
        },
        {
          "Credit cards": true
        }
      ]
    },
    "gasPrices": [],
    "url": "https://www.google.com/maps/search/?api=1&query=City%20Drug&query_place_id=ChIJBStRKUc7b4cR596CMcFjupM",
    "searchPageUrl": "https://www.google.com/maps/search/independent%20pharmacy%20in%20Rock%20Springs,%20WY/@42.54640259466427,-105.48342742835163,8z?hl=en",
    "searchString": "independent pharmacy in Rock Springs, WY",
    "language": "en",
    "rank": 1,
    "isAdvertisement": false,
    "imageUrl": "https://lh3.googleusercontent.com/gps-cs-s/AC9h4no--QNeD29XhIi2IQM1XdF_m1adKXDg8f9OZNecpuwLs0kMmkvmXSbW1a-peJw1A2_Dc_JGtQk10cbgw9d52SVIDMcykWaVN8Z2UnF7iQNLitDVzn62YbQPdFFkB_7IFn0tZNr8=w408-h306-k-no",
    "kgmid": "/g/11s4svf29c"
  },
  {
    "title": "Hot Springs Pharmacy",
    "price": null,
    "categoryName": "Pharmacy",
    "address": "610 S 6th St, Thermopolis, WY 82443",
    "neighborhood": null,
    "street": "610 S 6th St",
    "city": "Thermopolis",
    "postalCode": "82443",
    "state": "Wyoming",
    "countryCode": "US",
    "website": "http://hotspringspharmacywy.com/",
    "phone": "(307) 864-2369",
    "phoneUnformatted": "+13078642369",
    "claimThisBusiness": false,
    "location": {
      "lat": 43.640296,
      "lng": -108.2133764
    },
    "totalScore": 4.9,
    "permanentlyClosed": false,
    "temporarilyClosed": false,
    "placeId": "ChIJeXMYeCqvTFMRPf2Wp1JnIzU",
    "categories": [
      "Pharmacy",
      "Drug store"
    ],
    "fid": "0x534caf2a78187379:0x35236752a796fd3d",
    "cid": "3829017712891723069",
    "reviewsCount": 15,
    "imagesCount": 10,
    "imageCategories": [],
    "scrapedAt": "2025-06-23T05:44:54.280Z",
    "googleFoodUrl": null,
    "hotelAds": [],
    "openingHours": [
      {
        "day": "Monday",
        "hours": "8:30 AM to 5:30 PM"
      },
      {
        "day": "Tuesday",
        "hours": "8:30 AM to 5:30 PM"
      },
      {
        "day": "Wednesday",
        "hours": "8:30 AM to 5:30 PM"
      },
      {
        "day": "Thursday",
        "hours": "8:30 AM to 5:30 PM"
      },
      {
        "day": "Friday",
        "hours": "8:30 AM to 5:30 PM"
      },
      {
        "day": "Saturday",
        "hours": "9 AM to 12 PM"
      },
      {
        "day": "Sunday",
        "hours": "Closed"
      }
    ],
    "peopleAlsoSearch": [],
    "placesTags": [],
    "reviewsTags": [],
    "additionalInfo": {
      "From the business": [
        {
          "Small business": true
        }
      ],
      "Service options": [
        {
          "Curbside pickup": true
        },
        {
          "Delivery": true
        },
        {
          "In-store pickup": true
        },
        {
          "In-store shopping": true
        },
        {
          "Same-day delivery": true
        }
      ],
      "Accessibility": [
        {
          "Wheelchair accessible entrance": true
        },
        {
          "Wheelchair accessible parking lot": true
        }
      ],
      "Planning": [
        {
          "Quick visit": true
        }
      ],
      "Payments": [
        {
          "Checks": true
        },
        {
          "Credit cards": true
        },
        {
          "Debit cards": true
        },
        {
          "NFC mobile payments": true
        },
        {
          "Credit cards": true
        }
      ]
    },
    "gasPrices": [],
    "url": "https://www.google.com/maps/search/?api=1&query=Hot%20Springs%20Pharmacy&query_place_id=ChIJeXMYeCqvTFMRPf2Wp1JnIzU",
    "searchPageUrl": "https://www.google.com/maps/search/independent%20pharmacy%20in%20Rock%20Springs,%20WY/@42.54640259466427,-105.48342742835163,8z?hl=en",
    "searchString": "independent pharmacy in Rock Springs, WY",
    "language": "en",
    "rank": 2,
    "isAdvertisement": false,
    "imageUrl": "https://lh3.googleusercontent.com/p/AF1QipPFHpwFBBhRQooPLqaoFfWNi3Dt8Bg3zv93mL8J=w408-h544-k-no",
    "kgmid": "/g/1tfn2dgp"
  }
]