[
  {
    "title": "CVS Pharmacy",
    "price": null,
    "categoryName": "Pharmacy",
    "address": "300 Fairmont Ave, Fairmont, WV 26554",
    "neighborhood": null,
    "street": "300 Fairmont Ave",
    "city": "Fairmont",
    "postalCode": "26554",
    "state": "West Virginia",
    "countryCode": "US",
    "website": "https://www.cvs.com/store-locator/fairmont-wv-pharmacies/300-fairmont-ave-fairmont-wv-26554/storeid=3475?WT.mc_id=LS_GOOGLE_RX_3475",
    "phone": "(304) 366-6182",
    "phoneUnformatted": "+13043666182",
    "claimThisBusiness": false,
    "location": {
      "lat": 39.4804128,
      "lng": -80.1480475
    },
    "totalScore": 3.5,
    "permanentlyClosed": false,
    "temporarilyClosed": false,
    "placeId": "ChIJNVBiBCp8SogRb60azZ8nIQk",
    "categories": [
      "Pharmacy"
    ],
    "fid": "0x884a7c2a04625035:0x921279fcd1aad6f",
    "cid": "657850587867164015",
    "reviewsCount": 26,
    "imagesCount": 10,
    "imageCategories": [],
    "scrapedAt": "2025-06-23T06:13:20.481Z",
    "googleFoodUrl": null,
    "hotelAds": [],
    "openingHours": [
      {
        "day": "Monday",
        "hours": "9 AM to 1:30 PM, 2 to 8 PM"
      },
      {
        "day": "Tuesday",
        "hours": "9 AM to 1:30 PM, 2 to 8 PM"
      },
      {
        "day": "Wednesday",
        "hours": "9 AM to 1:30 PM, 2 to 8 PM"
      },
      {
        "day": "Thursday",
        "hours": "9 AM to 1:30 PM, 2 to 8 PM"
      },
      {
        "day": "Friday",
        "hours": "9 AM to 1:30 PM, 2 to 8 PM"
      },
      {
        "day": "Saturday",
        "hours": "9 AM to 1:30 PM, 2 to 8 PM"
      },
      {
        "day": "Sunday",
        "hours": "10 AM to 1:30 PM, 2 to 6 PM"
      }
    ],
    "peopleAlsoSearch": [],
    "placesTags": [],
    "reviewsTags": [],
    "additionalInfo": {
      "Service options": [
        {
          "Delivery": true
        },
        {
          "Drive-through": true
        },
        {
          "In-store pickup": true
        },
        {
          "In-store shopping": true
        },
        {
          "Onsite services": true
        }
      ],
      "Accessibility": [
        {
          "Wheelchair accessible entrance": true
        },
        {
          "Wheelchair accessible parking lot": true
        }
      ],
      "Offerings": [
        {
          "Medication disposal": true
        },
        {
          "Naloxone": true
        }
      ],
      "Crowd": [
        {
          "LGBTQ+ friendly": true
        },
        {
          "Transgender safespace": true
        }
      ],
      "Planning": [
        {
          "Quick visit": true
        }
      ],
      "Payments": [
        {
          "Credit cards": true
        },
        {
          "Debit cards": true
        },
        {
          "NFC mobile payments": true
        },
        {
          "SNAP/EBT": true
        },
        {
          "Credit cards": true
        }
      ]
    },
    "gasPrices": [],
    "url": "https://www.google.com/maps/search/?api=1&query=CVS%20Pharmacy&query_place_id=ChIJNVBiBCp8SogRb60azZ8nIQk",
    "searchPageUrl": "https://www.google.com/maps/search/pharmacies%20in%20Fairmont,%20WV%20in%20Fairmont,%20WV/@24.93671431736524,-167.93092070098794,13z?hl=en",
    "searchString": "pharmacies in Fairmont, WV in Fairmont, WV",
    "language": "en",
    "rank": 1,
    "isAdvertisement": false,
    "imageUrl": "https://lh3.googleusercontent.com/p/AF1QipPZ8ErIsjUYxJbwkXAHbpmpJAGdQ5KdIbIN7jxt=w408-h275-k-no",
    "kgmid": "/g/11c4694h__"
  },
  {
    "title": "Walgreens Pharmacy",
    "description": "Department of the Walgreens chain providing prescription medications & other health-related items.",
    "price": null,
    "categoryName": "Pharmacy",
    "address": "627 Fairmont Ave, Fairmont, WV 26554",
    "neighborhood": null,
    "street": "627 Fairmont Ave",
    "city": "Fairmont",
    "postalCode": "26554",
    "state": "West Virginia",
    "countryCode": "US",
    "website": "https://www.walgreens.com/locator/walgreens-627+fairmont+ave-fairmont-wv-26554/id=19258",
    "phone": "(304) 366-4526",
    "phoneUnformatted": "+13043664526",
    "claimThisBusiness": false,
    "location": {
      "lat": 39.4772485,
      "lng": -80.1511538
    },
    "totalScore": 3.8,
    "permanentlyClosed": false,
    "temporarilyClosed": false,
    "placeId": "ChIJJWxdjiN9SogRLQA1704ToxA",
    "categories": [
      "Pharmacy"
    ],
    "fid": "0x884a7d238e5d6c25:0x10a3134eef35002d",
    "cid": "1198823155552288813",
    "reviewsCount": 64,
    "imagesCount": 29,
    "imageCategories": [],
    "scrapedAt": "2025-06-23T06:13:20.483Z",
    "googleFoodUrl": null,
    "hotelAds": [],
    "openingHours": [
      {
        "day": "Monday",
        "hours": "9 AM to 8 PM"
      },
      {
        "day": "Tuesday",
        "hours": "9 AM to 8 PM"
      },
      {
        "day": "Wednesday",
        "hours": "9 AM to 8 PM"
      },
      {
        "day": "Thursday",
        "hours": "9 AM to 8 PM"
      },
      {
        "day": "Friday",
        "hours": "9 AM to 8 PM"
      },
      {
        "day": "Saturday",
        "hours": "9 AM to 6 PM"
      },
      {
        "day": "Sunday",
        "hours": "10 AM to 1:30 PM, 2 to 6 PM"
      }
    ],
    "additionalOpeningHours": {
      "Drive through": [
        {
          "day": "Monday",
          "hours": "9 AM–1:30 PM"
        },
        {
          "day": "Tuesday",
          "hours": "9 AM–1:30 PM"
        },
        {
          "day": "Wednesday",
          "hours": "9 AM–1:30 PM"
        },
        {
          "day": "Thursday",
          "hours": "9 AM–1:30 PM"
        },
        {
          "day": "Friday",
          "hours": "9 AM–1:30 PM"
        },
        {
          "day": "Saturday",
          "hours": "9 AM–1:30 PM"
        },
        {
          "day": "Sunday",
          "hours": "10 AM–1:30 PM"
        }
      ]
    },
    "peopleAlsoSearch": [],
    "placesTags": [],
    "reviewsTags": [],
    "additionalInfo": {
      "Service options": [
        {
          "Curbside pickup": true
        },
        {
          "Drive-through": true
        },
        {
          "In-store pickup": true
        },
        {
          "Onsite services": true
        }
      ],
      "Accessibility": [
        {
          "Wheelchair accessible entrance": true
        },
        {
          "Wheelchair accessible parking lot": true
        }
      ],
      "Planning": [
        {
          "Quick visit": true
        }
      ],
      "Payments": [
        {
          "Credit cards": true
        }
      ]
    },
    "gasPrices": [],
    "url": "https://www.google.com/maps/search/?api=1&query=Walgreens%20Pharmacy&query_place_id=ChIJJWxdjiN9SogRLQA1704ToxA",
    "searchPageUrl": "https://www.google.com/maps/search/pharmacies%20in%20Fairmont,%20WV%20in%20Fairmont,%20WV/@24.93671431736524,-167.93092070098794,13z?hl=en",
    "searchString": "pharmacies in Fairmont, WV in Fairmont, WV",
    "language": "en",
    "rank": 2,
    "isAdvertisement": false,
    "imageUrl": "https://lh3.googleusercontent.com/gps-cs-s/AC9h4nrWGo4sSumDdUWJ3gXecwZftApY9Q7kgEwr6AtTh2_6G-EBG2kCt95EuLAlT-RUR4EvlW87xnypNT_DO3jnTB6nGZBIMqsvDqjGWDpxm7ibalsJ8jlC8uXMbUfjqIE_rTE1vCV_rSvJiEPL=w408-h306-k-no",
    "kgmid": "/g/11j7x_nf_j"
  },
  {
    "title": "CVS Pharmacy",
    "price": null,
    "categoryName": "Pharmacy",
    "address": "401 Marion Square, Fairmont, WV 26554",
    "neighborhood": null,
    "street": "401 Marion Square",
    "city": "Fairmont",
    "postalCode": "26554",
    "state": "West Virginia",
    "countryCode": "US",
    "website": "https://www.cvs.com/store-locator/fairmont-wv-pharmacies/401-marion-square-fairmont-wv-26554/storeid=4021?WT.mc_id=LS_GOOGLE_RX_4021",
    "phone": "(304) 367-1300",
    "phoneUnformatted": "+13043671300",
    "claimThisBusiness": false,
    "location": {
      "lat": 39.4748386,
      "lng": -80.1776545
    },
    "totalScore": 3.9,
    "permanentlyClosed": false,
    "temporarilyClosed": false,
    "placeId": "ChIJtSFrPQV8SogRG60pvxFYiBQ",
    "categories": [
      "Pharmacy"
    ],
    "fid": "0x884a7c053d6b21b5:0x14885811bf29ad1b",
    "cid": "1479529310836075803",
    "reviewsCount": 7,
    "imagesCount": 9,
    "imageCategories": [],
    "scrapedAt": "2025-06-23T06:13:20.483Z",
    "googleFoodUrl": null,
    "hotelAds": [],
    "openingHours": [
      {
        "day": "Monday",
        "hours": "9 AM to 1:30 PM, 2 to 8 PM"
      },
      {
        "day": "Tuesday",
        "hours": "9 AM to 1:30 PM, 2 to 8 PM"
      },
      {
        "day": "Wednesday",
        "hours": "9 AM to 1:30 PM, 2 to 8 PM"
      },
      {
        "day": "Thursday",
        "hours": "9 AM to 1:30 PM, 2 to 8 PM"
      },
      {
        "day": "Friday",
        "hours": "9 AM to 1:30 PM, 2 to 8 PM"
      },
      {
        "day": "Saturday",
        "hours": "10 AM to 1:30 PM, 2 to 6 PM"
      },
      {
        "day": "Sunday",
        "hours": "10 AM to 1:30 PM, 2 to 6 PM"
      }
    ],
    "peopleAlsoSearch": [],
    "placesTags": [],
    "reviewsTags": [],
    "additionalInfo": {
      "Service options": [
        {
          "Delivery": true
        },
        {
          "Drive-through": true
        },
        {
          "In-store shopping": true
        }
      ],
      "Accessibility": [
        {
          "Wheelchair accessible entrance": true
        },
        {
          "Wheelchair accessible parking lot": true
        }
      ],
      "Offerings": [
        {
          "Naloxone": true
        }
      ],
      "Crowd": [
        {
          "LGBTQ+ friendly": true
        },
        {
          "Transgender safespace": true
        }
      ],
      "Planning": [
        {
          "Quick visit": true
        }
      ],
      "Payments": [
        {
          "Credit cards": true
        },
        {
          "Debit cards": true
        },
        {
          "NFC mobile payments": true
        },
        {
          "SNAP/EBT": true
        },
        {
          "Credit cards": true
        }
      ]
    },
    "gasPrices": [],
    "url": "https://www.google.com/maps/search/?api=1&query=CVS%20Pharmacy&query_place_id=ChIJtSFrPQV8SogRG60pvxFYiBQ",
    "searchPageUrl": "https://www.google.com/maps/search/pharmacies%20in%20Fairmont,%20WV%20in%20Fairmont,%20WV/@24.93671431736524,-167.93092070098794,13z?hl=en",
    "searchString": "pharmacies in Fairmont, WV in Fairmont, WV",
    "language": "en",
    "rank": 3,
    "isAdvertisement": false,
    "imageUrl": "https://lh3.googleusercontent.com/p/AF1QipOQX5yO9waJYwup6GICNg8qhjDDYkVD_vWySyWC=w408-h272-k-no",
    "kgmid": "/g/11c467_rwg"
  },
  {
    "title": "MVA Fairmont Clinic Pharmacy",
    "price": null,
    "categoryName": "Pharmacy",
    "address": "1322 Locust Ave, Fairmont, WV 26554",
    "neighborhood": null,
    "street": "1322 Locust Ave",
    "city": "Fairmont",
    "postalCode": "26554",
    "state": "West Virginia",
    "countryCode": "US",
    "website": "http://mvahealth.org/",
    "phone": "(304) 367-8750",
    "phoneUnformatted": "+13043678750",
    "claimThisBusiness": true,
    "location": {
      "lat": 39.4805351,
      "lng": -80.1641307
    },
    "totalScore": 5,
    "permanentlyClosed": false,
    "temporarilyClosed": false,
    "placeId": "ChIJmVHsOyB8SogRdv-zb9MvD9Y",
    "categories": [
      "Pharmacy"
    ],
    "fid": "0x884a7c203bec5199:0xd60f2fd36fb3ff76",
    "cid": "15424599833925910390",
    "reviewsCount": 1,
    "imagesCount": 1,
    "imageCategories": [],
    "scrapedAt": "2025-06-23T06:13:20.483Z",
    "googleFoodUrl": null,
    "hotelAds": [],
    "openingHours": [
      {
        "day": "Monday",
        "hours": "8 AM to 5:30 PM"
      },
      {
        "day": "Tuesday",
        "hours": "8 AM to 5:30 PM"
      },
      {
        "day": "Wednesday",
        "hours": "8 AM to 5:30 PM"
      },
      {
        "day": "Thursday",
        "hours": "8 AM to 5:30 PM"
      },
      {
        "day": "Friday",
        "hours": "8 AM to 5:30 PM"
      },
      {
        "day": "Saturday",
        "hours": "Closed"
      },
      {
        "day": "Sunday",
        "hours": "Closed"
      }
    ],
    "peopleAlsoSearch": [],
    "placesTags": [],
    "reviewsTags": [],
    "additionalInfo": {
      "Accessibility": [
        {
          "Wheelchair accessible entrance": true
        },
        {
          "Wheelchair accessible parking lot": true
        }
      ]
    },
    "gasPrices": [],
    "url": "https://www.google.com/maps/search/?api=1&query=MVA%20Fairmont%20Clinic%20Pharmacy&query_place_id=ChIJmVHsOyB8SogRdv-zb9MvD9Y",
    "searchPageUrl": "https://www.google.com/maps/search/pharmacies%20in%20Fairmont,%20WV%20in%20Fairmont,%20WV/@24.93671431736524,-167.93092070098794,13z?hl=en",
    "searchString": "pharmacies in Fairmont, WV in Fairmont, WV",
    "language": "en",
    "rank": 4,
    "isAdvertisement": false,
    "imageUrl": "https://streetviewpixels-pa.googleapis.com/v1/thumbnail?panoid=nIJvEFtYmTVBZrNBMPojXQ&cb_client=search.gws-prod.gps&w=408&h=240&yaw=145.57973&pitch=0&thumbfov=100",
    "kgmid": "/g/1tfczhqv"
  },
  {
    "title": "CVS",
    "description": "Drugstore chain selling a variety of beauty & health products, plus some grocery & household items.",
    "price": null,
    "categoryName": "Drug store",
    "address": "300 Fairmont Ave, Fairmont, WV 26554",
    "neighborhood": null,
    "street": "300 Fairmont Ave",
    "city": "Fairmont",
    "postalCode": "26554",
    "state": "West Virginia",
    "countryCode": "US",
    "website": "https://www.cvs.com/store-locator/fairmont-wv-pharmacies/300-fairmont-ave-fairmont-wv-26554/storeid=3475?WT.mc_id=LS_GOOGLE_FS_3475",
    "phone": "(304) 366-6182",
    "phoneUnformatted": "+13043666182",
    "claimThisBusiness": false,
    "location": {
      "lat": 39.4804712,
      "lng": -80.1478301
    },
    "locatedIn": "CVS Pharmacy",
    "totalScore": 3,
    "permanentlyClosed": false,
    "temporarilyClosed": false,
    "placeId": "ChIJy01VvDp8SogRP7MLqnhb9jI",
    "categories": [
      "Drug store",
      "Beauty supply store",
      "Beer store",
      "Convenience store",
      "Cosmetics store",
      "Greeting card shop",
      "Perfume store",
      "Stationery store",
      "Vitamin & supplements store",
      "Wine store"
    ],
    "fid": "0x884a7c3abc554dcb:0x32f65b78aa0bb33f",
    "cid": "3672223119974314815",
    "reviewsCount": 67,
    "imagesCount": 19,
    "imageCategories": [],
    "scrapedAt": "2025-06-23T06:13:20.483Z",
    "googleFoodUrl": null,
    "hotelAds": [],
    "openingHours": [
      {
        "day": "Monday",
        "hours": "8 AM to 10 PM"
      },
      {
        "day": "Tuesday",
        "hours": "8 AM to 10 PM"
      },
      {
        "day": "Wednesday",
        "hours": "8 AM to 10 PM"
      },
      {
        "day": "Thursday",
        "hours": "8 AM to 10 PM"
      },
      {
        "day": "Friday",
        "hours": "8 AM to 10 PM"
      },
      {
        "day": "Saturday",
        "hours": "8 AM to 10 PM"
      },
      {
        "day": "Sunday",
        "hours": "8 AM to 10 PM"
      }
    ],
    "additionalOpeningHours": {
      "CVS Pharmacy": [
        {
          "day": "Monday",
          "hours": "9 AM–1:30 PM"
        },
        {
          "day": "Tuesday",
          "hours": "9 AM–1:30 PM"
        },
        {
          "day": "Wednesday",
          "hours": "9 AM–1:30 PM"
        },
        {
          "day": "Thursday",
          "hours": "9 AM–1:30 PM"
        },
        {
          "day": "Friday",
          "hours": "9 AM–1:30 PM"
        },
        {
          "day": "Saturday",
          "hours": "9 AM–1:30 PM"
        },
        {
          "day": "Sunday",
          "hours": "10 AM–1:30 PM"
        }
      ],
      "CVS Photo": [
        {
          "day": "Monday",
          "hours": "8 AM–10 PM"
        },
        {
          "day": "Tuesday",
          "hours": "8 AM–10 PM"
        },
        {
          "day": "Wednesday",
          "hours": "8 AM–10 PM"
        },
        {
          "day": "Thursday",
          "hours": "8 AM–10 PM"
        },
        {
          "day": "Friday",
          "hours": "8 AM–10 PM"
        },
        {
          "day": "Saturday",
          "hours": "8 AM–10 PM"
        },
        {
          "day": "Sunday",
          "hours": "8 AM–10 PM"
        }
      ]
    },
    "peopleAlsoSearch": [],
    "placesTags": [],
    "reviewsTags": [],
    "additionalInfo": {
      "Service options": [
        {
          "Delivery": true
        },
        {
          "Drive-through": true
        },
        {
          "In-store pickup": true
        },
        {
          "In-store shopping": true
        },
        {
          "Same-day delivery": false
        }
      ],
      "Accessibility": [
        {
          "Wheelchair accessible entrance": true
        },
        {
          "Wheelchair accessible parking lot": true
        }
      ],
      "Offerings": [
        {
          "Passport photos": true
        }
      ],
      "Crowd": [
        {
          "LGBTQ+ friendly": true
        },
        {
          "Transgender safespace": true
        }
      ],
      "Planning": [
        {
          "Quick visit": true
        }
      ],
      "Payments": [
        {
          "Credit cards": true
        },
        {
          "Debit cards": true
        },
        {
          "Credit cards": true
        }
      ]
    },
    "gasPrices": [],
    "url": "https://www.google.com/maps/search/?api=1&query=CVS&query_place_id=ChIJy01VvDp8SogRP7MLqnhb9jI",
    "searchPageUrl": "https://www.google.com/maps/search/pharmacies%20in%20Fairmont,%20WV%20in%20Fairmont,%20WV/@24.93671431736524,-167.93092070098794,13z?hl=en",
    "searchString": "pharmacies in Fairmont, WV in Fairmont, WV",
    "language": "en",
    "rank": 5,
    "isAdvertisement": false,
    "imageUrl": "https://lh3.googleusercontent.com/gps-cs-s/AC9h4nolpkvJ7VuvkIj8w2QZg_2QToOYfqfuE3hFGAp-BMNu1zZbWc2SrzO55f-pv1NBqnDcmnpMToSkKatCUM0DFe5yN9xZUU2Q13xtuAyP9PvH7qooDQOn0auCfKvgzyB1C-4Oouo0=w408-h306-k-no",
    "kgmid": "/g/1tddswx8"
  },
  {
    "title": "Walmart Pharmacy",
    "price": "$",
    "categoryName": "Pharmacy",
    "address": "32 Tygart Valley Mall, Fairmont, WV 26554",
    "neighborhood": null,
    "street": "32 Tygart Valley Mall",
    "city": "Fairmont",
    "postalCode": "26554",
    "state": "West Virginia",
    "countryCode": "US",
    "website": "https://www.walmart.com/store/1714-fairmont-wv/pharmacy/?veh=seo_loc",
    "phone": "(304) 366-9115",
    "phoneUnformatted": "+13043669115",
    "claimThisBusiness": false,
    "location": {
      "lat": 39.4237783,
      "lng": -80.1886474
    },
    "totalScore": 3.4,
    "permanentlyClosed": false,
    "temporarilyClosed": false,
    "placeId": "ChIJY8jYr2B7SogRAIKQfUSDOKQ",
    "categories": [
      "Pharmacy",
      "Herbal medicine store",
      "Medical supply store",
      "Parapharmacy",
      "Vitamin & supplements store"
    ],
    "fid": "0x884a7b60afd8c863:0xa43883447d908200",
    "cid": "11833352351103615488",
    "reviewsCount": 24,
    "imagesCount": 5,
    "imageCategories": [],
    "scrapedAt": "2025-06-23T06:13:20.484Z",
    "googleFoodUrl": null,
    "hotelAds": [],
    "openingHours": [
      {
        "day": "Monday",
        "hours": "9 AM to 7 PM"
      },
      {
        "day": "Tuesday",
        "hours": "9 AM to 7 PM"
      },
      {
        "day": "Wednesday",
        "hours": "9 AM to 7 PM"
      },
      {
        "day": "Thursday",
        "hours": "9 AM to 7 PM"
      },
      {
        "day": "Friday",
        "hours": "9 AM to 7 PM"
      },
      {
        "day": "Saturday",
        "hours": "9 AM to 7 PM"
      },
      {
        "day": "Sunday",
        "hours": "10 AM to 6 PM"
      }
    ],
    "peopleAlsoSearch": [],
    "placesTags": [],
    "reviewsTags": [],
    "additionalInfo": {
      "Service options": [
        {
          "Curbside pickup": true
        },
        {
          "In-store pickup": true
        },
        {
          "In-store shopping": true
        }
      ],
      "Accessibility": [
        {
          "Wheelchair accessible entrance": true
        },
        {
          "Wheelchair accessible parking lot": true
        },
        {
          "Wheelchair accessible restroom": true
        }
      ],
      "Offerings": [
        {
          "Passport photos": true
        }
      ],
      "Amenities": [
        {
          "Wi-Fi": true
        },
        {
          "Free Wi-Fi": true
        }
      ],
      "Planning": [
        {
          "Quick visit": true
        }
      ],
      "Payments": [
        {
          "Credit cards": true
        },
        {
          "Debit cards": true
        },
        {
          "Credit cards": true
        }
      ]
    },
    "gasPrices": [],
    "url": "https://www.google.com/maps/search/?api=1&query=Walmart%20Pharmacy&query_place_id=ChIJY8jYr2B7SogRAIKQfUSDOKQ",
    "searchPageUrl": "https://www.google.com/maps/search/pharmacies%20in%20Fairmont,%20WV%20in%20Fairmont,%20WV/@24.93671431736524,-167.93092070098794,13z?hl=en",
    "searchString": "pharmacies in Fairmont, WV in Fairmont, WV",
    "language": "en",
    "rank": 6,
    "isAdvertisement": false,
    "imageUrl": "https://lh3.googleusercontent.com/p/AF1QipN1W-ID_g_pV7-Y3LSYEwT0Fr0mVhOfc2tmOXpi=w408-h306-k-no",
    "kgmid": "/g/1hf08k0s0"
  },
  {
    "title": "Walgreens",
    "description": "Drugstore chain with health & beauty aids, prescriptions & photo services, plus mini-mart basics.",
    "price": null,
    "categoryName": "Drug store",
    "address": "627 Fairmont Ave, Fairmont, WV 26554",
    "neighborhood": null,
    "street": "627 Fairmont Ave",
    "city": "Fairmont",
    "postalCode": "26554",
    "state": "West Virginia",
    "countryCode": "US",
    "phone": "(304) 366-4526",
    "phoneUnformatted": "+13043664526",
    "claimThisBusiness": false,
    "location": {
      "lat": 39.477129,
      "lng": -80.150992
    },
    "locatedIn": "Walgreens Pharmacy",
    "totalScore": 4,
    "permanentlyClosed": false,
    "temporarilyClosed": false,
    "placeId": "ChIJ__-_Hyl8SogRlLa_hb37cXs",
    "categories": [
      "Drug store",
      "Beauty supply store",
      "Convenience store",
      "Cosmetics store",
      "Greeting card shop",
      "Perfume store",
      "Stationery store"
    ],
    "fid": "0x884a7c291fbfffff:0x7b71fbbd85bfb694",
    "cid": "8895167530444764820",
    "reviewsCount": 9,
    "imagesCount": 1,
    "imageCategories": [],
    "scrapedAt": "2025-06-23T06:13:20.484Z",
    "googleFoodUrl": null,
    "hotelAds": [],
    "openingHours": [
      {
        "day": "Monday",
        "hours": "9 AM to 9 PM"
      },
      {
        "day": "Tuesday",
        "hours": "9 AM to 9 PM"
      },
      {
        "day": "Wednesday",
        "hours": "9 AM to 9 PM"
      },
      {
        "day": "Thursday",
        "hours": "9 AM to 9 PM"
      },
      {
        "day": "Friday",
        "hours": "9 AM to 9 PM"
      },
      {
        "day": "Saturday",
        "hours": "9 AM to 9 PM"
      },
      {
        "day": "Sunday",
        "hours": "9 AM to 9 PM"
      }
    ],
    "additionalOpeningHours": {
      "Walgreens Pharmacy": [
        {
          "day": "Monday",
          "hours": "9 AM–8 PM"
        },
        {
          "day": "Tuesday",
          "hours": "9 AM–8 PM"
        },
        {
          "day": "Wednesday",
          "hours": "9 AM–8 PM"
        },
        {
          "day": "Thursday",
          "hours": "9 AM–8 PM"
        },
        {
          "day": "Friday",
          "hours": "9 AM–8 PM"
        },
        {
          "day": "Saturday",
          "hours": "9 AM–6 PM"
        },
        {
          "day": "Sunday",
          "hours": "10 AM–1:30 PM"
        }
      ],
      "Walgreens Photo": [
        {
          "day": "Monday",
          "hours": "9 AM–9 PM"
        },
        {
          "day": "Tuesday",
          "hours": "9 AM–9 PM"
        },
        {
          "day": "Wednesday",
          "hours": "9 AM–9 PM"
        },
        {
          "day": "Thursday",
          "hours": "9 AM–9 PM"
        },
        {
          "day": "Friday",
          "hours": "9 AM–9 PM"
        },
        {
          "day": "Saturday",
          "hours": "9 AM–9 PM"
        },
        {
          "day": "Sunday",
          "hours": "9 AM–9 PM"
        }
      ],
      "Pickup": [
        {
          "day": "Monday",
          "hours": "9 AM–9 PM"
        },
        {
          "day": "Tuesday",
          "hours": "9 AM–9 PM"
        },
        {
          "day": "Wednesday",
          "hours": "9 AM–9 PM"
        },
        {
          "day": "Thursday",
          "hours": "9 AM–9 PM"
        },
        {
          "day": "Friday",
          "hours": "9 AM–9 PM"
        },
        {
          "day": "Saturday",
          "hours": "9 AM–9 PM"
        },
        {
          "day": "Sunday",
          "hours": "9 AM–9 PM"
        }
      ]
    },
    "peopleAlsoSearch": [],
    "placesTags": [],
    "reviewsTags": [],
    "additionalInfo": {
      "Service options": [
        {
          "Curbside pickup": true
        },
        {
          "Delivery": true
        },
        {
          "Drive-through": true
        },
        {
          "In-store pickup": true
        }
      ],
      "Accessibility": [
        {
          "Wheelchair accessible entrance": true
        },
        {
          "Wheelchair accessible parking lot": true
        }
      ],
      "Planning": [
        {
          "Quick visit": true
        }
      ],
      "Payments": [
        {
          "Credit cards": true
        }
      ]
    },
    "gasPrices": [],
    "url": "https://www.google.com/maps/search/?api=1&query=Walgreens&query_place_id=ChIJ__-_Hyl8SogRlLa_hb37cXs",
    "searchPageUrl": "https://www.google.com/maps/search/pharmacies%20in%20Fairmont,%20WV%20in%20Fairmont,%20WV/@24.93671431736524,-167.93092070098794,13z?hl=en",
    "searchString": "pharmacies in Fairmont, WV in Fairmont, WV",
    "language": "en",
    "rank": 7,
    "isAdvertisement": false,
    "imageUrl": "https://streetviewpixels-pa.googleapis.com/v1/thumbnail?panoid=yOJabv0ITAjzpzntOxnyng&cb_client=search.gws-prod.gps&w=408&h=240&yaw=19.489067&pitch=0&thumbfov=100",
    "kgmid": "/g/11vwjylk4j"
  },
  {
    "title": "American Pharmacy",
    "price": null,
    "categoryName": "Pharmacy",
    "address": "9789 Mall Loop, Fairmont, WV 26554",
    "neighborhood": null,
    "street": "9789 Mall Loop",
    "city": "Fairmont",
    "postalCode": "26554",
    "state": "West Virginia",
    "countryCode": "US",
    "phone": "(304) 368-9123",
    "phoneUnformatted": "+13043689123",
    "claimThisBusiness": true,
    "location": {
      "lat": 39.4280216,
      "lng": -80.1861571
    },
    "totalScore": 3,
    "permanentlyClosed": false,
    "temporarilyClosed": false,
    "placeId": "ChIJaZJmlp18SogRJF35sF86mpY",
    "categories": [
      "Pharmacy"
    ],
    "fid": "0x884a7c9d96669269:0x969a3a5fb0f95d24",
    "cid": "10852050434768067876",
    "reviewsCount": 2,
    "imagesCount": 1,
    "imageCategories": [],
    "scrapedAt": "2025-06-23T06:13:20.484Z",
    "googleFoodUrl": null,
    "hotelAds": [],
    "openingHours": [
      {
        "day": "Monday",
        "hours": "9 AM to 6 PM"
      },
      {
        "day": "Tuesday",
        "hours": "9 AM to 6 PM"
      },
      {
        "day": "Wednesday",
        "hours": "9 AM to 6 PM"
      },
      {
        "day": "Thursday",
        "hours": "9 AM to 6 PM"
      },
      {
        "day": "Friday",
        "hours": "9 AM to 6 PM"
      },
      {
        "day": "Saturday",
        "hours": "10 AM to 12:30 PM"
      },
      {
        "day": "Sunday",
        "hours": "Closed"
      }
    ],
    "peopleAlsoSearch": [],
    "placesTags": [],
    "reviewsTags": [],
    "additionalInfo": {
      "Accessibility": [
        {
          "Wheelchair accessible entrance": true
        },
        {
          "Wheelchair accessible parking lot": true
        }
      ]
    },
    "gasPrices": [],
    "url": "https://www.google.com/maps/search/?api=1&query=American%20Pharmacy&query_place_id=ChIJaZJmlp18SogRJF35sF86mpY",
    "searchPageUrl": "https://www.google.com/maps/search/pharmacies%20in%20Fairmont,%20WV%20in%20Fairmont,%20WV/@24.93671431736524,-167.93092070098794,13z?hl=en",
    "searchString": "pharmacies in Fairmont, WV in Fairmont, WV",
    "language": "en",
    "rank": 8,
    "isAdvertisement": false,
    "imageUrl": "https://streetviewpixels-pa.googleapis.com/v1/thumbnail?panoid=ihmdZ2km5mGfNO8B08xvSw&cb_client=search.gws-prod.gps&w=408&h=240&yaw=120.08738&pitch=0&thumbfov=100",
    "kgmid": "/g/1tdd1cqg"
  },
  {
    "title": "CVS",
    "description": "Drugstore chain selling a variety of beauty & health products, plus some grocery & household items.",
    "price": null,
    "categoryName": "Drug store",
    "address": "401 Marion Square, Fairmont, WV 26554",
    "neighborhood": null,
    "street": "401 Marion Square",
    "city": "Fairmont",
    "postalCode": "26554",
    "state": "West Virginia",
    "countryCode": "US",
    "website": "https://www.cvs.com/store-locator/fairmont-wv-pharmacies/401-marion-square-fairmont-wv-26554/storeid=4021?WT.mc_id=LS_GOOGLE_FS_4021",
    "phone": "(304) 367-1300",
    "phoneUnformatted": "+13043671300",
    "claimThisBusiness": false,
    "location": {
      "lat": 39.4747819,
      "lng": -80.1776906
    },
    "locatedIn": "CVS Pharmacy",
    "totalScore": 3.3,
    "permanentlyClosed": false,
    "temporarilyClosed": false,
    "placeId": "ChIJ8UoVPQV8SogRvNpGq-N94_I",
    "categories": [
      "Drug store",
      "Beauty supply store",
      "Beer store",
      "Convenience store",
      "Cosmetics store",
      "Greeting card shop",
      "Perfume store",
      "Stationery store",
      "Vitamin & supplements store",
      "Wine store"
    ],
    "fid": "0x884a7c053d154af1:0xf2e37de3ab46dabc",
    "cid": "17501970993676475068",
    "reviewsCount": 24,
    "imagesCount": 12,
    "imageCategories": [],
    "scrapedAt": "2025-06-23T06:13:20.484Z",
    "googleFoodUrl": null,
    "hotelAds": [],
    "openingHours": [
      {
        "day": "Monday",
        "hours": "9 AM to 8 PM"
      },
      {
        "day": "Tuesday",
        "hours": "9 AM to 8 PM"
      },
      {
        "day": "Wednesday",
        "hours": "9 AM to 8 PM"
      },
      {
        "day": "Thursday",
        "hours": "9 AM to 8 PM"
      },
      {
        "day": "Friday",
        "hours": "9 AM to 8 PM"
      },
      {
        "day": "Saturday",
        "hours": "10 AM to 6 PM"
      },
      {
        "day": "Sunday",
        "hours": "10 AM to 6 PM"
      }
    ],
    "additionalOpeningHours": {
      "CVS Pharmacy": [
        {
          "day": "Monday",
          "hours": "9 AM–1:30 PM"
        },
        {
          "day": "Tuesday",
          "hours": "9 AM–1:30 PM"
        },
        {
          "day": "Wednesday",
          "hours": "9 AM–1:30 PM"
        },
        {
          "day": "Thursday",
          "hours": "9 AM–1:30 PM"
        },
        {
          "day": "Friday",
          "hours": "9 AM–1:30 PM"
        },
        {
          "day": "Saturday",
          "hours": "10 AM–1:30 PM"
        },
        {
          "day": "Sunday",
          "hours": "10 AM–1:30 PM"
        }
      ],
      "CVS Photo": [
        {
          "day": "Monday",
          "hours": "9 AM–8 PM"
        },
        {
          "day": "Tuesday",
          "hours": "9 AM–8 PM"
        },
        {
          "day": "Wednesday",
          "hours": "9 AM–8 PM"
        },
        {
          "day": "Thursday",
          "hours": "9 AM–8 PM"
        },
        {
          "day": "Friday",
          "hours": "9 AM–8 PM"
        },
        {
          "day": "Saturday",
          "hours": "10 AM–6 PM"
        },
        {
          "day": "Sunday",
          "hours": "10 AM–6 PM"
        }
      ],
      "LibertyX Bitcoin ATM": [
        {
          "day": "Monday",
          "hours": "8 AM–10 PM"
        },
        {
          "day": "Tuesday",
          "hours": "8 AM–10 PM"
        },
        {
          "day": "Wednesday",
          "hours": "8 AM–10 PM"
        },
        {
          "day": "Thursday",
          "hours": "8 AM–10 PM"
        },
        {
          "day": "Friday",
          "hours": "8 AM–10 PM"
        },
        {
          "day": "Saturday",
          "hours": "8 AM–10 PM"
        },
        {
          "day": "Sunday",
          "hours": "8 AM–10 PM"
        }
      ]
    },
    "peopleAlsoSearch": [],
    "placesTags": [],
    "reviewsTags": [],
    "additionalInfo": {
      "Service options": [
        {
          "Delivery": true
        },
        {
          "Drive-through": true
        },
        {
          "In-store pickup": true
        },
        {
          "In-store shopping": true
        },
        {
          "Same-day delivery": false
        }
      ],
      "Accessibility": [
        {
          "Wheelchair accessible entrance": true
        },
        {
          "Wheelchair accessible parking lot": true
        }
      ],
      "Offerings": [
        {
          "Passport photos": true
        }
      ],
      "Crowd": [
        {
          "LGBTQ+ friendly": true
        },
        {
          "Transgender safespace": true
        }
      ],
      "Planning": [
        {
          "Quick visit": true
        }
      ],
      "Payments": [
        {
          "Credit cards": true
        },
        {
          "Debit cards": true
        },
        {
          "Credit cards": true
        }
      ]
    },
    "gasPrices": [],
    "url": "https://www.google.com/maps/search/?api=1&query=CVS&query_place_id=ChIJ8UoVPQV8SogRvNpGq-N94_I",
    "searchPageUrl": "https://www.google.com/maps/search/pharmacies%20in%20Fairmont,%20WV%20in%20Fairmont,%20WV/@24.93671431736524,-167.93092070098794,13z?hl=en",
    "searchString": "pharmacies in Fairmont, WV in Fairmont, WV",
    "language": "en",
    "rank": 9,
    "isAdvertisement": false,
    "imageUrl": "https://lh3.googleusercontent.com/gps-cs-s/AC9h4noAB5Vw_lcbvJuEW4Vcldlv8w0_zkeX1vq39MPj4F9cUY6eWrnV9ONuPvrAVg_74lrV0v7y17ae95qY4mYyg7i5iFMIDQ8eCDzBqJfjRyvkvyeRSQoetaV6PDFhVfAY2mEqE3lTTA=w408-h524-k-no",
    "kgmid": "/g/1ttphl6y"
  },
  {
    "title": "Rite Aid Pharmacy",
    "price": "$$",
    "categoryName": "Pharmacy",
    "address": "627 Fairmont Ave, Fairmont, WV 26554",
    "neighborhood": null,
    "street": "627 Fairmont Ave",
    "city": "Fairmont",
    "postalCode": "26554",
    "state": "West Virginia",
    "countryCode": "US",
    "website": "https://www.riteaid.com/",
    "claimThisBusiness": false,
    "location": {
      "lat": 39.4772141,
      "lng": -80.1513382
    },
    "totalScore": 4,
    "permanentlyClosed": false,
    "temporarilyClosed": false,
    "placeId": "ChIJwdIWHyl8SogRP-tbnohv1u8",
    "categories": [
      "Pharmacy"
    ],
    "fid": "0x884a7c291f16d2c1:0xefd66f889e5beb3f",
    "cid": "17282123252643916607",
    "reviewsCount": 1,
    "imagesCount": 1,
    "imageCategories": [],
    "scrapedAt": "2025-06-23T06:13:20.484Z",
    "googleFoodUrl": null,
    "hotelAds": [],
    "openingHours": [
      {
        "day": "Monday",
        "hours": "9 AM to 7 PM"
      },
      {
        "day": "Tuesday",
        "hours": "9 AM to 7 PM"
      },
      {
        "day": "Wednesday",
        "hours": "9 AM to 7 PM"
      },
      {
        "day": "Thursday",
        "hours": "9 AM to 7 PM"
      },
      {
        "day": "Friday",
        "hours": "9 AM to 7 PM"
      },
      {
        "day": "Saturday",
        "hours": "9 AM to 5 PM"
      },
      {
        "day": "Sunday",
        "hours": "Closed"
      }
    ],
    "peopleAlsoSearch": [],
    "placesTags": [],
    "reviewsTags": [],
    "additionalInfo": {
      "Service options": [
        {
          "Drive-through": true
        }
      ],
      "Accessibility": [
        {
          "Wheelchair accessible entrance": true
        },
        {
          "Wheelchair accessible parking lot": true
        }
      ],
      "Planning": [
        {
          "Quick visit": true
        }
      ],
      "Payments": [
        {
          "Credit cards": true
        }
      ]
    },
    "gasPrices": [],
    "url": "https://www.google.com/maps/search/?api=1&query=Rite%20Aid%20Pharmacy&query_place_id=ChIJwdIWHyl8SogRP-tbnohv1u8",
    "searchPageUrl": "https://www.google.com/maps/search/pharmacies%20in%20Fairmont,%20WV%20in%20Fairmont,%20WV/@24.93671431736524,-167.93092070098794,13z?hl=en",
    "searchString": "pharmacies in Fairmont, WV in Fairmont, WV",
    "language": "en",
    "rank": 10,
    "isAdvertisement": false,
    "imageUrl": "https://streetviewpixels-pa.googleapis.com/v1/thumbnail?panoid=yOJabv0ITAjzpzntOxnyng&cb_client=search.gws-prod.gps&w=408&h=240&yaw=335.03876&pitch=0&thumbfov=100",
    "kgmid": "/g/11d__qpsl3"
  }
]