[
  {
    "title": "Advance Pharmacy",
    "price": null,
    "categoryName": "Pharmacy",
    "address": "2646 S Loop W #330, Houston, TX 77054",
    "neighborhood": "South Main",
    "street": "2646 S Loop W #330",
    "city": "Houston",
    "postalCode": "77054",
    "state": "Texas",
    "countryCode": "US",
    "website": "http://myadvancepharmacy.com/",
    "phone": "(713) 661-5711",
    "phoneUnformatted": "+17136615711",
    "claimThisBusiness": false,
    "location": {
      "lat": 29.6794155,
      "lng": -95.4208227
    },
    "totalScore": 4.7,
    "permanentlyClosed": false,
    "temporarilyClosed": false,
    "placeId": "ChIJxf8GRifAQIYR9NzdZ14Ef6I",
    "categories": [
      "Pharmacy"
    ],
    "fid": "0x8640c0274606ffc5:0xa27f045e67dddcf4",
    "cid": "11709082359702609140",
    "reviewsCount": 23,
    "imagesCount": 2,
    "imageCategories": [],
    "scrapedAt": "2025-06-21T19:07:47.609Z",
    "googleFoodUrl": null,
    "hotelAds": [],
    "openingHours": [
      {
        "day": "Monday",
        "hours": "8:30 AM to 5 PM"
      },
      {
        "day": "Tuesday",
        "hours": "8:30 AM to 5 PM"
      },
      {
        "day": "Wednesday",
        "hours": "8:30 AM to 5 PM"
      },
      {
        "day": "Thursday",
        "hours": "8:30 AM to 5 PM"
      },
      {
        "day": "Friday",
        "hours": "8 AM to 4 PM"
      },
      {
        "day": "Saturday",
        "hours": "Closed"
      },
      {
        "day": "Sunday",
        "hours": "Closed"
      }
    ],
    "peopleAlsoSearch": [],
    "placesTags": [],
    "reviewsTags": [],
    "additionalInfo": {
      "From the business": [
        {
          "Small business": true
        }
      ],
      "Service options": [
        {
          "Delivery": true
        },
        {
          "In-store pickup": true
        }
      ],
      "Accessibility": [
        {
          "Wheelchair accessible entrance": true
        },
        {
          "Wheelchair accessible parking lot": true
        }
      ],
      "Payments": [
        {
          "Credit cards": true
        },
        {
          "Debit cards": true
        },
        {
          "Credit cards": true
        }
      ]
    },
    "gasPrices": [],
    "url": "https://www.google.com/maps/search/?api=1&query=Advance%20Pharmacy&query_place_id=ChIJxf8GRifAQIYR9NzdZ14Ef6I",
    "searchPageUrl": "https://www.google.com/maps/search/independent%20pharmacy%20Houston%20TX%20in%20Houston,%20TX/@23.7517099,-165.9168445668582,12z?hl=en",
    "searchString": "independent pharmacy Houston TX in Houston, TX",
    "language": "en",
    "rank": 1,
    "isAdvertisement": false,
    "imageUrl": "https://lh3.googleusercontent.com/p/AF1QipNhR73iVaogoRqypWNRKIAM5Sg10YrNpOlnyOs-=w408-h408-k-no",
    "kgmid": "/g/11clsnl4rs"
  },
  {
    "title": "MedX Pharmacy Houston",
    "price": null,
    "categoryName": "Pharmacy",
    "address": "6918 Corporate Dr Ste B5, Houston, TX 77036",
    "neighborhood": "Sharpstown",
    "street": "6918 Corporate Dr Ste B5",
    "city": "Houston",
    "postalCode": "77036",
    "state": "Texas",
    "countryCode": "US",
    "website": "http://www.medxpharm.com/",
    "phone": "(281) 506-2453",
    "phoneUnformatted": "+12815062453",
    "claimThisBusiness": false,
    "location": {
      "lat": 29.7037368,
      "lng": -95.5521321
    },
    "totalScore": 4.5,
    "permanentlyClosed": false,
    "temporarilyClosed": false,
    "placeId": "ChIJj10GGduTQIYRcsM1lk3UD24",
    "categories": [
      "Pharmacy"
    ],
    "fid": "0x864093db19065d8f:0x6e0fd44d9635c372",
    "cid": "7930790898520408946",
    "reviewsCount": 28,
    "imagesCount": 41,
    "imageCategories": [],
    "scrapedAt": "2025-06-21T19:07:47.610Z",
    "googleFoodUrl": null,
    "hotelAds": [],
    "openingHours": [
      {
        "day": "Monday",
        "hours": "9 AM to 6 PM"
      },
      {
        "day": "Tuesday",
        "hours": "9 AM to 6 PM"
      },
      {
        "day": "Wednesday",
        "hours": "9 AM to 6 PM"
      },
      {
        "day": "Thursday",
        "hours": "9 AM to 6 PM"
      },
      {
        "day": "Friday",
        "hours": "9 AM to 6 PM"
      },
      {
        "day": "Saturday",
        "hours": "9 AM to 2 PM"
      },
      {
        "day": "Sunday",
        "hours": "Closed"
      }
    ],
    "peopleAlsoSearch": [],
    "placesTags": [],
    "reviewsTags": [],
    "additionalInfo": {
      "From the business": [
        {
          "Small business": true
        }
      ],
      "Service options": [
        {
          "Delivery": true
        },
        {
          "Drive-through": true
        },
        {
          "In-store shopping": true
        },
        {
          "Same-day delivery": true
        }
      ],
      "Accessibility": [
        {
          "Wheelchair accessible entrance": true
        },
        {
          "Wheelchair accessible parking lot": true
        }
      ],
      "Planning": [
        {
          "Quick visit": true
        }
      ],
      "Payments": [
        {
          "Credit cards": true
        },
        {
          "Debit cards": true
        },
        {
          "NFC mobile payments": true
        },
        {
          "Credit cards": true
        }
      ]
    },
    "gasPrices": [],
    "url": "https://www.google.com/maps/search/?api=1&query=MedX%20Pharmacy%20Houston&query_place_id=ChIJj10GGduTQIYRcsM1lk3UD24",
    "searchPageUrl": "https://www.google.com/maps/search/independent%20pharmacy%20Houston%20TX%20in%20Houston,%20TX/@23.7517099,-165.9168445668582,12z?hl=en",
    "searchString": "independent pharmacy Houston TX in Houston, TX",
    "language": "en",
    "rank": 2,
    "isAdvertisement": false,
    "imageUrl": "https://lh3.googleusercontent.com/gps-cs-s/AC9h4nqqIlWbfUU78SFCiWf5HtE9aFh-E5uqfZDK6VAHSJjrML9NZeeguFZoi6qlht675trKc61_A_8GsUix6MpQAHVh4Rfa-BksH2Jy1pT9tkx7E-1lb1IUQIRG-xP9vSt0F_HUUNG6=w408-h544-k-no",
    "kgmid": "/g/1tmpwc0f"
  },
  {
    "title": "Apteek Pharmacy & Compounding",
    "price": null,
    "categoryName": "Pharmacy",
    "address": "2900 Weslayan St Suite B, Houston, TX 77027",
    "neighborhood": "Greenway / Upper Kirby Area",
    "street": "2900 Weslayan St Suite B",
    "city": "Houston",
    "postalCode": "77027",
    "state": "Texas",
    "countryCode": "US",
    "website": "http://www.apteekpharmacy.com/",
    "phone": "(832) 307-1678",
    "phoneUnformatted": "+18323071678",
    "claimThisBusiness": false,
    "location": {
      "lat": 29.7392967,
      "lng": -95.442244
    },
    "totalScore": 5,
    "permanentlyClosed": false,
    "temporarilyClosed": false,
    "placeId": "ChIJv0s7lxvBQIYRrQ6WNG6CRGw",
    "categories": [
      "Pharmacy"
    ],
    "fid": "0x8640c11b973b4bbf:0x6c44826e34960ead",
    "cid": "7801503864352804525",
    "reviewsCount": 231,
    "imagesCount": 22,
    "imageCategories": [],
    "scrapedAt": "2025-06-21T19:07:47.611Z",
    "googleFoodUrl": null,
    "hotelAds": [],
    "openingHours": [
      {
        "day": "Monday",
        "hours": "9 AM to 6 PM"
      },
      {
        "day": "Tuesday",
        "hours": "9 AM to 6 PM"
      },
      {
        "day": "Wednesday",
        "hours": "9 AM to 6 PM"
      },
      {
        "day": "Thursday",
        "hours": "9 AM to 6 PM"
      },
      {
        "day": "Friday",
        "hours": "9 AM to 6 PM"
      },
      {
        "day": "Saturday",
        "hours": "Closed"
      },
      {
        "day": "Sunday",
        "hours": "Closed"
      }
    ],
    "peopleAlsoSearch": [],
    "placesTags": [],
    "reviewsTags": [],
    "additionalInfo": {
      "From the business": [
        {
          "Small business": true
        }
      ],
      "Service options": [
        {
          "Curbside pickup": true
        },
        {
          "Delivery": true
        },
        {
          "In-store pickup": true
        },
        {
          "In-store shopping": true
        },
        {
          "Same-day delivery": true
        },
        {
          "English": true
        }
      ],
      "Accessibility": [
        {
          "Wheelchair accessible entrance": true
        },
        {
          "Wheelchair accessible parking lot": true
        },
        {
          "Wheelchair accessible restroom": true
        },
        {
          "Wheelchair accessible seating": true
        }
      ],
      "Amenities": [
        {
          "Gender-neutral restroom": true
        },
        {
          "Wi-Fi": true
        },
        {
          "Free Wi-Fi": true
        }
      ],
      "Planning": [
        {
          "Quick visit": true
        }
      ],
      "Payments": [
        {
          "Credit cards": true
        },
        {
          "Debit cards": true
        },
        {
          "NFC mobile payments": true
        },
        {
          "Credit cards": true
        }
      ],
      "Parking": [
        {
          "Free parking garage": true
        },
        {
          "Free parking lot": true
        },
        {
          "Free street parking": true
        }
      ]
    },
    "gasPrices": [],
    "url": "https://www.google.com/maps/search/?api=1&query=Apteek%20Pharmacy%20%26%20Compounding&query_place_id=ChIJv0s7lxvBQIYRrQ6WNG6CRGw",
    "searchPageUrl": "https://www.google.com/maps/search/independent%20pharmacy%20Houston%20TX%20in%20Houston,%20TX/@23.7517099,-165.9168445668582,12z?hl=en",
    "searchString": "independent pharmacy Houston TX in Houston, TX",
    "language": "en",
    "rank": 3,
    "isAdvertisement": false,
    "imageUrl": "https://lh3.googleusercontent.com/p/AF1QipN0gPha4XmWonZaSgbE-XrfZM2H923a1vRtKuI_=w408-h271-k-no",
    "kgmid": "/g/11f5d5jj55"
  },
  {
    "title": "Campbell's Compounding Pharmacy",
    "price": null,
    "categoryName": "Pharmacy",
    "address": "6603 Kirby Dr, Houston, TX 77005",
    "neighborhood": "University Place",
    "street": "6603 Kirby Dr",
    "city": "Houston",
    "postalCode": "77005",
    "state": "Texas",
    "countryCode": "US",
    "website": "http://campbellscompounding.com/",
    "phone": "(713) 668-4833",
    "phoneUnformatted": "+17136684833",
    "claimThisBusiness": false,
    "location": {
      "lat": 29.707682,
      "lng": -95.418012
    },
    "totalScore": 4.5,
    "permanentlyClosed": false,
    "temporarilyClosed": false,
    "placeId": "ChIJBcrnukPAQIYRH2Qe-ZJvk8I",
    "categories": [
      "Pharmacy"
    ],
    "fid": "0x8640c043bae7ca05:0xc2936f92f91e641f",
    "cid": "14020672741969912863",
    "reviewsCount": 21,
    "imagesCount": 2,
    "imageCategories": [],
    "scrapedAt": "2025-06-21T19:07:47.611Z",
    "googleFoodUrl": null,
    "hotelAds": [],
    "openingHours": [
      {
        "day": "Monday",
        "hours": "9:30 AM to 5:30 PM"
      },
      {
        "day": "Tuesday",
        "hours": "9:30 AM to 5:30 PM"
      },
      {
        "day": "Wednesday",
        "hours": "9:30 AM to 5:30 PM"
      },
      {
        "day": "Thursday",
        "hours": "9:30 AM to 5:30 PM"
      },
      {
        "day": "Friday",
        "hours": "9:30 AM to 5:30 PM"
      },
      {
        "day": "Saturday",
        "hours": "Closed"
      },
      {
        "day": "Sunday",
        "hours": "Closed"
      }
    ],
    "peopleAlsoSearch": [],
    "placesTags": [],
    "reviewsTags": [],
    "additionalInfo": {
      "From the business": [
        {
          "Small business": true
        }
      ],
      "Accessibility": [
        {
          "Wheelchair accessible entrance": true
        },
        {
          "Wheelchair accessible parking lot": true
        }
      ],
      "Payments": [
        {
          "Credit cards": true
        },
        {
          "Debit cards": true
        },
        {
          "NFC mobile payments": true
        },
        {
          "Credit cards": true
        }
      ]
    },
    "gasPrices": [],
    "url": "https://www.google.com/maps/search/?api=1&query=Campbell's%20Compounding%20Pharmacy&query_place_id=ChIJBcrnukPAQIYRH2Qe-ZJvk8I",
    "searchPageUrl": "https://www.google.com/maps/search/independent%20pharmacy%20Houston%20TX%20in%20Houston,%20TX/@23.7517099,-165.9168445668582,12z?hl=en",
    "searchString": "independent pharmacy Houston TX in Houston, TX",
    "language": "en",
    "rank": 4,
    "isAdvertisement": false,
    "imageUrl": "https://lh3.googleusercontent.com/gps-cs-s/AC9h4nrmrE98Xd2z0nu30vtggYrSOeHLqm_qQ2SR5HFZjZw1nIXKQQzpQi8v3AT_t7WzAimtMo2lTKAIcgAYoJPsLi2EAg52oXlOf2lm56rJjE9PXG1_LNB0z7boQ8dqAmcdlvuLY3k=w408-h544-k-no",
    "kgmid": "/g/1wn_6h3r"
  },
  {
    "title": "Scott Read Pharmacy | Affordable Generic Drug Store in Houston",
    "price": null,
    "categoryName": "Pharmacy",
    "address": "536 Waugh Dr, Houston, TX 77019",
    "neighborhood": "Montrose",
    "street": "536 Waugh Dr",
    "city": "Houston",
    "postalCode": "77019",
    "state": "Texas",
    "countryCode": "US",
    "website": "http://www.scottreadrx.com/",
    "phone": "(832) 649-3142",
    "phoneUnformatted": "+18326493142",
    "claimThisBusiness": false,
    "location": {
      "lat": 29.7604368,
      "lng": -95.3985564
    },
    "totalScore": 5,
    "permanentlyClosed": false,
    "temporarilyClosed": false,
    "placeId": "ChIJPXxNdZDBQIYRQ5oKlDZ0etc",
    "categories": [
      "Pharmacy"
    ],
    "fid": "0x8640c190754d7c3d:0xd77a7436940a9a43",
    "cid": "15526850443073985091",
    "reviewsCount": 32,
    "imagesCount": 13,
    "imageCategories": [],
    "scrapedAt": "2025-06-21T19:07:47.611Z",
    "googleFoodUrl": null,
    "hotelAds": [],
    "openingHours": [
      {
        "day": "Monday",
        "hours": "10 AM to 6 PM"
      },
      {
        "day": "Tuesday",
        "hours": "10 AM to 6 PM"
      },
      {
        "day": "Wednesday",
        "hours": "10 AM to 6 PM"
      },
      {
        "day": "Thursday",
        "hours": "10 AM to 6 PM"
      },
      {
        "day": "Friday",
        "hours": "10 AM to 5 PM"
      },
      {
        "day": "Saturday",
        "hours": "Closed"
      },
      {
        "day": "Sunday",
        "hours": "Closed"
      }
    ],
    "peopleAlsoSearch": [],
    "placesTags": [],
    "reviewsTags": [],
    "additionalInfo": {
      "From the business": [
        {
          "Small business": true
        }
      ],
      "Service options": [
        {
          "Delivery": true
        },
        {
          "In-store pickup": true
        },
        {
          "In-store shopping": true
        },
        {
          "Onsite services": true
        },
        {
          "Same-day delivery": true
        }
      ],
      "Accessibility": [
        {
          "Wheelchair accessible entrance": true
        },
        {
          "Wheelchair accessible parking lot": true
        }
      ],
      "Crowd": [
        {
          "LGBTQ+ friendly": true
        },
        {
          "Transgender safespace": true
        }
      ],
      "Planning": [
        {
          "Quick visit": true
        }
      ],
      "Payments": [
        {
          "Credit cards": true
        },
        {
          "Debit cards": true
        },
        {
          "NFC mobile payments": true
        },
        {
          "Credit cards": true
        }
      ]
    },
    "gasPrices": [],
    "url": "https://www.google.com/maps/search/?api=1&query=Scott%20Read%20Pharmacy%20%7C%20Affordable%20Generic%20Drug%20Store%20in%20Houston&query_place_id=ChIJPXxNdZDBQIYRQ5oKlDZ0etc",
    "searchPageUrl": "https://www.google.com/maps/search/independent%20pharmacy%20Houston%20TX%20in%20Houston,%20TX/@23.7517099,-165.9168445668582,12z?hl=en",
    "searchString": "independent pharmacy Houston TX in Houston, TX",
    "language": "en",
    "rank": 5,
    "isAdvertisement": false,
    "imageUrl": "https://lh3.googleusercontent.com/gps-cs-s/AC9h4nr_H1Pz9JcDQEvd0MNxlHhSFA_JjMRl314DPixuGxYkYM2uDJfBL8M75xp4it9uurxgVBSPeW74ZpulJJkTjFFQqmB-1sxcs3hj9Cg3ijxACw7NW6ejMEyeoHhQYGqaTcB_TQ_2pw=w408-h306-k-no",
    "kgmid": "/g/11rsb5q0h9"
  },
  {
    "title": "Briargrove Pharmacy & Gifts",
    "description": "Longtime (since 1968) drugstore offering a pharmacy & medical supplies, plus gifts & cosmetics.",
    "price": null,
    "categoryName": "Pharmacy",
    "address": "6435 San Felipe St, Houston, TX 77057",
    "neighborhood": "Westside",
    "street": "6435 San Felipe St",
    "city": "Houston",
    "postalCode": "77057",
    "state": "Texas",
    "countryCode": "US",
    "website": "http://www.briargroverx.com/",
    "phone": "(713) 783-5704",
    "phoneUnformatted": "+17137835704",
    "claimThisBusiness": false,
    "location": {
      "lat": 29.7495539,
      "lng": -95.499286
    },
    "totalScore": 4.3,
    "permanentlyClosed": false,
    "temporarilyClosed": false,
    "placeId": "ChIJCSR1VZPDQIYRQkvxKtCgi_s",
    "categories": [
      "Pharmacy",
      "Cosmetics store",
      "Gift shop",
      "Jewelry store",
      "Post office",
      "Stationery store",
      "Toy store",
      "Vitamin & supplements store"
    ],
    "fid": "0x8640c39355752409:0xfb8ba0d02af14b42",
    "cid": "18125757941216791362",
    "reviewsCount": 95,
    "imagesCount": 148,
    "imageCategories": [],
    "scrapedAt": "2025-06-21T19:07:47.611Z",
    "googleFoodUrl": null,
    "hotelAds": [],
    "openingHours": [
      {
        "day": "Monday",
        "hours": "9 AM to 8 PM"
      },
      {
        "day": "Tuesday",
        "hours": "9 AM to 8 PM"
      },
      {
        "day": "Wednesday",
        "hours": "9 AM to 8 PM"
      },
      {
        "day": "Thursday",
        "hours": "9 AM to 8 PM"
      },
      {
        "day": "Friday",
        "hours": "9 AM to 8 PM"
      },
      {
        "day": "Saturday",
        "hours": "9 AM to 6 PM"
      },
      {
        "day": "Sunday",
        "hours": "Closed"
      }
    ],
    "peopleAlsoSearch": [],
    "placesTags": [],
    "reviewsTags": [],
    "additionalInfo": {
      "From the business": [
        {
          "Small business": true
        }
      ],
      "Service options": [
        {
          "Curbside pickup": true
        },
        {
          "Delivery": true
        },
        {
          "In-store pickup": true
        },
        {
          "In-store shopping": true
        },
        {
          "Onsite services": true
        },
        {
          "Same-day delivery": true
        },
        {
          "Arabic": true
        }
      ],
      "Accessibility": [
        {
          "Wheelchair accessible entrance": true
        },
        {
          "Wheelchair accessible parking lot": true
        },
        {
          "Wheelchair accessible seating": true
        },
        {
          "Wheelchair accessible restroom": false
        }
      ],
      "Planning": [
        {
          "Quick visit": true
        }
      ],
      "Payments": [
        {
          "Checks": true
        },
        {
          "Credit cards": true
        },
        {
          "Debit cards": true
        },
        {
          "NFC mobile payments": true
        },
        {
          "Credit cards": true
        }
      ],
      "Parking": [
        {
          "Free parking lot": true
        }
      ]
    },
    "gasPrices": [],
    "url": "https://www.google.com/maps/search/?api=1&query=Briargrove%20Pharmacy%20%26%20Gifts&query_place_id=ChIJCSR1VZPDQIYRQkvxKtCgi_s",
    "searchPageUrl": "https://www.google.com/maps/search/independent%20pharmacy%20Houston%20TX%20in%20Houston,%20TX/@23.7517099,-165.9168445668582,12z?hl=en",
    "searchString": "independent pharmacy Houston TX in Houston, TX",
    "language": "en",
    "rank": 6,
    "isAdvertisement": false,
    "imageUrl": "https://lh3.googleusercontent.com/p/AF1QipMV5ttjiHK9pKE4AqcDSpoUePyrZmXxhZgwNnOM=w408-h306-k-no",
    "kgmid": "/g/1tmqglh4"
  },
  {
    "title": "Village Compounding Pharmacy",
    "price": null,
    "categoryName": "Pharmacy",
    "address": "975 Corbindale Rd, Houston, TX 77024",
    "neighborhood": "Westside",
    "street": "975 Corbindale Rd",
    "city": "Houston",
    "postalCode": "77024",
    "state": "Texas",
    "countryCode": "US",
    "website": "http://www.villagecompounding.com/",
    "phone": "(713) 464-5069",
    "phoneUnformatted": "+17134645069",
    "claimThisBusiness": false,
    "location": {
      "lat": 29.7832647,
      "lng": -95.5130012
    },
    "totalScore": 4.6,
    "permanentlyClosed": false,
    "temporarilyClosed": false,
    "placeId": "ChIJ8fDNPWTEQIYRW_L8INRPGFg",
    "categories": [
      "Pharmacy"
    ],
    "fid": "0x8640c4643dcdf0f1:0x58184fd420fcf25b",
    "cid": "6347911447283823195",
    "reviewsCount": 50,
    "imagesCount": 4,
    "imageCategories": [],
    "scrapedAt": "2025-06-21T19:07:47.611Z",
    "googleFoodUrl": null,
    "hotelAds": [],
    "openingHours": [
      {
        "day": "Monday",
        "hours": "9 AM to 6 PM"
      },
      {
        "day": "Tuesday",
        "hours": "9 AM to 6 PM"
      },
      {
        "day": "Wednesday",
        "hours": "9 AM to 6 PM"
      },
      {
        "day": "Thursday",
        "hours": "9 AM to 6 PM"
      },
      {
        "day": "Friday",
        "hours": "9 AM to 5 PM"
      },
      {
        "day": "Saturday",
        "hours": "Closed"
      },
      {
        "day": "Sunday",
        "hours": "Closed"
      }
    ],
    "peopleAlsoSearch": [],
    "placesTags": [],
    "reviewsTags": [],
    "additionalInfo": {
      "From the business": [
        {
          "Small business": true
        }
      ],
      "Service options": [
        {
          "Delivery": true
        },
        {
          "Same-day delivery": true
        }
      ],
      "Accessibility": [
        {
          "Wheelchair accessible entrance": true
        },
        {
          "Wheelchair accessible parking lot": true
        }
      ],
      "Payments": [
        {
          "Credit cards": true
        },
        {
          "Debit cards": true
        },
        {
          "NFC mobile payments": true
        },
        {
          "Credit cards": true
        }
      ]
    },
    "gasPrices": [],
    "url": "https://www.google.com/maps/search/?api=1&query=Village%20Compounding%20Pharmacy&query_place_id=ChIJ8fDNPWTEQIYRW_L8INRPGFg",
    "searchPageUrl": "https://www.google.com/maps/search/independent%20pharmacy%20Houston%20TX%20in%20Houston,%20TX/@23.7517099,-165.9168445668582,12z?hl=en",
    "searchString": "independent pharmacy Houston TX in Houston, TX",
    "language": "en",
    "rank": 7,
    "isAdvertisement": false,
    "imageUrl": "https://lh3.googleusercontent.com/gps-cs-s/AC9h4noGdN5b_yZZOzLY5bZqcV7kmPKKhuWOJUq8a77iiWL47kx4Pyn3BLUWcP4lFiMJztqJwl5R61yNTEVOUK5RGMgykcuF_KG9hylZjcOtbfuFSufjcME5QMO5OuFVkblBpNywv-4r=w426-h240-k-no",
    "kgmid": "/g/1td6n0s9"
  },
  {
    "title": "Texas RxSolutions and Compounding Pharmacy #2",
    "price": null,
    "categoryName": "Pharmacy",
    "address": "7505 Fannin St #120, Houston, TX 77054",
    "neighborhood": "Astrodome Area",
    "street": "7505 Fannin St #120",
    "city": "Houston",
    "postalCode": "77054",
    "state": "Texas",
    "countryCode": "US",
    "website": "https://www.texasrxsolutions.com/",
    "phone": "(713) 790-1228",
    "phoneUnformatted": "+17137901228",
    "claimThisBusiness": false,
    "location": {
      "lat": 29.694552,
      "lng": -95.401103
    },
    "totalScore": 4.2,
    "permanentlyClosed": false,
    "temporarilyClosed": false,
    "placeId": "ChIJnaNDEw_AQIYR-rvU-rbqy_Y",
    "categories": [
      "Pharmacy",
      "Drug store"
    ],
    "fid": "0x8640c00f1343a39d:0xf6cbeab6fad4bbfa",
    "cid": "17783565625215728634",
    "reviewsCount": 5,
    "imagesCount": 6,
    "imageCategories": [],
    "scrapedAt": "2025-06-21T19:07:47.611Z",
    "googleFoodUrl": null,
    "hotelAds": [],
    "openingHours": [
      {
        "day": "Monday",
        "hours": "9 AM to 6 PM"
      },
      {
        "day": "Tuesday",
        "hours": "9 AM to 6 PM"
      },
      {
        "day": "Wednesday",
        "hours": "9 AM to 6 PM"
      },
      {
        "day": "Thursday",
        "hours": "9 AM to 6 PM"
      },
      {
        "day": "Friday",
        "hours": "9 AM to 6 PM"
      },
      {
        "day": "Saturday",
        "hours": "Closed"
      },
      {
        "day": "Sunday",
        "hours": "Closed"
      }
    ],
    "peopleAlsoSearch": [],
    "placesTags": [],
    "reviewsTags": [],
    "additionalInfo": {
      "Service options": [
        {
          "Delivery": true
        },
        {
          "In-store pickup": true
        },
        {
          "In-store shopping": true
        },
        {
          "Same-day delivery": true
        }
      ],
      "Accessibility": [
        {
          "Wheelchair accessible entrance": true
        },
        {
          "Wheelchair accessible parking lot": true
        }
      ],
      "Planning": [
        {
          "Quick visit": true
        }
      ],
      "Payments": [
        {
          "Checks": true
        },
        {
          "Credit cards": true
        },
        {
          "Debit cards": true
        },
        {
          "NFC mobile payments": true
        },
        {
          "SNAP/EBT": true
        },
        {
          "Credit cards": true
        }
      ]
    },
    "gasPrices": [],
    "url": "https://www.google.com/maps/search/?api=1&query=Texas%20RxSolutions%20and%20Compounding%20Pharmacy%20%232&query_place_id=ChIJnaNDEw_AQIYR-rvU-rbqy_Y",
    "searchPageUrl": "https://www.google.com/maps/search/independent%20pharmacy%20Houston%20TX%20in%20Houston,%20TX/@23.7517099,-165.9168445668582,12z?hl=en",
    "searchString": "independent pharmacy Houston TX in Houston, TX",
    "language": "en",
    "rank": 8,
    "isAdvertisement": false,
    "imageUrl": "https://lh3.googleusercontent.com/p/AF1QipOFs5tQ6idWQn6G7cEgd7X_OZIO14B3Oie9jIzO=w408-h306-k-no",
    "kgmid": "/g/11clvvx5zq"
  },
  {
    "title": "Sterling Pharmacy",
    "price": null,
    "categoryName": "Pharmacy",
    "address": "6609 W Sam Houston Pkwy S Suite 98B, Houston, TX 77072",
    "neighborhood": "Sharpstown",
    "street": "6609 W Sam Houston Pkwy S Suite 98B",
    "city": "Houston",
    "postalCode": "77072",
    "state": "Texas",
    "countryCode": "US",
    "phone": "(713) 995-8885",
    "phoneUnformatted": "+17139958885",
    "claimThisBusiness": false,
    "location": {
      "lat": 29.706432,
      "lng": -95.5561622
    },
    "totalScore": 4.1,
    "permanentlyClosed": false,
    "temporarilyClosed": false,
    "placeId": "ChIJHfs7Cc7CQIYRnflqUcokdMo",
    "categories": [
      "Pharmacy"
    ],
    "fid": "0x8640c2ce093bfb1d:0xca7424ca516af99d",
    "cid": "14588325544327838109",
    "reviewsCount": 35,
    "imagesCount": 13,
    "imageCategories": [],
    "scrapedAt": "2025-06-21T19:07:47.611Z",
    "googleFoodUrl": null,
    "hotelAds": [],
    "openingHours": [
      {
        "day": "Monday",
        "hours": "9 AM to 6 PM"
      },
      {
        "day": "Tuesday",
        "hours": "9 AM to 6 PM"
      },
      {
        "day": "Wednesday",
        "hours": "9 AM to 6 PM"
      },
      {
        "day": "Thursday",
        "hours": "9 AM to 6 PM"
      },
      {
        "day": "Friday",
        "hours": "9 AM to 6 PM"
      },
      {
        "day": "Saturday",
        "hours": "9 AM to 6 PM"
      },
      {
        "day": "Sunday",
        "hours": "Closed"
      }
    ],
    "peopleAlsoSearch": [],
    "placesTags": [],
    "reviewsTags": [],
    "additionalInfo": {
      "From the business": [
        {
          "Small business": true
        }
      ],
      "Service options": [
        {
          "Delivery": true
        },
        {
          "In-store pickup": true
        },
        {
          "Same-day delivery": true
        }
      ],
      "Accessibility": [
        {
          "Wheelchair accessible entrance": true
        },
        {
          "Wheelchair accessible parking lot": true
        }
      ],
      "Payments": [
        {
          "Credit cards": true
        },
        {
          "Debit cards": true
        },
        {
          "NFC mobile payments": true
        },
        {
          "Credit cards": true
        }
      ]
    },
    "gasPrices": [],
    "url": "https://www.google.com/maps/search/?api=1&query=Sterling%20Pharmacy&query_place_id=ChIJHfs7Cc7CQIYRnflqUcokdMo",
    "searchPageUrl": "https://www.google.com/maps/search/independent%20pharmacy%20Houston%20TX%20in%20Houston,%20TX/@23.7517099,-165.9168445668582,12z?hl=en",
    "searchString": "independent pharmacy Houston TX in Houston, TX",
    "language": "en",
    "rank": 9,
    "isAdvertisement": false,
    "imageUrl": "https://lh3.googleusercontent.com/gps-cs-s/AC9h4npWQ0FqMOaWswV7DS5jdq5TkOAS3xsd9UJORnGJLnbGFNWi5fUrp981UaAt1oc5RS8dLdqF3tZAyDbWWGqpvlQfwSkMmtcITInlHeaDPmqwPsuSn9q1D1zwJgBT4JnvPm1u4DWz=w408-h306-k-no",
    "kgmid": "/g/1260q5b39"
  },
  {
    "title": "Cedra Pharmacy",
    "price": null,
    "categoryName": "Pharmacy",
    "address": "1607 S Post Oak Ln, Houston, TX 77056",
    "neighborhood": "Westside",
    "street": "1607 S Post Oak Ln",
    "city": "Houston",
    "postalCode": "77056",
    "state": "Texas",
    "countryCode": "US",
    "website": "http://www.cedrapharmacy.com/",
    "phone": "(713) 621-0621",
    "phoneUnformatted": "+17136210621",
    "claimThisBusiness": false,
    "location": {
      "lat": 29.7511909,
      "lng": -95.4626294
    },
    "totalScore": 5,
    "permanentlyClosed": false,
    "temporarilyClosed": false,
    "placeId": "ChIJvWMDDkTBQIYRdd8bSLj1rzk",
    "categories": [
      "Pharmacy",
      "Beauty supply store",
      "Drug store",
      "Gift shop",
      "Post office"
    ],
    "fid": "0x8640c1440e0363bd:0x39aff5b8481bdf75",
    "cid": "4156811152918830965",
    "reviewsCount": 264,
    "imagesCount": 17,
    "imageCategories": [],
    "scrapedAt": "2025-06-21T19:07:47.611Z",
    "googleFoodUrl": null,
    "hotelAds": [],
    "openingHours": [
      {
        "day": "Monday",
        "hours": "9 AM to 6 PM"
      },
      {
        "day": "Tuesday",
        "hours": "9 AM to 6 PM"
      },
      {
        "day": "Wednesday",
        "hours": "9 AM to 6 PM"
      },
      {
        "day": "Thursday",
        "hours": "9 AM to 6 PM"
      },
      {
        "day": "Friday",
        "hours": "9 AM to 6 PM"
      },
      {
        "day": "Saturday",
        "hours": "9 AM to 2 PM"
      },
      {
        "day": "Sunday",
        "hours": "Closed"
      }
    ],
    "peopleAlsoSearch": [],
    "placesTags": [],
    "reviewsTags": [],
    "additionalInfo": {
      "Service options": [
        {
          "Curbside pickup": true
        },
        {
          "Delivery": true
        },
        {
          "In-store pickup": true
        },
        {
          "Onsite services": true
        },
        {
          "Same-day delivery": true
        },
        {
          "Cantonese": true
        }
      ],
      "Accessibility": [
        {
          "Wheelchair accessible entrance": true
        },
        {
          "Wheelchair accessible parking lot": true
        }
      ],
      "Planning": [
        {
          "Quick visit": true
        }
      ],
      "Payments": [
        {
          "Checks": true
        },
        {
          "Credit cards": true
        },
        {
          "Debit cards": true
        },
        {
          "NFC mobile payments": true
        },
        {
          "Credit cards": true
        }
      ]
    },
    "gasPrices": [],
    "url": "https://www.google.com/maps/search/?api=1&query=Cedra%20Pharmacy&query_place_id=ChIJvWMDDkTBQIYRdd8bSLj1rzk",
    "searchPageUrl": "https://www.google.com/maps/search/independent%20pharmacy%20Houston%20TX%20in%20Houston,%20TX/@23.7517099,-165.9168445668582,12z?hl=en",
    "searchString": "independent pharmacy Houston TX in Houston, TX",
    "language": "en",
    "rank": 10,
    "isAdvertisement": false,
    "imageUrl": "https://lh3.googleusercontent.com/gps-cs-s/AC9h4npzWlScSsX98xlCRAHXlC4TJlm2vyVMv9qHl7qymt7FbrApCMct6qGhjaJJ4q9Qr_Rdlp9uaszgwPrxACE1yMpT2PM82Y0FvgV25oMwKR6jKZ-S51n_OwZRHF6iBnH-2ZwRwfBRuQ=w408-h306-k-no",
    "kgmid": "/g/1pzqfb4f3"
  }
]