[
  {
    "title": "CVS Pharmacy",
    "price": null,
    "categoryName": "Pharmacy",
    "address": "674 Islington St, Portsmouth, NH 03801",
    "neighborhood": null,
    "street": "674 Islington St",
    "city": "Portsmouth",
    "postalCode": "03801",
    "state": "New Hampshire",
    "countryCode": "US",
    "website": "https://www.cvs.com/store-locator/portsmouth-nh-pharmacies/674-islington-street-portsmouth-nh-03801/storeid=846?WT.mc_id=LS_GOOGLE_RX_846",
    "phone": "(603) 431-0234",
    "phoneUnformatted": "+16034310234",
    "claimThisBusiness": false,
    "location": {
      "lat": 43.0701517,
      "lng": -70.7711641
    },
    "totalScore": 4.2,
    "permanentlyClosed": false,
    "temporarilyClosed": false,
    "placeId": "ChIJdx4gkpu_4okR_1TavgbVrFA",
    "categories": [
      "Pharmacy"
    ],
    "fid": "0x89e2bf9b92201e77:0x50acd506beda54ff",
    "cid": "5813255443976967423",
    "reviewsCount": 18,
    "imagesCount": 6,
    "imageCategories": [],
    "scrapedAt": "2025-06-23T06:09:32.575Z",
    "googleFoodUrl": null,
    "hotelAds": [],
    "openingHours": [
      {
        "day": "Monday",
        "hours": "9 AM to 1:30 PM, 2 to 8 PM"
      },
      {
        "day": "Tuesday",
        "hours": "9 AM to 1:30 PM, 2 to 8 PM"
      },
      {
        "day": "Wednesday",
        "hours": "9 AM to 1:30 PM, 2 to 8 PM"
      },
      {
        "day": "Thursday",
        "hours": "9 AM to 1:30 PM, 2 to 8 PM"
      },
      {
        "day": "Friday",
        "hours": "9 AM to 1:30 PM, 2 to 8 PM"
      },
      {
        "day": "Saturday",
        "hours": "9 AM to 1:30 PM, 2 to 6 PM"
      },
      {
        "day": "Sunday",
        "hours": "9 AM to 1:30 PM, 2 to 6 PM"
      }
    ],
    "peopleAlsoSearch": [],
    "placesTags": [],
    "reviewsTags": [],
    "additionalInfo": {
      "Service options": [
        {
          "Delivery": true
        },
        {
          "In-store pickup": true
        },
        {
          "In-store shopping": true
        },
        {
          "Onsite services": true
        }
      ],
      "Accessibility": [
        {
          "Wheelchair accessible entrance": true
        },
        {
          "Wheelchair accessible parking lot": true
        }
      ],
      "Offerings": [
        {
          "Naloxone": true
        },
        {
          "Passport photos": true
        }
      ],
      "Crowd": [
        {
          "LGBTQ+ friendly": true
        },
        {
          "Transgender safespace": true
        }
      ],
      "Planning": [
        {
          "Quick visit": true
        }
      ],
      "Payments": [
        {
          "Credit cards": true
        },
        {
          "Debit cards": true
        },
        {
          "NFC mobile payments": true
        },
        {
          "SNAP/EBT": true
        },
        {
          "Credit cards": true
        }
      ]
    },
    "gasPrices": [],
    "url": "https://www.google.com/maps/search/?api=1&query=CVS%20Pharmacy&query_place_id=ChIJdx4gkpu_4okR_1TavgbVrFA",
    "searchPageUrl": "https://www.google.com/maps/search/pharmacies%20in%20Portsmouth,%20NH%20in%20Portsmouth,%20NH/@65.73786228335844,-169.22169677081524,9z?hl=en",
    "searchString": "pharmacies in Portsmouth, NH in Portsmouth, NH",
    "language": "en",
    "rank": 1,
    "isAdvertisement": false,
    "imageUrl": "https://lh3.googleusercontent.com/p/AF1QipOLo26jithLTH49xUHKmVBGvQ0mJJpZLrWeKuQ_=w408-h272-k-no",
    "kgmid": "/g/11c4696909"
  },
  {
    "title": "CVS",
    "description": "Drugstore chain selling a variety of beauty & health products, plus some grocery & household items.",
    "price": null,
    "categoryName": "Drug store",
    "address": "674 Islington St, Portsmouth, NH 03801",
    "neighborhood": null,
    "street": "674 Islington St",
    "city": "Portsmouth",
    "postalCode": "03801",
    "state": "New Hampshire",
    "countryCode": "US",
    "website": "https://www.cvs.com/store-locator/portsmouth-nh-pharmacies/674-islington-street-portsmouth-nh-03801/storeid=846?WT.mc_id=LS_GOOGLE_FS_846",
    "phone": "(603) 431-0234",
    "phoneUnformatted": "+16034310234",
    "claimThisBusiness": false,
    "location": {
      "lat": 43.0701517,
      "lng": -70.7711641
    },
    "locatedIn": "CVS Pharmacy",
    "totalScore": 3,
    "permanentlyClosed": false,
    "temporarilyClosed": false,
    "placeId": "ChIJ2fAEk5u_4okRRDkf1wkYKsU",
    "categories": [
      "Drug store",
      "Beauty supply store",
      "Beer store",
      "Convenience store",
      "Cosmetics store",
      "Greeting card shop",
      "Perfume store",
      "Stationery store",
      "Vitamin & supplements store",
      "Wine store"
    ],
    "fid": "0x89e2bf9b9304f0d9:0xc52a1809d71f3944",
    "cid": "14207194405036570948",
    "reviewsCount": 46,
    "imagesCount": 9,
    "imageCategories": [],
    "scrapedAt": "2025-06-23T06:09:32.576Z",
    "googleFoodUrl": null,
    "hotelAds": [],
    "openingHours": [
      {
        "day": "Monday",
        "hours": "8 AM to 10 PM"
      },
      {
        "day": "Tuesday",
        "hours": "8 AM to 10 PM"
      },
      {
        "day": "Wednesday",
        "hours": "8 AM to 10 PM"
      },
      {
        "day": "Thursday",
        "hours": "8 AM to 10 PM"
      },
      {
        "day": "Friday",
        "hours": "8 AM to 10 PM"
      },
      {
        "day": "Saturday",
        "hours": "8 AM to 10 PM"
      },
      {
        "day": "Sunday",
        "hours": "8 AM to 10 PM"
      }
    ],
    "additionalOpeningHours": {
      "CVS Pharmacy": [
        {
          "day": "Monday",
          "hours": "9 AM–1:30 PM"
        },
        {
          "day": "Tuesday",
          "hours": "9 AM–1:30 PM"
        },
        {
          "day": "Wednesday",
          "hours": "9 AM–1:30 PM"
        },
        {
          "day": "Thursday",
          "hours": "9 AM–1:30 PM"
        },
        {
          "day": "Friday",
          "hours": "9 AM–1:30 PM"
        },
        {
          "day": "Saturday",
          "hours": "9 AM–1:30 PM"
        },
        {
          "day": "Sunday",
          "hours": "9 AM–1:30 PM"
        }
      ],
      "CVS Photo": [
        {
          "day": "Monday",
          "hours": "8 AM–10 PM"
        },
        {
          "day": "Tuesday",
          "hours": "8 AM–10 PM"
        },
        {
          "day": "Wednesday",
          "hours": "8 AM–10 PM"
        },
        {
          "day": "Thursday",
          "hours": "8 AM–10 PM"
        },
        {
          "day": "Friday",
          "hours": "8 AM–10 PM"
        },
        {
          "day": "Saturday",
          "hours": "8 AM–10 PM"
        },
        {
          "day": "Sunday",
          "hours": "8 AM–10 PM"
        }
      ],
      "LibertyX Bitcoin ATM": [
        {
          "day": "Monday",
          "hours": "8 AM–10 PM"
        },
        {
          "day": "Tuesday",
          "hours": "8 AM–10 PM"
        },
        {
          "day": "Wednesday",
          "hours": "8 AM–10 PM"
        },
        {
          "day": "Thursday",
          "hours": "8 AM–10 PM"
        },
        {
          "day": "Friday",
          "hours": "8 AM–10 PM"
        },
        {
          "day": "Saturday",
          "hours": "8 AM–10 PM"
        },
        {
          "day": "Sunday",
          "hours": "8 AM–10 PM"
        }
      ]
    },
    "peopleAlsoSearch": [],
    "placesTags": [],
    "reviewsTags": [],
    "additionalInfo": {
      "Service options": [
        {
          "Delivery": true
        },
        {
          "In-store pickup": true
        },
        {
          "In-store shopping": true
        },
        {
          "Same-day delivery": false
        }
      ],
      "Accessibility": [
        {
          "Wheelchair accessible entrance": true
        },
        {
          "Wheelchair accessible parking lot": true
        }
      ],
      "Offerings": [
        {
          "Passport photos": true
        }
      ],
      "Crowd": [
        {
          "LGBTQ+ friendly": true
        },
        {
          "Transgender safespace": true
        }
      ],
      "Planning": [
        {
          "Quick visit": true
        }
      ],
      "Payments": [
        {
          "Credit cards": true
        },
        {
          "Debit cards": true
        },
        {
          "Credit cards": true
        }
      ]
    },
    "gasPrices": [],
    "url": "https://www.google.com/maps/search/?api=1&query=CVS&query_place_id=ChIJ2fAEk5u_4okRRDkf1wkYKsU",
    "searchPageUrl": "https://www.google.com/maps/search/pharmacies%20in%20Portsmouth,%20NH%20in%20Portsmouth,%20NH/@65.73786228335844,-169.22169677081524,9z?hl=en",
    "searchString": "pharmacies in Portsmouth, NH in Portsmouth, NH",
    "language": "en",
    "rank": 2,
    "isAdvertisement": false,
    "imageUrl": "https://lh3.googleusercontent.com/gps-cs-s/AC9h4nrGoTVhGs2GG80z5PQ_0jHAc6LI8tATMdTZROIUoZQG-TANYd9ydeFDG8jIgSvZFYTo7uyB_gbjGm7Glip9VeaQBU_s0TSYqG22101HvEH2KoHTGPxPxYTewi6veHgzgdFuPLz4ug=w426-h240-k-no",
    "kgmid": "/g/1tcv2g0y"
  },
  {
    "title": "Rite Aid",
    "price": "$$",
    "categoryName": "Drug store",
    "address": "1303 Woodbury Ave, Portsmouth, NH 03801",
    "neighborhood": null,
    "street": "1303 Woodbury Ave",
    "city": "Portsmouth",
    "postalCode": "03801",
    "state": "New Hampshire",
    "countryCode": "US",
    "website": "https://www.riteaid.com/locations/nh/portsmouth/1303-woodbury-avenue.html",
    "phone": "(603) 431-1580",
    "phoneUnformatted": "+16034311580",
    "claimThisBusiness": false,
    "location": {
      "lat": 43.0859871,
      "lng": -70.7870249
    },
    "locatedIn": "Rite Aid Pharmacy",
    "totalScore": 3.6,
    "permanentlyClosed": false,
    "temporarilyClosed": false,
    "placeId": "ChIJY1GckLi_4okRA1XF0_R6wa4",
    "categories": [
      "Drug store",
      "Beauty supply store",
      "Convenience store",
      "General store",
      "Greeting card shop"
    ],
    "fid": "0x89e2bfb8909c5163:0xaec17af4d3c55503",
    "cid": "12592481225048151299",
    "reviewsCount": 66,
    "imagesCount": 11,
    "imageCategories": [],
    "scrapedAt": "2025-06-23T06:09:32.577Z",
    "googleFoodUrl": null,
    "hotelAds": [],
    "openingHours": [
      {
        "day": "Monday",
        "hours": "8 AM to 8 PM"
      },
      {
        "day": "Tuesday",
        "hours": "8 AM to 8 PM"
      },
      {
        "day": "Wednesday",
        "hours": "8 AM to 8 PM"
      },
      {
        "day": "Thursday",
        "hours": "8 AM to 8 PM"
      },
      {
        "day": "Friday",
        "hours": "8 AM to 8 PM"
      },
      {
        "day": "Saturday",
        "hours": "10 AM to 5 PM"
      },
      {
        "day": "Sunday",
        "hours": "10 AM to 5 PM"
      }
    ],
    "additionalOpeningHours": {
      "Rite Aid Pharmacy": [
        {
          "day": "Monday",
          "hours": "8 AM–1:30 PM"
        },
        {
          "day": "Tuesday",
          "hours": "8 AM–1:30 PM"
        },
        {
          "day": "Wednesday",
          "hours": "8 AM–1:30 PM"
        },
        {
          "day": "Thursday",
          "hours": "8 AM–1:30 PM"
        },
        {
          "day": "Friday",
          "hours": "8 AM–1:30 PM"
        },
        {
          "day": "Saturday",
          "hours": "10 AM–1:30 PM"
        },
        {
          "day": "Sunday",
          "hours": "10 AM–1:30 PM"
        }
      ]
    },
    "peopleAlsoSearch": [],
    "placesTags": [],
    "reviewsTags": [],
    "additionalInfo": {
      "Service options": [
        {
          "Delivery": true
        },
        {
          "Drive-through": true
        },
        {
          "In-store pickup": true
        },
        {
          "Onsite services": true
        }
      ],
      "Accessibility": [
        {
          "Wheelchair accessible parking lot": true
        }
      ],
      "Planning": [
        {
          "Quick visit": true
        }
      ],
      "Payments": [
        {
          "Checks": true
        },
        {
          "Credit cards": true
        },
        {
          "Debit cards": true
        },
        {
          "NFC mobile payments": true
        },
        {
          "SNAP/EBT": true
        },
        {
          "Credit cards": true
        }
      ]
    },
    "gasPrices": [],
    "url": "https://www.google.com/maps/search/?api=1&query=Rite%20Aid&query_place_id=ChIJY1GckLi_4okRA1XF0_R6wa4",
    "searchPageUrl": "https://www.google.com/maps/search/pharmacies%20in%20Portsmouth,%20NH%20in%20Portsmouth,%20NH/@65.73786228335844,-169.22169677081524,9z?hl=en",
    "searchString": "pharmacies in Portsmouth, NH in Portsmouth, NH",
    "language": "en",
    "rank": 3,
    "isAdvertisement": false,
    "imageUrl": "https://lh3.googleusercontent.com/gps-cs-s/AC9h4noNBip2L42p1inFWCX3cZeQwajD9w8NlgrZNUUKC6ZlV1XEBphSzilG_Ydim-DSVNKFp8o3okshFVtH8Z9DVk-Jpb3i43YyG3WIMfuq59jX7ou09JrsWuBPoRK7mbEMqLLxa4w=w426-h240-k-no",
    "kgmid": "/g/1tdp1gnj"
  },
  {
    "title": "Rite Aid",
    "price": "$$",
    "categoryName": "Drug store",
    "address": "800 Islington St #1, Portsmouth, NH 03801",
    "neighborhood": null,
    "street": "800 Islington St #1",
    "city": "Portsmouth",
    "postalCode": "03801",
    "state": "New Hampshire",
    "countryCode": "US",
    "website": "https://www.riteaid.com/locations/nh/portsmouth/800-islington-street.html",
    "phone": "(603) 436-2214",
    "phoneUnformatted": "+16034362214",
    "claimThisBusiness": false,
    "location": {
      "lat": 43.0685078,
      "lng": -70.772181
    },
    "locatedIn": "Rite Aid Pharmacy",
    "totalScore": 3.9,
    "permanentlyClosed": false,
    "temporarilyClosed": false,
    "placeId": "ChIJR7ljGpu_4okRsDkCCY9lxNg",
    "categories": [
      "Drug store",
      "Beauty supply store",
      "Convenience store",
      "General store",
      "Greeting card shop"
    ],
    "fid": "0x89e2bf9b1a63b947:0xd8c4658f090239b0",
    "cid": "15619721072633592240",
    "reviewsCount": 31,
    "imagesCount": 10,
    "imageCategories": [],
    "scrapedAt": "2025-06-23T06:09:32.577Z",
    "googleFoodUrl": null,
    "hotelAds": [],
    "openingHours": [
      {
        "day": "Monday",
        "hours": "9 AM to 8 PM"
      },
      {
        "day": "Tuesday",
        "hours": "9 AM to 8 PM"
      },
      {
        "day": "Wednesday",
        "hours": "9 AM to 8 PM"
      },
      {
        "day": "Thursday",
        "hours": "9 AM to 8 PM"
      },
      {
        "day": "Friday",
        "hours": "9 AM to 8 PM"
      },
      {
        "day": "Saturday",
        "hours": "10 AM to 5 PM"
      },
      {
        "day": "Sunday",
        "hours": "10 AM to 5 PM"
      }
    ],
    "additionalOpeningHours": {
      "Rite Aid Pharmacy": [
        {
          "day": "Monday",
          "hours": "10 AM–1:30 PM"
        },
        {
          "day": "Tuesday",
          "hours": "10 AM–1:30 PM"
        },
        {
          "day": "Wednesday",
          "hours": "10 AM–1:30 PM"
        },
        {
          "day": "Thursday",
          "hours": "10 AM–1:30 PM"
        },
        {
          "day": "Friday",
          "hours": "10 AM–1:30 PM"
        },
        {
          "day": "Saturday",
          "hours": "Closed"
        },
        {
          "day": "Sunday",
          "hours": "Closed"
        }
      ]
    },
    "peopleAlsoSearch": [],
    "placesTags": [],
    "reviewsTags": [],
    "additionalInfo": {
      "Service options": [
        {
          "Delivery": true
        },
        {
          "In-store pickup": true
        }
      ],
      "Accessibility": [
        {
          "Wheelchair accessible entrance": true
        },
        {
          "Wheelchair accessible parking lot": true
        }
      ],
      "Offerings": [
        {
          "Naloxone": true
        }
      ],
      "Planning": [
        {
          "Quick visit": true
        }
      ],
      "Payments": [
        {
          "Checks": true
        },
        {
          "Credit cards": true
        },
        {
          "Debit cards": true
        },
        {
          "NFC mobile payments": true
        },
        {
          "SNAP/EBT": true
        },
        {
          "Credit cards": true
        }
      ]
    },
    "gasPrices": [],
    "url": "https://www.google.com/maps/search/?api=1&query=Rite%20Aid&query_place_id=ChIJR7ljGpu_4okRsDkCCY9lxNg",
    "searchPageUrl": "https://www.google.com/maps/search/pharmacies%20in%20Portsmouth,%20NH%20in%20Portsmouth,%20NH/@65.73786228335844,-169.22169677081524,9z?hl=en",
    "searchString": "pharmacies in Portsmouth, NH in Portsmouth, NH",
    "language": "en",
    "rank": 4,
    "isAdvertisement": false,
    "imageUrl": "https://lh3.googleusercontent.com/gps-cs-s/AC9h4nr9oyDUCbX4cb4_Yy0bVIzKdGrgWecCk3YpDd7T_t3OB1xK_PWnlknNCSF1i5IDeR3SdMn4-6iDw0zF1Dh8ShjXHN0rmzSWSMA0-G5voQ8Ny-OLPDrvJPtQLVpqqR0XJdOhwyjobA=w408-h544-k-no",
    "kgmid": "/g/1tjprhq9"
  },
  {
    "title": "Walmart Pharmacy",
    "price": "$",
    "categoryName": "Pharmacy",
    "address": "2460 Lafayette Rd, Portsmouth, NH 03801",
    "neighborhood": null,
    "street": "2460 Lafayette Rd",
    "city": "Portsmouth",
    "postalCode": "03801",
    "state": "New Hampshire",
    "countryCode": "US",
    "website": "https://www.walmart.com/store/2130-portsmouth-nh/pharmacy/?veh=seo_loc",
    "phone": "(603) 433-6129",
    "phoneUnformatted": "+16034336129",
    "claimThisBusiness": false,
    "location": {
      "lat": 43.0336118,
      "lng": -70.7885106
    },
    "totalScore": 4.4,
    "permanentlyClosed": false,
    "temporarilyClosed": false,
    "placeId": "ChIJnSeQbTjA4okRwOuqlSp8Mn0",
    "categories": [
      "Pharmacy",
      "Herbal medicine store",
      "Medical supply store",
      "Parapharmacy",
      "Vitamin & supplements store"
    ],
    "fid": "0x89e2c0386d90279d:0x7d327c2a95aaebc0",
    "cid": "9021409525918002112",
    "reviewsCount": 21,
    "imagesCount": 6,
    "imageCategories": [],
    "scrapedAt": "2025-06-23T06:09:32.577Z",
    "googleFoodUrl": null,
    "hotelAds": [],
    "openingHours": [
      {
        "day": "Monday",
        "hours": "9 AM to 7 PM"
      },
      {
        "day": "Tuesday",
        "hours": "9 AM to 7 PM"
      },
      {
        "day": "Wednesday",
        "hours": "9 AM to 7 PM"
      },
      {
        "day": "Thursday",
        "hours": "9 AM to 7 PM"
      },
      {
        "day": "Friday",
        "hours": "9 AM to 7 PM"
      },
      {
        "day": "Saturday",
        "hours": "9 AM to 7 PM"
      },
      {
        "day": "Sunday",
        "hours": "10 AM to 6 PM"
      }
    ],
    "peopleAlsoSearch": [],
    "placesTags": [],
    "reviewsTags": [],
    "additionalInfo": {
      "Service options": [
        {
          "Curbside pickup": true
        },
        {
          "Delivery": true
        },
        {
          "In-store pickup": true
        },
        {
          "In-store shopping": true
        },
        {
          "Onsite services": true
        }
      ],
      "Accessibility": [
        {
          "Wheelchair accessible entrance": true
        },
        {
          "Wheelchair accessible parking lot": true
        },
        {
          "Wheelchair accessible restroom": true
        }
      ],
      "Offerings": [
        {
          "Passport photos": true
        }
      ],
      "Amenities": [
        {
          "Wi-Fi": true
        },
        {
          "Free Wi-Fi": true
        }
      ],
      "Planning": [
        {
          "Quick visit": true
        }
      ],
      "Payments": [
        {
          "Credit cards": true
        },
        {
          "Debit cards": true
        },
        {
          "Credit cards": true
        }
      ]
    },
    "gasPrices": [],
    "url": "https://www.google.com/maps/search/?api=1&query=Walmart%20Pharmacy&query_place_id=ChIJnSeQbTjA4okRwOuqlSp8Mn0",
    "searchPageUrl": "https://www.google.com/maps/search/pharmacies%20in%20Portsmouth,%20NH%20in%20Portsmouth,%20NH/@65.73786228335844,-169.22169677081524,9z?hl=en",
    "searchString": "pharmacies in Portsmouth, NH in Portsmouth, NH",
    "language": "en",
    "rank": 5,
    "isAdvertisement": false,
    "imageUrl": "https://lh3.googleusercontent.com/p/AF1QipNPxs-jJ-rPkZJ2H9Ow7fO0jSMHg8dbBWdZQhmR=w408-h306-k-no",
    "kgmid": "/g/11r8cjxdb"
  },
  {
    "title": "Rite Aid",
    "price": "$$",
    "categoryName": "Drug store",
    "address": "1390 Lafayette Rd Unit A, Portsmouth, NH 03801",
    "neighborhood": null,
    "street": "1390 Lafayette Rd Unit A",
    "city": "Portsmouth",
    "postalCode": "03801",
    "state": "New Hampshire",
    "countryCode": "US",
    "website": "https://www.riteaid.com/locations/nh/portsmouth/1390-lafayette-road.html",
    "phone": "(603) 430-7595",
    "phoneUnformatted": "+16034307595",
    "claimThisBusiness": false,
    "location": {
      "lat": 43.0464402,
      "lng": -70.7725656
    },
    "locatedIn": "Rite Aid Pharmacy",
    "totalScore": 3.3,
    "permanentlyClosed": false,
    "temporarilyClosed": false,
    "placeId": "ChIJ_71dMmTA4okRXoi8G7nfCYg",
    "categories": [
      "Drug store",
      "Beauty supply store",
      "Convenience store",
      "General store",
      "Greeting card shop"
    ],
    "fid": "0x89e2c064325dbdff:0x8809dfb91bbc885e",
    "cid": "9802612050075879518",
    "reviewsCount": 48,
    "imagesCount": 27,
    "imageCategories": [],
    "scrapedAt": "2025-06-23T06:09:32.577Z",
    "googleFoodUrl": null,
    "hotelAds": [],
    "openingHours": [
      {
        "day": "Monday",
        "hours": "8 AM to 9 PM"
      },
      {
        "day": "Tuesday",
        "hours": "8 AM to 9 PM"
      },
      {
        "day": "Wednesday",
        "hours": "8 AM to 9 PM"
      },
      {
        "day": "Thursday",
        "hours": "8 AM to 9 PM"
      },
      {
        "day": "Friday",
        "hours": "8 AM to 9 PM"
      },
      {
        "day": "Saturday",
        "hours": "9 AM to 5 PM"
      },
      {
        "day": "Sunday",
        "hours": "9 AM to 5 PM"
      }
    ],
    "additionalOpeningHours": {
      "Rite Aid Pharmacy": [
        {
          "day": "Monday",
          "hours": "9 AM–1:30 PM"
        },
        {
          "day": "Tuesday",
          "hours": "9 AM–1:30 PM"
        },
        {
          "day": "Wednesday",
          "hours": "9 AM–1:30 PM"
        },
        {
          "day": "Thursday",
          "hours": "9 AM–1:30 PM"
        },
        {
          "day": "Friday",
          "hours": "9 AM–1:30 PM"
        },
        {
          "day": "Saturday",
          "hours": "Closed"
        },
        {
          "day": "Sunday",
          "hours": "Closed"
        }
      ]
    },
    "peopleAlsoSearch": [],
    "placesTags": [],
    "reviewsTags": [],
    "additionalInfo": {
      "Service options": [
        {
          "Delivery": true
        },
        {
          "Drive-through": true
        },
        {
          "In-store pickup": true
        },
        {
          "In-store shopping": true
        }
      ],
      "Accessibility": [
        {
          "Wheelchair accessible parking lot": true
        }
      ],
      "Offerings": [
        {
          "Medication disposal": true
        },
        {
          "Naloxone": true
        },
        {
          "Passport photos": true
        }
      ],
      "Planning": [
        {
          "Quick visit": true
        }
      ],
      "Payments": [
        {
          "Checks": true
        },
        {
          "Credit cards": true
        },
        {
          "Debit cards": true
        },
        {
          "NFC mobile payments": true
        },
        {
          "SNAP/EBT": true
        },
        {
          "Credit cards": true
        }
      ]
    },
    "gasPrices": [],
    "url": "https://www.google.com/maps/search/?api=1&query=Rite%20Aid&query_place_id=ChIJ_71dMmTA4okRXoi8G7nfCYg",
    "searchPageUrl": "https://www.google.com/maps/search/pharmacies%20in%20Portsmouth,%20NH%20in%20Portsmouth,%20NH/@65.73786228335844,-169.22169677081524,9z?hl=en",
    "searchString": "pharmacies in Portsmouth, NH in Portsmouth, NH",
    "language": "en",
    "rank": 6,
    "isAdvertisement": false,
    "imageUrl": "https://lh3.googleusercontent.com/gps-cs-s/AC9h4npXBJUUqfTXXeJi_vutdjTFLA1guKkhCXkJCSPpzEmVV0hLsbDKIJITdYcHK6QT3M8xUdEQGCYEWc8CGbyev751xNnrzouS3LJzX6qFyD1fAGj047yA85T7PNKEjvPJi-wxthk=w408-h543-k-no",
    "kgmid": "/g/1tdcmzkr"
  },
  {
    "title": "Rite Aid Pharmacy",
    "price": "$$",
    "categoryName": "Pharmacy",
    "address": "1303 Woodbury Ave, Portsmouth, NH 03801",
    "neighborhood": null,
    "street": "1303 Woodbury Ave",
    "city": "Portsmouth",
    "postalCode": "03801",
    "state": "New Hampshire",
    "countryCode": "US",
    "website": "https://www.riteaid.com/locations/nh/portsmouth/1303-woodbury-avenue.html",
    "phone": "(603) 431-1580",
    "phoneUnformatted": "+16034311580",
    "claimThisBusiness": false,
    "location": {
      "lat": 43.0859822,
      "lng": -70.7868209
    },
    "totalScore": 4,
    "permanentlyClosed": false,
    "temporarilyClosed": false,
    "placeId": "ChIJq6q6iri_4okRIGeNj7Fscpw",
    "categories": [
      "Pharmacy"
    ],
    "fid": "0x89e2bfb88abaaaab:0x9c726cb18f8d6720",
    "cid": "11273192327135192864",
    "reviewsCount": 8,
    "imagesCount": 7,
    "imageCategories": [],
    "scrapedAt": "2025-06-23T06:09:32.577Z",
    "googleFoodUrl": null,
    "hotelAds": [],
    "openingHours": [
      {
        "day": "Monday",
        "hours": "8 AM to 1:30 PM, 2 to 8 PM"
      },
      {
        "day": "Tuesday",
        "hours": "8 AM to 1:30 PM, 2 to 8 PM"
      },
      {
        "day": "Wednesday",
        "hours": "8 AM to 1:30 PM, 2 to 8 PM"
      },
      {
        "day": "Thursday",
        "hours": "8 AM to 1:30 PM, 2 to 8 PM"
      },
      {
        "day": "Friday",
        "hours": "8 AM to 1:30 PM, 2 to 8 PM"
      },
      {
        "day": "Saturday",
        "hours": "10 AM to 1:30 PM, 2 to 5 PM"
      },
      {
        "day": "Sunday",
        "hours": "10 AM to 1:30 PM, 2 to 5 PM"
      }
    ],
    "additionalOpeningHours": {
      "Drive through": [
        {
          "day": "Monday",
          "hours": "8 AM–7 PM"
        },
        {
          "day": "Tuesday",
          "hours": "8 AM–7 PM"
        },
        {
          "day": "Wednesday",
          "hours": "8 AM–7 PM"
        },
        {
          "day": "Thursday",
          "hours": "8 AM–7 PM"
        },
        {
          "day": "Friday",
          "hours": "8 AM–7 PM"
        },
        {
          "day": "Saturday",
          "hours": "9 AM–6 PM"
        },
        {
          "day": "Sunday",
          "hours": "9 AM–5 PM"
        }
      ]
    },
    "peopleAlsoSearch": [],
    "placesTags": [],
    "reviewsTags": [],
    "additionalInfo": {
      "Service options": [
        {
          "Delivery": true
        },
        {
          "Drive-through": true
        },
        {
          "In-store pickup": true
        },
        {
          "In-store shopping": true
        }
      ],
      "Accessibility": [
        {
          "Wheelchair accessible entrance": true
        },
        {
          "Wheelchair accessible parking lot": true
        }
      ],
      "Offerings": [
        {
          "Naloxone": true
        }
      ],
      "Planning": [
        {
          "Quick visit": true
        }
      ],
      "Payments": [
        {
          "Checks": true
        },
        {
          "Credit cards": true
        },
        {
          "Debit cards": true
        },
        {
          "NFC mobile payments": true
        },
        {
          "Credit cards": true
        }
      ]
    },
    "gasPrices": [],
    "url": "https://www.google.com/maps/search/?api=1&query=Rite%20Aid%20Pharmacy&query_place_id=ChIJq6q6iri_4okRIGeNj7Fscpw",
    "searchPageUrl": "https://www.google.com/maps/search/pharmacies%20in%20Portsmouth,%20NH%20in%20Portsmouth,%20NH/@65.73786228335844,-169.22169677081524,9z?hl=en",
    "searchString": "pharmacies in Portsmouth, NH in Portsmouth, NH",
    "language": "en",
    "rank": 7,
    "isAdvertisement": false,
    "imageUrl": "https://lh3.googleusercontent.com/p/AF1QipN-ndRVVZa4ljG9tHDorle0G6tFN_npzV5E8-U=w408-h406-k-no",
    "kgmid": "/g/11gh2qz3fr"
  },
  {
    "title": "The Herbal Path, A Natural Pharmacy",
    "price": null,
    "categoryName": "Pharmacy",
    "address": "1262 Woodbury Ave, Portsmouth, NH 03801",
    "neighborhood": null,
    "street": "1262 Woodbury Ave",
    "city": "Portsmouth",
    "postalCode": "03801",
    "state": "New Hampshire",
    "countryCode": "US",
    "website": "http://www.herbalpath.com/",
    "phone": "(603) 766-6006",
    "phoneUnformatted": "+16037666006",
    "claimThisBusiness": false,
    "location": {
      "lat": 43.0848368,
      "lng": -70.7874094
    },
    "totalScore": 4.7,
    "permanentlyClosed": false,
    "temporarilyClosed": false,
    "placeId": "ChIJvaV6J3_A4okR2BmHsseBnV8",
    "categories": [
      "Pharmacy",
      "Health food store",
      "Natural goods store"
    ],
    "fid": "0x89e2c07f277aa5bd:0x5f9d81c7b28719d8",
    "cid": "6889805699640400344",
    "reviewsCount": 67,
    "imagesCount": 35,
    "imageCategories": [],
    "scrapedAt": "2025-06-23T06:09:33.200Z",
    "googleFoodUrl": null,
    "hotelAds": [],
    "openingHours": [
      {
        "day": "Monday",
        "hours": "10 AM to 6 PM"
      },
      {
        "day": "Tuesday",
        "hours": "10 AM to 6 PM"
      },
      {
        "day": "Wednesday",
        "hours": "10 AM to 6 PM"
      },
      {
        "day": "Thursday",
        "hours": "10 AM to 6 PM"
      },
      {
        "day": "Friday",
        "hours": "10 AM to 6 PM"
      },
      {
        "day": "Saturday",
        "hours": "10 AM to 4 PM"
      },
      {
        "day": "Sunday",
        "hours": "11 AM to 4 PM"
      }
    ],
    "peopleAlsoSearch": [],
    "placesTags": [],
    "reviewsTags": [],
    "additionalInfo": {
      "From the business": [
        {
          "Small business": true
        }
      ],
      "Service options": [
        {
          "In-store pickup": true
        },
        {
          "In-store shopping": true
        },
        {
          "Delivery": false
        },
        {
          "Same-day delivery": false
        }
      ],
      "Accessibility": [
        {
          "Wheelchair accessible parking lot": true
        },
        {
          "Wheelchair accessible entrance": false
        }
      ],
      "Planning": [
        {
          "Quick visit": true
        }
      ],
      "Payments": [
        {
          "Credit cards": true
        }
      ]
    },
    "gasPrices": [],
    "url": "https://www.google.com/maps/search/?api=1&query=The%20Herbal%20Path%2C%20A%20Natural%20Pharmacy&query_place_id=ChIJvaV6J3_A4okR2BmHsseBnV8",
    "searchPageUrl": "https://www.google.com/maps/search/pharmacies%20in%20Portsmouth,%20NH%20in%20Portsmouth,%20NH/@52.48183889042627,-173.06656398612373,11z?hl=en",
    "searchString": "pharmacies in Portsmouth, NH in Portsmouth, NH",
    "language": "en",
    "rank": 7,
    "isAdvertisement": false,
    "imageUrl": "https://lh3.googleusercontent.com/gps-cs-s/AC9h4noOWyOnpfNoVLaJf4dLknJnMbO2NcfJIvd2O5TB6XiEkIKEbtbZMT6BEsbSe3VEFHjqsQ8AJ9pNRhJvcPxgjb04tv2QQXV_Fg2izMt5jE7ZcHplCKpf0mcsRP0ijFFK6G2rD-e72Q=w408-h544-k-no",
    "kgmid": "/g/1yh4g_wm8"
  },
  {
    "title": "Rite Aid Pharmacy",
    "price": null,
    "categoryName": "Pharmacy",
    "address": "800 Islington St #1, Portsmouth, NH 03801, United States",
    "neighborhood": null,
    "street": "800 Islington St #1",
    "city": "Portsmouth",
    "postalCode": "03801",
    "state": "New Hampshire",
    "countryCode": "US",
    "website": "https://www.riteaid.com/locations/nh/portsmouth/800-islington-street.html",
    "phone": "+1 603-436-2214",
    "phoneUnformatted": "+16034362214",
    "claimThisBusiness": false,
    "location": {
      "lat": 43.0685132,
      "lng": -70.7721881
    },
    "permanentlyClosed": false,
    "temporarilyClosed": false,
    "placeId": "ChIJ1Z38G5m_4okRA8vAU8fOn1A",
    "categories": [
      "Pharmacy"
    ],
    "fid": "0x89e2bf991bfc9dd5:0x509fcec753c0cb03",
    "cid": "5809589399830186755",
    "reviewsCount": 0,
    "imagesCount": 1,
    "imageCategories": [],
    "scrapedAt": "2025-06-23T06:09:50.619Z",
    "googleFoodUrl": null,
    "hotelAds": [],
    "openingHours": [
      {
        "day": "Monday",
        "hours": "10 AM to 1:30 PM, 2 to 6 PM"
      },
      {
        "day": "Tuesday",
        "hours": "10 AM to 1:30 PM, 2 to 6 PM"
      },
      {
        "day": "Wednesday",
        "hours": "10 AM to 1:30 PM, 2 to 6 PM"
      },
      {
        "day": "Thursday",
        "hours": "10 AM to 1:30 PM, 2 to 6 PM"
      },
      {
        "day": "Friday",
        "hours": "10 AM to 1:30 PM, 2 to 6 PM"
      },
      {
        "day": "Saturday",
        "hours": "Closed"
      },
      {
        "day": "Sunday",
        "hours": "Closed"
      }
    ],
    "peopleAlsoSearch": [],
    "placesTags": [],
    "reviewsTags": [],
    "additionalInfo": {
      "Service options": [
        {
          "Delivery": true
        },
        {
          "In-store shopping": true
        }
      ],
      "Accessibility": [
        {
          "Wheelchair-accessible car park": true
        },
        {
          "Wheelchair-accessible entrance": true
        }
      ],
      "Planning": [
        {
          "Quick visit": true
        }
      ],
      "Payments": [
        {
          "Cheques": true
        },
        {
          "Credit cards": true
        },
        {
          "Debit cards": true
        },
        {
          "NFC mobile payments": true
        }
      ]
    },
    "gasPrices": [],
    "url": "https://www.google.com/maps/search/?api=1&query=Rite%20Aid%20Pharmacy&query_place_id=ChIJ1Z38G5m_4okRA8vAU8fOn1A",
    "searchPageUrl": "https://www.google.com/maps/search/pharmacies%20in%20Portsmouth,%20NH%20in%20Portsmouth,%20NH/@56.34792242500989,-169.4900814092578,12z?hl=en",
    "searchString": "pharmacies in Portsmouth, NH in Portsmouth, NH",
    "language": "en",
    "rank": 9,
    "isAdvertisement": false,
    "imageUrl": "https://streetviewpixels-pa.googleapis.com/v1/thumbnail?panoid=rp4EcO0blueIVINFUgMPRg&cb_client=search.gws-prod.gps&w=408&h=240&yaw=222.86551&pitch=0&thumbfov=100",
    "kgmid": "/g/11v18y6217"
  },
  {
    "title": "Rite Aid Pharmacy",
    "price": null,
    "categoryName": "Pharmacy",
    "address": "1390 Lafayette Rd Unit A, Portsmouth, NH 03801, United States",
    "neighborhood": null,
    "street": "1390 Lafayette Rd Unit A",
    "city": "Portsmouth",
    "postalCode": "03801",
    "state": "New Hampshire",
    "countryCode": "US",
    "website": "https://www.riteaid.com/locations/nh/portsmouth/1390-lafayette-road.html",
    "phone": "+1 603-430-7595",
    "phoneUnformatted": "+16034307595",
    "claimThisBusiness": false,
    "location": {
      "lat": 43.0465503,
      "lng": -70.7727242
    },
    "permanentlyClosed": false,
    "temporarilyClosed": false,
    "placeId": "ChIJq6qq-WTA4okRxLj3sVXVQy8",
    "categories": [
      "Pharmacy"
    ],
    "fid": "0x89e2c064f9aaaaab:0x2f43d555b1f7b8c4",
    "cid": "3405800307256965316",
    "reviewsCount": 0,
    "imagesCount": 7,
    "imageCategories": [],
    "scrapedAt": "2025-06-23T06:09:50.619Z",
    "googleFoodUrl": null,
    "hotelAds": [],
    "openingHours": [
      {
        "day": "Monday",
        "hours": "9 AM to 1:30 PM, 2 to 5 PM"
      },
      {
        "day": "Tuesday",
        "hours": "9 AM to 1:30 PM, 2 to 5 PM"
      },
      {
        "day": "Wednesday",
        "hours": "9 AM to 1:30 PM, 2 to 5 PM"
      },
      {
        "day": "Thursday",
        "hours": "9 AM to 1:30 PM, 2 to 5 PM"
      },
      {
        "day": "Friday",
        "hours": "9 AM to 1:30 PM, 2 to 5 PM"
      },
      {
        "day": "Saturday",
        "hours": "Closed"
      },
      {
        "day": "Sunday",
        "hours": "Closed"
      }
    ],
    "additionalOpeningHours": {
      "Drive-through": [
        {
          "day": "Monday",
          "hours": "8 am–8 pm"
        },
        {
          "day": "Tuesday",
          "hours": "8 am–8 pm"
        },
        {
          "day": "Wednesday",
          "hours": "8 am–8 pm"
        },
        {
          "day": "Thursday",
          "hours": "8 am–8 pm"
        },
        {
          "day": "Friday",
          "hours": "8 am–8 pm"
        },
        {
          "day": "Saturday",
          "hours": "8 am–6 pm"
        },
        {
          "day": "Sunday",
          "hours": "8 am–5 pm"
        }
      ]
    },
    "peopleAlsoSearch": [],
    "placesTags": [],
    "reviewsTags": [],
    "additionalInfo": {
      "Service options": [
        {
          "Delivery": true
        },
        {
          "Drive-through": true
        },
        {
          "In-store pick-up": true
        }
      ],
      "Accessibility": [
        {
          "Wheelchair-accessible car park": true
        },
        {
          "Wheelchair-accessible entrance": true
        }
      ],
      "Planning": [
        {
          "Quick visit": true
        }
      ],
      "Payments": [
        {
          "Cheques": true
        },
        {
          "Credit cards": true
        },
        {
          "Debit cards": true
        },
        {
          "NFC mobile payments": true
        },
        {
          "Credit cards": true
        }
      ]
    },
    "gasPrices": [],
    "url": "https://www.google.com/maps/search/?api=1&query=Rite%20Aid%20Pharmacy&query_place_id=ChIJq6qq-WTA4okRxLj3sVXVQy8",
    "searchPageUrl": "https://www.google.com/maps/search/pharmacies%20in%20Portsmouth,%20NH%20in%20Portsmouth,%20NH/@56.34792242500989,-169.4900814092578,12z?hl=en",
    "searchString": "pharmacies in Portsmouth, NH in Portsmouth, NH",
    "language": "en",
    "rank": 10,
    "isAdvertisement": false,
    "imageUrl": "https://lh3.googleusercontent.com/p/AF1QipP6v0Pe-7XdrvQjjRAqEVEKAfjeyuXZmn3dhDsE=w408-h406-k-no",
    "kgmid": "/g/11n2195kbj"
  }
]