[
  {
    "title": "Rutland Pharmacy",
    "price": null,
    "categoryName": "Pharmacy",
    "address": "75 Allen St, Rutland, VT 05701",
    "neighborhood": null,
    "street": "75 Allen St",
    "city": "Rutland",
    "postalCode": "05701",
    "state": "Vermont",
    "countryCode": "US",
    "website": "http://rutlandpharmacy.com/",
    "phone": "(802) 775-2545",
    "phoneUnformatted": "+18027752545",
    "claimThisBusiness": false,
    "location": {
      "lat": 43.5977914,
      "lng": -72.9629503
    },
    "totalScore": 3.4,
    "permanentlyClosed": false,
    "temporarilyClosed": false,
    "placeId": "ChIJ7_iMAPMk4IkRdLssgKBDjIc",
    "categories": [
      "Pharmacy"
    ],
    "fid": "0x89e024f3008cf8ef:0x878c43a0802cbb74",
    "cid": "9767256048484006772",
    "reviewsCount": 95,
    "imagesCount": 6,
    "imageCategories": [],
    "scrapedAt": "2025-06-23T06:10:31.060Z",
    "googleFoodUrl": null,
    "hotelAds": [],
    "openingHours": [
      {
        "day": "Monday",
        "hours": "9 AM to 7 PM"
      },
      {
        "day": "Tuesday",
        "hours": "9 AM to 7 PM"
      },
      {
        "day": "Wednesday",
        "hours": "9 AM to 7 PM"
      },
      {
        "day": "Thursday",
        "hours": "9 AM to 7 PM"
      },
      {
        "day": "Friday",
        "hours": "9 AM to 7 PM"
      },
      {
        "day": "Saturday",
        "hours": "9 AM to 3 PM"
      },
      {
        "day": "Sunday",
        "hours": "9 AM to 1 PM"
      }
    ],
    "peopleAlsoSearch": [],
    "placesTags": [],
    "reviewsTags": [],
    "additionalInfo": {
      "From the business": [
        {
          "Small business": true
        }
      ],
      "Service options": [
        {
          "Delivery": true
        },
        {
          "Drive-through": true
        },
        {
          "In-store pickup": true
        },
        {
          "Same-day delivery": true
        }
      ],
      "Accessibility": [
        {
          "Wheelchair accessible entrance": true
        },
        {
          "Wheelchair accessible parking lot": true
        }
      ],
      "Offerings": [
        {
          "Medication disposal": true
        }
      ],
      "Planning": [
        {
          "Quick visit": true
        }
      ],
      "Payments": [
        {
          "Credit cards": true
        },
        {
          "Debit cards": true
        },
        {
          "NFC mobile payments": true
        },
        {
          "Credit cards": true
        }
      ]
    },
    "gasPrices": [],
    "url": "https://www.google.com/maps/search/?api=1&query=Rutland%20Pharmacy&query_place_id=ChIJ7_iMAPMk4IkRdLssgKBDjIc",
    "searchPageUrl": "https://www.google.com/maps/search/pharmacies%20in%20Rutland,%20VT%20in%20Rutland,%20VT/@61.56929586514925,-164.61850082811145,9z?hl=en",
    "searchString": "pharmacies in Rutland, VT in Rutland, VT",
    "language": "en",
    "rank": 1,
    "isAdvertisement": false,
    "imageUrl": "https://lh3.googleusercontent.com/gps-cs-s/AC9h4noE84zDe5b9XDoD9rpPx7r4OVsv0BUmV-52A548zbWJDkrWTENaf6gV1tczjvNfpSZIjQBsGPBG94TEKS04AnrjgmzUzvexdp2sceeJD_McQxkTbNr4iiSicivB9tJsefzCSRX9=w408-h725-k-no",
    "kgmid": "/g/1tp1ztp4"
  },
  {
    "title": "CVS Pharmacy",
    "price": null,
    "categoryName": "Pharmacy",
    "address": "31-33 S Main St, Rutland, VT 05701",
    "neighborhood": null,
    "street": "31-33 S Main St",
    "city": "Rutland",
    "postalCode": "05701",
    "state": "Vermont",
    "countryCode": "US",
    "website": "https://www.cvs.com/store-locator/rutland-vt-pharmacies/31-33-main-street-rutland-vt-05701/storeid=673?WT.mc_id=LS_GOOGLE_RX_673",
    "phone": "(802) 775-6736",
    "phoneUnformatted": "+18027756736",
    "claimThisBusiness": false,
    "location": {
      "lat": 43.6104201,
      "lng": -72.973202
    },
    "totalScore": 4.3,
    "permanentlyClosed": false,
    "temporarilyClosed": false,
    "placeId": "ChIJh_P_TWAk4IkRNTuO2g9Q8s4",
    "categories": [
      "Pharmacy"
    ],
    "fid": "0x89e024604dfff387:0xcef2500fda8e3b35",
    "cid": "14912069345198619445",
    "reviewsCount": 15,
    "imagesCount": 8,
    "imageCategories": [],
    "scrapedAt": "2025-06-23T06:10:31.061Z",
    "googleFoodUrl": null,
    "hotelAds": [],
    "openingHours": [
      {
        "day": "Monday",
        "hours": "9 AM to 1:30 PM, 2 to 7 PM"
      },
      {
        "day": "Tuesday",
        "hours": "9 AM to 1:30 PM, 2 to 7 PM"
      },
      {
        "day": "Wednesday",
        "hours": "9 AM to 1:30 PM, 2 to 7 PM"
      },
      {
        "day": "Thursday",
        "hours": "9 AM to 1:30 PM, 2 to 7 PM"
      },
      {
        "day": "Friday",
        "hours": "9 AM to 1:30 PM, 2 to 7 PM"
      },
      {
        "day": "Saturday",
        "hours": "9 AM to 1:30 PM, 2 to 5 PM"
      },
      {
        "day": "Sunday",
        "hours": "9 AM to 1:30 PM, 2 to 5 PM"
      }
    ],
    "peopleAlsoSearch": [],
    "placesTags": [],
    "reviewsTags": [],
    "additionalInfo": {
      "Service options": [
        {
          "Delivery": true
        },
        {
          "Drive-through": true
        },
        {
          "In-store shopping": true
        },
        {
          "Onsite services": true
        }
      ],
      "Accessibility": [
        {
          "Wheelchair accessible entrance": true
        },
        {
          "Wheelchair accessible parking lot": true
        }
      ],
      "Offerings": [
        {
          "Medication disposal": true
        },
        {
          "Naloxone": true
        },
        {
          "Passport photos": true
        }
      ],
      "Crowd": [
        {
          "LGBTQ+ friendly": true
        },
        {
          "Transgender safespace": true
        }
      ],
      "Planning": [
        {
          "Quick visit": true
        }
      ],
      "Payments": [
        {
          "Credit cards": true
        },
        {
          "Debit cards": true
        },
        {
          "NFC mobile payments": true
        },
        {
          "SNAP/EBT": true
        },
        {
          "Credit cards": true
        }
      ]
    },
    "gasPrices": [],
    "url": "https://www.google.com/maps/search/?api=1&query=CVS%20Pharmacy&query_place_id=ChIJh_P_TWAk4IkRNTuO2g9Q8s4",
    "searchPageUrl": "https://www.google.com/maps/search/pharmacies%20in%20Rutland,%20VT%20in%20Rutland,%20VT/@61.56929586514925,-164.61850082811145,9z?hl=en",
    "searchString": "pharmacies in Rutland, VT in Rutland, VT",
    "language": "en",
    "rank": 2,
    "isAdvertisement": false,
    "imageUrl": "https://lh3.googleusercontent.com/p/AF1QipPaKKww1eDer8T1ukMP9EzEifGVPYWoD30_O9y2=w408-h275-k-no",
    "kgmid": "/g/11c2kkxsdl"
  },
  {
    "title": "Walgreens Pharmacy",
    "description": "Department of the Walgreens chain providing prescription medications & other health-related items.",
    "price": "$$",
    "categoryName": "Pharmacy",
    "address": "10 Woodstock Ave, Rutland, VT 05701",
    "neighborhood": null,
    "street": "10 Woodstock Ave",
    "city": "Rutland",
    "postalCode": "05701",
    "state": "Vermont",
    "countryCode": "US",
    "website": "https://www.walgreens.com/locator/walgreens-10+woodstock+ave-rutland-vt-05701/id=1756",
    "phone": "(802) 773-6980",
    "phoneUnformatted": "+18027736980",
    "claimThisBusiness": false,
    "location": {
      "lat": 43.6104251,
      "lng": -72.971233
    },
    "totalScore": 4.1,
    "permanentlyClosed": false,
    "temporarilyClosed": false,
    "placeId": "ChIJP1YdE2ck4IkROM_f6IsQhRA",
    "categories": [
      "Pharmacy"
    ],
    "fid": "0x89e02467131d563f:0x1085108be8dfcf38",
    "cid": "1190375869602844472",
    "reviewsCount": 9,
    "imagesCount": 3,
    "imageCategories": [],
    "scrapedAt": "2025-06-23T06:10:31.061Z",
    "googleFoodUrl": null,
    "hotelAds": [],
    "openingHours": [
      {
        "day": "Monday",
        "hours": "9 AM to 1:30 PM, 2 to 9 PM"
      },
      {
        "day": "Tuesday",
        "hours": "9 AM to 1:30 PM, 2 to 9 PM"
      },
      {
        "day": "Wednesday",
        "hours": "9 AM to 1:30 PM, 2 to 9 PM"
      },
      {
        "day": "Thursday",
        "hours": "9 AM to 1:30 PM, 2 to 9 PM"
      },
      {
        "day": "Friday",
        "hours": "9 AM to 1:30 PM, 2 to 9 PM"
      },
      {
        "day": "Saturday",
        "hours": "9 AM to 1:30 PM, 2 to 5 PM"
      },
      {
        "day": "Sunday",
        "hours": "9 AM to 1:30 PM, 2 to 5 PM"
      }
    ],
    "additionalOpeningHours": {
      "Drive through": [
        {
          "day": "Monday",
          "hours": "9 AM–1:30 PM"
        },
        {
          "day": "Tuesday",
          "hours": "9 AM–1:30 PM"
        },
        {
          "day": "Wednesday",
          "hours": "9 AM–1:30 PM"
        },
        {
          "day": "Thursday",
          "hours": "9 AM–1:30 PM"
        },
        {
          "day": "Friday",
          "hours": "9 AM–1:30 PM"
        },
        {
          "day": "Saturday",
          "hours": "9 AM–1:30 PM"
        },
        {
          "day": "Sunday",
          "hours": "9 AM–1:30 PM"
        }
      ]
    },
    "peopleAlsoSearch": [],
    "placesTags": [],
    "reviewsTags": [],
    "additionalInfo": {
      "Service options": [
        {
          "Drive-through": true
        },
        {
          "In-store pickup": true
        }
      ],
      "Accessibility": [
        {
          "Wheelchair accessible entrance": true
        },
        {
          "Wheelchair accessible parking lot": true
        }
      ],
      "Offerings": [
        {
          "Naloxone": true
        }
      ],
      "Planning": [
        {
          "Quick visit": true
        }
      ],
      "Payments": [
        {
          "Checks": true
        },
        {
          "Credit cards": true
        },
        {
          "Debit cards": true
        }
      ]
    },
    "gasPrices": [],
    "url": "https://www.google.com/maps/search/?api=1&query=Walgreens%20Pharmacy&query_place_id=ChIJP1YdE2ck4IkROM_f6IsQhRA",
    "searchPageUrl": "https://www.google.com/maps/search/pharmacies%20in%20Rutland,%20VT%20in%20Rutland,%20VT/@61.56929586514925,-164.61850082811145,9z?hl=en",
    "searchString": "pharmacies in Rutland, VT in Rutland, VT",
    "language": "en",
    "rank": 3,
    "isAdvertisement": false,
    "imageUrl": "https://lh3.googleusercontent.com/p/AF1QipNWxXsKATzCYQMtMRydlbta72pQK7zP-ACr3QhR=w525-h240-k-no",
    "kgmid": "/g/11cn9665_j"
  },
  {
    "title": "CVS",
    "description": "Drugstore chain selling a variety of beauty & health products, plus some grocery & household items.",
    "price": null,
    "categoryName": "Drug store",
    "address": "31-33 S Main St, Rutland, VT 05701",
    "neighborhood": null,
    "street": "31-33 S Main St",
    "city": "Rutland",
    "postalCode": "05701",
    "state": "Vermont",
    "countryCode": "US",
    "website": "https://www.cvs.com/store-locator/rutland-vt-pharmacies/31-33-main-street-rutland-vt-05701/storeid=673?WT.mc_id=LS_GOOGLE_FS_673",
    "phone": "(802) 775-6736",
    "phoneUnformatted": "+18027756736",
    "claimThisBusiness": false,
    "location": {
      "lat": 43.6103794,
      "lng": -72.9733586
    },
    "locatedIn": "CVS Pharmacy",
    "totalScore": 2.5,
    "permanentlyClosed": false,
    "temporarilyClosed": false,
    "placeId": "ChIJudEl5mYk4IkRiRIHva0F5S4",
    "categories": [
      "Drug store",
      "Beauty supply store",
      "Beer store",
      "Convenience store",
      "Cosmetics store",
      "Greeting card shop",
      "Perfume store",
      "Stationery store",
      "Vitamin & supplements store",
      "Wine store"
    ],
    "fid": "0x89e02466e625d1b9:0x2ee505adbd071289",
    "cid": "3379113339170263689",
    "reviewsCount": 55,
    "imagesCount": 10,
    "imageCategories": [],
    "scrapedAt": "2025-06-23T06:10:31.061Z",
    "googleFoodUrl": null,
    "hotelAds": [],
    "openingHours": [
      {
        "day": "Monday",
        "hours": "8 AM to 9 PM"
      },
      {
        "day": "Tuesday",
        "hours": "8 AM to 9 PM"
      },
      {
        "day": "Wednesday",
        "hours": "8 AM to 9 PM"
      },
      {
        "day": "Thursday",
        "hours": "8 AM to 9 PM"
      },
      {
        "day": "Friday",
        "hours": "8 AM to 9 PM"
      },
      {
        "day": "Saturday",
        "hours": "8 AM to 9 PM"
      },
      {
        "day": "Sunday",
        "hours": "8 AM to 9 PM"
      }
    ],
    "additionalOpeningHours": {
      "CVS Pharmacy": [
        {
          "day": "Monday",
          "hours": "9 AM–1:30 PM"
        },
        {
          "day": "Tuesday",
          "hours": "9 AM–1:30 PM"
        },
        {
          "day": "Wednesday",
          "hours": "9 AM–1:30 PM"
        },
        {
          "day": "Thursday",
          "hours": "9 AM–1:30 PM"
        },
        {
          "day": "Friday",
          "hours": "9 AM–1:30 PM"
        },
        {
          "day": "Saturday",
          "hours": "9 AM–1:30 PM"
        },
        {
          "day": "Sunday",
          "hours": "9 AM–1:30 PM"
        }
      ],
      "CVS Photo": [
        {
          "day": "Monday",
          "hours": "8 AM–9 PM"
        },
        {
          "day": "Tuesday",
          "hours": "8 AM–9 PM"
        },
        {
          "day": "Wednesday",
          "hours": "8 AM–9 PM"
        },
        {
          "day": "Thursday",
          "hours": "8 AM–9 PM"
        },
        {
          "day": "Friday",
          "hours": "8 AM–9 PM"
        },
        {
          "day": "Saturday",
          "hours": "8 AM–9 PM"
        },
        {
          "day": "Sunday",
          "hours": "8 AM–9 PM"
        }
      ]
    },
    "peopleAlsoSearch": [],
    "placesTags": [],
    "reviewsTags": [],
    "additionalInfo": {
      "Service options": [
        {
          "Delivery": true
        },
        {
          "Drive-through": true
        },
        {
          "In-store shopping": true
        },
        {
          "Same-day delivery": false
        }
      ],
      "Accessibility": [
        {
          "Wheelchair accessible entrance": true
        },
        {
          "Wheelchair accessible parking lot": true
        }
      ],
      "Offerings": [
        {
          "Passport photos": true
        }
      ],
      "Crowd": [
        {
          "LGBTQ+ friendly": true
        },
        {
          "Transgender safespace": true
        }
      ],
      "Planning": [
        {
          "Quick visit": true
        }
      ],
      "Payments": [
        {
          "Credit cards": true
        },
        {
          "Debit cards": true
        },
        {
          "Credit cards": true
        }
      ]
    },
    "gasPrices": [],
    "url": "https://www.google.com/maps/search/?api=1&query=CVS&query_place_id=ChIJudEl5mYk4IkRiRIHva0F5S4",
    "searchPageUrl": "https://www.google.com/maps/search/pharmacies%20in%20Rutland,%20VT%20in%20Rutland,%20VT/@61.56929586514925,-164.61850082811145,9z?hl=en",
    "searchString": "pharmacies in Rutland, VT in Rutland, VT",
    "language": "en",
    "rank": 4,
    "isAdvertisement": false,
    "imageUrl": "https://lh3.googleusercontent.com/gps-cs-s/AC9h4nrsMEeVr_aGWftEVyoRUNEOZBVJND3x1gPQA7z3ot7TK8bOL1xPTNdteiyK-_0djSBq5FyhkYt8ppAbDI7vd4mtJgC7p8GoS-9iikCXEyCDtqyQX9n_KjI6gPxtIdaMvtgLTss=w408-h306-k-no",
    "kgmid": "/g/1tgny6lw"
  },
  {
    "title": "RRMC Pharmacy",
    "price": null,
    "categoryName": "Pharmacy",
    "address": "160 Allen St, Rutland, VT 05701",
    "neighborhood": null,
    "street": "160 Allen St",
    "city": "Rutland",
    "postalCode": "05701",
    "state": "Vermont",
    "countryCode": "US",
    "website": "https://www.rrmc.org/patient-visitors/pharmacy/",
    "phone": "(802) 747-1777",
    "phoneUnformatted": "+18027471777",
    "claimThisBusiness": false,
    "location": {
      "lat": 43.5983802,
      "lng": -72.9551016
    },
    "totalScore": 4.1,
    "permanentlyClosed": false,
    "temporarilyClosed": false,
    "placeId": "ChIJ____oPkk4IkRvGUGlj1YbW0",
    "categories": [
      "Pharmacy"
    ],
    "fid": "0x89e024f9a0ffffff:0x6d6d583d960665bc",
    "cid": "7885055544128857532",
    "reviewsCount": 10,
    "imagesCount": 1,
    "imageCategories": [],
    "scrapedAt": "2025-06-23T06:10:31.061Z",
    "googleFoodUrl": null,
    "hotelAds": [],
    "openingHours": [
      {
        "day": "Monday",
        "hours": "8 AM to 6 PM"
      },
      {
        "day": "Tuesday",
        "hours": "8 AM to 6 PM"
      },
      {
        "day": "Wednesday",
        "hours": "8 AM to 6 PM"
      },
      {
        "day": "Thursday",
        "hours": "8 AM to 6 PM"
      },
      {
        "day": "Friday",
        "hours": "8 AM to 6 PM"
      },
      {
        "day": "Saturday",
        "hours": "8 AM to 4 PM"
      },
      {
        "day": "Sunday",
        "hours": "8 AM to 4 PM"
      }
    ],
    "peopleAlsoSearch": [],
    "placesTags": [],
    "reviewsTags": [],
    "additionalInfo": {
      "Service options": [
        {
          "In-store pickup": true
        },
        {
          "In-store shopping": true
        },
        {
          "Onsite services": true
        }
      ],
      "Accessibility": [
        {
          "Wheelchair accessible entrance": true
        },
        {
          "Wheelchair accessible parking lot": true
        },
        {
          "Wheelchair accessible restroom": true
        },
        {
          "Wheelchair accessible seating": true
        }
      ],
      "Amenities": [
        {
          "Gender-neutral restroom": true
        },
        {
          "Wi-Fi": true
        },
        {
          "Free Wi-Fi": true
        }
      ],
      "Payments": [
        {
          "Credit cards": true
        },
        {
          "Debit cards": true
        },
        {
          "NFC mobile payments": true
        },
        {
          "Credit cards": true
        }
      ]
    },
    "gasPrices": [],
    "url": "https://www.google.com/maps/search/?api=1&query=RRMC%20Pharmacy&query_place_id=ChIJ____oPkk4IkRvGUGlj1YbW0",
    "searchPageUrl": "https://www.google.com/maps/search/pharmacies%20in%20Rutland,%20VT%20in%20Rutland,%20VT/@61.56929586514925,-164.61850082811145,9z?hl=en",
    "searchString": "pharmacies in Rutland, VT in Rutland, VT",
    "language": "en",
    "rank": 5,
    "isAdvertisement": false,
    "imageUrl": "https://lh3.googleusercontent.com/p/AF1QipMS4Kanrs-s9H60hVs6_IZy2nPaXmyWn1Q59xo4=w408-h272-k-no",
    "kgmid": "/g/11hcncl2jq"
  },
  {
    "title": "Market 32 Pharmacy",
    "price": null,
    "categoryName": "Pharmacy",
    "address": "38 rutland shopping Plaza, Rutland, VT 05701",
    "neighborhood": null,
    "street": "38 rutland shopping Plaza",
    "city": "Rutland",
    "postalCode": "05701",
    "state": "Vermont",
    "countryCode": "US",
    "website": "https://www.pricechopper.com/stores/vt/rutland/pharmacy-131.html",
    "phone": "(802) 747-7887",
    "phoneUnformatted": "+18027477887",
    "claimThisBusiness": false,
    "location": {
      "lat": 43.603847,
      "lng": -72.9784273
    },
    "totalScore": 5,
    "permanentlyClosed": false,
    "temporarilyClosed": false,
    "placeId": "ChIJ-zL2R1sk4IkRSXj_uizyhQ4",
    "categories": [
      "Pharmacy",
      "Drug store",
      "Vitamin & supplements store"
    ],
    "fid": "0x89e0245b47f632fb:0xe85f22cbaff7849",
    "cid": "1046508762363295817",
    "reviewsCount": 3,
    "imagesCount": 2,
    "imageCategories": [],
    "scrapedAt": "2025-06-23T06:10:31.061Z",
    "googleFoodUrl": null,
    "hotelAds": [],
    "openingHours": [
      {
        "day": "Monday",
        "hours": "8 AM to 1:30 PM, 2 to 7 PM"
      },
      {
        "day": "Tuesday",
        "hours": "8 AM to 1:30 PM, 2 to 7 PM"
      },
      {
        "day": "Wednesday",
        "hours": "8 AM to 1:30 PM, 2 to 7 PM"
      },
      {
        "day": "Thursday",
        "hours": "8 AM to 1:30 PM, 2 to 7 PM"
      },
      {
        "day": "Friday",
        "hours": "8 AM to 1:30 PM, 2 to 7 PM"
      },
      {
        "day": "Saturday",
        "hours": "10 AM to 3 PM"
      },
      {
        "day": "Sunday",
        "hours": "10 AM to 2 PM"
      }
    ],
    "peopleAlsoSearch": [],
    "placesTags": [],
    "reviewsTags": [],
    "additionalInfo": {
      "Service options": [
        {
          "Curbside pickup": true
        },
        {
          "Delivery": true
        },
        {
          "In-store pickup": true
        }
      ],
      "Accessibility": [
        {
          "Wheelchair accessible entrance": true
        },
        {
          "Wheelchair accessible parking lot": true
        }
      ],
      "Planning": [
        {
          "Quick visit": true
        }
      ],
      "Payments": [
        {
          "Credit cards": true
        },
        {
          "NFC mobile payments": true
        }
      ]
    },
    "gasPrices": [],
    "url": "https://www.google.com/maps/search/?api=1&query=Market%2032%20Pharmacy&query_place_id=ChIJ-zL2R1sk4IkRSXj_uizyhQ4",
    "searchPageUrl": "https://www.google.com/maps/search/pharmacies%20in%20Rutland,%20VT%20in%20Rutland,%20VT/@61.56929586514925,-164.61850082811145,9z?hl=en",
    "searchString": "pharmacies in Rutland, VT in Rutland, VT",
    "language": "en",
    "rank": 6,
    "isAdvertisement": false,
    "imageUrl": "https://lh3.googleusercontent.com/gps-cs-s/AC9h4no3p3pCDQ0h6A3_9OhGlQ3MHOOWxynFqPInF7e4BxzkmofLn7W9Jur-rFpdEaX2McJ9w20Pq3SJ-xsEx8VIuqUfyLBhOa6Sy8ezxEYEC0dkN9MZSw9iYCzJijfNpBtp7mpPviFk=w408-h408-k-no",
    "kgmid": "/g/113fj53_7"
  },
  {
    "title": "Beauchamp & O'Rourke",
    "price": null,
    "categoryName": "Pharmacy",
    "address": "62 Woodstock Ave, Rutland, VT 05701",
    "neighborhood": null,
    "street": "62 Woodstock Ave",
    "city": "Rutland",
    "postalCode": "05701",
    "state": "Vermont",
    "countryCode": "US",
    "website": "https://www.beauchamppharmacy.com/",
    "phone": "(802) 775-4321",
    "phoneUnformatted": "+18027754321",
    "claimThisBusiness": false,
    "location": {
      "lat": 43.6122933,
      "lng": -72.966625
    },
    "totalScore": 4.6,
    "permanentlyClosed": false,
    "temporarilyClosed": false,
    "placeId": "ChIJIaUgKF0k4IkRYvUcqj-uiCc",
    "categories": [
      "Pharmacy"
    ],
    "fid": "0x89e0245d2820a521:0x2788ae3faa1cf562",
    "cid": "2848718352772035938",
    "reviewsCount": 22,
    "imagesCount": 6,
    "imageCategories": [],
    "scrapedAt": "2025-06-23T06:10:31.061Z",
    "googleFoodUrl": null,
    "hotelAds": [],
    "openingHours": [
      {
        "day": "Monday",
        "hours": "8 AM to 6 PM"
      },
      {
        "day": "Tuesday",
        "hours": "8 AM to 6 PM"
      },
      {
        "day": "Wednesday",
        "hours": "8 AM to 6 PM"
      },
      {
        "day": "Thursday",
        "hours": "8 AM to 6 PM"
      },
      {
        "day": "Friday",
        "hours": "8 AM to 6 PM"
      },
      {
        "day": "Saturday",
        "hours": "9 AM to 12 PM"
      },
      {
        "day": "Sunday",
        "hours": "Closed"
      }
    ],
    "peopleAlsoSearch": [],
    "placesTags": [],
    "reviewsTags": [],
    "additionalInfo": {
      "From the business": [
        {
          "Small business": true
        }
      ],
      "Service options": [
        {
          "Delivery": true
        }
      ],
      "Accessibility": [
        {
          "Wheelchair accessible entrance": true
        },
        {
          "Wheelchair accessible parking lot": true
        }
      ],
      "Planning": [
        {
          "Quick visit": true
        }
      ],
      "Payments": [
        {
          "Credit cards": true
        },
        {
          "Debit cards": true
        },
        {
          "NFC mobile payments": true
        },
        {
          "Credit cards": true
        }
      ]
    },
    "gasPrices": [],
    "url": "https://www.google.com/maps/search/?api=1&query=Beauchamp%20%26%20O'Rourke&query_place_id=ChIJIaUgKF0k4IkRYvUcqj-uiCc",
    "searchPageUrl": "https://www.google.com/maps/search/pharmacies%20in%20Rutland,%20VT%20in%20Rutland,%20VT/@61.56929586514925,-164.61850082811145,9z?hl=en",
    "searchString": "pharmacies in Rutland, VT in Rutland, VT",
    "language": "en",
    "rank": 7,
    "isAdvertisement": false,
    "imageUrl": "https://lh3.googleusercontent.com/gps-cs-s/AC9h4noSKUm62lUdV2jhEZRS0OHF6zahx8qNDGs6bMRokHEbKR14IV_D2WdEQW_h6nxIt0bMYkweWkOG6FNm4Vd6hVoVSSduequG8rdnQM-KRAvAT30OIqyM5VCzRCg5HzMj9VltwyaYHg=w408-h544-k-no",
    "kgmid": "/g/1tzzwhzp"
  },
  {
    "title": "Walgreens",
    "description": "Drugstore chain with health & beauty aids, prescriptions & photo services, plus mini-mart basics.",
    "price": "$$",
    "categoryName": "Drug store",
    "address": "10 Woodstock Ave, Rutland, VT 05701",
    "neighborhood": null,
    "street": "10 Woodstock Ave",
    "city": "Rutland",
    "postalCode": "05701",
    "state": "Vermont",
    "countryCode": "US",
    "website": "https://www.walgreens.com/locator/walgreens-10+woodstock+ave-rutland-vt-05701/id=1756",
    "phone": "(802) 773-6980",
    "phoneUnformatted": "+18027736980",
    "claimThisBusiness": false,
    "location": {
      "lat": 43.6104724,
      "lng": -72.9713079
    },
    "locatedIn": "Walgreens Pharmacy",
    "totalScore": 3.2,
    "permanentlyClosed": false,
    "temporarilyClosed": false,
    "placeId": "ChIJL2w0DGck4IkRUEbv3n6yZko",
    "categories": [
      "Drug store",
      "Beauty supply store",
      "Convenience store",
      "Cosmetics store",
      "Greeting card shop",
      "Perfume store",
      "Stationery store"
    ],
    "fid": "0x89e024670c346c2f:0x4a66b27edeef4650",
    "cid": "5361168664407000656",
    "reviewsCount": 70,
    "imagesCount": 10,
    "imageCategories": [],
    "scrapedAt": "2025-06-23T06:10:31.062Z",
    "googleFoodUrl": null,
    "hotelAds": [],
    "openingHours": [
      {
        "day": "Monday",
        "hours": "7 AM to 10 PM"
      },
      {
        "day": "Tuesday",
        "hours": "7 AM to 10 PM"
      },
      {
        "day": "Wednesday",
        "hours": "7 AM to 10 PM"
      },
      {
        "day": "Thursday",
        "hours": "7 AM to 10 PM"
      },
      {
        "day": "Friday",
        "hours": "7 AM to 10 PM"
      },
      {
        "day": "Saturday",
        "hours": "7 AM to 10 PM"
      },
      {
        "day": "Sunday",
        "hours": "7 AM to 10 PM"
      }
    ],
    "additionalOpeningHours": {
      "Walgreens Pharmacy": [
        {
          "day": "Monday",
          "hours": "9 AM–1:30 PM"
        },
        {
          "day": "Tuesday",
          "hours": "9 AM–1:30 PM"
        },
        {
          "day": "Wednesday",
          "hours": "9 AM–1:30 PM"
        },
        {
          "day": "Thursday",
          "hours": "9 AM–1:30 PM"
        },
        {
          "day": "Friday",
          "hours": "9 AM–1:30 PM"
        },
        {
          "day": "Saturday",
          "hours": "9 AM–1:30 PM"
        },
        {
          "day": "Sunday",
          "hours": "9 AM–1:30 PM"
        }
      ],
      "Walgreens Photo": [
        {
          "day": "Monday",
          "hours": "7 AM–10 PM"
        },
        {
          "day": "Tuesday",
          "hours": "7 AM–10 PM"
        },
        {
          "day": "Wednesday",
          "hours": "7 AM–10 PM"
        },
        {
          "day": "Thursday",
          "hours": "7 AM–10 PM"
        },
        {
          "day": "Friday",
          "hours": "7 AM–10 PM"
        },
        {
          "day": "Saturday",
          "hours": "7 AM–10 PM"
        },
        {
          "day": "Sunday",
          "hours": "7 AM–10 PM"
        }
      ],
      "Pickup": [
        {
          "day": "Monday",
          "hours": "7 AM–10 PM"
        },
        {
          "day": "Tuesday",
          "hours": "7 AM–10 PM"
        },
        {
          "day": "Wednesday",
          "hours": "7 AM–10 PM"
        },
        {
          "day": "Thursday",
          "hours": "7 AM–10 PM"
        },
        {
          "day": "Friday",
          "hours": "7 AM–10 PM"
        },
        {
          "day": "Saturday",
          "hours": "7 AM–10 PM"
        },
        {
          "day": "Sunday",
          "hours": "7 AM–10 PM"
        }
      ]
    },
    "peopleAlsoSearch": [],
    "placesTags": [],
    "reviewsTags": [],
    "additionalInfo": {
      "Service options": [
        {
          "Curbside pickup": true
        },
        {
          "Delivery": true
        },
        {
          "Drive-through": true
        },
        {
          "In-store pickup": true
        },
        {
          "Onsite services": true
        }
      ],
      "Accessibility": [
        {
          "Wheelchair accessible entrance": true
        },
        {
          "Wheelchair accessible parking lot": true
        }
      ],
      "Planning": [
        {
          "Quick visit": true
        }
      ],
      "Payments": [
        {
          "Checks": true
        },
        {
          "Credit cards": true
        },
        {
          "Debit cards": true
        },
        {
          "NFC mobile payments": true
        },
        {
          "SNAP/EBT": true
        },
        {
          "Credit cards": true
        }
      ]
    },
    "gasPrices": [],
    "url": "https://www.google.com/maps/search/?api=1&query=Walgreens&query_place_id=ChIJL2w0DGck4IkRUEbv3n6yZko",
    "searchPageUrl": "https://www.google.com/maps/search/pharmacies%20in%20Rutland,%20VT%20in%20Rutland,%20VT/@61.56929586514925,-164.61850082811145,9z?hl=en",
    "searchString": "pharmacies in Rutland, VT in Rutland, VT",
    "language": "en",
    "rank": 8,
    "isAdvertisement": false,
    "imageUrl": "https://lh3.googleusercontent.com/gps-cs-s/AC9h4nrFbW8MsLHPaXgPysqTey4vwJvxPJ0i_i5uryq_M4hXUgEWbm0FH1aQxqiATy8p_kha90S3PXQ1fw4fJmIezZPsDwsAYUvr_agtAXvbaMw9RCJc6Drrsu1UMck9OCU5XOw3Vnu22A=w408-h306-k-no",
    "kgmid": "/g/1vd729xx"
  },
  {
    "title": "Hannaford Pharmacy",
    "price": "$$",
    "categoryName": "Pharmacy",
    "address": "318 S Main St, Rutland, VT 05701",
    "neighborhood": "North Clarendon",
    "street": "318 S Main St",
    "city": "Rutland",
    "postalCode": "05701",
    "state": "Vermont",
    "countryCode": "US",
    "website": "https://stores.hannaford.com/vt/rutland/8306",
    "phone": "(802) 775-5858",
    "phoneUnformatted": "+18027755858",
    "claimThisBusiness": false,
    "location": {
      "lat": 43.5858796,
      "lng": -72.9709661
    },
    "totalScore": 4.4,
    "permanentlyClosed": false,
    "temporarilyClosed": false,
    "placeId": "ChIJfQGEHWck4IkRiA4TbWLn6EM",
    "categories": [
      "Pharmacy"
    ],
    "fid": "0x89e024671d84017d:0x43e8e7626d130e88",
    "cid": "4893415405060820616",
    "reviewsCount": 9,
    "imagesCount": 6,
    "imageCategories": [],
    "scrapedAt": "2025-06-23T06:10:31.062Z",
    "googleFoodUrl": null,
    "hotelAds": [],
    "openingHours": [
      {
        "day": "Monday",
        "hours": "9 AM to 8 PM"
      },
      {
        "day": "Tuesday",
        "hours": "9 AM to 8 PM"
      },
      {
        "day": "Wednesday",
        "hours": "9 AM to 8 PM"
      },
      {
        "day": "Thursday",
        "hours": "9 AM to 8 PM"
      },
      {
        "day": "Friday",
        "hours": "9 AM to 8 PM"
      },
      {
        "day": "Saturday",
        "hours": "9 AM to 6 PM"
      },
      {
        "day": "Sunday",
        "hours": "9 AM to 5 PM"
      }
    ],
    "peopleAlsoSearch": [],
    "placesTags": [],
    "reviewsTags": [],
    "additionalInfo": {
      "Service options": [
        {
          "Curbside pickup": true
        },
        {
          "Delivery": true
        },
        {
          "In-store pickup": true
        },
        {
          "Same-day delivery": true
        }
      ],
      "Accessibility": [
        {
          "Wheelchair accessible entrance": true
        },
        {
          "Wheelchair accessible parking lot": true
        }
      ],
      "Planning": [
        {
          "Quick visit": true
        }
      ],
      "Payments": [
        {
          "Checks": true
        },
        {
          "Credit cards": true
        },
        {
          "Debit cards": true
        }
      ]
    },
    "gasPrices": [],
    "url": "https://www.google.com/maps/search/?api=1&query=Hannaford%20Pharmacy&query_place_id=ChIJfQGEHWck4IkRiA4TbWLn6EM",
    "searchPageUrl": "https://www.google.com/maps/search/pharmacies%20in%20Rutland,%20VT%20in%20Rutland,%20VT/@61.56929586514925,-164.61850082811145,9z?hl=en",
    "searchString": "pharmacies in Rutland, VT in Rutland, VT",
    "language": "en",
    "rank": 9,
    "isAdvertisement": false,
    "imageUrl": "https://lh3.googleusercontent.com/gps-cs-s/AC9h4nrpDznBz2YzWimKUqYExQUTxJ6r7aURNBXzyritMdam1jL7oFYqVvGL45mrWjTBHZ4e9N9hl1fhEh5rW1sDDFGsNBxvnqsGs9fcxzdv14M4_9CTEJQ41tN4BNSWX-Xjsri5xf2U=w408-h408-k-no",
    "kgmid": "/g/1tf_jdsf"
  },
  {
    "title": "Martin J. Irons, BPharm",
    "price": null,
    "categoryName": "Pharmacy",
    "address": "62 Woodstock Ave, Rutland, VT 05701",
    "neighborhood": null,
    "street": "62 Woodstock Ave",
    "city": "Rutland",
    "postalCode": "05701",
    "state": "Vermont",
    "countryCode": "US",
    "phone": "(802) 775-4321",
    "phoneUnformatted": "+18027754321",
    "claimThisBusiness": true,
    "location": {
      "lat": 43.6122967,
      "lng": -72.9666101
    },
    "totalScore": 5,
    "permanentlyClosed": false,
    "temporarilyClosed": false,
    "placeId": "ChIJIaUgKF0k4IkRJri33MM6vDQ",
    "categories": [
      "Pharmacy"
    ],
    "fid": "0x89e0245d2820a521:0x34bc3ac3dcb7b826",
    "cid": "3799976798489917478",
    "reviewsCount": 1,
    "imagesCount": 1,
    "imageCategories": [],
    "scrapedAt": "2025-06-23T06:10:31.062Z",
    "googleFoodUrl": null,
    "hotelAds": [],
    "openingHours": [],
    "peopleAlsoSearch": [],
    "placesTags": [],
    "reviewsTags": [],
    "additionalInfo": {
      "Accessibility": [
        {
          "Wheelchair accessible parking lot": true
        }
      ]
    },
    "gasPrices": [],
    "url": "https://www.google.com/maps/search/?api=1&query=Martin%20J.%20Irons%2C%20BPharm&query_place_id=ChIJIaUgKF0k4IkRJri33MM6vDQ",
    "searchPageUrl": "https://www.google.com/maps/search/pharmacies%20in%20Rutland,%20VT%20in%20Rutland,%20VT/@61.56929586514925,-164.61850082811145,9z?hl=en",
    "searchString": "pharmacies in Rutland, VT in Rutland, VT",
    "language": "en",
    "rank": 10,
    "isAdvertisement": false,
    "imageUrl": "https://streetviewpixels-pa.googleapis.com/v1/thumbnail?panoid=T4Ha-BHBL3dZC8gMpJCvkA&cb_client=search.gws-prod.gps&w=408&h=240&yaw=136.23991&pitch=0&thumbfov=100",
    "kgmid": "/g/1tdz0z4f"
  }
]