[
  {
    "title": "Valley Wellness Pharmacy/MobilityPlus of Charleston WV",
    "price": null,
    "categoryName": "Pharmacy",
    "address": "3715 MacCorkle Ave SE, Charleston, WV 25304",
    "neighborhood": null,
    "street": "3715 MacCorkle Ave SE",
    "city": "Charleston",
    "postalCode": "25304",
    "state": "West Virginia",
    "countryCode": "US",
    "website": "http://www.valleywellnesspharmacy.com/",
    "phone": "(304) 932-0032",
    "phoneUnformatted": "+13049320032",
    "claimThisBusiness": false,
    "location": {
      "lat": 38.3275244,
      "lng": -81.5943973
    },
    "totalScore": 3.6,
    "permanentlyClosed": false,
    "temporarilyClosed": false,
    "placeId": "ChIJaXOjt2crT4gRfndFAHCyPD8",
    "categories": [
      "Pharmacy",
      "Mobility equipment supplier"
    ],
    "fid": "0x884f2b67b7a37369:0x3f3cb2700045777e",
    "cid": "4556713117102733182",
    "reviewsCount": 35,
    "imagesCount": 39,
    "imageCategories": [],
    "scrapedAt": "2025-06-23T06:32:50.074Z",
    "googleFoodUrl": null,
    "hotelAds": [],
    "openingHours": [
      {
        "day": "Monday",
        "hours": "9 AM to 6 PM"
      },
      {
        "day": "Tuesday",
        "hours": "9 AM to 6 PM"
      },
      {
        "day": "Wednesday",
        "hours": "9 AM to 6 PM"
      },
      {
        "day": "Thursday",
        "hours": "9 AM to 6 PM"
      },
      {
        "day": "Friday",
        "hours": "9 AM to 6 PM"
      },
      {
        "day": "Saturday",
        "hours": "9 AM to 2 PM"
      },
      {
        "day": "Sunday",
        "hours": "Closed"
      }
    ],
    "peopleAlsoSearch": [],
    "placesTags": [],
    "reviewsTags": [],
    "additionalInfo": {
      "From the business": [
        {
          "Small business": true
        }
      ],
      "Service options": [
        {
          "Delivery": true
        },
        {
          "Drive-through": true
        },
        {
          "In-store pickup": true
        },
        {
          "Same-day delivery": true
        }
      ],
      "Accessibility": [
        {
          "Wheelchair accessible entrance": true
        },
        {
          "Wheelchair accessible parking lot": true
        }
      ],
      "Planning": [
        {
          "Quick visit": true
        }
      ],
      "Payments": [
        {
          "Credit cards": true
        },
        {
          "Debit cards": true
        },
        {
          "NFC mobile payments": true
        },
        {
          "Credit cards": true
        }
      ]
    },
    "gasPrices": [],
    "url": "https://www.google.com/maps/search/?api=1&query=Valley%20Wellness%20Pharmacy%2FMobilityPlus%20of%20Charleston%20WV&query_place_id=ChIJaXOjt2crT4gRfndFAHCyPD8",
    "searchPageUrl": "https://www.google.com/maps/search/independent%20pharmacies%20in%20Charleston,%20WV%20in%20Charleston,%20WV/@-11.259521065084295,-171.1468150485474,13z?hl=en",
    "searchString": "independent pharmacies in Charleston, WV in Charleston, WV",
    "language": "en",
    "rank": 1,
    "isAdvertisement": false,
    "imageUrl": "https://lh3.googleusercontent.com/p/AF1QipOkY2jx2PSgAnmGH4bdRxexMBhHFoVsnplZXfuo=w408-h306-k-no",
    "kgmid": "/g/11cn9mfvn7"
  },
  {
    "title": "Good Life Apothecary",
    "price": null,
    "categoryName": "Pharmacy",
    "address": "3212 Pennsylvania Ave Ste 8, Charleston, WV 25302",
    "neighborhood": null,
    "street": "3212 Pennsylvania Ave Ste 8",
    "city": "Charleston",
    "postalCode": "25302",
    "state": "West Virginia",
    "countryCode": "US",
    "website": "http://www.goodfamilypharmacy.com/",
    "phone": "(304) 345-8600",
    "phoneUnformatted": "+13043458600",
    "claimThisBusiness": true,
    "location": {
      "lat": 38.398973,
      "lng": -81.572215
    },
    "totalScore": 5,
    "permanentlyClosed": false,
    "temporarilyClosed": false,
    "placeId": "ChIJQ-XFXFrUSIgR4ZxP_eQP0qU",
    "categories": [
      "Pharmacy"
    ],
    "fid": "0x8848d45a5cc5e543:0xa5d20fe4fd4f9ce1",
    "cid": "11948630237544160481",
    "reviewsCount": 16,
    "imagesCount": 4,
    "imageCategories": [],
    "scrapedAt": "2025-06-23T06:32:50.076Z",
    "googleFoodUrl": null,
    "hotelAds": [],
    "openingHours": [
      {
        "day": "Monday",
        "hours": "9 AM to 6:30 PM"
      },
      {
        "day": "Tuesday",
        "hours": "9 AM to 6:30 PM"
      },
      {
        "day": "Wednesday",
        "hours": "9 AM to 6:30 PM"
      },
      {
        "day": "Thursday",
        "hours": "9 AM to 6:30 PM"
      },
      {
        "day": "Friday",
        "hours": "9 AM to 6:30 PM"
      },
      {
        "day": "Saturday",
        "hours": "Closed"
      },
      {
        "day": "Sunday",
        "hours": "Closed"
      }
    ],
    "peopleAlsoSearch": [],
    "placesTags": [],
    "reviewsTags": [],
    "additionalInfo": {
      "Accessibility": [
        {
          "Wheelchair accessible entrance": true
        },
        {
          "Wheelchair accessible parking lot": true
        }
      ],
      "Planning": [
        {
          "Quick visit": true
        }
      ],
      "Payments": [
        {
          "Credit cards": true
        },
        {
          "Debit cards": true
        },
        {
          "NFC mobile payments": true
        },
        {
          "Credit cards": true
        }
      ]
    },
    "gasPrices": [],
    "url": "https://www.google.com/maps/search/?api=1&query=Good%20Life%20Apothecary&query_place_id=ChIJQ-XFXFrUSIgR4ZxP_eQP0qU",
    "searchPageUrl": "https://www.google.com/maps/search/independent%20pharmacies%20in%20Charleston,%20WV%20in%20Charleston,%20WV/@-11.259521065084295,-171.1468150485474,13z?hl=en",
    "searchString": "independent pharmacies in Charleston, WV in Charleston, WV",
    "language": "en",
    "rank": 2,
    "isAdvertisement": false,
    "imageUrl": "https://lh3.googleusercontent.com/gps-cs-s/AC9h4noHbUrT0bxWz3-tHmVxUGW5kW-pDSVOj1D2UH32ZWtxgrRfuO5amU3g32qq8aLyJA7BJaf_LkK8LptDKj4B4_HobDNPXmF8K0KpMU5vEsJrj0gzmz4v315uFqpV8T6DOE9z6GVsCw=w408-h306-k-no",
    "kgmid": "/g/11bv3mlr27"
  },
  {
    "title": "Drug Emporium",
    "price": null,
    "categoryName": "Pharmacy",
    "address": "1603 Kanawha Blvd W, Charleston, WV 25387",
    "neighborhood": null,
    "street": "1603 Kanawha Blvd W",
    "city": "Charleston",
    "postalCode": "25387",
    "state": "West Virginia",
    "countryCode": "US",
    "website": "http://www.drugemp.com/",
    "phone": "(304) 345-5921",
    "phoneUnformatted": "+13043455921",
    "claimThisBusiness": false,
    "location": {
      "lat": 38.3675923,
      "lng": -81.6672736
    },
    "totalScore": 4.4,
    "permanentlyClosed": false,
    "temporarilyClosed": false,
    "placeId": "ChIJ__CCicjSSIgRQCJHhsenqVQ",
    "categories": [
      "Pharmacy",
      "Wine store"
    ],
    "fid": "0x8848d2c88982f0ff:0x54a9a7c786472240",
    "cid": "6100591645643186752",
    "reviewsCount": 202,
    "imagesCount": 13,
    "imageCategories": [],
    "scrapedAt": "2025-06-23T06:32:50.076Z",
    "googleFoodUrl": null,
    "hotelAds": [],
    "openingHours": [
      {
        "day": "Monday",
        "hours": "9 AM to 8 PM"
      },
      {
        "day": "Tuesday",
        "hours": "9 AM to 8 PM"
      },
      {
        "day": "Wednesday",
        "hours": "9 AM to 8 PM"
      },
      {
        "day": "Thursday",
        "hours": "9 AM to 8 PM"
      },
      {
        "day": "Friday",
        "hours": "9 AM to 8 PM"
      },
      {
        "day": "Saturday",
        "hours": "9 AM to 7 PM"
      },
      {
        "day": "Sunday",
        "hours": "11 AM to 6 PM"
      }
    ],
    "peopleAlsoSearch": [],
    "placesTags": [],
    "reviewsTags": [],
    "additionalInfo": {
      "Service options": [
        {
          "Delivery": true
        },
        {
          "Onsite services": true
        }
      ],
      "Accessibility": [
        {
          "Wheelchair accessible entrance": true
        },
        {
          "Wheelchair accessible parking lot": true
        }
      ],
      "Planning": [
        {
          "Quick visit": true
        }
      ],
      "Payments": [
        {
          "Credit cards": true
        },
        {
          "Debit cards": true
        },
        {
          "NFC mobile payments": true
        },
        {
          "SNAP/EBT": true
        },
        {
          "Credit cards": true
        }
      ]
    },
    "gasPrices": [],
    "url": "https://www.google.com/maps/search/?api=1&query=Drug%20Emporium&query_place_id=ChIJ__CCicjSSIgRQCJHhsenqVQ",
    "searchPageUrl": "https://www.google.com/maps/search/independent%20pharmacies%20in%20Charleston,%20WV%20in%20Charleston,%20WV/@-11.259521065084295,-171.1468150485474,13z?hl=en",
    "searchString": "independent pharmacies in Charleston, WV in Charleston, WV",
    "language": "en",
    "rank": 3,
    "isAdvertisement": false,
    "imageUrl": "https://lh3.googleusercontent.com/gps-cs-s/AC9h4nptDEGx6xw9AAuwylmg1jUDAUnnZnE2GGp-qa3tunkNpmiIpi4kSPYmzK6kDH8-2S9y0koNmymFzvALYQjMjxnSpRCWMFdYFEdgHNyoREZR7Ljx3doZO7eV8TFDLkpxhk-8FE6D=w408-h544-k-no",
    "kgmid": "/g/1tj22704"
  },
  {
    "title": "App Rx Pharmacy",
    "price": null,
    "categoryName": "Pharmacy",
    "address": "708 Bigley Ave, Charleston, WV 25302",
    "neighborhood": null,
    "street": "708 Bigley Ave",
    "city": "Charleston",
    "postalCode": "25302",
    "state": "West Virginia",
    "countryCode": "US",
    "website": "http://wvapplabs.com/",
    "phone": "(304) 306-7778",
    "phoneUnformatted": "+13043067778",
    "claimThisBusiness": true,
    "location": {
      "lat": 38.3603845,
      "lng": -81.6403091
    },
    "totalScore": 4,
    "permanentlyClosed": false,
    "temporarilyClosed": false,
    "placeId": "ChIJhc3T0TrTSIgRsHE0IhgXB-4",
    "categories": [
      "Pharmacy"
    ],
    "fid": "0x8848d33ad1d3cd85:0xee071718223471b0",
    "cid": "17151703098284339632",
    "reviewsCount": 5,
    "imagesCount": 1,
    "imageCategories": [],
    "scrapedAt": "2025-06-23T06:32:50.076Z",
    "googleFoodUrl": null,
    "hotelAds": [],
    "openingHours": [
      {
        "day": "Monday",
        "hours": "8:30 AM to 4:30 PM"
      },
      {
        "day": "Tuesday",
        "hours": "8:30 AM to 4:30 PM"
      },
      {
        "day": "Wednesday",
        "hours": "8:30 AM to 4:30 PM"
      },
      {
        "day": "Thursday",
        "hours": "8:30 AM to 4:30 PM"
      },
      {
        "day": "Friday",
        "hours": "8:30 AM to 4:30 PM"
      },
      {
        "day": "Saturday",
        "hours": "Closed"
      },
      {
        "day": "Sunday",
        "hours": "Closed"
      }
    ],
    "peopleAlsoSearch": [],
    "placesTags": [],
    "reviewsTags": [],
    "additionalInfo": {
      "Service options": [
        {
          "Delivery": true
        },
        {
          "Same-day delivery": true
        }
      ],
      "Accessibility": [
        {
          "Wheelchair accessible entrance": true
        },
        {
          "Wheelchair accessible parking lot": true
        }
      ],
      "Payments": [
        {
          "Credit cards": true
        },
        {
          "Debit cards": true
        },
        {
          "NFC mobile payments": true
        },
        {
          "Credit cards": true
        }
      ]
    },
    "gasPrices": [],
    "url": "https://www.google.com/maps/search/?api=1&query=App%20Rx%20Pharmacy&query_place_id=ChIJhc3T0TrTSIgRsHE0IhgXB-4",
    "searchPageUrl": "https://www.google.com/maps/search/independent%20pharmacies%20in%20Charleston,%20WV%20in%20Charleston,%20WV/@-11.259521065084295,-171.1468150485474,13z?hl=en",
    "searchString": "independent pharmacies in Charleston, WV in Charleston, WV",
    "language": "en",
    "rank": 4,
    "isAdvertisement": false,
    "imageUrl": "https://streetviewpixels-pa.googleapis.com/v1/thumbnail?panoid=YBqJsZYJQHtq48sWJ7cwIg&cb_client=search.gws-prod.gps&w=408&h=240&yaw=161.81322&pitch=0&thumbfov=100",
    "kgmid": "/g/11h8cgjcn1"
  },
  {
    "title": "Drug Emporium",
    "price": null,
    "categoryName": "Pharmacy",
    "address": "5101 MacCorkle Ave SE, Charleston, WV 25304",
    "neighborhood": null,
    "street": "5101 MacCorkle Ave SE",
    "city": "Charleston",
    "postalCode": "25304",
    "state": "West Virginia",
    "countryCode": "US",
    "website": "https://www.drugemp.com/",
    "phone": "(304) 925-7099",
    "phoneUnformatted": "+13049257099",
    "claimThisBusiness": false,
    "location": {
      "lat": 38.3178763,
      "lng": -81.5757386
    },
    "totalScore": 4.5,
    "permanentlyClosed": false,
    "temporarilyClosed": false,
    "placeId": "ChIJtfA4_Q0rT4gRFE9IzQ1R2J8",
    "categories": [
      "Pharmacy",
      "Discount store"
    ],
    "fid": "0x884f2b0dfd38f0b5:0x9fd8510dcd484f14",
    "cid": "11518045166720536340",
    "reviewsCount": 95,
    "imagesCount": 10,
    "imageCategories": [],
    "scrapedAt": "2025-06-23T06:32:50.076Z",
    "googleFoodUrl": null,
    "hotelAds": [],
    "openingHours": [
      {
        "day": "Monday",
        "hours": "9 AM to 8 PM"
      },
      {
        "day": "Tuesday",
        "hours": "9 AM to 8 PM"
      },
      {
        "day": "Wednesday",
        "hours": "9 AM to 8 PM"
      },
      {
        "day": "Thursday",
        "hours": "9 AM to 8 PM"
      },
      {
        "day": "Friday",
        "hours": "9 PM to 12 AM"
      },
      {
        "day": "Saturday",
        "hours": "12 AM to 8 PM"
      },
      {
        "day": "Sunday",
        "hours": "11 AM to 6 PM"
      }
    ],
    "peopleAlsoSearch": [],
    "placesTags": [],
    "reviewsTags": [],
    "additionalInfo": {
      "Service options": [
        {
          "Delivery": false
        },
        {
          "Same-day delivery": false
        }
      ],
      "Accessibility": [
        {
          "Wheelchair accessible entrance": true
        },
        {
          "Wheelchair accessible parking lot": true
        }
      ],
      "Amenities": [
        {
          "Wi-Fi": true
        },
        {
          "Free Wi-Fi": true
        }
      ],
      "Planning": [
        {
          "Quick visit": true
        }
      ],
      "Payments": [
        {
          "Credit cards": true
        },
        {
          "Debit cards": true
        },
        {
          "NFC mobile payments": true
        },
        {
          "SNAP/EBT": true
        },
        {
          "Credit cards": true
        }
      ]
    },
    "gasPrices": [],
    "url": "https://www.google.com/maps/search/?api=1&query=Drug%20Emporium&query_place_id=ChIJtfA4_Q0rT4gRFE9IzQ1R2J8",
    "searchPageUrl": "https://www.google.com/maps/search/independent%20pharmacies%20in%20Charleston,%20WV%20in%20Charleston,%20WV/@-11.259521065084295,-171.1468150485474,13z?hl=en",
    "searchString": "independent pharmacies in Charleston, WV in Charleston, WV",
    "language": "en",
    "rank": 5,
    "isAdvertisement": false,
    "imageUrl": "https://lh3.googleusercontent.com/gps-cs-s/AC9h4nqLx5L0JNhEp_WNkwbNvaK-XDcdtWvVv3cNvANQPu88nXx4QBIae4DCtCazojRNqh9O4aGIEiH-juCbjf4wbXiXcDhM2uVg9QV-qNKixre3WxQdsIL41XWyfNBrvbYizkRQKB8QPw=w408-h253-k-no",
    "kgmid": "/g/1v940rqt"
  },
  {
    "title": "Kines Family Pharmacy",
    "price": null,
    "categoryName": "Pharmacy",
    "address": "6097 Sissonville Dr, Charleston, WV 25312",
    "neighborhood": null,
    "street": "6097 Sissonville Dr",
    "city": "Charleston",
    "postalCode": "25312",
    "state": "West Virginia",
    "countryCode": "US",
    "phone": "(304) 984-1001",
    "phoneUnformatted": "+13049841001",
    "claimThisBusiness": false,
    "location": {
      "lat": 38.466788,
      "lng": -81.669279
    },
    "totalScore": 4.8,
    "permanentlyClosed": false,
    "temporarilyClosed": false,
    "placeId": "ChIJQxKCVcfRSIgRBWGoQ8NZ_Bw",
    "categories": [
      "Pharmacy"
    ],
    "fid": "0x8848d1c755821243:0x1cfc59c343a86105",
    "cid": "2088643022381670661",
    "reviewsCount": 23,
    "imagesCount": 6,
    "imageCategories": [],
    "scrapedAt": "2025-06-23T06:32:50.076Z",
    "googleFoodUrl": null,
    "hotelAds": [],
    "openingHours": [
      {
        "day": "Monday",
        "hours": "9 AM to 7 PM"
      },
      {
        "day": "Tuesday",
        "hours": "9 AM to 7 PM"
      },
      {
        "day": "Wednesday",
        "hours": "9 AM to 7 PM"
      },
      {
        "day": "Thursday",
        "hours": "9 AM to 7 PM"
      },
      {
        "day": "Friday",
        "hours": "9 AM to 7 PM"
      },
      {
        "day": "Saturday",
        "hours": "9 AM to 1 PM"
      },
      {
        "day": "Sunday",
        "hours": "Closed"
      }
    ],
    "peopleAlsoSearch": [],
    "placesTags": [],
    "reviewsTags": [],
    "additionalInfo": {
      "From the business": [
        {
          "Small business": true
        }
      ],
      "Service options": [
        {
          "In-store shopping": true
        }
      ],
      "Accessibility": [
        {
          "Wheelchair accessible entrance": true
        },
        {
          "Wheelchair accessible parking lot": true
        }
      ],
      "Planning": [
        {
          "Quick visit": true
        }
      ],
      "Payments": [
        {
          "Credit cards": true
        },
        {
          "Debit cards": true
        },
        {
          "NFC mobile payments": true
        },
        {
          "Credit cards": true
        }
      ]
    },
    "gasPrices": [],
    "url": "https://www.google.com/maps/search/?api=1&query=Kines%20Family%20Pharmacy&query_place_id=ChIJQxKCVcfRSIgRBWGoQ8NZ_Bw",
    "searchPageUrl": "https://www.google.com/maps/search/independent%20pharmacies%20in%20Charleston,%20WV%20in%20Charleston,%20WV/@-11.259521065084295,-171.1468150485474,13z?hl=en",
    "searchString": "independent pharmacies in Charleston, WV in Charleston, WV",
    "language": "en",
    "rank": 6,
    "isAdvertisement": false,
    "imageUrl": "https://lh3.googleusercontent.com/p/AF1QipOLg092XWJ6pFxOZNbC_1FsR3N2anSyGNCF0Oge=w408-h408-k-no",
    "kgmid": "/g/1tdw44xc"
  },
  {
    "title": "Fruth Pharmacy",
    "price": null,
    "categoryName": "Pharmacy",
    "address": "10 Spring St, Charleston, WV 25302",
    "neighborhood": null,
    "street": "10 Spring St",
    "city": "Charleston",
    "postalCode": "25302",
    "state": "West Virginia",
    "countryCode": "US",
    "website": "http://www.fruthpharmacy.com/",
    "phone": "(304) 553-0320",
    "phoneUnformatted": "+13045530320",
    "claimThisBusiness": false,
    "location": {
      "lat": 38.3594714,
      "lng": -81.6255932
    },
    "totalScore": 4.7,
    "permanentlyClosed": false,
    "temporarilyClosed": false,
    "placeId": "ChIJjYv_AjbTSIgRKB0lF0QxH4Y",
    "categories": [
      "Pharmacy"
    ],
    "fid": "0x8848d33602ff8b8d:0x861f314417251d28",
    "cid": "9664497493876219176",
    "reviewsCount": 3,
    "imagesCount": 1,
    "imageCategories": [],
    "scrapedAt": "2025-06-23T06:32:50.076Z",
    "googleFoodUrl": null,
    "hotelAds": [],
    "openingHours": [
      {
        "day": "Monday",
        "hours": "9 AM to 7 PM"
      },
      {
        "day": "Tuesday",
        "hours": "9 AM to 7 PM"
      },
      {
        "day": "Wednesday",
        "hours": "9 AM to 7 PM"
      },
      {
        "day": "Thursday",
        "hours": "9 AM to 7 PM"
      },
      {
        "day": "Friday",
        "hours": "9 AM to 7 PM"
      },
      {
        "day": "Saturday",
        "hours": "9 AM to 3 PM"
      },
      {
        "day": "Sunday",
        "hours": "Closed"
      }
    ],
    "peopleAlsoSearch": [],
    "placesTags": [],
    "reviewsTags": [],
    "additionalInfo": {
      "Service options": [
        {
          "In-store pickup": true
        }
      ],
      "Accessibility": [
        {
          "Wheelchair accessible entrance": true
        },
        {
          "Wheelchair accessible parking lot": true
        }
      ],
      "Planning": [
        {
          "Quick visit": true
        }
      ],
      "Payments": [
        {
          "Credit cards": true
        }
      ]
    },
    "gasPrices": [],
    "url": "https://www.google.com/maps/search/?api=1&query=Fruth%20Pharmacy&query_place_id=ChIJjYv_AjbTSIgRKB0lF0QxH4Y",
    "searchPageUrl": "https://www.google.com/maps/search/independent%20pharmacies%20in%20Charleston,%20WV%20in%20Charleston,%20WV/@-11.259521065084295,-171.1468150485474,13z?hl=en",
    "searchString": "independent pharmacies in Charleston, WV in Charleston, WV",
    "language": "en",
    "rank": 7,
    "isAdvertisement": false,
    "imageUrl": "https://streetviewpixels-pa.googleapis.com/v1/thumbnail?panoid=5P9XwmQGaMdYhomOcl4KTA&cb_client=search.gws-prod.gps&w=408&h=240&yaw=133.87683&pitch=0&thumbfov=100",
    "kgmid": "/g/11l1js7k1j"
  },
  {
    "title": "Fruth Pharmacy",
    "price": null,
    "categoryName": "Pharmacy",
    "address": "864 Oakwood Rd, Charleston, WV 25314",
    "neighborhood": null,
    "street": "864 Oakwood Rd",
    "city": "Charleston",
    "postalCode": "25314",
    "state": "West Virginia",
    "countryCode": "US",
    "website": "http://www.fruthpharmacy.com/",
    "phone": "(304) 343-2807",
    "phoneUnformatted": "+13043432807",
    "claimThisBusiness": false,
    "location": {
      "lat": 38.3427882,
      "lng": -81.6623548
    },
    "totalScore": 4.5,
    "permanentlyClosed": false,
    "temporarilyClosed": false,
    "placeId": "ChIJFzceyjstT4gRovYIIqcL7uc",
    "categories": [
      "Pharmacy",
      "Beer store",
      "Convenience store",
      "Gift shop",
      "Walk-in clinic"
    ],
    "fid": "0x884f2d3bca1e3717:0xe7ee0ba72208f6a2",
    "cid": "16712308079676946082",
    "reviewsCount": 29,
    "imagesCount": 6,
    "imageCategories": [],
    "scrapedAt": "2025-06-23T06:32:50.076Z",
    "googleFoodUrl": null,
    "hotelAds": [],
    "openingHours": [
      {
        "day": "Monday",
        "hours": "9 AM to 8 PM"
      },
      {
        "day": "Tuesday",
        "hours": "9 AM to 8 PM"
      },
      {
        "day": "Wednesday",
        "hours": "9 AM to 8 PM"
      },
      {
        "day": "Thursday",
        "hours": "9 AM to 8 PM"
      },
      {
        "day": "Friday",
        "hours": "9 AM to 8 PM"
      },
      {
        "day": "Saturday",
        "hours": "9 AM to 5 PM"
      },
      {
        "day": "Sunday",
        "hours": "11 AM to 4 PM"
      }
    ],
    "peopleAlsoSearch": [],
    "placesTags": [],
    "reviewsTags": [],
    "additionalInfo": {
      "Service options": [
        {
          "Drive-through": true
        },
        {
          "In-store pickup": true
        }
      ],
      "Accessibility": [
        {
          "Wheelchair accessible entrance": true
        },
        {
          "Wheelchair accessible parking lot": true
        }
      ],
      "Planning": [
        {
          "Quick visit": true
        }
      ],
      "Payments": [
        {
          "Credit cards": true
        },
        {
          "Debit cards": true
        },
        {
          "NFC mobile payments": true
        },
        {
          "SNAP/EBT": true
        },
        {
          "Credit cards": true
        }
      ]
    },
    "gasPrices": [],
    "url": "https://www.google.com/maps/search/?api=1&query=Fruth%20Pharmacy&query_place_id=ChIJFzceyjstT4gRovYIIqcL7uc",
    "searchPageUrl": "https://www.google.com/maps/search/independent%20pharmacies%20in%20Charleston,%20WV%20in%20Charleston,%20WV/@-11.259521065084295,-171.1468150485474,13z?hl=en",
    "searchString": "independent pharmacies in Charleston, WV in Charleston, WV",
    "language": "en",
    "rank": 8,
    "isAdvertisement": false,
    "imageUrl": "https://lh3.googleusercontent.com/p/AF1QipPFEkjDf_NjEpvycn7m8mQHGlJhh5eupxF4zzYy=w408-h306-k-no",
    "kgmid": "/g/1tj9cpr1"
  },
  {
    "title": "Trivillian's Pharmacy and Soda Fountain",
    "price": null,
    "categoryName": "Pharmacy",
    "address": "215 35th St SE, Charleston, WV 25304",
    "neighborhood": null,
    "street": "215 35th St SE",
    "city": "Charleston",
    "postalCode": "25304",
    "state": "West Virginia",
    "countryCode": "US",
    "website": "http://www.trivillians.com/",
    "phone": "(304) 343-8621",
    "phoneUnformatted": "+13043438621",
    "claimThisBusiness": false,
    "location": {
      "lat": 38.3294999,
      "lng": -81.5986378
    },
    "totalScore": 4.3,
    "permanentlyClosed": false,
    "temporarilyClosed": false,
    "placeId": "ChIJC6ZvsWArT4gRzHPQ01it05A",
    "categories": [
      "Pharmacy",
      "Restaurant"
    ],
    "fid": "0x884f2b60b16fa60b:0x90d3ad58d3d073cc",
    "cid": "10435875358569952204",
    "reviewsCount": 73,
    "imagesCount": 24,
    "imageCategories": [],
    "scrapedAt": "2025-06-23T06:32:50.076Z",
    "googleFoodUrl": null,
    "hotelAds": [],
    "openingHours": [
      {
        "day": "Monday",
        "hours": "9 AM to 6 PM"
      },
      {
        "day": "Tuesday",
        "hours": "9 AM to 6 PM"
      },
      {
        "day": "Wednesday",
        "hours": "9 AM to 6 PM"
      },
      {
        "day": "Thursday",
        "hours": "9 AM to 6 PM"
      },
      {
        "day": "Friday",
        "hours": "9 AM to 6 PM"
      },
      {
        "day": "Saturday",
        "hours": "9 AM to 3 PM"
      },
      {
        "day": "Sunday",
        "hours": "Closed"
      }
    ],
    "peopleAlsoSearch": [],
    "placesTags": [],
    "reviewsTags": [],
    "additionalInfo": {
      "From the business": [
        {
          "Small business": true
        }
      ],
      "Service options": [
        {
          "Delivery": true
        },
        {
          "In-store pickup": true
        },
        {
          "Onsite services": true
        }
      ],
      "Accessibility": [
        {
          "Wheelchair accessible entrance": true
        },
        {
          "Wheelchair accessible parking lot": true
        }
      ],
      "Offerings": [
        {
          "Medication disposal": true
        }
      ],
      "Planning": [
        {
          "Quick visit": true
        }
      ],
      "Payments": [
        {
          "Credit cards": true
        },
        {
          "Debit cards": true
        },
        {
          "NFC mobile payments": true
        },
        {
          "Credit cards": true
        }
      ],
      "Parking": [
        {
          "Free parking lot": true
        },
        {
          "Free street parking": true
        }
      ]
    },
    "gasPrices": [],
    "url": "https://www.google.com/maps/search/?api=1&query=Trivillian's%20Pharmacy%20and%20Soda%20Fountain&query_place_id=ChIJC6ZvsWArT4gRzHPQ01it05A",
    "searchPageUrl": "https://www.google.com/maps/search/independent%20pharmacies%20in%20Charleston,%20WV%20in%20Charleston,%20WV/@-11.259521065084295,-171.1468150485474,13z?hl=en",
    "searchString": "independent pharmacies in Charleston, WV in Charleston, WV",
    "language": "en",
    "rank": 9,
    "isAdvertisement": false,
    "imageUrl": "https://lh3.googleusercontent.com/gps-cs-s/AC9h4npiZLY6uOWpYNEi4iv6NvbflO9JG7iRQEiZS3TMjNmG5JHwB7ijDmzoX_c_6-yyEs6usYtmTMgD9POD9aN5CzEvqDOEreV_m_cRXLHTOkHteFsVmY4xase5sb315eqO5l9L05vp=w408-h306-k-no",
    "kgmid": "/g/1thzvh7k"
  },
  {
    "title": "Fruth Pharmacy",
    "price": null,
    "categoryName": "Pharmacy",
    "address": "511 Morris St, Charleston, WV 25301",
    "neighborhood": null,
    "street": "511 Morris St",
    "city": "Charleston",
    "postalCode": "25301",
    "state": "West Virginia",
    "countryCode": "US",
    "website": "http://www.fruthpharmacy.com/",
    "phone": "(304) 341-0257",
    "phoneUnformatted": "+13043410257",
    "claimThisBusiness": false,
    "location": {
      "lat": 38.3477147,
      "lng": -81.6271626
    },
    "totalScore": 3.7,
    "permanentlyClosed": false,
    "temporarilyClosed": false,
    "placeId": "ChIJmzJH4sksT4gRAlmv23mXLSI",
    "categories": [
      "Pharmacy"
    ],
    "fid": "0x884f2cc9e247329b:0x222d9779dbaf5902",
    "cid": "2462791120874068226",
    "reviewsCount": 9,
    "imagesCount": 1,
    "imageCategories": [],
    "scrapedAt": "2025-06-23T06:32:50.077Z",
    "googleFoodUrl": null,
    "hotelAds": [],
    "openingHours": [
      {
        "day": "Monday",
        "hours": "8:45 AM to 4:30 PM"
      },
      {
        "day": "Tuesday",
        "hours": "8:45 AM to 4:30 PM"
      },
      {
        "day": "Wednesday",
        "hours": "8:45 AM to 4:30 PM"
      },
      {
        "day": "Thursday",
        "hours": "8:45 AM to 4:30 PM"
      },
      {
        "day": "Friday",
        "hours": "8:45 AM to 4:30 PM"
      },
      {
        "day": "Saturday",
        "hours": "Closed"
      },
      {
        "day": "Sunday",
        "hours": "Closed"
      }
    ],
    "peopleAlsoSearch": [],
    "placesTags": [],
    "reviewsTags": [],
    "additionalInfo": {
      "Accessibility": [
        {
          "Wheelchair accessible entrance": true
        },
        {
          "Wheelchair accessible parking lot": true
        }
      ],
      "Payments": [
        {
          "Credit cards": true
        },
        {
          "Debit cards": true
        },
        {
          "NFC mobile payments": true
        },
        {
          "Credit cards": true
        }
      ]
    },
    "gasPrices": [],
    "url": "https://www.google.com/maps/search/?api=1&query=Fruth%20Pharmacy&query_place_id=ChIJmzJH4sksT4gRAlmv23mXLSI",
    "searchPageUrl": "https://www.google.com/maps/search/independent%20pharmacies%20in%20Charleston,%20WV%20in%20Charleston,%20WV/@-11.259521065084295,-171.1468150485474,13z?hl=en",
    "searchString": "independent pharmacies in Charleston, WV in Charleston, WV",
    "language": "en",
    "rank": 10,
    "isAdvertisement": false,
    "imageUrl": "https://streetviewpixels-pa.googleapis.com/v1/thumbnail?panoid=CskfulM8h9caRXY9hHbvdA&cb_client=search.gws-prod.gps&w=408&h=240&yaw=255.05516&pitch=0&thumbfov=100",
    "kgmid": "/g/11cr_s1j17"
  }
]