[
  {
    "title": "Streu's Pharmacy Bay Natural",
    "price": null,
    "categoryName": "Pharmacy",
    "address": "635 Main St, Green Bay, WI 54301",
    "neighborhood": null,
    "street": "635 Main St",
    "city": "Green Bay",
    "postalCode": "54301",
    "state": "Wisconsin",
    "countryCode": "US",
    "website": "http://www.streuspharmacybaynatural.com/",
    "phone": "(920) 437-0206",
    "phoneUnformatted": "+19204370206",
    "claimThisBusiness": false,
    "location": {
      "lat": 44.5165935,
      "lng": -88.0068767
    },
    "totalScore": 4.5,
    "permanentlyClosed": false,
    "temporarilyClosed": false,
    "placeId": "ChIJtWvmgUnlAogR8ibTAR5j_k4",
    "categories": [
      "Pharmacy",
      "Health food store"
    ],
    "fid": "0x8802e54981e66bb5:0x4efe631e01d326f2",
    "cid": "5692095959573669618",
    "reviewsCount": 125,
    "imagesCount": 12,
    "imageCategories": [],
    "scrapedAt": "2025-06-23T05:36:26.072Z",
    "googleFoodUrl": null,
    "hotelAds": [],
    "openingHours": [
      {
        "day": "Monday",
        "hours": "9 AM to 5 PM"
      },
      {
        "day": "Tuesday",
        "hours": "9 AM to 5 PM"
      },
      {
        "day": "Wednesday",
        "hours": "9 AM to 5 PM"
      },
      {
        "day": "Thursday",
        "hours": "9 AM to 5 PM"
      },
      {
        "day": "Friday",
        "hours": "9 AM to 5 PM"
      },
      {
        "day": "Saturday",
        "hours": "Closed"
      },
      {
        "day": "Sunday",
        "hours": "Closed"
      }
    ],
    "peopleAlsoSearch": [],
    "placesTags": [],
    "reviewsTags": [],
    "additionalInfo": {
      "From the business": [
        {
          "Identifies as women-owned": true
        },
        {
          "Small business": true
        }
      ],
      "Service options": [
        {
          "Curbside pickup": true
        },
        {
          "Delivery": true
        },
        {
          "In-store pickup": true
        },
        {
          "In-store shopping": true
        },
        {
          "Onsite services": true
        },
        {
          "Same-day delivery": true
        }
      ],
      "Accessibility": [
        {
          "Wheelchair accessible entrance": true
        },
        {
          "Wheelchair accessible parking lot": true
        }
      ],
      "Planning": [
        {
          "Quick visit": true
        }
      ],
      "Payments": [
        {
          "Credit cards": true
        },
        {
          "Debit cards": true
        },
        {
          "NFC mobile payments": true
        },
        {
          "Credit cards": true
        }
      ],
      "Parking": [
        {
          "Free parking lot": true
        }
      ]
    },
    "gasPrices": [],
    "url": "https://www.google.com/maps/search/?api=1&query=Streu's%20Pharmacy%20Bay%20Natural&query_place_id=ChIJtWvmgUnlAogR8ibTAR5j_k4",
    "searchPageUrl": "https://www.google.com/maps/search/independent%20pharmacy%20in%20Green%20Bay,%20WI/@70.60118977126913,-157.71370691405576,9z?hl=en",
    "searchString": "independent pharmacy in Green Bay, WI",
    "language": "en",
    "rank": 1,
    "isAdvertisement": false,
    "imageUrl": "https://lh3.googleusercontent.com/p/AF1QipNyvixAJlxpr37SXSiOb9Lv_CtNqy-1F1y4luZ0=w408-h272-k-no",
    "kgmid": "/g/1tdy0g4x"
  },
  {
    "title": "Custom Health Pharmacy",
    "price": null,
    "categoryName": "Pharmacy",
    "address": "844 Willard Dr, Green Bay, WI 54304",
    "neighborhood": null,
    "street": "844 Willard Dr",
    "city": "Green Bay",
    "postalCode": "54304",
    "state": "Wisconsin",
    "countryCode": "US",
    "website": "http://customhealthpharmacy.com/",
    "phone": "(920) 884-7345",
    "phoneUnformatted": "+19208847345",
    "claimThisBusiness": false,
    "location": {
      "lat": 44.4873549,
      "lng": -88.0649415
    },
    "totalScore": 4.5,
    "permanentlyClosed": false,
    "temporarilyClosed": false,
    "placeId": "ChIJKwRxpbD7AogRHbYomjHvitA",
    "categories": [
      "Pharmacy"
    ],
    "fid": "0x8802fbb0a571042b:0xd08aef319a28b61d",
    "cid": "15027086102993876509",
    "reviewsCount": 17,
    "imagesCount": 4,
    "imageCategories": [],
    "scrapedAt": "2025-06-23T05:36:26.074Z",
    "googleFoodUrl": null,
    "hotelAds": [],
    "openingHours": [
      {
        "day": "Monday",
        "hours": "9 AM to 5 PM"
      },
      {
        "day": "Tuesday",
        "hours": "9 AM to 5 PM"
      },
      {
        "day": "Wednesday",
        "hours": "9 AM to 5 PM"
      },
      {
        "day": "Thursday",
        "hours": "9 AM to 5 PM"
      },
      {
        "day": "Friday",
        "hours": "9 AM to 5 PM"
      },
      {
        "day": "Saturday",
        "hours": "Closed"
      },
      {
        "day": "Sunday",
        "hours": "Closed"
      }
    ],
    "peopleAlsoSearch": [],
    "placesTags": [],
    "reviewsTags": [],
    "additionalInfo": {
      "From the business": [
        {
          "Small business": true
        }
      ],
      "Accessibility": [
        {
          "Wheelchair accessible entrance": true
        },
        {
          "Wheelchair accessible parking lot": true
        }
      ],
      "Payments": [
        {
          "Credit cards": true
        },
        {
          "Debit cards": true
        },
        {
          "NFC mobile payments": true
        },
        {
          "Credit cards": true
        }
      ]
    },
    "gasPrices": [],
    "url": "https://www.google.com/maps/search/?api=1&query=Custom%20Health%20Pharmacy&query_place_id=ChIJKwRxpbD7AogRHbYomjHvitA",
    "searchPageUrl": "https://www.google.com/maps/search/independent%20pharmacy%20in%20Green%20Bay,%20WI/@70.60118977126913,-157.71370691405576,9z?hl=en",
    "searchString": "independent pharmacy in Green Bay, WI",
    "language": "en",
    "rank": 2,
    "isAdvertisement": false,
    "imageUrl": "https://lh3.googleusercontent.com/gps-cs-s/AC9h4no8gXml1eviUpjIlnZhP-aoXqNN4h4nirBsHF1Ie8VQdLfT-eeRiGJcIl0AivHb5R2L85Y2ch4-oKd2DvIiZJQ_UvycPFlwlC-W4R2WDmp9QG3GImoTa7yWYyFaQclCm10YA7Mphg=w408-h306-k-no",
    "kgmid": "/g/11cnwj2lzj"
  },
  {
    "title": "Pharmacy Stars, LLC",
    "price": null,
    "categoryName": "Pharmacy",
    "address": "790 Hansen Rd Suite E 28040, Green Bay, WI 54301",
    "neighborhood": null,
    "street": "790 Hansen Rd Suite E 28040",
    "city": "Green Bay",
    "postalCode": "54301",
    "state": "Wisconsin",
    "countryCode": "US",
    "website": "http://pharmacystars.com/",
    "phone": "(866) 351-2664",
    "phoneUnformatted": "+18663512664",
    "claimThisBusiness": true,
    "location": {
      "lat": 44.4753956,
      "lng": -88.0707992
    },
    "permanentlyClosed": false,
    "temporarilyClosed": false,
    "placeId": "ChIJVVXl0-r7AogRvJeMc_WBdrk",
    "categories": [
      "Pharmacy"
    ],
    "fid": "0x8802fbead3e55555:0xb97681f5738c97bc",
    "cid": "13364011835474089916",
    "reviewsCount": 0,
    "imagesCount": null,
    "imageCategories": [],
    "scrapedAt": "2025-06-23T05:36:26.074Z",
    "googleFoodUrl": null,
    "hotelAds": [],
    "openingHours": [],
    "peopleAlsoSearch": [],
    "placesTags": [],
    "reviewsTags": [],
    "additionalInfo": {
      "Accessibility": [
        {
          "Wheelchair accessible entrance": true
        },
        {
          "Wheelchair accessible parking lot": true
        }
      ]
    },
    "gasPrices": [],
    "url": "https://www.google.com/maps/search/?api=1&query=Pharmacy%20Stars%2C%20LLC&query_place_id=ChIJVVXl0-r7AogRvJeMc_WBdrk",
    "searchPageUrl": "https://www.google.com/maps/search/independent%20pharmacy%20in%20Green%20Bay,%20WI/@70.60118977126913,-157.71370691405576,9z?hl=en",
    "searchString": "independent pharmacy in Green Bay, WI",
    "language": "en",
    "rank": 3,
    "isAdvertisement": false,
    "kgmid": "/g/11vssvrbhr"
  },
  {
    "title": "Aurora Pharmacy",
    "price": null,
    "categoryName": "Pharmacy",
    "address": "2253 W Mason St, Green Bay, WI 54303",
    "neighborhood": null,
    "street": "2253 W Mason St",
    "city": "Green Bay",
    "postalCode": "54303",
    "state": "Wisconsin",
    "countryCode": "US",
    "website": "https://www.aurorabaycare.com/medical-services/pharmacy",
    "phone": "(920) 327-7220",
    "phoneUnformatted": "+19203277220",
    "claimThisBusiness": true,
    "location": {
      "lat": 44.5229364,
      "lng": -88.0851146
    },
    "totalScore": 3.3,
    "permanentlyClosed": false,
    "temporarilyClosed": false,
    "placeId": "ChIJDyqvXRv6AogRsweBqbaRcBw",
    "categories": [
      "Pharmacy"
    ],
    "fid": "0x8802fa1b5daf2a0f:0x1c7091b6a98107b3",
    "cid": "2049298044167456691",
    "reviewsCount": 12,
    "imagesCount": null,
    "imageCategories": [],
    "scrapedAt": "2025-06-23T05:36:26.074Z",
    "googleFoodUrl": null,
    "hotelAds": [],
    "openingHours": [
      {
        "day": "Monday",
        "hours": "8:30 AM to 5:30 PM"
      },
      {
        "day": "Tuesday",
        "hours": "8:30 AM to 5:30 PM"
      },
      {
        "day": "Wednesday",
        "hours": "8:30 AM to 5:30 PM"
      },
      {
        "day": "Thursday",
        "hours": "8:30 AM to 5:30 PM"
      },
      {
        "day": "Friday",
        "hours": "8:30 AM to 5:30 PM"
      },
      {
        "day": "Saturday",
        "hours": "Closed"
      },
      {
        "day": "Sunday",
        "hours": "Closed"
      }
    ],
    "peopleAlsoSearch": [],
    "placesTags": [],
    "reviewsTags": [],
    "additionalInfo": {
      "Accessibility": [
        {
          "Wheelchair accessible entrance": true
        },
        {
          "Wheelchair accessible parking lot": true
        }
      ],
      "Payments": [
        {
          "Credit cards": true
        },
        {
          "Debit cards": true
        },
        {
          "NFC mobile payments": true
        },
        {
          "Credit cards": true
        }
      ]
    },
    "gasPrices": [],
    "url": "https://www.google.com/maps/search/?api=1&query=Aurora%20Pharmacy&query_place_id=ChIJDyqvXRv6AogRsweBqbaRcBw",
    "searchPageUrl": "https://www.google.com/maps/search/independent%20pharmacy%20in%20Green%20Bay,%20WI/@70.60118977126913,-157.71370691405576,9z?hl=en",
    "searchString": "independent pharmacy in Green Bay, WI",
    "language": "en",
    "rank": 4,
    "isAdvertisement": false,
    "kgmid": "/g/1tfn39cb"
  },
  {
    "title": "Aurora Prescription Dispensing Center",
    "price": null,
    "categoryName": "Pharmacy",
    "address": "2253 W Mason St, Green Bay, WI 54303",
    "neighborhood": null,
    "street": "2253 W Mason St",
    "city": "Green Bay",
    "postalCode": "54303",
    "state": "Wisconsin",
    "countryCode": "US",
    "website": "https://care.aurorahealthcare.org/locations/aurora-prescription-dispensing-center-green-bay",
    "phone": "(920) 327-7220",
    "phoneUnformatted": "+19203277220",
    "claimThisBusiness": false,
    "location": {
      "lat": 44.5233327,
      "lng": -88.0849007
    },
    "permanentlyClosed": false,
    "temporarilyClosed": false,
    "placeId": "ChIJvwy9hOr7AogRx9aEv49fLFo",
    "categories": [
      "Pharmacy"
    ],
    "fid": "0x8802fbea84bd0cbf:0x5a2c5f8fbf84d6c7",
    "cid": "6497673433386899143",
    "reviewsCount": 0,
    "imagesCount": 1,
    "imageCategories": [],
    "scrapedAt": "2025-06-23T05:36:26.074Z",
    "googleFoodUrl": null,
    "hotelAds": [],
    "openingHours": [
      {
        "day": "Monday",
        "hours": "8:30 AM to 5:30 PM"
      },
      {
        "day": "Tuesday",
        "hours": "8:30 AM to 5:30 PM"
      },
      {
        "day": "Wednesday",
        "hours": "8:30 AM to 5:30 PM"
      },
      {
        "day": "Thursday",
        "hours": "8:30 AM to 5:30 PM"
      },
      {
        "day": "Friday",
        "hours": "8:30 AM to 5:30 PM"
      },
      {
        "day": "Saturday",
        "hours": "Closed"
      },
      {
        "day": "Sunday",
        "hours": "Closed"
      }
    ],
    "peopleAlsoSearch": [],
    "placesTags": [],
    "reviewsTags": [],
    "additionalInfo": {
      "Service options": [
        {
          "Delivery": true
        },
        {
          "In-store pickup": true
        },
        {
          "In-store shopping": true
        }
      ],
      "Accessibility": [
        {
          "Wheelchair accessible entrance": true
        },
        {
          "Wheelchair accessible parking lot": true
        }
      ],
      "Payments": [
        {
          "Credit cards": true
        }
      ]
    },
    "gasPrices": [],
    "url": "https://www.google.com/maps/search/?api=1&query=Aurora%20Prescription%20Dispensing%20Center&query_place_id=ChIJvwy9hOr7AogRx9aEv49fLFo",
    "searchPageUrl": "https://www.google.com/maps/search/independent%20pharmacy%20in%20Green%20Bay,%20WI/@70.60118977126913,-157.71370691405576,9z?hl=en",
    "searchString": "independent pharmacy in Green Bay, WI",
    "language": "en",
    "rank": 5,
    "isAdvertisement": false,
    "imageUrl": "https://streetviewpixels-pa.googleapis.com/v1/thumbnail?panoid=GMVyA1BxLO9jKqsZwD3EqQ&cb_client=search.gws-prod.gps&w=408&h=240&yaw=190.93085&pitch=0&thumbfov=100",
    "kgmid": "/g/11hz6mw1fn"
  },
  {
    "title": "Aurora Pharmacy",
    "price": null,
    "categoryName": "Pharmacy",
    "address": "2845 Greenbrier Rd 1st Fl, Green Bay, WI 54311",
    "neighborhood": null,
    "street": "2845 Greenbrier Rd 1st Fl",
    "city": "Green Bay",
    "postalCode": "54311",
    "state": "Wisconsin",
    "countryCode": "US",
    "website": "https://care.aurorahealthcare.org/locations/aurora-pharmacy-green-bay",
    "phone": "(920) 288-3140",
    "phoneUnformatted": "+19202883140",
    "claimThisBusiness": false,
    "location": {
      "lat": 44.4748889,
      "lng": -87.940442
    },
    "totalScore": 4.3,
    "permanentlyClosed": false,
    "temporarilyClosed": false,
    "placeId": "ChIJ1wImmxjkAogR62ZGEppccTc",
    "categories": [
      "Pharmacy"
    ],
    "fid": "0x8802e4189b2602d7:0x37715c9a124666eb",
    "cid": "3995076161255663339",
    "reviewsCount": 22,
    "imagesCount": null,
    "imageCategories": [],
    "scrapedAt": "2025-06-23T05:36:26.074Z",
    "googleFoodUrl": null,
    "hotelAds": [],
    "openingHours": [
      {
        "day": "Monday",
        "hours": "7 AM to 7 PM"
      },
      {
        "day": "Tuesday",
        "hours": "7 AM to 7 PM"
      },
      {
        "day": "Wednesday",
        "hours": "7 AM to 7 PM"
      },
      {
        "day": "Thursday",
        "hours": "7 AM to 7 PM"
      },
      {
        "day": "Friday",
        "hours": "7 AM to 7 PM"
      },
      {
        "day": "Saturday",
        "hours": "8 AM to 4 PM"
      },
      {
        "day": "Sunday",
        "hours": "9 AM to 4 PM"
      }
    ],
    "peopleAlsoSearch": [],
    "placesTags": [],
    "reviewsTags": [],
    "additionalInfo": {
      "Service options": [
        {
          "Delivery": true
        },
        {
          "In-store pickup": true
        },
        {
          "In-store shopping": true
        }
      ],
      "Accessibility": [
        {
          "Wheelchair accessible entrance": true
        },
        {
          "Wheelchair accessible parking lot": true
        }
      ],
      "Payments": [
        {
          "Credit cards": true
        },
        {
          "Debit cards": true
        },
        {
          "NFC mobile payments": true
        },
        {
          "Credit cards": true
        }
      ]
    },
    "gasPrices": [],
    "url": "https://www.google.com/maps/search/?api=1&query=Aurora%20Pharmacy&query_place_id=ChIJ1wImmxjkAogR62ZGEppccTc",
    "searchPageUrl": "https://www.google.com/maps/search/independent%20pharmacy%20in%20Green%20Bay,%20WI/@70.60118977126913,-157.71370691405576,9z?hl=en",
    "searchString": "independent pharmacy in Green Bay, WI",
    "language": "en",
    "rank": 6,
    "isAdvertisement": false,
    "kgmid": "/g/1thcsxqh"
  },
  {
    "title": "De Pere Hometown Pharmacy",
    "price": null,
    "categoryName": "Pharmacy",
    "address": "510 Redbird Cir, De Pere, WI 54115",
    "neighborhood": null,
    "street": "510 Redbird Cir",
    "city": "De Pere",
    "postalCode": "54115",
    "state": "Wisconsin",
    "countryCode": "US",
    "website": "https://hometownpharmacyrx.com/Locations/De-Pere",
    "phone": "(920) 351-8155",
    "phoneUnformatted": "+19203518155",
    "claimThisBusiness": false,
    "location": {
      "lat": 44.4389288,
      "lng": -88.0388577
    },
    "totalScore": 4.7,
    "permanentlyClosed": false,
    "temporarilyClosed": false,
    "placeId": "ChIJ26CUIV79AogRR1EtZxGmjjE",
    "categories": [
      "Pharmacy",
      "Gift shop",
      "Health and beauty shop"
    ],
    "fid": "0x8802fd5e2194a0db:0x318ea611672d5147",
    "cid": "3570974148227060039",
    "reviewsCount": 19,
    "imagesCount": 4,
    "imageCategories": [],
    "scrapedAt": "2025-06-23T05:36:26.075Z",
    "googleFoodUrl": null,
    "hotelAds": [],
    "openingHours": [
      {
        "day": "Monday",
        "hours": "9 AM to 6 PM"
      },
      {
        "day": "Tuesday",
        "hours": "9 AM to 6 PM"
      },
      {
        "day": "Wednesday",
        "hours": "9 AM to 6 PM"
      },
      {
        "day": "Thursday",
        "hours": "9 AM to 6 PM"
      },
      {
        "day": "Friday",
        "hours": "9 AM to 6 PM"
      },
      {
        "day": "Saturday",
        "hours": "9 AM to 1 PM"
      },
      {
        "day": "Sunday",
        "hours": "Closed"
      }
    ],
    "peopleAlsoSearch": [],
    "placesTags": [],
    "reviewsTags": [],
    "additionalInfo": {
      "Service options": [
        {
          "Delivery": true
        },
        {
          "Drive-through": true
        },
        {
          "In-store pickup": true
        }
      ],
      "Accessibility": [
        {
          "Wheelchair accessible entrance": true
        },
        {
          "Wheelchair accessible parking lot": true
        }
      ],
      "Planning": [
        {
          "Quick visit": true
        }
      ],
      "Payments": [
        {
          "Credit cards": true
        },
        {
          "Debit cards": true
        },
        {
          "NFC mobile payments": true
        },
        {
          "Credit cards": true
        }
      ]
    },
    "gasPrices": [],
    "url": "https://www.google.com/maps/search/?api=1&query=De%20Pere%20Hometown%20Pharmacy&query_place_id=ChIJ26CUIV79AogRR1EtZxGmjjE",
    "searchPageUrl": "https://www.google.com/maps/search/independent%20pharmacy%20in%20Green%20Bay,%20WI/@70.60118977126913,-157.71370691405576,9z?hl=en",
    "searchString": "independent pharmacy in Green Bay, WI",
    "language": "en",
    "rank": 7,
    "isAdvertisement": false,
    "imageUrl": "https://lh3.googleusercontent.com/p/AF1QipPrGqLr-G16ZKkiFZLndSUDJx45vPiyzBIv97uD=w408-h291-k-no",
    "kgmid": "/g/11hdw2g087"
  },
  {
    "title": "Bellin Health Pharmacy",
    "price": null,
    "categoryName": "Pharmacy",
    "address": "744 S Webster Ave, Green Bay, WI 54301",
    "neighborhood": null,
    "street": "744 S Webster Ave",
    "city": "Green Bay",
    "postalCode": "54301",
    "state": "Wisconsin",
    "countryCode": "US",
    "website": "https://www.bellinhealthpharmacy.com/locations/bellin-health-pharmacy-green-bay-hospital",
    "phone": "(920) 431-5696",
    "phoneUnformatted": "+19204315696",
    "claimThisBusiness": false,
    "location": {
      "lat": 44.5021822,
      "lng": -88.0116943
    },
    "totalScore": 5,
    "permanentlyClosed": false,
    "temporarilyClosed": false,
    "placeId": "ChIJS1Wb1CzlAogRN08_ix5rpmc",
    "categories": [
      "Pharmacy"
    ],
    "fid": "0x8802e52cd49b554b:0x67a66b1e8b3f4f37",
    "cid": "7468774810969919287",
    "reviewsCount": 2,
    "imagesCount": 2,
    "imageCategories": [],
    "scrapedAt": "2025-06-23T05:36:26.075Z",
    "googleFoodUrl": null,
    "hotelAds": [],
    "openingHours": [
      {
        "day": "Monday",
        "hours": "9 AM to 6 PM"
      },
      {
        "day": "Tuesday",
        "hours": "9 AM to 6 PM"
      },
      {
        "day": "Wednesday",
        "hours": "9 AM to 6 PM"
      },
      {
        "day": "Thursday",
        "hours": "9 AM to 6 PM"
      },
      {
        "day": "Friday",
        "hours": "9 AM to 6 PM"
      },
      {
        "day": "Saturday",
        "hours": "Closed"
      },
      {
        "day": "Sunday",
        "hours": "Closed"
      }
    ],
    "peopleAlsoSearch": [],
    "placesTags": [],
    "reviewsTags": [],
    "additionalInfo": {
      "Accessibility": [
        {
          "Wheelchair accessible entrance": true
        },
        {
          "Wheelchair accessible parking lot": true
        }
      ],
      "Payments": [
        {
          "Credit cards": true
        },
        {
          "Debit cards": true
        },
        {
          "NFC mobile payments": true
        },
        {
          "Credit cards": true
        }
      ]
    },
    "gasPrices": [],
    "url": "https://www.google.com/maps/search/?api=1&query=Bellin%20Health%20Pharmacy&query_place_id=ChIJS1Wb1CzlAogRN08_ix5rpmc",
    "searchPageUrl": "https://www.google.com/maps/search/independent%20pharmacy%20in%20Green%20Bay,%20WI/@70.60118977126913,-157.71370691405576,9z?hl=en",
    "searchString": "independent pharmacy in Green Bay, WI",
    "language": "en",
    "rank": 8,
    "isAdvertisement": false,
    "imageUrl": "https://lh3.googleusercontent.com/p/AF1QipPcZuNQgdSm8sHq1IybcfQH5YaObfw_j-0b_eR0=w426-h240-k-no",
    "kgmid": "/g/1vc6dzn0"
  },
  {
    "title": "Walgreens Specialty Pharmacy",
    "price": "$$",
    "categoryName": "Pharmacy",
    "address": "500 E Walnut St, Green Bay, WI 54301",
    "neighborhood": null,
    "street": "500 E Walnut St",
    "city": "Green Bay",
    "postalCode": "54301",
    "state": "Wisconsin",
    "countryCode": "US",
    "website": "https://www.walgreens.com/locator/walgreens-500+e+walnut+st-green+bay-wi-54301/id=21182",
    "phone": "(920) 785-5925",
    "phoneUnformatted": "+19207855925",
    "claimThisBusiness": false,
    "location": {
      "lat": 44.512522,
      "lng": -88.0117514
    },
    "totalScore": 4.3,
    "permanentlyClosed": false,
    "temporarilyClosed": false,
    "placeId": "ChIJ92gtS-DlAogRQMyhMJ8-d-A",
    "categories": [
      "Pharmacy"
    ],
    "fid": "0x8802e5e04b2d68f7:0xe0773e9f30a1cc40",
    "cid": "16174465440161057856",
    "reviewsCount": 11,
    "imagesCount": 2,
    "imageCategories": [],
    "scrapedAt": "2025-06-23T05:36:26.075Z",
    "googleFoodUrl": null,
    "hotelAds": [],
    "openingHours": [
      {
        "day": "Monday",
        "hours": "8:30 AM to 1:30 PM, 2 to 5 PM"
      },
      {
        "day": "Tuesday",
        "hours": "8:30 AM to 1:30 PM, 2 to 5 PM"
      },
      {
        "day": "Wednesday",
        "hours": "8:30 AM to 1:30 PM, 2 to 5 PM"
      },
      {
        "day": "Thursday",
        "hours": "8:30 AM to 1:30 PM, 2 to 5 PM"
      },
      {
        "day": "Friday",
        "hours": "8:30 AM to 1:30 PM, 2 to 5 PM"
      },
      {
        "day": "Saturday",
        "hours": "Closed"
      },
      {
        "day": "Sunday",
        "hours": "Closed"
      }
    ],
    "peopleAlsoSearch": [],
    "placesTags": [],
    "reviewsTags": [],
    "additionalInfo": {
      "Service options": [
        {
          "In-store pickup": true
        }
      ],
      "Accessibility": [
        {
          "Wheelchair accessible entrance": true
        },
        {
          "Wheelchair accessible parking lot": true
        }
      ],
      "Planning": [
        {
          "Quick visit": true
        }
      ],
      "Payments": [
        {
          "Credit cards": true
        }
      ]
    },
    "gasPrices": [],
    "url": "https://www.google.com/maps/search/?api=1&query=Walgreens%20Specialty%20Pharmacy&query_place_id=ChIJ92gtS-DlAogRQMyhMJ8-d-A",
    "searchPageUrl": "https://www.google.com/maps/search/independent%20pharmacy%20in%20Green%20Bay,%20WI/@70.60118977126913,-157.71370691405576,9z?hl=en",
    "searchString": "independent pharmacy in Green Bay, WI",
    "language": "en",
    "rank": 9,
    "isAdvertisement": false,
    "imageUrl": "https://streetviewpixels-pa.googleapis.com/v1/thumbnail?panoid=b5WcSM7-vfe42Q7SRPk5dw&cb_client=search.gws-prod.gps&w=408&h=240&yaw=206.04486&pitch=0&thumbfov=100",
    "kgmid": "/g/11f9ypfz3j"
  },
  {
    "title": "Bellin Health Pharmacy",
    "price": null,
    "categoryName": "Pharmacy",
    "address": "1630 Commanche Ave, Green Bay, WI 54313",
    "neighborhood": null,
    "street": "1630 Commanche Ave",
    "city": "Green Bay",
    "postalCode": "54313",
    "state": "Wisconsin",
    "countryCode": "US",
    "website": "https://www.bellinhealthpharmacy.com/locations/bellin-health-pharmacy-ashwaubenon",
    "phone": "(920) 430-4555",
    "phoneUnformatted": "+19204304555",
    "claimThisBusiness": false,
    "location": {
      "lat": 44.4927365,
      "lng": -88.1030259
    },
    "totalScore": 4.7,
    "permanentlyClosed": false,
    "temporarilyClosed": false,
    "placeId": "ChIJfcIRxXb5AogR-YVV46qiQzw",
    "categories": [
      "Pharmacy"
    ],
    "fid": "0x8802f976c511c27d:0x3c43a2aae35585f9",
    "cid": "4342493320557463033",
    "reviewsCount": 17,
    "imagesCount": 2,
    "imageCategories": [],
    "scrapedAt": "2025-06-23T05:36:26.075Z",
    "googleFoodUrl": null,
    "hotelAds": [],
    "openingHours": [
      {
        "day": "Monday",
        "hours": "8 AM to 6 PM"
      },
      {
        "day": "Tuesday",
        "hours": "8 AM to 6 PM"
      },
      {
        "day": "Wednesday",
        "hours": "8 AM to 6 PM"
      },
      {
        "day": "Thursday",
        "hours": "8 AM to 6 PM"
      },
      {
        "day": "Friday",
        "hours": "8 AM to 6 PM"
      },
      {
        "day": "Saturday",
        "hours": "9 AM to 1 PM"
      },
      {
        "day": "Sunday",
        "hours": "Closed"
      }
    ],
    "peopleAlsoSearch": [],
    "placesTags": [],
    "reviewsTags": [],
    "additionalInfo": {
      "Accessibility": [
        {
          "Wheelchair accessible entrance": true
        },
        {
          "Wheelchair accessible parking lot": true
        }
      ],
      "Payments": [
        {
          "Credit cards": true
        },
        {
          "Debit cards": true
        },
        {
          "NFC mobile payments": true
        },
        {
          "Credit cards": true
        }
      ]
    },
    "gasPrices": [],
    "url": "https://www.google.com/maps/search/?api=1&query=Bellin%20Health%20Pharmacy&query_place_id=ChIJfcIRxXb5AogR-YVV46qiQzw",
    "searchPageUrl": "https://www.google.com/maps/search/independent%20pharmacy%20in%20Green%20Bay,%20WI/@70.60118977126913,-157.71370691405576,9z?hl=en",
    "searchString": "independent pharmacy in Green Bay, WI",
    "language": "en",
    "rank": 10,
    "isAdvertisement": false,
    "imageUrl": "https://lh3.googleusercontent.com/gps-cs-s/AC9h4nr8Czn9lf5HRjUJLpFG-AHvBUDEaSuTI-8ezXp6EWJwhRt176sLFV483S5ObWQZkbXScDyIas_czu51E-BtLc9JLaRwsgto09g1VJ7AibDuwtasnQM1I03bhIlXqWxp4YrUprI9Ag=w408-h544-k-no",
    "kgmid": "/g/11b8ydjqvj"
  }
]