[
  {
    "title": "Midtown Pharmacy",
    "price": null,
    "categoryName": "Pharmacy",
    "address": "7235 W Appleton Ave, Milwaukee, WI 53216",
    "neighborhood": "Dineen Park",
    "street": "7235 W Appleton Ave",
    "city": "Milwaukee",
    "postalCode": "53216",
    "state": "Wisconsin",
    "countryCode": "US",
    "phone": "(414) 269-0341",
    "phoneUnformatted": "+14142690341",
    "claimThisBusiness": true,
    "location": {
      "lat": 43.0872485,
      "lng": -88.002421
    },
    "totalScore": 4.5,
    "permanentlyClosed": false,
    "temporarilyClosed": false,
    "placeId": "ChIJaWeRg68cBYgRk-ON183ljLI",
    "categories": [
      "Pharmacy"
    ],
    "fid": "0x88051caf83916769:0xb28ce5cdd78de393",
    "cid": "12865910907738121107",
    "reviewsCount": 8,
    "imagesCount": 1,
    "imageCategories": [],
    "scrapedAt": "2025-06-23T05:34:57.415Z",
    "googleFoodUrl": null,
    "hotelAds": [],
    "openingHours": [
      {
        "day": "Monday",
        "hours": "9 AM to 5 PM"
      },
      {
        "day": "Tuesday",
        "hours": "9 AM to 5 PM"
      },
      {
        "day": "Wednesday",
        "hours": "9 AM to 5 PM"
      },
      {
        "day": "Thursday",
        "hours": "9 AM to 5 PM"
      },
      {
        "day": "Friday",
        "hours": "9 AM to 5 PM"
      },
      {
        "day": "Saturday",
        "hours": "Closed"
      },
      {
        "day": "Sunday",
        "hours": "Closed"
      }
    ],
    "peopleAlsoSearch": [],
    "placesTags": [],
    "reviewsTags": [],
    "additionalInfo": {
      "Accessibility": [
        {
          "Wheelchair accessible entrance": true
        },
        {
          "Wheelchair accessible parking lot": true
        }
      ],
      "Amenities": [
        {
          "Wi-Fi": true
        },
        {
          "Free Wi-Fi": true
        }
      ],
      "Planning": [
        {
          "Quick visit": true
        }
      ],
      "Payments": [
        {
          "Credit cards": true
        },
        {
          "Debit cards": true
        },
        {
          "NFC mobile payments": true
        },
        {
          "Credit cards": true
        }
      ]
    },
    "gasPrices": [],
    "url": "https://www.google.com/maps/search/?api=1&query=Midtown%20Pharmacy&query_place_id=ChIJaWeRg68cBYgRk-ON183ljLI",
    "searchPageUrl": "https://www.google.com/maps/search/independent%20pharmacy%20in%20Milwaukee,%20WI/@61.56929586514925,-164.61850082811145,9z?hl=en",
    "searchString": "independent pharmacy in Milwaukee, WI",
    "language": "en",
    "rank": 1,
    "isAdvertisement": false,
    "imageUrl": "https://streetviewpixels-pa.googleapis.com/v1/thumbnail?panoid=BrhM1YndKuYk4lwVILm0Yw&cb_client=search.gws-prod.gps&w=408&h=240&yaw=249.15332&pitch=0&thumbfov=100",
    "kgmid": "/g/11c3mq9l9r"
  },
  {
    "title": "Long Life Pharmacy 1",
    "price": null,
    "categoryName": "Pharmacy",
    "address": "1672 S 9th St Unit D, Milwaukee, WI 53204",
    "neighborhood": "Historic Mitchell Street",
    "street": "1672 S 9th St Unit D",
    "city": "Milwaukee",
    "postalCode": "53204",
    "state": "Wisconsin",
    "countryCode": "US",
    "website": "http://llpharmacy.com/",
    "phone": "(414) 375-6112",
    "phoneUnformatted": "+14143756112",
    "claimThisBusiness": false,
    "location": {
      "lat": 43.0127143,
      "lng": -87.9225444
    },
    "totalScore": 4.9,
    "permanentlyClosed": false,
    "temporarilyClosed": false,
    "placeId": "ChIJu0qTDGkZBYgRinxxtE2smXY",
    "categories": [
      "Pharmacy"
    ],
    "fid": "0x880519690c934abb:0x7699ac4db4717c8a",
    "cid": "8546051217652022410",
    "reviewsCount": 32,
    "imagesCount": 7,
    "imageCategories": [],
    "scrapedAt": "2025-06-23T05:34:57.416Z",
    "googleFoodUrl": null,
    "hotelAds": [],
    "openingHours": [
      {
        "day": "Monday",
        "hours": "9 AM to 5 PM"
      },
      {
        "day": "Tuesday",
        "hours": "9 AM to 5 PM"
      },
      {
        "day": "Wednesday",
        "hours": "9 AM to 5 PM"
      },
      {
        "day": "Thursday",
        "hours": "9 AM to 5 PM"
      },
      {
        "day": "Friday",
        "hours": "9 AM to 5 PM"
      },
      {
        "day": "Saturday",
        "hours": "10 AM to 12 PM"
      },
      {
        "day": "Sunday",
        "hours": "Closed"
      }
    ],
    "peopleAlsoSearch": [],
    "placesTags": [],
    "reviewsTags": [],
    "additionalInfo": {
      "From the business": [
        {
          "Small business": true
        }
      ],
      "Service options": [
        {
          "Delivery": true
        }
      ],
      "Accessibility": [
        {
          "Wheelchair accessible entrance": true
        },
        {
          "Wheelchair accessible parking lot": true
        }
      ],
      "Payments": [
        {
          "Credit cards": true
        },
        {
          "Debit cards": true
        },
        {
          "NFC mobile payments": true
        },
        {
          "Credit cards": true
        }
      ]
    },
    "gasPrices": [],
    "url": "https://www.google.com/maps/search/?api=1&query=Long%20Life%20Pharmacy%201&query_place_id=ChIJu0qTDGkZBYgRinxxtE2smXY",
    "searchPageUrl": "https://www.google.com/maps/search/independent%20pharmacy%20in%20Milwaukee,%20WI/@61.56929586514925,-164.61850082811145,9z?hl=en",
    "searchString": "independent pharmacy in Milwaukee, WI",
    "language": "en",
    "rank": 2,
    "isAdvertisement": false,
    "imageUrl": "https://lh3.googleusercontent.com/p/AF1QipPL7yvYnLlFwhb65XTs5xQyODKZx4FYIBOyu0Uv=w408-h306-k-no",
    "kgmid": "/g/11j0jhd4p5"
  },
  {
    "title": "Midtown Pharmacy",
    "price": null,
    "categoryName": "Pharmacy",
    "address": "2741 W Layton Ave UNIT 105, Greenfield, WI 53221",
    "neighborhood": null,
    "street": "2741 W Layton Ave UNIT 105",
    "city": "Greenfield",
    "postalCode": "53221",
    "state": "Wisconsin",
    "countryCode": "US",
    "phone": "(414) 800-4070",
    "phoneUnformatted": "+14148004070",
    "claimThisBusiness": true,
    "location": {
      "lat": 42.9588917,
      "lng": -87.9497926
    },
    "totalScore": 5,
    "permanentlyClosed": false,
    "temporarilyClosed": false,
    "placeId": "ChIJnT2BQgkRBYgRI6Ux9cM-rgs",
    "categories": [
      "Pharmacy"
    ],
    "fid": "0x8805110942813d9d:0xbae3ec3f531a523",
    "cid": "841679191718077731",
    "reviewsCount": 10,
    "imagesCount": 1,
    "imageCategories": [],
    "scrapedAt": "2025-06-23T05:34:57.416Z",
    "googleFoodUrl": null,
    "hotelAds": [],
    "openingHours": [
      {
        "day": "Monday",
        "hours": "9 AM to 5 PM"
      },
      {
        "day": "Tuesday",
        "hours": "9 AM to 5 PM"
      },
      {
        "day": "Wednesday",
        "hours": "9 AM to 5 PM"
      },
      {
        "day": "Thursday",
        "hours": "9 AM to 5 PM"
      },
      {
        "day": "Friday",
        "hours": "9 AM to 5 PM"
      },
      {
        "day": "Saturday",
        "hours": "Closed"
      },
      {
        "day": "Sunday",
        "hours": "Closed"
      }
    ],
    "peopleAlsoSearch": [],
    "placesTags": [],
    "reviewsTags": [],
    "additionalInfo": {
      "Service options": [
        {
          "Delivery": true
        },
        {
          "In-store pickup": true
        }
      ],
      "Accessibility": [
        {
          "Wheelchair accessible entrance": true
        },
        {
          "Wheelchair accessible parking lot": true
        }
      ],
      "Payments": [
        {
          "Credit cards": true
        },
        {
          "Debit cards": true
        },
        {
          "NFC mobile payments": true
        },
        {
          "Credit cards": true
        }
      ]
    },
    "gasPrices": [],
    "url": "https://www.google.com/maps/search/?api=1&query=Midtown%20Pharmacy&query_place_id=ChIJnT2BQgkRBYgRI6Ux9cM-rgs",
    "searchPageUrl": "https://www.google.com/maps/search/independent%20pharmacy%20in%20Milwaukee,%20WI/@61.56929586514925,-164.61850082811145,9z?hl=en",
    "searchString": "independent pharmacy in Milwaukee, WI",
    "language": "en",
    "rank": 3,
    "isAdvertisement": false,
    "imageUrl": "https://streetviewpixels-pa.googleapis.com/v1/thumbnail?panoid=qjET3_fCFR7nCbnyJPw6Hg&cb_client=search.gws-prod.gps&w=408&h=240&yaw=155.27045&pitch=0&thumbfov=100",
    "kgmid": "/g/11jgnthqfx"
  },
  {
    "title": "Xperience Pharmacy",
    "price": null,
    "categoryName": "Pharmacy",
    "address": "5715 W Appleton Ave, Milwaukee, WI 53210",
    "neighborhood": "Uptown",
    "street": "5715 W Appleton Ave",
    "city": "Milwaukee",
    "postalCode": "53210",
    "state": "Wisconsin",
    "countryCode": "US",
    "website": "https://xperiencepharmacy.com/",
    "phone": "(414) 988-2188",
    "phoneUnformatted": "+14149882188",
    "claimThisBusiness": false,
    "location": {
      "lat": 43.066874,
      "lng": -87.9846373
    },
    "totalScore": 5,
    "permanentlyClosed": false,
    "temporarilyClosed": false,
    "placeId": "ChIJB5YoKtsbBYgREx4jU-EfHJw",
    "categories": [
      "Pharmacy"
    ],
    "fid": "0x88051bdb2a289607:0x9c1c1fe153231e13",
    "cid": "11248901021887569427",
    "reviewsCount": 15,
    "imagesCount": 3,
    "imageCategories": [],
    "scrapedAt": "2025-06-23T05:34:57.416Z",
    "googleFoodUrl": null,
    "hotelAds": [],
    "openingHours": [
      {
        "day": "Monday",
        "hours": "9 AM to 6 PM"
      },
      {
        "day": "Tuesday",
        "hours": "9 AM to 6 PM"
      },
      {
        "day": "Wednesday",
        "hours": "9 AM to 6 PM"
      },
      {
        "day": "Thursday",
        "hours": "9 AM to 6 PM"
      },
      {
        "day": "Friday",
        "hours": "9 AM to 6 PM"
      },
      {
        "day": "Saturday",
        "hours": "11 AM to 2 PM"
      },
      {
        "day": "Sunday",
        "hours": "Closed"
      }
    ],
    "peopleAlsoSearch": [],
    "placesTags": [],
    "reviewsTags": [],
    "additionalInfo": {
      "From the business": [
        {
          "Identifies as Black-owned": true
        },
        {
          "Small business": true
        }
      ],
      "Service options": [
        {
          "Delivery": true
        },
        {
          "In-store pickup": true
        },
        {
          "In-store shopping": true
        },
        {
          "Same-day delivery": true
        }
      ],
      "Accessibility": [
        {
          "Wheelchair accessible entrance": true
        },
        {
          "Wheelchair accessible parking lot": true
        },
        {
          "Wheelchair accessible restroom": true
        },
        {
          "Wheelchair accessible seating": true
        }
      ],
      "Crowd": [
        {
          "LGBTQ+ friendly": true
        }
      ],
      "Planning": [
        {
          "Quick visit": true
        }
      ],
      "Payments": [
        {
          "Checks": true
        },
        {
          "Credit cards": true
        },
        {
          "Debit cards": true
        },
        {
          "NFC mobile payments": true
        },
        {
          "Credit cards": true
        }
      ]
    },
    "gasPrices": [],
    "url": "https://www.google.com/maps/search/?api=1&query=Xperience%20Pharmacy&query_place_id=ChIJB5YoKtsbBYgREx4jU-EfHJw",
    "searchPageUrl": "https://www.google.com/maps/search/independent%20pharmacy%20in%20Milwaukee,%20WI/@61.56929586514925,-164.61850082811145,9z?hl=en",
    "searchString": "independent pharmacy in Milwaukee, WI",
    "language": "en",
    "rank": 4,
    "isAdvertisement": false,
    "imageUrl": "https://lh3.googleusercontent.com/p/AF1QipN-T7zIx2PKZJTFjd_juvKknkEULiy527heeDjt=w408-h306-k-no",
    "kgmid": "/g/11jfgw7vkb"
  },
  {
    "title": "Midtown Pharmacy 3",
    "price": null,
    "categoryName": "Pharmacy",
    "address": "1000 S César E. Chávez Dr, Milwaukee, WI 53204",
    "neighborhood": "Walker's Point",
    "street": "1000 S César E. Chávez Dr",
    "city": "Milwaukee",
    "postalCode": "53204",
    "state": "Wisconsin",
    "countryCode": "US",
    "phone": "(414) 220-0620",
    "phoneUnformatted": "+14142200620",
    "claimThisBusiness": false,
    "location": {
      "lat": 43.0210346,
      "lng": -87.9328292
    },
    "totalScore": 4.3,
    "permanentlyClosed": false,
    "temporarilyClosed": false,
    "placeId": "ChIJExNRVFQZBYgRCsGFCEqWJLw",
    "categories": [
      "Pharmacy"
    ],
    "fid": "0x8805195454511313:0xbc24964a0885c10a",
    "cid": "13557126023006765322",
    "reviewsCount": 18,
    "imagesCount": 15,
    "imageCategories": [],
    "scrapedAt": "2025-06-23T05:34:57.416Z",
    "googleFoodUrl": null,
    "hotelAds": [],
    "openingHours": [
      {
        "day": "Monday",
        "hours": "9 AM to 5 PM"
      },
      {
        "day": "Tuesday",
        "hours": "9 AM to 5 PM"
      },
      {
        "day": "Wednesday",
        "hours": "9 AM to 5 PM"
      },
      {
        "day": "Thursday",
        "hours": "9 AM to 5 PM"
      },
      {
        "day": "Friday",
        "hours": "9 AM to 5 PM"
      },
      {
        "day": "Saturday",
        "hours": "Closed"
      },
      {
        "day": "Sunday",
        "hours": "Closed"
      }
    ],
    "peopleAlsoSearch": [],
    "placesTags": [],
    "reviewsTags": [],
    "additionalInfo": {
      "From the business": [
        {
          "Small business": true
        }
      ],
      "Service options": [
        {
          "Delivery": true
        }
      ],
      "Accessibility": [
        {
          "Wheelchair accessible entrance": true
        }
      ],
      "Planning": [
        {
          "Quick visit": true
        }
      ],
      "Payments": [
        {
          "Credit cards": true
        },
        {
          "Debit cards": true
        },
        {
          "NFC mobile payments": true
        },
        {
          "Credit cards": true
        }
      ]
    },
    "gasPrices": [],
    "url": "https://www.google.com/maps/search/?api=1&query=Midtown%20Pharmacy%203&query_place_id=ChIJExNRVFQZBYgRCsGFCEqWJLw",
    "searchPageUrl": "https://www.google.com/maps/search/independent%20pharmacy%20in%20Milwaukee,%20WI/@61.56929586514925,-164.61850082811145,9z?hl=en",
    "searchString": "independent pharmacy in Milwaukee, WI",
    "language": "en",
    "rank": 5,
    "isAdvertisement": false,
    "imageUrl": "https://lh3.googleusercontent.com/gps-cs-s/AC9h4noWdBsBnXtT3wKkG3lHsS49iOsfP8DQmt_jqNpqbG7owbIaof_XZRDDkBmNs8w-rHSRDHxlZdkK9fE4-l-INTYbtbmmkrbvEoz48w1j22ygCZvUwaC1VZOFIzMgoWB6zIMDqlOF=w408-h306-k-no",
    "kgmid": "/g/11h79nv3dm"
  },
  {
    "title": "Infinity Pharmacy",
    "price": null,
    "categoryName": "Pharmacy",
    "address": "2700 S 60th St, Milwaukee, WI 53219",
    "neighborhood": "White Manor",
    "street": "2700 S 60th St",
    "city": "Milwaukee",
    "postalCode": "53219",
    "state": "Wisconsin",
    "countryCode": "US",
    "website": "https://www.mygnp.com/pharmacies/infinity-pharmacy-milwaukee-wi-53219/?utm_source=google&utm_medium=local&utm_campaign=localmaps&utm_content=5137698",
    "phone": "(414) 988-0008",
    "phoneUnformatted": "+14149880008",
    "claimThisBusiness": false,
    "location": {
      "lat": 42.995451,
      "lng": -87.98725
    },
    "totalScore": 4.9,
    "permanentlyClosed": false,
    "temporarilyClosed": false,
    "placeId": "ChIJk2QSlSURBYgREK1TR5qQ40Y",
    "categories": [
      "Pharmacy"
    ],
    "fid": "0x8805112595126493:0x46e3909a4753ad10",
    "cid": "5108085394664303888",
    "reviewsCount": 108,
    "imagesCount": 11,
    "imageCategories": [],
    "scrapedAt": "2025-06-23T05:34:57.416Z",
    "googleFoodUrl": null,
    "hotelAds": [],
    "openingHours": [
      {
        "day": "Monday",
        "hours": "9 AM to 6 PM"
      },
      {
        "day": "Tuesday",
        "hours": "9 AM to 6 PM"
      },
      {
        "day": "Wednesday",
        "hours": "9 AM to 6 PM"
      },
      {
        "day": "Thursday",
        "hours": "9 AM to 6 PM"
      },
      {
        "day": "Friday",
        "hours": "9 AM to 6 PM"
      },
      {
        "day": "Saturday",
        "hours": "9 AM to 1 PM"
      },
      {
        "day": "Sunday",
        "hours": "Closed"
      }
    ],
    "peopleAlsoSearch": [],
    "placesTags": [],
    "reviewsTags": [],
    "additionalInfo": {
      "From the business": [
        {
          "Identifies as women-owned": true
        }
      ],
      "Service options": [
        {
          "Curbside pickup": true
        },
        {
          "Delivery": true
        },
        {
          "Drive-through": true
        },
        {
          "In-store pickup": true
        },
        {
          "In-store shopping": true
        },
        {
          "Onsite services": true
        },
        {
          "Same-day delivery": true
        }
      ],
      "Accessibility": [
        {
          "Wheelchair accessible entrance": true
        },
        {
          "Wheelchair accessible parking lot": true
        }
      ],
      "Amenities": [
        {
          "Wi-Fi": true
        },
        {
          "Free Wi-Fi": true
        }
      ],
      "Planning": [
        {
          "Quick visit": true
        }
      ],
      "Payments": [
        {
          "Checks": true
        },
        {
          "Credit cards": true
        },
        {
          "Debit cards": true
        },
        {
          "Credit cards": true
        }
      ]
    },
    "gasPrices": [],
    "url": "https://www.google.com/maps/search/?api=1&query=Infinity%20Pharmacy&query_place_id=ChIJk2QSlSURBYgREK1TR5qQ40Y",
    "searchPageUrl": "https://www.google.com/maps/search/independent%20pharmacy%20in%20Milwaukee,%20WI/@61.56929586514925,-164.61850082811145,9z?hl=en",
    "searchString": "independent pharmacy in Milwaukee, WI",
    "language": "en",
    "rank": 6,
    "isAdvertisement": false,
    "imageUrl": "https://lh3.googleusercontent.com/gps-cs-s/AC9h4nqc_EmWz5DhX6PpGomBe6O7ngp9THNixZUiKX_sHyk1Fg5ZF7BcF-RL0lIaS8OGFnl9mRfY7-duoUSigyRCAvLZr_v8k74lmAtpx3q1fByh9QDsw2h8uIxzcu-HF31h2unRkl5gDw=w408-h259-k-no",
    "kgmid": "/g/11jdj6sxyb"
  },
  {
    "title": "Serv-U Pharmacy",
    "price": null,
    "categoryName": "Pharmacy",
    "address": "709 W Oklahoma Ave, Milwaukee, WI 53215",
    "neighborhood": "Morgandale",
    "street": "709 W Oklahoma Ave",
    "city": "Milwaukee",
    "postalCode": "53215",
    "state": "Wisconsin",
    "countryCode": "US",
    "website": "https://www.servupharm.com/",
    "phone": "(414) 481-8170",
    "phoneUnformatted": "+14144818170",
    "claimThisBusiness": false,
    "location": {
      "lat": 42.9879347,
      "lng": -87.9206319
    },
    "totalScore": 4.8,
    "permanentlyClosed": false,
    "temporarilyClosed": false,
    "placeId": "ChIJSbOeWkQXBYgRV7QPj_odZos",
    "categories": [
      "Pharmacy"
    ],
    "fid": "0x880517445a9eb349:0x8b661dfa8f0fb457",
    "cid": "10044748980875670615",
    "reviewsCount": 20,
    "imagesCount": 2,
    "imageCategories": [],
    "scrapedAt": "2025-06-23T05:34:57.416Z",
    "googleFoodUrl": null,
    "hotelAds": [],
    "openingHours": [
      {
        "day": "Monday",
        "hours": "9 AM to 6 PM"
      },
      {
        "day": "Tuesday",
        "hours": "9 AM to 6 PM"
      },
      {
        "day": "Wednesday",
        "hours": "9 AM to 6 PM"
      },
      {
        "day": "Thursday",
        "hours": "9 AM to 6 PM"
      },
      {
        "day": "Friday",
        "hours": "9 AM to 6 PM"
      },
      {
        "day": "Saturday",
        "hours": "9 AM to 1 PM"
      },
      {
        "day": "Sunday",
        "hours": "Closed"
      }
    ],
    "peopleAlsoSearch": [],
    "placesTags": [],
    "reviewsTags": [],
    "additionalInfo": {
      "From the business": [
        {
          "Small business": true
        }
      ],
      "Service options": [
        {
          "Delivery": true
        },
        {
          "Onsite services": true
        },
        {
          "Same-day delivery": true
        }
      ],
      "Accessibility": [
        {
          "Wheelchair accessible entrance": true
        },
        {
          "Wheelchair accessible parking lot": true
        }
      ],
      "Amenities": [
        {
          "Wi-Fi": true
        },
        {
          "Free Wi-Fi": true
        }
      ],
      "Payments": [
        {
          "Credit cards": true
        },
        {
          "Debit cards": true
        },
        {
          "Credit cards": true
        }
      ]
    },
    "gasPrices": [],
    "url": "https://www.google.com/maps/search/?api=1&query=Serv-U%20Pharmacy&query_place_id=ChIJSbOeWkQXBYgRV7QPj_odZos",
    "searchPageUrl": "https://www.google.com/maps/search/independent%20pharmacy%20in%20Milwaukee,%20WI/@61.56929586514925,-164.61850082811145,9z?hl=en",
    "searchString": "independent pharmacy in Milwaukee, WI",
    "language": "en",
    "rank": 7,
    "isAdvertisement": false,
    "imageUrl": "https://lh3.googleusercontent.com/gps-cs-s/AC9h4np8RGA_faQVPK9y-Dk2fwdLB8BFSGf9iTCy-XzjTZ8YxvPJRZWJ9vj-3nS78zNIV-xiChTYAyonJV_LTLRTHM-r-Fs5Cozl03demSgFDNbS-OTcYj28JpHUXaBtDLBBy2XkZdY4kg=w408-h306-k-no",
    "kgmid": "/g/1tgpt5hr"
  },
  {
    "title": "Hayat Pharmacy - 37th & Wisconsin Ave",
    "price": null,
    "categoryName": "Pharmacy",
    "address": "3727 W Wisconsin Ave, Milwaukee, WI 53208",
    "neighborhood": "Merrill Park",
    "street": "3727 W Wisconsin Ave",
    "city": "Milwaukee",
    "postalCode": "53208",
    "state": "Wisconsin",
    "countryCode": "US",
    "website": "http://www.hayatrx.com/",
    "phone": "(414) 931-0000",
    "phoneUnformatted": "+14149310000",
    "claimThisBusiness": false,
    "location": {
      "lat": 43.0383462,
      "lng": -87.9605715
    },
    "totalScore": 4.8,
    "permanentlyClosed": false,
    "temporarilyClosed": false,
    "placeId": "ChIJo4XnAk0aBYgR_0SpLnv1kho",
    "categories": [
      "Pharmacy"
    ],
    "fid": "0x88051a4d02e785a3:0x1a92f57b2ea944ff",
    "cid": "1914862700998509823",
    "reviewsCount": 204,
    "imagesCount": 5,
    "imageCategories": [],
    "scrapedAt": "2025-06-23T05:34:57.416Z",
    "googleFoodUrl": null,
    "hotelAds": [],
    "openingHours": [
      {
        "day": "Monday",
        "hours": "9 AM to 5 PM"
      },
      {
        "day": "Tuesday",
        "hours": "9 AM to 5 PM"
      },
      {
        "day": "Wednesday",
        "hours": "9 AM to 5 PM"
      },
      {
        "day": "Thursday",
        "hours": "9 AM to 5 PM"
      },
      {
        "day": "Friday",
        "hours": "9 AM to 5 PM"
      },
      {
        "day": "Saturday",
        "hours": "8 AM to 12 PM"
      },
      {
        "day": "Sunday",
        "hours": "Closed"
      }
    ],
    "peopleAlsoSearch": [],
    "placesTags": [],
    "reviewsTags": [],
    "additionalInfo": {
      "Service options": [
        {
          "Delivery": true
        },
        {
          "In-store pickup": true
        },
        {
          "In-store shopping": true
        }
      ],
      "Accessibility": [
        {
          "Wheelchair accessible entrance": true
        },
        {
          "Wheelchair accessible parking lot": true
        }
      ],
      "Offerings": [
        {
          "Medication disposal": true
        }
      ],
      "Crowd": [
        {
          "LGBTQ+ friendly": true
        },
        {
          "Transgender safespace": true
        }
      ],
      "Payments": [
        {
          "Checks": true
        },
        {
          "Credit cards": true
        },
        {
          "Debit cards": true
        },
        {
          "NFC mobile payments": true
        },
        {
          "Credit cards": true
        }
      ]
    },
    "gasPrices": [],
    "url": "https://www.google.com/maps/search/?api=1&query=Hayat%20Pharmacy%20-%2037th%20%26%20Wisconsin%20Ave&query_place_id=ChIJo4XnAk0aBYgR_0SpLnv1kho",
    "searchPageUrl": "https://www.google.com/maps/search/independent%20pharmacy%20in%20Milwaukee,%20WI/@61.56929586514925,-164.61850082811145,9z?hl=en",
    "searchString": "independent pharmacy in Milwaukee, WI",
    "language": "en",
    "rank": 8,
    "isAdvertisement": false,
    "imageUrl": "https://lh3.googleusercontent.com/p/AF1QipPO2QCwYJLFWGhKVDxFHai5gk4m2-5yEPirKJXh=w408-h273-k-no",
    "kgmid": "/g/11bxd87dxh"
  },
  {
    "title": "Midtown Pharmacy 2",
    "price": null,
    "categoryName": "Pharmacy",
    "address": "7733 W Burleigh St, Milwaukee, WI 53222",
    "neighborhood": "Cooper Park",
    "street": "7733 W Burleigh St",
    "city": "Milwaukee",
    "postalCode": "53222",
    "state": "Wisconsin",
    "countryCode": "US",
    "phone": "(414) 299-3828",
    "phoneUnformatted": "+14142993828",
    "claimThisBusiness": true,
    "location": {
      "lat": 43.0751354,
      "lng": -88.0095049
    },
    "totalScore": 5,
    "permanentlyClosed": false,
    "temporarilyClosed": false,
    "placeId": "ChIJKdt1f1MbBYgRUclhz8h4AU8",
    "categories": [
      "Pharmacy"
    ],
    "fid": "0x88051b537f75db29:0x4f0178c8cf61c951",
    "cid": "5692964207841102161",
    "reviewsCount": 2,
    "imagesCount": 1,
    "imageCategories": [],
    "scrapedAt": "2025-06-23T05:34:57.416Z",
    "googleFoodUrl": null,
    "hotelAds": [],
    "openingHours": [
      {
        "day": "Monday",
        "hours": "9 AM to 5 PM"
      },
      {
        "day": "Tuesday",
        "hours": "9 AM to 5 PM"
      },
      {
        "day": "Wednesday",
        "hours": "9 AM to 5 PM"
      },
      {
        "day": "Thursday",
        "hours": "9 AM to 5 PM"
      },
      {
        "day": "Friday",
        "hours": "9 AM to 5 PM"
      },
      {
        "day": "Saturday",
        "hours": "Closed"
      },
      {
        "day": "Sunday",
        "hours": "Closed"
      }
    ],
    "peopleAlsoSearch": [],
    "placesTags": [],
    "reviewsTags": [],
    "additionalInfo": {
      "Service options": [
        {
          "Delivery": true
        },
        {
          "Same-day delivery": true
        }
      ],
      "Accessibility": [
        {
          "Wheelchair accessible entrance": true
        },
        {
          "Wheelchair accessible parking lot": true
        }
      ],
      "Planning": [
        {
          "Quick visit": true
        }
      ],
      "Payments": [
        {
          "Checks": true
        },
        {
          "Credit cards": true
        },
        {
          "Debit cards": true
        }
      ]
    },
    "gasPrices": [],
    "url": "https://www.google.com/maps/search/?api=1&query=Midtown%20Pharmacy%202&query_place_id=ChIJKdt1f1MbBYgRUclhz8h4AU8",
    "searchPageUrl": "https://www.google.com/maps/search/independent%20pharmacy%20in%20Milwaukee,%20WI/@61.56929586514925,-164.61850082811145,9z?hl=en",
    "searchString": "independent pharmacy in Milwaukee, WI",
    "language": "en",
    "rank": 9,
    "isAdvertisement": false,
    "imageUrl": "https://streetviewpixels-pa.googleapis.com/v1/thumbnail?panoid=7dkks8PSmJAF3FOUpRwaZw&cb_client=search.gws-prod.gps&w=408&h=240&yaw=174.59248&pitch=0&thumbfov=100",
    "kgmid": "/g/11ddzk3px7"
  },
  {
    "title": "Uptown Pharmacy & Wellness",
    "price": null,
    "categoryName": "Pharmacy",
    "address": "3512 N Oakland Ave, Shorewood, WI 53211",
    "neighborhood": null,
    "street": "3512 N Oakland Ave",
    "city": "Shorewood",
    "postalCode": "53211",
    "state": "Wisconsin",
    "countryCode": "US",
    "website": "https://uptownpharmacywi.com/",
    "phone": "(414) 372-0700",
    "phoneUnformatted": "+14143720700",
    "claimThisBusiness": false,
    "location": {
      "lat": 43.0824339,
      "lng": -87.8874211
    },
    "totalScore": 4.9,
    "permanentlyClosed": false,
    "temporarilyClosed": false,
    "placeId": "ChIJy-MwIN8fBYgRho1utK-lOGU",
    "categories": [
      "Pharmacy"
    ],
    "fid": "0x88051fdf2030e3cb:0x6538a5afb46e8d86",
    "cid": "7293761770591522182",
    "reviewsCount": 78,
    "imagesCount": 16,
    "imageCategories": [],
    "scrapedAt": "2025-06-23T05:34:57.417Z",
    "googleFoodUrl": null,
    "hotelAds": [],
    "openingHours": [
      {
        "day": "Monday",
        "hours": "9 AM to 6 PM"
      },
      {
        "day": "Tuesday",
        "hours": "9 AM to 6 PM"
      },
      {
        "day": "Wednesday",
        "hours": "9 AM to 6 PM"
      },
      {
        "day": "Thursday",
        "hours": "9 AM to 6 PM"
      },
      {
        "day": "Friday",
        "hours": "9 AM to 6 PM"
      },
      {
        "day": "Saturday",
        "hours": "Closed"
      },
      {
        "day": "Sunday",
        "hours": "Closed"
      }
    ],
    "peopleAlsoSearch": [],
    "placesTags": [],
    "reviewsTags": [],
    "additionalInfo": {
      "From the business": [
        {
          "Small business": true
        }
      ],
      "Service options": [
        {
          "Curbside pickup": true
        },
        {
          "Delivery": true
        },
        {
          "In-store pickup": true
        },
        {
          "In-store shopping": true
        },
        {
          "Onsite services": true
        },
        {
          "Same-day delivery": true
        },
        {
          "Arabic": true
        }
      ],
      "Accessibility": [
        {
          "Wheelchair accessible entrance": true
        },
        {
          "Wheelchair accessible parking lot": true
        },
        {
          "Wheelchair accessible seating": true
        }
      ],
      "Crowd": [
        {
          "LGBTQ+ friendly": true
        },
        {
          "Transgender safespace": true
        }
      ],
      "Payments": [
        {
          "Checks": true
        },
        {
          "Credit cards": true
        },
        {
          "Debit cards": true
        },
        {
          "NFC mobile payments": true
        },
        {
          "Credit cards": true
        }
      ]
    },
    "gasPrices": [],
    "url": "https://www.google.com/maps/search/?api=1&query=Uptown%20Pharmacy%20%26%20Wellness&query_place_id=ChIJy-MwIN8fBYgRho1utK-lOGU",
    "searchPageUrl": "https://www.google.com/maps/search/independent%20pharmacy%20in%20Milwaukee,%20WI/@61.56929586514925,-164.61850082811145,9z?hl=en",
    "searchString": "independent pharmacy in Milwaukee, WI",
    "language": "en",
    "rank": 10,
    "isAdvertisement": false,
    "imageUrl": "https://lh3.googleusercontent.com/p/AF1QipMn12kc94Rx_wOwCh8fhqJIhUdHqX_ateLV8RMr=w408-h544-k-no",
    "kgmid": "/g/11p7716b0_"
  }
]