[
  {
    "title": "City Drug",
    "price": null,
    "categoryName": "Pharmacy",
    "address": "1722 Carey Ave, Cheyenne, WY 82001",
    "neighborhood": null,
    "street": "1722 Carey Ave",
    "city": "Cheyenne",
    "postalCode": "82001",
    "state": "Wyoming",
    "countryCode": "US",
    "website": "https://www.citydrugcheyenne.com/",
    "phone": "(307) 514-0200",
    "phoneUnformatted": "+13075140200",
    "claimThisBusiness": false,
    "location": {
      "lat": 41.1338161,
      "lng": -104.8176919
    },
    "totalScore": 4.9,
    "permanentlyClosed": false,
    "temporarilyClosed": false,
    "placeId": "ChIJBStRKUc7b4cR596CMcFjupM",
    "categories": [
      "Pharmacy"
    ],
    "fid": "0x876f3b4729512b05:0x93ba63c13182dee7",
    "cid": "10644930350654086887",
    "reviewsCount": 49,
    "imagesCount": 34,
    "imageCategories": [],
    "scrapedAt": "2025-06-23T06:34:48.546Z",
    "googleFoodUrl": null,
    "hotelAds": [],
    "openingHours": [
      {
        "day": "Monday",
        "hours": "8 AM to 5 PM"
      },
      {
        "day": "Tuesday",
        "hours": "8 AM to 5 PM"
      },
      {
        "day": "Wednesday",
        "hours": "8 AM to 5 PM"
      },
      {
        "day": "Thursday",
        "hours": "8 AM to 5 PM"
      },
      {
        "day": "Friday",
        "hours": "8 AM to 5 PM"
      },
      {
        "day": "Saturday",
        "hours": "9 AM to 12 PM"
      },
      {
        "day": "Sunday",
        "hours": "Closed"
      }
    ],
    "peopleAlsoSearch": [],
    "placesTags": [],
    "reviewsTags": [],
    "additionalInfo": {
      "From the business": [
        {
          "Small business": true
        }
      ],
      "Service options": [
        {
          "Delivery": true
        },
        {
          "In-store pickup": true
        },
        {
          "In-store shopping": true
        }
      ],
      "Accessibility": [
        {
          "Wheelchair accessible entrance": true
        },
        {
          "Wheelchair accessible parking lot": true
        }
      ],
      "Amenities": [
        {
          "Wi-Fi": true
        },
        {
          "Free Wi-Fi": true
        }
      ],
      "Planning": [
        {
          "Quick visit": true
        }
      ],
      "Payments": [
        {
          "Credit cards": true
        },
        {
          "Debit cards": true
        },
        {
          "NFC mobile payments": true
        },
        {
          "Credit cards": true
        }
      ]
    },
    "gasPrices": [],
    "url": "https://www.google.com/maps/search/?api=1&query=City%20Drug&query_place_id=ChIJBStRKUc7b4cR596CMcFjupM",
    "searchPageUrl": "https://www.google.com/maps/search/independent%20pharmacies%20in%20Cheyenne,%20WY%20in%20Cheyenne,%20WY/@53.17343028361189,173.74285406053346,11z?hl=en",
    "searchString": "independent pharmacies in Cheyenne, WY in Cheyenne, WY",
    "language": "en",
    "rank": 1,
    "isAdvertisement": false,
    "imageUrl": "https://lh3.googleusercontent.com/p/AF1QipMd-UZk6MiHDMPUFu1r6s_IfAj7Xlzwj1-225C2=w408-h544-k-no",
    "kgmid": "/g/11s4svf29c"
  },
  {
    "title": "Genoa Healthcare",
    "price": null,
    "categoryName": "Pharmacy",
    "address": "510 W 29th St suite p, Cheyenne, WY 82001",
    "neighborhood": null,
    "street": "510 W 29th St suite p",
    "city": "Cheyenne",
    "postalCode": "82001",
    "state": "Wyoming",
    "countryCode": "US",
    "website": "http://www.genoahealthcare.com/",
    "phone": "(307) 778-3818",
    "phoneUnformatted": "+13077783818",
    "claimThisBusiness": false,
    "location": {
      "lat": 41.1430379,
      "lng": -104.8271706
    },
    "totalScore": 4.4,
    "permanentlyClosed": false,
    "temporarilyClosed": false,
    "placeId": "ChIJzRl8B-86b4cRpKyNDoSTM2k",
    "categories": [
      "Pharmacy"
    ],
    "fid": "0x876f3aef077c19cd:0x693393840e8daca4",
    "cid": "7580564793183808676",
    "reviewsCount": 25,
    "imagesCount": 2,
    "imageCategories": [],
    "scrapedAt": "2025-06-23T06:34:48.547Z",
    "googleFoodUrl": null,
    "hotelAds": [],
    "openingHours": [
      {
        "day": "Monday",
        "hours": "8 AM to 12:30 PM, 1:30 to 5 PM"
      },
      {
        "day": "Tuesday",
        "hours": "8 AM to 12:30 PM, 1:30 to 5 PM"
      },
      {
        "day": "Wednesday",
        "hours": "8 AM to 12:30 PM, 1:30 to 5 PM"
      },
      {
        "day": "Thursday",
        "hours": "8 AM to 12:30 PM, 1:30 to 5 PM"
      },
      {
        "day": "Friday",
        "hours": "8 AM to 12:30 PM, 1:30 to 5 PM"
      },
      {
        "day": "Saturday",
        "hours": "Closed"
      },
      {
        "day": "Sunday",
        "hours": "Closed"
      }
    ],
    "peopleAlsoSearch": [],
    "placesTags": [],
    "reviewsTags": [],
    "additionalInfo": {
      "Accessibility": [
        {
          "Wheelchair accessible entrance": true
        },
        {
          "Wheelchair accessible parking lot": true
        }
      ],
      "Payments": [
        {
          "Credit cards": true
        }
      ]
    },
    "gasPrices": [],
    "url": "https://www.google.com/maps/search/?api=1&query=Genoa%20Healthcare&query_place_id=ChIJzRl8B-86b4cRpKyNDoSTM2k",
    "searchPageUrl": "https://www.google.com/maps/search/independent%20pharmacies%20in%20Cheyenne,%20WY%20in%20Cheyenne,%20WY/@53.17343028361189,173.74285406053346,11z?hl=en",
    "searchString": "independent pharmacies in Cheyenne, WY in Cheyenne, WY",
    "language": "en",
    "rank": 2,
    "isAdvertisement": false,
    "imageUrl": "https://lh3.googleusercontent.com/gps-cs-s/AC9h4nrAcnBsKGDrVngXzssoMXreRuYSkp_NZZlzN5MDQeH5OHyxZaYe9dXVezRi4Lha38rLDeboWCWVn0gm8IusOhwQ9aSkRYipOsc_8oURJMM5H2pK2VTLoYUVZg7qkLz2H_ykxHo=w408-h725-k-no",
    "kgmid": "/g/1tfzh7xl"
  },
  {
    "title": "North Star Pharmacy & Infusion",
    "price": null,
    "categoryName": "Pharmacy",
    "address": "7121 Commons Dr, Cheyenne, WY 82009",
    "neighborhood": null,
    "street": "7121 Commons Dr",
    "city": "Cheyenne",
    "postalCode": "82009",
    "state": "Wyoming",
    "countryCode": "US",
    "website": "https://www.northstarinfusions.com/",
    "phone": "(307) 637-4300",
    "phoneUnformatted": "+13076374300",
    "claimThisBusiness": false,
    "location": {
      "lat": 41.1827124,
      "lng": -104.8270637
    },
    "totalScore": 4.1,
    "permanentlyClosed": false,
    "temporarilyClosed": false,
    "placeId": "ChIJicqCeBjRRIYRkx5TY_TEgX4",
    "categories": [
      "Pharmacy"
    ],
    "fid": "0x8644d1187882ca89:0x7e81c4f463531e93",
    "cid": "9115783674692050579",
    "reviewsCount": 106,
    "imagesCount": 3,
    "imageCategories": [],
    "scrapedAt": "2025-06-23T06:34:48.548Z",
    "googleFoodUrl": null,
    "hotelAds": [],
    "openingHours": [
      {
        "day": "Monday",
        "hours": "8 AM to 6 PM"
      },
      {
        "day": "Tuesday",
        "hours": "8 AM to 6 PM"
      },
      {
        "day": "Wednesday",
        "hours": "8 AM to 6 PM"
      },
      {
        "day": "Thursday",
        "hours": "8 AM to 6 PM"
      },
      {
        "day": "Friday",
        "hours": "8 AM to 6 PM"
      },
      {
        "day": "Saturday",
        "hours": "9 AM to 12 PM"
      },
      {
        "day": "Sunday",
        "hours": "Closed"
      }
    ],
    "peopleAlsoSearch": [],
    "placesTags": [],
    "reviewsTags": [],
    "additionalInfo": {
      "From the business": [
        {
          "Small business": true
        }
      ],
      "Service options": [
        {
          "Delivery": true
        },
        {
          "Drive-through": true
        },
        {
          "In-store pickup": true
        },
        {
          "Same-day delivery": true
        }
      ],
      "Accessibility": [
        {
          "Wheelchair accessible entrance": true
        },
        {
          "Wheelchair accessible parking lot": true
        }
      ],
      "Amenities": [
        {
          "Wi-Fi": true
        },
        {
          "Free Wi-Fi": true
        }
      ],
      "Planning": [
        {
          "Quick visit": true
        }
      ],
      "Payments": [
        {
          "Credit cards": true
        },
        {
          "Debit cards": true
        },
        {
          "NFC mobile payments": true
        },
        {
          "Credit cards": true
        }
      ]
    },
    "gasPrices": [],
    "url": "https://www.google.com/maps/search/?api=1&query=North%20Star%20Pharmacy%20%26%20Infusion&query_place_id=ChIJicqCeBjRRIYRkx5TY_TEgX4",
    "searchPageUrl": "https://www.google.com/maps/search/independent%20pharmacies%20in%20Cheyenne,%20WY%20in%20Cheyenne,%20WY/@53.17343028361189,173.74285406053346,11z?hl=en",
    "searchString": "independent pharmacies in Cheyenne, WY in Cheyenne, WY",
    "language": "en",
    "rank": 3,
    "isAdvertisement": false,
    "imageUrl": "https://lh3.googleusercontent.com/gps-cs-s/AC9h4nrc1qoKvS7hP_1z2qDyQjpPA8BTVtMG_2VBXbiUFtNYzExvw6v08iesA1LXEjQq4gRP4jrMDC7J_z9RaJTZwAOdF2w2SOwT87JpWdnWw-ExX7mxFplUtHeI0hbiPlY9FtjamqhT=w645-h240-k-no",
    "kgmid": "/g/1tj2nvyn"
  },
  {
    "title": "Quality IV Care Cheyenne - Home Infusion Pharmacy",
    "price": null,
    "categoryName": "Pharmacy",
    "address": "4081 Laramie St, Cheyenne, WY 82001",
    "neighborhood": null,
    "street": "4081 Laramie St",
    "city": "Cheyenne",
    "postalCode": "82001",
    "state": "Wyoming",
    "countryCode": "US",
    "website": "http://qualityivcare.com/",
    "phone": "(307) 742-5048",
    "phoneUnformatted": "+13077425048",
    "claimThisBusiness": true,
    "location": {
      "lat": 41.1507897,
      "lng": -104.7597759
    },
    "permanentlyClosed": false,
    "temporarilyClosed": false,
    "placeId": "ChIJV518RwA7b4cRx_sBLjpPZiU",
    "categories": [
      "Pharmacy"
    ],
    "fid": "0x876f3b00477c9d57:0x25664f3a2e01fbc7",
    "cid": "2694928538326399943",
    "reviewsCount": 0,
    "imagesCount": 1,
    "imageCategories": [],
    "scrapedAt": "2025-06-23T06:35:12.288Z",
    "googleFoodUrl": null,
    "hotelAds": [],
    "openingHours": [
      {
        "day": "Monday",
        "hours": "9 AM to 5 PM"
      },
      {
        "day": "Tuesday",
        "hours": "9 AM to 5 PM"
      },
      {
        "day": "Wednesday",
        "hours": "9 AM to 5 PM"
      },
      {
        "day": "Thursday",
        "hours": "9 AM to 5 PM"
      },
      {
        "day": "Friday",
        "hours": "9 AM to 5 PM"
      },
      {
        "day": "Saturday",
        "hours": "Closed"
      },
      {
        "day": "Sunday",
        "hours": "Closed"
      }
    ],
    "peopleAlsoSearch": [],
    "placesTags": [],
    "reviewsTags": [],
    "additionalInfo": {
      "Accessibility": [
        {
          "Wheelchair accessible entrance": true
        },
        {
          "Wheelchair accessible parking lot": true
        }
      ]
    },
    "gasPrices": [],
    "url": "https://www.google.com/maps/search/?api=1&query=Quality%20IV%20Care%20Cheyenne%20-%20Home%20Infusion%20Pharmacy&query_place_id=ChIJV518RwA7b4cRx_sBLjpPZiU",
    "searchPageUrl": "https://www.google.com/maps/search/independent%20pharmacies%20in%20Cheyenne,%20WY%20in%20Cheyenne,%20WY/@68.51690656216455,-149.65811401432413,9z?hl=en",
    "searchString": "independent pharmacies in Cheyenne, WY in Cheyenne, WY",
    "language": "en",
    "rank": 4,
    "isAdvertisement": false,
    "imageUrl": "https://streetviewpixels-pa.googleapis.com/v1/thumbnail?panoid=LrN1oWBt3_NQXrRztt26aA&cb_client=search.gws-prod.gps&w=408&h=240&yaw=174.45837&pitch=0&thumbfov=100",
    "kgmid": "/g/11wmphbzq4"
  },
  {
    "title": "HealthWorks Pharmacy",
    "price": null,
    "categoryName": "Pharmacy",
    "address": "2508 E Fox Farm Rd #1b, Cheyenne, WY 82007",
    "neighborhood": null,
    "street": "2508 E Fox Farm Rd #1b",
    "city": "Cheyenne",
    "postalCode": "82007",
    "state": "Wyoming",
    "countryCode": "US",
    "website": "https://www.wyhealthworks.org/",
    "phone": "(307) 637-7000",
    "phoneUnformatted": "+13076377000",
    "claimThisBusiness": false,
    "location": {
      "lat": 41.137589,
      "lng": -104.8065716
    },
    "totalScore": 4,
    "permanentlyClosed": false,
    "temporarilyClosed": false,
    "placeId": "ChIJRwSRU7Ekb4cR0ME1tMnWM2M",
    "categories": [
      "Pharmacy"
    ],
    "fid": "0x876f24b153910447:0x6333d6c9b435c1d0",
    "cid": "7148293195367301584",
    "reviewsCount": 18,
    "imagesCount": 2,
    "imageCategories": [],
    "scrapedAt": "2025-06-23T06:35:12.288Z",
    "googleFoodUrl": null,
    "hotelAds": [],
    "openingHours": [
      {
        "day": "Monday",
        "hours": "8 AM to 5 PM"
      },
      {
        "day": "Tuesday",
        "hours": "8 AM to 5 PM"
      },
      {
        "day": "Wednesday",
        "hours": "8 AM to 5 PM"
      },
      {
        "day": "Thursday",
        "hours": "8 AM to 5 PM"
      },
      {
        "day": "Friday",
        "hours": "8 AM to 5 PM"
      },
      {
        "day": "Saturday",
        "hours": "Closed"
      },
      {
        "day": "Sunday",
        "hours": "Closed"
      }
    ],
    "peopleAlsoSearch": [],
    "placesTags": [],
    "reviewsTags": [],
    "additionalInfo": {
      "Accessibility": [
        {
          "Wheelchair accessible entrance": true
        },
        {
          "Wheelchair accessible parking lot": true
        },
        {
          "Wheelchair accessible restroom": true
        }
      ],
      "Planning": [
        {
          "Appointment required": true
        }
      ],
      "Payments": [
        {
          "Credit cards": true
        },
        {
          "Debit cards": true
        },
        {
          "NFC mobile payments": true
        },
        {
          "Credit cards": true
        }
      ]
    },
    "gasPrices": [],
    "url": "https://www.google.com/maps/search/?api=1&query=HealthWorks%20Pharmacy&query_place_id=ChIJRwSRU7Ekb4cR0ME1tMnWM2M",
    "searchPageUrl": "https://www.google.com/maps/search/independent%20pharmacies%20in%20Cheyenne,%20WY%20in%20Cheyenne,%20WY/@68.51690656216455,-149.65811401432413,9z?hl=en",
    "searchString": "independent pharmacies in Cheyenne, WY in Cheyenne, WY",
    "language": "en",
    "rank": 5,
    "isAdvertisement": false,
    "imageUrl": "https://lh3.googleusercontent.com/p/AF1QipOy0ALHijlCY_LedPuDEFw-lbwj3-HPQTIoXkrU=w408-h408-k-no",
    "kgmid": "/g/11b620zmjs"
  },
  {
    "title": "Enlow Cary D",
    "price": null,
    "categoryName": "Pharmacy",
    "address": "2360 E Pershing Blvd, Cheyenne, WY 82001",
    "neighborhood": null,
    "street": "2360 E Pershing Blvd",
    "city": "Cheyenne",
    "postalCode": "82001",
    "state": "Wyoming",
    "countryCode": "US",
    "website": "http://www.cheyenne.va.gov/",
    "phone": "(307) 778-7550",
    "phoneUnformatted": "+13077787550",
    "claimThisBusiness": true,
    "location": {
      "lat": 41.148043,
      "lng": -104.7861306
    },
    "permanentlyClosed": false,
    "temporarilyClosed": false,
    "placeId": "ChIJHcX1Pho7b4cRnenc5Rjz4Us",
    "categories": [
      "Pharmacy"
    ],
    "fid": "0x876f3b1a3ef5c51d:0x4be1f318e5dce99d",
    "cid": "5467918710865717661",
    "reviewsCount": 0,
    "imagesCount": 1,
    "imageCategories": [],
    "scrapedAt": "2025-06-23T06:35:12.288Z",
    "googleFoodUrl": null,
    "hotelAds": [],
    "openingHours": [],
    "peopleAlsoSearch": [],
    "placesTags": [],
    "reviewsTags": [],
    "additionalInfo": {
      "Accessibility": [
        {
          "Wheelchair accessible entrance": true
        },
        {
          "Wheelchair accessible parking lot": true
        }
      ],
      "Payments": [
        {
          "Credit cards": true
        }
      ]
    },
    "gasPrices": [],
    "url": "https://www.google.com/maps/search/?api=1&query=Enlow%20Cary%20D&query_place_id=ChIJHcX1Pho7b4cRnenc5Rjz4Us",
    "searchPageUrl": "https://www.google.com/maps/search/independent%20pharmacies%20in%20Cheyenne,%20WY%20in%20Cheyenne,%20WY/@68.51690656216455,-149.65811401432413,9z?hl=en",
    "searchString": "independent pharmacies in Cheyenne, WY in Cheyenne, WY",
    "language": "en",
    "rank": 6,
    "isAdvertisement": false,
    "imageUrl": "https://streetviewpixels-pa.googleapis.com/v1/thumbnail?panoid=bB554ITS0rvMzoEU5k0UQQ&cb_client=search.gws-prod.gps&w=408&h=240&yaw=59.512474&pitch=0&thumbfov=100",
    "kgmid": "/g/1tfklp03"
  },
  {
    "title": "Walgreens",
    "description": "Drugstore chain with health & beauty aids, prescriptions & photo services, plus mini-mart basics.",
    "price": "$$",
    "categoryName": "Drug store",
    "address": "1501 Dell Range Blvd, Cheyenne, WY 82009",
    "neighborhood": null,
    "street": "1501 Dell Range Blvd",
    "city": "Cheyenne",
    "postalCode": "82009",
    "state": "Wyoming",
    "countryCode": "US",
    "website": "https://www.walgreens.com/locator/walgreens-1501+dell+range+blvd-cheyenne-wy-82009/id=9548",
    "phone": "(307) 635-5854",
    "phoneUnformatted": "+13076355854",
    "claimThisBusiness": false,
    "location": {
      "lat": 41.159723,
      "lng": -104.8055491
    },
    "locatedIn": "Walgreens Pharmacy",
    "totalScore": 3.2,
    "permanentlyClosed": false,
    "temporarilyClosed": false,
    "placeId": "ChIJdT_Qi1Y6b4cRmqflMOkT0JY",
    "categories": [
      "Drug store",
      "Beauty supply store",
      "Convenience store",
      "Cosmetics store",
      "Greeting card shop",
      "Perfume store",
      "Stationery store"
    ],
    "fid": "0x876f3a568bd03f75:0x96d013e930e5a79a",
    "cid": "10867207793113671578",
    "reviewsCount": 70,
    "imagesCount": 9,
    "imageCategories": [],
    "scrapedAt": "2025-06-23T06:35:12.288Z",
    "googleFoodUrl": null,
    "hotelAds": [],
    "openingHours": [
      {
        "day": "Monday",
        "hours": "7 AM to 11 PM"
      },
      {
        "day": "Tuesday",
        "hours": "7 AM to 11 PM"
      },
      {
        "day": "Wednesday",
        "hours": "7 AM to 11 PM"
      },
      {
        "day": "Thursday",
        "hours": "7 AM to 11 PM"
      },
      {
        "day": "Friday",
        "hours": "7 AM to 11 PM"
      },
      {
        "day": "Saturday",
        "hours": "7 AM to 11 PM"
      },
      {
        "day": "Sunday",
        "hours": "7 AM to 11 PM"
      }
    ],
    "additionalOpeningHours": {
      "Walgreens Pharmacy": [
        {
          "day": "Monday",
          "hours": "9 AM–1:30 PM"
        },
        {
          "day": "Tuesday",
          "hours": "9 AM–1:30 PM"
        },
        {
          "day": "Wednesday",
          "hours": "9 AM–1:30 PM"
        },
        {
          "day": "Thursday",
          "hours": "9 AM–1:30 PM"
        },
        {
          "day": "Friday",
          "hours": "9 AM–1:30 PM"
        },
        {
          "day": "Saturday",
          "hours": "9 AM–1:30 PM"
        },
        {
          "day": "Sunday",
          "hours": "10 AM–1:30 PM"
        }
      ],
      "Walgreens Photo": [
        {
          "day": "Monday",
          "hours": "7 AM–11 PM"
        },
        {
          "day": "Tuesday",
          "hours": "7 AM–11 PM"
        },
        {
          "day": "Wednesday",
          "hours": "7 AM–11 PM"
        },
        {
          "day": "Thursday",
          "hours": "7 AM–11 PM"
        },
        {
          "day": "Friday",
          "hours": "7 AM–11 PM"
        },
        {
          "day": "Saturday",
          "hours": "7 AM–11 PM"
        },
        {
          "day": "Sunday",
          "hours": "7 AM–11 PM"
        }
      ],
      "Pickup": [
        {
          "day": "Monday",
          "hours": "7 AM–11 PM"
        },
        {
          "day": "Tuesday",
          "hours": "7 AM–11 PM"
        },
        {
          "day": "Wednesday",
          "hours": "7 AM–11 PM"
        },
        {
          "day": "Thursday",
          "hours": "7 AM–11 PM"
        },
        {
          "day": "Friday",
          "hours": "7 AM–11 PM"
        },
        {
          "day": "Saturday",
          "hours": "7 AM–11 PM"
        },
        {
          "day": "Sunday",
          "hours": "7 AM–11 PM"
        }
      ]
    },
    "peopleAlsoSearch": [],
    "placesTags": [],
    "reviewsTags": [],
    "additionalInfo": {
      "Service options": [
        {
          "Curbside pickup": true
        },
        {
          "Delivery": true
        },
        {
          "Drive-through": true
        },
        {
          "In-store pickup": true
        },
        {
          "Onsite services": true
        }
      ],
      "Accessibility": [
        {
          "Wheelchair accessible entrance": true
        },
        {
          "Wheelchair accessible parking lot": true
        }
      ],
      "Planning": [
        {
          "Quick visit": true
        }
      ],
      "Payments": [
        {
          "Checks": true
        },
        {
          "Credit cards": true
        },
        {
          "Debit cards": true
        },
        {
          "NFC mobile payments": true
        },
        {
          "SNAP/EBT": true
        },
        {
          "Credit cards": true
        }
      ]
    },
    "gasPrices": [],
    "url": "https://www.google.com/maps/search/?api=1&query=Walgreens&query_place_id=ChIJdT_Qi1Y6b4cRmqflMOkT0JY",
    "searchPageUrl": "https://www.google.com/maps/search/independent%20pharmacies%20in%20Cheyenne,%20WY%20in%20Cheyenne,%20WY/@68.51690656216455,-149.65811401432413,9z?hl=en",
    "searchString": "independent pharmacies in Cheyenne, WY in Cheyenne, WY",
    "language": "en",
    "rank": 7,
    "isAdvertisement": false,
    "imageUrl": "https://lh3.googleusercontent.com/gps-cs-s/AC9h4nomA70GffdMtqCYJ6kX7lvMND3dPcU_MAKyNEI-NNEu044TTynykVLfkjzLl3iXZjQNHntILUkD2BelezNc3rhNYLSaYlzrCNAGVcaCSd0xwV29iT2zd-3LDcAs2IpNT4rYIBE0Og=w408-h306-k-no",
    "kgmid": "/g/1tdfclpx"
  },
  {
    "title": "King Soopers Pharmacy",
    "price": null,
    "categoryName": "Pharmacy",
    "address": "3702 Dell Range Blvd, Cheyenne, WY 82009",
    "neighborhood": null,
    "street": "3702 Dell Range Blvd",
    "city": "Cheyenne",
    "postalCode": "82009",
    "state": "Wyoming",
    "countryCode": "US",
    "website": "https://www.kingsoopers.com/rx/pharmacy/details/620/00079?cid=loc_62000079P_gmb",
    "phone": "(307) 638-0192",
    "phoneUnformatted": "+13076380192",
    "claimThisBusiness": false,
    "location": {
      "lat": 41.1612719,
      "lng": -104.7646326
    },
    "totalScore": 4.3,
    "permanentlyClosed": false,
    "temporarilyClosed": false,
    "placeId": "ChIJFQd0o3c7b4cR9y0OLicfy-U",
    "categories": [
      "Pharmacy",
      "Drug store",
      "Health counselor",
      "Home health care service"
    ],
    "fid": "0x876f3b77a3740715:0xe5cb1f272e0e2df7",
    "cid": "16558362708094627319",
    "reviewsCount": 36,
    "imagesCount": 10,
    "imageCategories": [],
    "scrapedAt": "2025-06-23T06:35:12.288Z",
    "googleFoodUrl": null,
    "hotelAds": [],
    "openingHours": [
      {
        "day": "Monday",
        "hours": "9 AM to 1 PM, 1:30 to 8 PM"
      },
      {
        "day": "Tuesday",
        "hours": "9 AM to 1 PM, 1:30 to 8 PM"
      },
      {
        "day": "Wednesday",
        "hours": "9 AM to 1 PM, 1:30 to 8 PM"
      },
      {
        "day": "Thursday",
        "hours": "9 AM to 1 PM, 1:30 to 8 PM"
      },
      {
        "day": "Friday",
        "hours": "9 AM to 1 PM, 1:30 to 8 PM"
      },
      {
        "day": "Saturday",
        "hours": "9 AM to 1 PM, 1:30 to 6 PM"
      },
      {
        "day": "Sunday",
        "hours": "10 AM to 1 PM, 1:30 to 5 PM"
      }
    ],
    "peopleAlsoSearch": [],
    "placesTags": [],
    "reviewsTags": [],
    "additionalInfo": {
      "Service options": [
        {
          "Curbside pickup": true
        },
        {
          "Delivery": true
        },
        {
          "In-store pickup": true
        },
        {
          "In-store shopping": true
        },
        {
          "Same-day delivery": true
        }
      ],
      "Accessibility": [
        {
          "Wheelchair accessible entrance": true
        },
        {
          "Wheelchair accessible parking lot": true
        },
        {
          "Wheelchair accessible restroom": true
        },
        {
          "Wheelchair accessible seating": true
        }
      ],
      "Offerings": [
        {
          "Passport photos": true
        }
      ],
      "Crowd": [
        {
          "LGBTQ+ friendly": true
        },
        {
          "Transgender safespace": true
        }
      ],
      "Planning": [
        {
          "Quick visit": true
        }
      ],
      "Payments": [
        {
          "Checks": true
        },
        {
          "Credit cards": true
        },
        {
          "Debit cards": true
        },
        {
          "NFC mobile payments": true
        },
        {
          "Credit cards": true
        }
      ]
    },
    "gasPrices": [],
    "url": "https://www.google.com/maps/search/?api=1&query=King%20Soopers%20Pharmacy&query_place_id=ChIJFQd0o3c7b4cR9y0OLicfy-U",
    "searchPageUrl": "https://www.google.com/maps/search/independent%20pharmacies%20in%20Cheyenne,%20WY%20in%20Cheyenne,%20WY/@68.51690656216455,-149.65811401432413,9z?hl=en",
    "searchString": "independent pharmacies in Cheyenne, WY in Cheyenne, WY",
    "language": "en",
    "rank": 8,
    "isAdvertisement": false,
    "imageUrl": "https://lh3.googleusercontent.com/p/AF1QipOtYHOfD98aFFrGqsY-CEiMC4IVUzZADuAUUMYE=w426-h240-k-no",
    "kgmid": "/g/1yfjnst7k"
  },
  {
    "title": "CVS Pharmacy",
    "description": "Drugstore chain selling a variety of beauty & health products, plus some grocery & household items.",
    "price": null,
    "categoryName": "Pharmacy",
    "address": "1708 Dell Range Blvd, Cheyenne, WY 82009",
    "neighborhood": null,
    "street": "1708 Dell Range Blvd",
    "city": "Cheyenne",
    "postalCode": "82009",
    "state": "Wyoming",
    "countryCode": "US",
    "website": "https://www.cvs.com/store-locator/cheyenne-wy-pharmacies/1708-dell-range-blvd-cheyenne-wy-82009/storeid=17769?WT.mc_id=LS_GOOGLE_RX_17769",
    "phone": "(307) 829-3118",
    "phoneUnformatted": "+13078293118",
    "claimThisBusiness": false,
    "location": {
      "lat": 41.1620191,
      "lng": -104.8000475
    },
    "totalScore": 3,
    "permanentlyClosed": false,
    "temporarilyClosed": false,
    "placeId": "ChIJy37T_ao7b4cRbd_CeQrvljg",
    "categories": [
      "Pharmacy"
    ],
    "fid": "0x876f3baafdd37ecb:0x3896ef0a79c2df6d",
    "cid": "4077709340902088557",
    "reviewsCount": 39,
    "imagesCount": 5,
    "imageCategories": [],
    "scrapedAt": "2025-06-23T06:35:12.288Z",
    "googleFoodUrl": null,
    "hotelAds": [],
    "openingHours": [
      {
        "day": "Monday",
        "hours": "9 AM to 1:30 PM, 2 to 7 PM"
      },
      {
        "day": "Tuesday",
        "hours": "9 AM to 1:30 PM, 2 to 7 PM"
      },
      {
        "day": "Wednesday",
        "hours": "9 AM to 1:30 PM, 2 to 7 PM"
      },
      {
        "day": "Thursday",
        "hours": "9 AM to 1:30 PM, 2 to 7 PM"
      },
      {
        "day": "Friday",
        "hours": "9 AM to 1:30 PM, 2 to 7 PM"
      },
      {
        "day": "Saturday",
        "hours": "Closed"
      },
      {
        "day": "Sunday",
        "hours": "Closed"
      }
    ],
    "peopleAlsoSearch": [],
    "placesTags": [],
    "reviewsTags": [],
    "additionalInfo": {
      "Service options": [
        {
          "Delivery": true
        },
        {
          "In-store shopping": true
        }
      ],
      "Accessibility": [
        {
          "Wheelchair accessible entrance": true
        },
        {
          "Wheelchair accessible parking lot": true
        }
      ],
      "Crowd": [
        {
          "LGBTQ+ friendly": true
        },
        {
          "Transgender safespace": true
        }
      ],
      "Planning": [
        {
          "Quick visit": true
        }
      ],
      "Payments": [
        {
          "Credit cards": true
        },
        {
          "Debit cards": true
        },
        {
          "Credit cards": true
        }
      ]
    },
    "gasPrices": [],
    "url": "https://www.google.com/maps/search/?api=1&query=CVS%20Pharmacy&query_place_id=ChIJy37T_ao7b4cRbd_CeQrvljg",
    "searchPageUrl": "https://www.google.com/maps/search/independent%20pharmacies%20in%20Cheyenne,%20WY%20in%20Cheyenne,%20WY/@68.51690656216455,-149.65811401432413,9z?hl=en",
    "searchString": "independent pharmacies in Cheyenne, WY in Cheyenne, WY",
    "language": "en",
    "rank": 9,
    "isAdvertisement": false,
    "imageUrl": "https://lh3.googleusercontent.com/p/AF1QipNkBPJuJQy8lXiYPnUMWWCrEXFHIuC6A_NmuOns=w408-h272-k-no",
    "kgmid": "/g/11fll5xsnk"
  },
  {
    "title": "Cheyenne Professional Drug",
    "price": null,
    "categoryName": "Pharmacy",
    "address": "413 E Broadway, Cheyenne, OK 73628",
    "neighborhood": null,
    "street": "413 E Broadway",
    "city": "Cheyenne",
    "postalCode": "73628",
    "state": "Oklahoma",
    "countryCode": "US",
    "website": "http://www.cheyennedrug.com/",
    "phone": "(580) 497-3325",
    "phoneUnformatted": "+15804973325",
    "claimThisBusiness": true,
    "location": {
      "lat": 35.6140983,
      "lng": -99.67255
    },
    "totalScore": 5,
    "permanentlyClosed": false,
    "temporarilyClosed": false,
    "placeId": "ChIJaxzXsHhkqYcRwvNd5Ui478o",
    "categories": [
      "Pharmacy"
    ],
    "fid": "0x87a96478b0d71c6b:0xcaefb848e55df3c2",
    "cid": "14623109138320585666",
    "reviewsCount": 5,
    "imagesCount": 4,
    "imageCategories": [],
    "scrapedAt": "2025-06-23T06:35:12.288Z",
    "googleFoodUrl": null,
    "hotelAds": [],
    "openingHours": [
      {
        "day": "Monday",
        "hours": "8:30 AM to 5:30 PM"
      },
      {
        "day": "Tuesday",
        "hours": "8:30 AM to 5:30 PM"
      },
      {
        "day": "Wednesday",
        "hours": "8:30 AM to 5:30 PM"
      },
      {
        "day": "Thursday",
        "hours": "8:30 AM to 5:30 PM"
      },
      {
        "day": "Friday",
        "hours": "8:30 AM to 5:30 PM"
      },
      {
        "day": "Saturday",
        "hours": "8:30 AM to 12:30 PM"
      },
      {
        "day": "Sunday",
        "hours": "Closed"
      }
    ],
    "peopleAlsoSearch": [],
    "placesTags": [],
    "reviewsTags": [],
    "additionalInfo": {
      "Accessibility": [
        {
          "Wheelchair accessible entrance": true
        },
        {
          "Wheelchair accessible parking lot": true
        }
      ],
      "Planning": [
        {
          "Quick visit": true
        }
      ],
      "Payments": [
        {
          "Credit cards": true
        },
        {
          "Debit cards": true
        },
        {
          "NFC mobile payments": true
        },
        {
          "Credit cards": true
        }
      ]
    },
    "gasPrices": [],
    "url": "https://www.google.com/maps/search/?api=1&query=Cheyenne%20Professional%20Drug&query_place_id=ChIJaxzXsHhkqYcRwvNd5Ui478o",
    "searchPageUrl": "https://www.google.com/maps/search/independent%20pharmacies%20in%20Cheyenne,%20WY%20in%20Cheyenne,%20WY/@68.51690656216455,-149.65811401432413,9z?hl=en",
    "searchString": "independent pharmacies in Cheyenne, WY in Cheyenne, WY",
    "language": "en",
    "rank": 10,
    "isAdvertisement": false,
    "imageUrl": "https://lh3.googleusercontent.com/gps-cs-s/AC9h4nri0ZrYd-2ZIUvepsFWvI5ciFTXUXOK5QWr1uJwxJW6D-jflEtf0k3DWJQkxebEVmgyNXrUSEseRXFhhMwAKO7WbH4Vn8_GxPaetIzwxuaA-FJ4mtB-1ciFzwBTrl-OGCyNk0zA=w408-h306-k-no",
    "kgmid": "/g/1tf36ghc"
  }
]