[
  {
    "title": "Liberty Pharmacy",
    "price": null,
    "categoryName": "Pharmacy",
    "address": "8650 Spicewood Springs Rd #106, Austin, TX 78759",
    "neighborhood": "Barrington Oaks",
    "street": "8650 Spicewood Springs Rd #106",
    "city": "Austin",
    "postalCode": "78759",
    "state": "Texas",
    "countryCode": "US",
    "phone": "(512) 249-7500",
    "phoneUnformatted": "+15122497500",
    "claimThisBusiness": false,
    "location": {
      "lat": 30.4330058,
      "lng": -97.7715715
    },
    "totalScore": 3.8,
    "permanentlyClosed": false,
    "temporarilyClosed": false,
    "placeId": "ChIJ8zj0X9jMRIYR25SRfSPLxLI",
    "categories": [
      "Pharmacy",
      "Medical supply store"
    ],
    "fid": "0x8644ccd85ff438f3:0xb2c4cb237d9194db",
    "cid": "12881644187477447899",
    "reviewsCount": 61,
    "imagesCount": 23,
    "imageCategories": [],
    "scrapedAt": "2025-06-21T19:07:08.872Z",
    "googleFoodUrl": null,
    "hotelAds": [],
    "openingHours": [
      {
        "day": "Monday",
        "hours": "9 AM to 6 PM"
      },
      {
        "day": "Tuesday",
        "hours": "9 AM to 6 PM"
      },
      {
        "day": "Wednesday",
        "hours": "9 AM to 6 PM"
      },
      {
        "day": "Thursday",
        "hours": "9 AM to 6 PM"
      },
      {
        "day": "Friday",
        "hours": "9 AM to 6 PM"
      },
      {
        "day": "Saturday",
        "hours": "10 AM to 3 PM"
      },
      {
        "day": "Sunday",
        "hours": "Closed"
      }
    ],
    "peopleAlsoSearch": [],
    "placesTags": [],
    "reviewsTags": [],
    "additionalInfo": {
      "From the business": [
        {
          "Small business": true
        }
      ],
      "Service options": [
        {
          "Delivery": true
        },
        {
          "In-store pickup": true
        },
        {
          "Same-day delivery": true
        }
      ],
      "Accessibility": [
        {
          "Wheelchair accessible entrance": true
        },
        {
          "Wheelchair accessible parking lot": true
        }
      ],
      "Offerings": [
        {
          "Medication disposal": true
        }
      ],
      "Planning": [
        {
          "Quick visit": true
        }
      ],
      "Payments": [
        {
          "Credit cards": true
        },
        {
          "Debit cards": true
        },
        {
          "NFC mobile payments": true
        },
        {
          "Credit cards": true
        }
      ]
    },
    "gasPrices": [],
    "url": "https://www.google.com/maps/search/?api=1&query=Liberty%20Pharmacy&query_place_id=ChIJ8zj0X9jMRIYR25SRfSPLxLI",
    "searchPageUrl": "https://www.google.com/maps/search/independent%20pharmacy%20Austin%20TX%20in%20Austin,%20TX/@62.95881800455232,-153.11051097135197,9z?hl=en",
    "searchString": "independent pharmacy Austin TX in Austin, TX",
    "language": "en",
    "rank": 1,
    "isAdvertisement": false,
    "imageUrl": "https://lh3.googleusercontent.com/p/AF1QipPbOvBwFr8Dfuq7NvyeZ9VOSvF2iiY1sosvTzJW=w408-h304-k-no",
    "kgmid": "/g/1wb8v28c"
  },
  {
    "title": "Martin's Wellness & Compounding Pharmacy at Lamar Plaza Drug Store",
    "price": null,
    "categoryName": "Pharmacy",
    "address": "1509 S Lamar Blvd #550, Austin, TX 78704",
    "neighborhood": "Zilker",
    "street": "1509 S Lamar Blvd #550",
    "city": "Austin",
    "postalCode": "78704",
    "state": "Texas",
    "countryCode": "US",
    "website": "https://martinswellness.com/",
    "phone": "(512) 442-6777",
    "phoneUnformatted": "+15124426777",
    "claimThisBusiness": false,
    "location": {
      "lat": 30.251961,
      "lng": -97.763734
    },
    "totalScore": 4.6,
    "permanentlyClosed": false,
    "temporarilyClosed": false,
    "placeId": "ChIJ7SpPEh-1RIYRDyAp7XUxi7c",
    "categories": [
      "Pharmacy",
      "Drug store",
      "Medical supply store",
      "Vitamin & supplements store"
    ],
    "fid": "0x8644b51f124f2aed:0xb78b3175ed29200f",
    "cid": "13225719113263423503",
    "reviewsCount": 74,
    "imagesCount": 99,
    "imageCategories": [],
    "scrapedAt": "2025-06-21T19:07:08.874Z",
    "googleFoodUrl": null,
    "hotelAds": [],
    "openingHours": [
      {
        "day": "Monday",
        "hours": "9 AM to 6 PM"
      },
      {
        "day": "Tuesday",
        "hours": "9 AM to 6 PM"
      },
      {
        "day": "Wednesday",
        "hours": "9 AM to 6 PM"
      },
      {
        "day": "Thursday",
        "hours": "9 AM to 6 PM"
      },
      {
        "day": "Friday",
        "hours": "9 AM to 6 PM"
      },
      {
        "day": "Saturday",
        "hours": "9 AM to 2 PM"
      },
      {
        "day": "Sunday",
        "hours": "Closed"
      }
    ],
    "peopleAlsoSearch": [],
    "placesTags": [],
    "reviewsTags": [],
    "additionalInfo": {
      "From the business": [
        {
          "Identifies as women-owned": true
        },
        {
          "Small business": true
        }
      ],
      "Service options": [
        {
          "Curbside pickup": true
        },
        {
          "Delivery": true
        },
        {
          "In-store pickup": true
        },
        {
          "In-store shopping": true
        },
        {
          "Onsite services": true
        },
        {
          "Same-day delivery": true
        }
      ],
      "Accessibility": [
        {
          "Wheelchair accessible entrance": true
        },
        {
          "Wheelchair accessible parking lot": true
        },
        {
          "Wheelchair accessible restroom": true
        }
      ],
      "Amenities": [
        {
          "Wi-Fi": true
        },
        {
          "Free Wi-Fi": true
        }
      ],
      "Crowd": [
        {
          "LGBTQ+ friendly": true
        },
        {
          "Transgender safespace": true
        }
      ],
      "Planning": [
        {
          "Quick visit": true
        }
      ],
      "Payments": [
        {
          "Checks": true
        },
        {
          "Credit cards": true
        },
        {
          "Debit cards": true
        },
        {
          "Credit cards": true
        }
      ]
    },
    "gasPrices": [],
    "url": "https://www.google.com/maps/search/?api=1&query=Martin's%20Wellness%20%26%20Compounding%20Pharmacy%20at%20Lamar%20Plaza%20Drug%20Store&query_place_id=ChIJ7SpPEh-1RIYRDyAp7XUxi7c",
    "searchPageUrl": "https://www.google.com/maps/search/independent%20pharmacy%20Austin%20TX%20in%20Austin,%20TX/@62.95881800455232,-153.11051097135197,9z?hl=en",
    "searchString": "independent pharmacy Austin TX in Austin, TX",
    "language": "en",
    "rank": 2,
    "isAdvertisement": false,
    "imageUrl": "https://lh3.googleusercontent.com/gps-cs-s/AC9h4np5uu0uISy0aSudGBCvv_FBBNKG_XmB6cd298uWcuEeVBIDt84MI3Fe_lLscPBT5HfUpIh0Ndx7BfeHiJNGK34no-3kXVKAQPkoemUB5-X_uMhCpWeP8k1_8O500CUxF86Za9iH=w408-h306-k-no",
    "kgmid": "/g/1hc2bjrlp"
  },
  {
    "title": "Vina Pharmacy Inc",
    "price": null,
    "categoryName": "Pharmacy",
    "address": "11207 N Lamar Blvd suite A, Austin, TX 78753",
    "neighborhood": "North Lamar",
    "street": "11207 N Lamar Blvd suite A",
    "city": "Austin",
    "postalCode": "78753",
    "state": "Texas",
    "countryCode": "US",
    "website": "http://www.medicineshoptx.com/",
    "phone": "(512) 977-8844",
    "phoneUnformatted": "+15129778844",
    "claimThisBusiness": false,
    "location": {
      "lat": 30.3810703,
      "lng": -97.6862257
    },
    "totalScore": 4.9,
    "permanentlyClosed": false,
    "temporarilyClosed": false,
    "placeId": "ChIJqXcDO9rLRIYRimhPC8IMGeM",
    "categories": [
      "Pharmacy"
    ],
    "fid": "0x8644cbda3b0377a9:0xe3190cc20b4f688a",
    "cid": "16364124748580350090",
    "reviewsCount": 23,
    "imagesCount": 3,
    "imageCategories": [],
    "scrapedAt": "2025-06-21T19:07:08.874Z",
    "googleFoodUrl": null,
    "hotelAds": [],
    "openingHours": [
      {
        "day": "Monday",
        "hours": "9 AM to 6 PM"
      },
      {
        "day": "Tuesday",
        "hours": "9 AM to 6 PM"
      },
      {
        "day": "Wednesday",
        "hours": "9 AM to 6 PM"
      },
      {
        "day": "Thursday",
        "hours": "9 AM to 6 PM"
      },
      {
        "day": "Friday",
        "hours": "9 AM to 6 PM"
      },
      {
        "day": "Saturday",
        "hours": "9 AM to 1 PM"
      },
      {
        "day": "Sunday",
        "hours": "Closed"
      }
    ],
    "peopleAlsoSearch": [],
    "placesTags": [],
    "reviewsTags": [],
    "additionalInfo": {
      "Service options": [
        {
          "Delivery": true
        },
        {
          "Drive-through": true
        },
        {
          "In-store pickup": true
        },
        {
          "In-store shopping": true
        },
        {
          "Onsite services": true
        },
        {
          "Same-day delivery": true
        }
      ],
      "Accessibility": [
        {
          "Wheelchair accessible entrance": true
        },
        {
          "Wheelchair accessible parking lot": true
        }
      ],
      "Amenities": [
        {
          "Wi-Fi": true
        },
        {
          "Free Wi-Fi": true
        }
      ],
      "Planning": [
        {
          "Quick visit": true
        }
      ],
      "Payments": [
        {
          "Credit cards": true
        },
        {
          "Debit cards": true
        },
        {
          "Credit cards": true
        }
      ]
    },
    "gasPrices": [],
    "url": "https://www.google.com/maps/search/?api=1&query=Vina%20Pharmacy%20Inc&query_place_id=ChIJqXcDO9rLRIYRimhPC8IMGeM",
    "searchPageUrl": "https://www.google.com/maps/search/independent%20pharmacy%20Austin%20TX%20in%20Austin,%20TX/@62.95881800455232,-153.11051097135197,9z?hl=en",
    "searchString": "independent pharmacy Austin TX in Austin, TX",
    "language": "en",
    "rank": 3,
    "isAdvertisement": false,
    "imageUrl": "https://lh3.googleusercontent.com/p/AF1QipNqtCd-F0Yj6onecL91ONOXo013yROoo418rPsN=w408-h271-k-no",
    "kgmid": "/g/1tdy4w18"
  },
  {
    "title": "Tarrytown Pharmacy",
    "price": null,
    "categoryName": "Pharmacy",
    "address": "2727 Exposition Blvd #105, Austin, TX 78703",
    "neighborhood": "Tarrytown",
    "street": "2727 Exposition Blvd #105",
    "city": "Austin",
    "postalCode": "78703",
    "state": "Texas",
    "countryCode": "US",
    "website": "http://www.tarrytownpharmacy.com/",
    "phone": "(512) 478-6419",
    "phoneUnformatted": "+15124786419",
    "claimThisBusiness": false,
    "location": {
      "lat": 30.3036321,
      "lng": -97.7639323
    },
    "totalScore": 4.8,
    "permanentlyClosed": false,
    "temporarilyClosed": false,
    "placeId": "ChIJqZ42p6DKRIYRFktQE9_LbC0",
    "categories": [
      "Pharmacy"
    ],
    "fid": "0x8644caa0a7369ea9:0x2d6ccbdf13504b16",
    "cid": "3273215188153682710",
    "reviewsCount": 790,
    "imagesCount": 33,
    "imageCategories": [],
    "scrapedAt": "2025-06-21T19:07:08.874Z",
    "googleFoodUrl": null,
    "hotelAds": [],
    "openingHours": [
      {
        "day": "Monday",
        "hours": "8 AM to 8 PM"
      },
      {
        "day": "Tuesday",
        "hours": "8 AM to 8 PM"
      },
      {
        "day": "Wednesday",
        "hours": "8 AM to 8 PM"
      },
      {
        "day": "Thursday",
        "hours": "8 AM to 8 PM"
      },
      {
        "day": "Friday",
        "hours": "8 AM to 8 PM"
      },
      {
        "day": "Saturday",
        "hours": "9 AM to 7 PM"
      },
      {
        "day": "Sunday",
        "hours": "10 AM to 5 PM"
      }
    ],
    "peopleAlsoSearch": [],
    "placesTags": [],
    "reviewsTags": [],
    "additionalInfo": {
      "Service options": [
        {
          "Curbside pickup": true
        },
        {
          "Delivery": true
        },
        {
          "In-store pickup": true
        },
        {
          "In-store shopping": true
        },
        {
          "Onsite services": true
        },
        {
          "Same-day delivery": true
        }
      ],
      "Accessibility": [
        {
          "Wheelchair accessible entrance": true
        },
        {
          "Wheelchair accessible parking lot": true
        }
      ],
      "Planning": [
        {
          "Quick visit": true
        }
      ],
      "Payments": [
        {
          "Checks": true
        },
        {
          "Credit cards": true
        },
        {
          "Debit cards": true
        },
        {
          "NFC mobile payments": true
        },
        {
          "Credit cards": true
        }
      ]
    },
    "gasPrices": [],
    "url": "https://www.google.com/maps/search/?api=1&query=Tarrytown%20Pharmacy&query_place_id=ChIJqZ42p6DKRIYRFktQE9_LbC0",
    "searchPageUrl": "https://www.google.com/maps/search/independent%20pharmacy%20Austin%20TX%20in%20Austin,%20TX/@62.95881800455232,-153.11051097135197,9z?hl=en",
    "searchString": "independent pharmacy Austin TX in Austin, TX",
    "language": "en",
    "rank": 4,
    "isAdvertisement": false,
    "imageUrl": "https://lh3.googleusercontent.com/gps-cs-s/AC9h4nr9rdEWm2lB22OnVuM09S1zPSKKuZsCk6TVng0SHUoqRV0pvi4GctwADXEUzua84bqdZzkUqjX9aIhuckhn-jL55RWzg6-E2_byr6irHgaHWZ3nvcJfuwTKDh2m9o2FZZhR94gQ=w408-h306-k-no",
    "kgmid": "/g/1tcyxtrz"
  },
  {
    "title": "Alto Pharmacy",
    "price": null,
    "categoryName": "Pharmacy",
    "address": "4175 Freidrich Ln Suite 202, Austin, TX 78744",
    "neighborhood": "McKinney",
    "street": "4175 Freidrich Ln Suite 202",
    "city": "Austin",
    "postalCode": "78744",
    "state": "Texas",
    "countryCode": "US",
    "website": "https://www.alto.com/",
    "phone": "(800) 874-5881",
    "phoneUnformatted": "+18008745881",
    "claimThisBusiness": false,
    "location": {
      "lat": 30.212874,
      "lng": -97.7473435
    },
    "totalScore": 4.5,
    "permanentlyClosed": false,
    "temporarilyClosed": false,
    "placeId": "ChIJ8QNitg21RIYR7_aWdIW_nkU",
    "categories": [
      "Pharmacy"
    ],
    "fid": "0x8644b50db66203f1:0x459ebf857496f6ef",
    "cid": "5016657614844917487",
    "reviewsCount": 136,
    "imagesCount": 5,
    "imageCategories": [],
    "scrapedAt": "2025-06-21T19:07:08.874Z",
    "googleFoodUrl": null,
    "hotelAds": [],
    "openingHours": [
      {
        "day": "Monday",
        "hours": "10 AM to 6 PM"
      },
      {
        "day": "Tuesday",
        "hours": "10 AM to 6 PM"
      },
      {
        "day": "Wednesday",
        "hours": "10 AM to 6 PM"
      },
      {
        "day": "Thursday",
        "hours": "10 AM to 6 PM"
      },
      {
        "day": "Friday",
        "hours": "10 AM to 6 PM"
      },
      {
        "day": "Saturday",
        "hours": "9 AM to 2:30 PM"
      },
      {
        "day": "Sunday",
        "hours": "9 AM to 2:30 PM"
      }
    ],
    "peopleAlsoSearch": [],
    "placesTags": [],
    "reviewsTags": [],
    "additionalInfo": {
      "Service options": [
        {
          "Delivery": true
        },
        {
          "In-store pickup": true
        },
        {
          "Same-day delivery": true
        }
      ],
      "Accessibility": [
        {
          "Wheelchair accessible entrance": true
        },
        {
          "Wheelchair accessible parking lot": true
        }
      ],
      "Crowd": [
        {
          "LGBTQ+ friendly": true
        },
        {
          "Transgender safespace": true
        }
      ],
      "Payments": [
        {
          "Credit cards": true
        },
        {
          "Debit cards": true
        },
        {
          "NFC mobile payments": true
        }
      ]
    },
    "gasPrices": [],
    "url": "https://www.google.com/maps/search/?api=1&query=Alto%20Pharmacy&query_place_id=ChIJ8QNitg21RIYR7_aWdIW_nkU",
    "searchPageUrl": "https://www.google.com/maps/search/independent%20pharmacy%20Austin%20TX%20in%20Austin,%20TX/@62.95881800455232,-153.11051097135197,9z?hl=en",
    "searchString": "independent pharmacy Austin TX in Austin, TX",
    "language": "en",
    "rank": 5,
    "isAdvertisement": false,
    "imageUrl": "https://lh3.googleusercontent.com/p/AF1QipPywXVWEN0ZJkr7fufwPKGBycqopcPaMPAmiqLO=w408-h408-k-no",
    "kgmid": "/g/11sghlhg5g"
  },
  {
    "title": "East Austin Medicine Shop",
    "price": null,
    "categoryName": "Pharmacy",
    "address": "1909 E 38th 1/2 St Suite C2, Austin, TX 78723",
    "neighborhood": "East MLK",
    "street": "1909 E 38th 1/2 St Suite C2",
    "city": "Austin",
    "postalCode": "78723",
    "state": "Texas",
    "countryCode": "US",
    "website": "https://www.pharmacistrecommends.com/?utm_source=google&utm_medium=local&utm_campaign=localmaps&utm_content=5916905",
    "phone": "(512) 643-0999",
    "phoneUnformatted": "+15126430999",
    "claimThisBusiness": false,
    "location": {
      "lat": 30.2889435,
      "lng": -97.706402
    },
    "totalScore": 4.3,
    "permanentlyClosed": false,
    "temporarilyClosed": false,
    "placeId": "ChIJGS4m3Xq1RIYRavYdLuRMvcA",
    "categories": [
      "Pharmacy",
      "Drug store"
    ],
    "fid": "0x8644b57add262e19:0xc0bd4ce42e1df66a",
    "cid": "13888341368790447722",
    "reviewsCount": 59,
    "imagesCount": 43,
    "imageCategories": [],
    "scrapedAt": "2025-06-21T19:07:08.875Z",
    "googleFoodUrl": null,
    "hotelAds": [],
    "openingHours": [
      {
        "day": "Monday",
        "hours": "9 AM to 6 PM"
      },
      {
        "day": "Tuesday",
        "hours": "9 AM to 6 PM"
      },
      {
        "day": "Wednesday",
        "hours": "9 AM to 6 PM"
      },
      {
        "day": "Thursday",
        "hours": "9 AM to 6 PM"
      },
      {
        "day": "Friday",
        "hours": "9 AM to 6 PM"
      },
      {
        "day": "Saturday",
        "hours": "9 AM to 1 PM"
      },
      {
        "day": "Sunday",
        "hours": "Closed"
      }
    ],
    "peopleAlsoSearch": [],
    "placesTags": [],
    "reviewsTags": [],
    "additionalInfo": {
      "From the business": [
        {
          "Small business": true
        }
      ],
      "Service options": [
        {
          "Curbside pickup": true
        },
        {
          "Delivery": true
        },
        {
          "In-store pickup": true
        },
        {
          "In-store shopping": true
        },
        {
          "Onsite services": true
        },
        {
          "Same-day delivery": true
        }
      ],
      "Accessibility": [
        {
          "Wheelchair accessible entrance": true
        },
        {
          "Wheelchair accessible parking lot": true
        }
      ],
      "Payments": [
        {
          "Credit cards": true
        }
      ]
    },
    "gasPrices": [],
    "url": "https://www.google.com/maps/search/?api=1&query=East%20Austin%20Medicine%20Shop&query_place_id=ChIJGS4m3Xq1RIYRavYdLuRMvcA",
    "searchPageUrl": "https://www.google.com/maps/search/independent%20pharmacy%20Austin%20TX%20in%20Austin,%20TX/@62.95881800455232,-153.11051097135197,9z?hl=en",
    "searchString": "independent pharmacy Austin TX in Austin, TX",
    "language": "en",
    "rank": 6,
    "isAdvertisement": false,
    "imageUrl": "https://lh3.googleusercontent.com/gps-cs-s/AC9h4noS0Ih0oi-qaJJ4UFDqXkuXLhJg9Ao2EMI3wqW2bcT7xfr1bLn0ZaQkQXbgopOlaumwEMwj4-UFa-3nzsXK61SNQP_PdC1DQBncx9SS_QxtaIgIaplsRqq_PEKCKNQqEydWSHZ4=w408-h306-k-no",
    "kgmid": "/g/11j4qrrvb2"
  },
  {
    "title": "Austin Compounding Pharmacy",
    "price": null,
    "categoryName": "Pharmacy",
    "address": "3010 Bee Caves Rd #100, Austin, TX 78746",
    "neighborhood": "Timberline Terrace",
    "street": "3010 Bee Caves Rd #100",
    "city": "Austin",
    "postalCode": "78746",
    "state": "Texas",
    "countryCode": "US",
    "website": "http://austincompoundingpharmacy.com/",
    "phone": "(512) 327-7455",
    "phoneUnformatted": "+15123277455",
    "claimThisBusiness": false,
    "location": {
      "lat": 30.2720331,
      "lng": -97.7951412
    },
    "totalScore": 4.4,
    "permanentlyClosed": false,
    "temporarilyClosed": false,
    "placeId": "ChIJa8mGEMhKW4YRj3RgCB4DFFo",
    "categories": [
      "Pharmacy",
      "Drug store",
      "Veterinary pharmacy"
    ],
    "fid": "0x865b4ac81086c96b:0x5a14031e0860748f",
    "cid": "6490816390472168591",
    "reviewsCount": 80,
    "imagesCount": 40,
    "imageCategories": [],
    "scrapedAt": "2025-06-21T19:07:08.875Z",
    "googleFoodUrl": null,
    "hotelAds": [],
    "openingHours": [
      {
        "day": "Monday",
        "hours": "9 AM to 5 PM"
      },
      {
        "day": "Tuesday",
        "hours": "9 AM to 5 PM"
      },
      {
        "day": "Wednesday",
        "hours": "9 AM to 5 PM"
      },
      {
        "day": "Thursday",
        "hours": "9 AM to 5 PM"
      },
      {
        "day": "Friday",
        "hours": "9 AM to 5 PM"
      },
      {
        "day": "Saturday",
        "hours": "10 AM to 2 PM"
      },
      {
        "day": "Sunday",
        "hours": "Closed"
      }
    ],
    "peopleAlsoSearch": [],
    "placesTags": [],
    "reviewsTags": [],
    "additionalInfo": {
      "From the business": [
        {
          "Small business": true
        }
      ],
      "Service options": [
        {
          "Curbside pickup": true
        },
        {
          "Delivery": true
        },
        {
          "In-store pickup": true
        },
        {
          "In-store shopping": true
        },
        {
          "English": true
        }
      ],
      "Accessibility": [
        {
          "Wheelchair accessible entrance": true
        },
        {
          "Wheelchair accessible parking lot": true
        }
      ],
      "Amenities": [
        {
          "Wi-Fi": true
        },
        {
          "Free Wi-Fi": true
        }
      ],
      "Crowd": [
        {
          "LGBTQ+ friendly": true
        }
      ],
      "Planning": [
        {
          "Quick visit": true
        }
      ],
      "Payments": [
        {
          "Credit cards": true
        },
        {
          "Debit cards": true
        },
        {
          "NFC mobile payments": true
        },
        {
          "Credit cards": true
        }
      ]
    },
    "gasPrices": [],
    "url": "https://www.google.com/maps/search/?api=1&query=Austin%20Compounding%20Pharmacy&query_place_id=ChIJa8mGEMhKW4YRj3RgCB4DFFo",
    "searchPageUrl": "https://www.google.com/maps/search/independent%20pharmacy%20Austin%20TX%20in%20Austin,%20TX/@62.95881800455232,-153.11051097135197,9z?hl=en",
    "searchString": "independent pharmacy Austin TX in Austin, TX",
    "language": "en",
    "rank": 7,
    "isAdvertisement": false,
    "imageUrl": "https://lh3.googleusercontent.com/gps-cs-s/AC9h4nrwrMWEea4gxHNz8IQ6KPv3u7J7OM8ifag9rh6Z0eyz4W-9UICQC_iBJMFbgffWMxqJIr-OyLPI7eDI8UmQwwej0qTRqjBXfN-5kyYqEYINT65OFJQxwkuDBiUQaaObNBbTdEI=w426-h240-k-no",
    "kgmid": "/g/1260pw80k"
  },
  {
    "title": "MedSavers Pharmacy",
    "price": null,
    "categoryName": "Pharmacy",
    "address": "1800 W 35th St, Austin, TX 78703",
    "neighborhood": "Oakmont Heights",
    "street": "1800 W 35th St",
    "city": "Austin",
    "postalCode": "78703",
    "state": "Texas",
    "countryCode": "US",
    "website": "http://www.medsaversrx.com/",
    "phone": "(512) 465-9292",
    "phoneUnformatted": "+15124659292",
    "claimThisBusiness": false,
    "location": {
      "lat": 30.3084476,
      "lng": -97.7527687
    },
    "totalScore": 4.9,
    "permanentlyClosed": false,
    "temporarilyClosed": false,
    "placeId": "ChIJgWeZtZrKRIYR_O2BykpIo_g",
    "categories": [
      "Pharmacy",
      "Boutique",
      "Gift shop"
    ],
    "fid": "0x8644ca9ab5996781:0xf8a3484aca81edfc",
    "cid": "17916243228672257532",
    "reviewsCount": 94,
    "imagesCount": 22,
    "imageCategories": [],
    "scrapedAt": "2025-06-21T19:07:08.875Z",
    "googleFoodUrl": null,
    "hotelAds": [],
    "openingHours": [
      {
        "day": "Monday",
        "hours": "10 AM to 6 PM"
      },
      {
        "day": "Tuesday",
        "hours": "10 AM to 6 PM"
      },
      {
        "day": "Wednesday",
        "hours": "10 AM to 6 PM"
      },
      {
        "day": "Thursday",
        "hours": "10 AM to 6 PM"
      },
      {
        "day": "Friday",
        "hours": "10 AM to 6 PM"
      },
      {
        "day": "Saturday",
        "hours": "9 AM to 2 PM"
      },
      {
        "day": "Sunday",
        "hours": "Closed"
      }
    ],
    "peopleAlsoSearch": [],
    "placesTags": [],
    "reviewsTags": [],
    "additionalInfo": {
      "From the business": [
        {
          "Small business": true
        }
      ],
      "Service options": [
        {
          "Curbside pickup": true
        },
        {
          "Delivery": true
        },
        {
          "In-store pickup": true
        },
        {
          "In-store shopping": true
        },
        {
          "Same-day delivery": true
        },
        {
          "Spanish": true
        }
      ],
      "Accessibility": [
        {
          "Wheelchair accessible entrance": true
        },
        {
          "Wheelchair accessible parking lot": true
        }
      ],
      "Crowd": [
        {
          "LGBTQ+ friendly": true
        },
        {
          "Transgender safespace": true
        }
      ],
      "Planning": [
        {
          "Quick visit": true
        }
      ],
      "Payments": [
        {
          "Credit cards": true
        },
        {
          "Debit cards": true
        },
        {
          "NFC mobile payments": true
        },
        {
          "Credit cards": true
        }
      ],
      "Parking": [
        {
          "Free parking garage": true
        },
        {
          "Free parking lot": true
        },
        {
          "Free street parking": true
        },
        {
          "On-site parking": true
        }
      ]
    },
    "gasPrices": [],
    "url": "https://www.google.com/maps/search/?api=1&query=MedSavers%20Pharmacy&query_place_id=ChIJgWeZtZrKRIYR_O2BykpIo_g",
    "searchPageUrl": "https://www.google.com/maps/search/independent%20pharmacy%20Austin%20TX%20in%20Austin,%20TX/@62.95881800455232,-153.11051097135197,9z?hl=en",
    "searchString": "independent pharmacy Austin TX in Austin, TX",
    "language": "en",
    "rank": 8,
    "isAdvertisement": false,
    "imageUrl": "https://lh3.googleusercontent.com/p/AF1QipPWAZyjIQGo1_cDsr_SM9EWIy--EMjWwYMHyFn1=w408-h271-k-no",
    "kgmid": "/g/1tdyg09m"
  },
  {
    "title": "38th Street Pharmacy",
    "price": null,
    "categoryName": "Pharmacy",
    "address": "711 W 38th St C3, Austin, TX 78705",
    "neighborhood": "Heritage",
    "street": "711 W 38th St C3",
    "city": "Austin",
    "postalCode": "78705",
    "state": "Texas",
    "countryCode": "US",
    "website": "http://www.38thstreetpharmacy.com/",
    "phone": "(512) 458-3784",
    "phoneUnformatted": "+15124583784",
    "claimThisBusiness": false,
    "location": {
      "lat": 30.303975,
      "lng": -97.741279
    },
    "totalScore": 4.9,
    "permanentlyClosed": false,
    "temporarilyClosed": false,
    "placeId": "ChIJUVosEH7KRIYRafWrzbozy9A",
    "categories": [
      "Pharmacy"
    ],
    "fid": "0x8644ca7e102c5a51:0xd0cb33bacdabf569",
    "cid": "15045175857568806249",
    "reviewsCount": 72,
    "imagesCount": 7,
    "imageCategories": [],
    "scrapedAt": "2025-06-21T19:07:08.875Z",
    "googleFoodUrl": null,
    "hotelAds": [],
    "openingHours": [
      {
        "day": "Monday",
        "hours": "8:30 AM to 6 PM"
      },
      {
        "day": "Tuesday",
        "hours": "8:30 AM to 6 PM"
      },
      {
        "day": "Wednesday",
        "hours": "8:30 AM to 6 PM"
      },
      {
        "day": "Thursday",
        "hours": "8:30 AM to 6 PM"
      },
      {
        "day": "Friday",
        "hours": "8:30 AM to 6 PM"
      },
      {
        "day": "Saturday",
        "hours": "Closed"
      },
      {
        "day": "Sunday",
        "hours": "Closed"
      }
    ],
    "peopleAlsoSearch": [],
    "placesTags": [],
    "reviewsTags": [],
    "additionalInfo": {
      "From the business": [
        {
          "Small business": true
        }
      ],
      "Service options": [
        {
          "Curbside pickup": true
        },
        {
          "Delivery": true
        },
        {
          "In-store pickup": true
        },
        {
          "In-store shopping": true
        },
        {
          "Onsite services": true
        },
        {
          "Same-day delivery": true
        }
      ],
      "Accessibility": [
        {
          "Wheelchair accessible entrance": true
        },
        {
          "Wheelchair accessible parking lot": true
        }
      ],
      "Planning": [
        {
          "Quick visit": true
        }
      ],
      "Payments": [
        {
          "Credit cards": true
        },
        {
          "Debit cards": true
        },
        {
          "NFC mobile payments": true
        },
        {
          "Credit cards": true
        }
      ]
    },
    "gasPrices": [],
    "url": "https://www.google.com/maps/search/?api=1&query=38th%20Street%20Pharmacy&query_place_id=ChIJUVosEH7KRIYRafWrzbozy9A",
    "searchPageUrl": "https://www.google.com/maps/search/independent%20pharmacy%20Austin%20TX%20in%20Austin,%20TX/@62.95881800455232,-153.11051097135197,9z?hl=en",
    "searchString": "independent pharmacy Austin TX in Austin, TX",
    "language": "en",
    "rank": 9,
    "isAdvertisement": false,
    "imageUrl": "https://lh3.googleusercontent.com/gps-cs-s/AC9h4noa6DkRRU3a5mf5FsBnks3o5y4U4EwEUTUJncf36nsBwKZHxGLw_n7mdm08gZVATkvzyUY-k6cvlhfClglCBXJlTeMvz_os1os83WX2TY5AbC-w1iMM4AA0_AGMbr1lp4cCxny7=w408-h306-k-no",
    "kgmid": "/g/1tfzmqy8"
  },
  {
    "title": "Lake Hills Pharmacy",
    "price": null,
    "categoryName": "Pharmacy",
    "address": "12005 Bee Caves Rd #1-a, Austin, TX 78738",
    "neighborhood": "The Uplands",
    "street": "12005 Bee Caves Rd #1-a",
    "city": "Austin",
    "postalCode": "78738",
    "state": "Texas",
    "countryCode": "US",
    "website": "https://lakehillsrx.com/",
    "phone": "(512) 608-9355",
    "phoneUnformatted": "+15126089355",
    "claimThisBusiness": false,
    "location": {
      "lat": 30.3079434,
      "lng": -97.9261176
    },
    "totalScore": 4.9,
    "permanentlyClosed": false,
    "temporarilyClosed": false,
    "placeId": "ChIJdxPHfcg3W4YRvXx9IbLNnPY",
    "categories": [
      "Pharmacy"
    ],
    "fid": "0x865b37c87dc71377:0xf69ccdb2217d7cbd",
    "cid": "17770304394646879421",
    "reviewsCount": 62,
    "imagesCount": 22,
    "imageCategories": [],
    "scrapedAt": "2025-06-21T19:07:08.876Z",
    "googleFoodUrl": null,
    "hotelAds": [],
    "openingHours": [
      {
        "day": "Monday",
        "hours": "8:30 AM to 6:30 PM"
      },
      {
        "day": "Tuesday",
        "hours": "8:30 AM to 6:30 PM"
      },
      {
        "day": "Wednesday",
        "hours": "8:30 AM to 6:30 PM"
      },
      {
        "day": "Thursday",
        "hours": "8:30 AM to 6:30 PM"
      },
      {
        "day": "Friday",
        "hours": "8:30 AM to 6:30 PM"
      },
      {
        "day": "Saturday",
        "hours": "9 AM to 2 PM"
      },
      {
        "day": "Sunday",
        "hours": "Closed"
      }
    ],
    "peopleAlsoSearch": [],
    "placesTags": [],
    "reviewsTags": [],
    "additionalInfo": {
      "From the business": [
        {
          "Small business": true
        }
      ],
      "Service options": [
        {
          "Delivery": true
        },
        {
          "In-store pickup": true
        }
      ],
      "Accessibility": [
        {
          "Wheelchair accessible entrance": true
        },
        {
          "Wheelchair accessible parking lot": true
        }
      ],
      "Planning": [
        {
          "Appointment required": true
        }
      ],
      "Payments": [
        {
          "Credit cards": true
        },
        {
          "Debit cards": true
        },
        {
          "NFC mobile payments": true
        },
        {
          "Credit cards": true
        }
      ]
    },
    "gasPrices": [],
    "url": "https://www.google.com/maps/search/?api=1&query=Lake%20Hills%20Pharmacy&query_place_id=ChIJdxPHfcg3W4YRvXx9IbLNnPY",
    "searchPageUrl": "https://www.google.com/maps/search/independent%20pharmacy%20Austin%20TX%20in%20Austin,%20TX/@62.95881800455232,-153.11051097135197,9z?hl=en",
    "searchString": "independent pharmacy Austin TX in Austin, TX",
    "language": "en",
    "rank": 10,
    "isAdvertisement": false,
    "imageUrl": "https://lh3.googleusercontent.com/p/AF1QipP8p5blWQVZyZ2b5aGD9GQdm2Q32yxZLw-N4hHq=w408-h408-k-no",
    "kgmid": "/g/1ptxjnm7p"
  }
]