[
  {
    "title": "Walgreens Pharmacy",
    "description": "Department of the Walgreens chain providing prescription medications & other health-related items.",
    "price": "$$",
    "categoryName": "Pharmacy",
    "address": "498 Castro St, San Francisco, CA 94114",
    "neighborhood": "The Castro",
    "street": "498 Castro St",
    "city": "San Francisco",
    "postalCode": "94114",
    "state": "California",
    "countryCode": "US",
    "website": "https://www.walgreens.com/locator/walgreens-498+castro+st-san+francisco-ca-94114/id=1327",
    "phone": "(415) 861-3136",
    "phoneUnformatted": "+14158613136",
    "claimThisBusiness": false,
    "location": {
      "lat": 37.7610063,
      "lng": -122.4351993
    },
    "locatedIn": "Walgreens Photo",
    "totalScore": 3.5,
    "permanentlyClosed": false,
    "temporarilyClosed": false,
    "placeId": "ChIJl7b8NBt-j4ARx1_FPb0tqrE",
    "categories": [
      "Pharmacy"
    ],
    "fid": "0x808f7e1b34fcb697:0xb1aa2dbd3dc55fc7",
    "cid": "12802095181562470343",
    "reviewsCount": 164,
    "imagesCount": 125,
    "imageCategories": [],
    "scrapedAt": "2025-06-20T06:18:23.904Z",
    "googleFoodUrl": null,
    "hotelAds": [],
    "openingHours": [
      {
        "day": "Monday",
        "hours": "2\u202fAM to 1:30\u202fAM"
      },
      {
        "day": "Tuesday",
        "hours": "2\u202fAM to 1:30\u202fAM"
      },
      {
        "day": "Wednesday",
        "hours": "2\u202fAM to 1:30\u202fAM"
      },
      {
        "day": "Thursday",
        "hours": "2\u202fAM to 1:30\u202fAM"
      },
      {
        "day": "Friday",
        "hours": "2\u202fAM to 1:30\u202fAM"
      },
      {
        "day": "Saturday",
        "hours": "2\u202fAM to 1:30\u202fAM"
      },
      {
        "day": "Sunday",
        "hours": "2\u202fAM to 1:30\u202fAM"
      }
    ],
    "additionalOpeningHours": {
      "Walgreens Photo": [
        {
          "day": "Monday",
          "hours": "Open 24 hours"
        },
        {
          "day": "Tuesday",
          "hours": "Open 24 hours"
        },
        {
          "day": "Wednesday",
          "hours": "Open 24 hours"
        },
        {
          "day": "Thursday",
          "hours": "Open 24 hours"
        },
        {
          "day": "Friday",
          "hours": "Open 24 hours"
        },
        {
          "day": "Saturday",
          "hours": "Open 24 hours"
        },
        {
          "day": "Sunday",
          "hours": "Open 24 hours"
        }
      ],
      "Drive through": [
        {
          "day": "Monday",
          "hours": "2\u202fAM\u20131:30\u202fAM"
        },
        {
          "day": "Tuesday",
          "hours": "2\u202fAM\u20131:30\u202fAM"
        },
        {
          "day": "Wednesday",
          "hours": "2\u202fAM\u20131:30\u202fAM"
        },
        {
          "day": "Thursday",
          "hours": "2\u202fAM\u20131:30\u202fAM"
        },
        {
          "day": "Friday",
          "hours": "2\u202fAM\u20131:30\u202fAM"
        },
        {
          "day": "Saturday",
          "hours": "2\u202fAM\u20131:30\u202fAM"
        },
        {
          "day": "Sunday",
          "hours": "2\u202fAM\u20131:30\u202fAM"
        }
      ]
    },
    "peopleAlsoSearch": [],
    "placesTags": [],
    "reviewsTags": [],
    "additionalInfo": {
      "Service options": [
        {
          "Curbside pickup": true
        },
        {
          "Delivery": true
        },
        {
          "Drive-through": true
        },
        {
          "In-store pickup": true
        },
        {
          "Onsite services": true
        },
        {
          "Same-day delivery": true
        }
      ],
      "Accessibility": [
        {
          "Wheelchair accessible entrance": true
        },
        {
          "Wheelchair accessible parking lot": true
        }
      ],
      "Offerings": [
        {
          "Medication disposal": true
        },
        {
          "Naloxone": true
        },
        {
          "Passport photos": true
        }
      ],
      "Planning": [
        {
          "Appointment required": true
        },
        {
          "Quick visit": true
        }
      ],
      "Payments": [
        {
          "Credit cards": true
        },
        {
          "Debit cards": true
        },
        {
          "NFC mobile payments": true
        },
        {
          "Credit cards": true
        }
      ]
    },
    "gasPrices": [],
    "url": "https://www.google.com/maps/search/?api=1&query=Walgreens%20Pharmacy&query_place_id=ChIJl7b8NBt-j4ARx1_FPb0tqrE",
    "searchPageUrl": "https://www.google.com/maps/search/independent%20pharmacy%20San%20Francisco%20California?hl=en",
    "searchString": "independent pharmacy San Francisco California",
    "language": "en",
    "rank": 1,
    "isAdvertisement": false,
    "imageUrl": "https://lh3.googleusercontent.com/gps-cs-s/AC9h4nr0yH5fp4sp3WoSbnmerOr-zDIMMr8ScuvJ_SoYJ64bSvjP6nHGH8Wvjz6m_sm70ryVSG2H_MTxUwxlFjRVwiDFslKAs4X1AUFiRwnGvV5jiAoiKzoY8h53yRWTna7NkQVevHYl=w408-h306-k-no",
    "kgmid": "/g/1td6b2yw"
  },
  {
    "title": "Parnassus Heights Pharmacy",
    "price": null,
    "categoryName": "Pharmacy",
    "address": "350 Parnassus Ave Ste 100, San Francisco, CA 94117",
    "neighborhood": "Parnassus Heights",
    "street": "350 Parnassus Ave Ste 100",
    "city": "San Francisco",
    "postalCode": "94117",
    "state": "California",
    "countryCode": "US",
    "website": "https://parnassusheightsrx.com/",
    "phone": "(415) 564-9191",
    "phoneUnformatted": "+14155649191",
    "claimThisBusiness": false,
    "location": {
      "lat": 37.7642347,
      "lng": -122.4562335
    },
    "totalScore": 4.8,
    "permanentlyClosed": false,
    "temporarilyClosed": false,
    "placeId": "ChIJUfiUFleHhYARA0hMzaudAmM",
    "categories": [
      "Pharmacy"
    ],
    "fid": "0x808587571694f851:0x63029dabcd4c4803",
    "cid": "7134438120917583875",
    "reviewsCount": 33,
    "imagesCount": 4,
    "imageCategories": [],
    "scrapedAt": "2025-06-20T06:18:23.905Z",
    "googleFoodUrl": null,
    "hotelAds": [],
    "openingHours": [
      {
        "day": "Monday",
        "hours": "9:30\u202fAM to 5:30\u202fPM"
      },
      {
        "day": "Tuesday",
        "hours": "9:30\u202fAM to 5:30\u202fPM"
      },
      {
        "day": "Wednesday",
        "hours": "9:30\u202fAM to 5:30\u202fPM"
      },
      {
        "day": "Thursday",
        "hours": "9:30\u202fAM to 5:30\u202fPM"
      },
      {
        "day": "Friday",
        "hours": "9:30\u202fAM to 5:30\u202fPM"
      },
      {
        "day": "Saturday",
        "hours": "Closed"
      },
      {
        "day": "Sunday",
        "hours": "Closed"
      }
    ],
    "peopleAlsoSearch": [],
    "placesTags": [],
    "reviewsTags": [],
    "additionalInfo": {
      "Service options": [
        {
          "Delivery": true
        }
      ],
      "Accessibility": [
        {
          "Wheelchair accessible entrance": true
        },
        {
          "Wheelchair accessible parking lot": true
        }
      ],
      "Payments": [
        {
          "Credit cards": true
        },
        {
          "Debit cards": true
        },
        {
          "NFC mobile payments": true
        },
        {
          "Credit cards": true
        }
      ]
    },
    "gasPrices": [],
    "url": "https://www.google.com/maps/search/?api=1&query=Parnassus%20Heights%20Pharmacy&query_place_id=ChIJUfiUFleHhYARA0hMzaudAmM",
    "searchPageUrl": "https://www.google.com/maps/search/independent%20pharmacy%20San%20Francisco%20California?hl=en",
    "searchString": "independent pharmacy San Francisco California",
    "language": "en",
    "rank": 2,
    "isAdvertisement": false,
    "imageUrl": "https://lh3.googleusercontent.com/gps-cs-s/AC9h4npbOu5RBW-OSjlfXKalv503bSw950NTkkdLRhRO0SorKWYAFbNVjRNQOmlESKn7lwPnrFpP7QbjLf1dHA_GFY-PObsV0rF4uYA0GWkxq_1oXw3LWjWluheNgOpO5foPTShEQUGqIA=w426-h240-k-no",
    "kgmid": "/g/1tdv_36n"
  },
  {
    "title": "Torgsyn Discount Pharmacy Inc",
    "price": null,
    "categoryName": "Pharmacy",
    "address": "5614 Geary Blvd, San Francisco, CA 94121",
    "neighborhood": "Central Richmond",
    "street": "5614 Geary Blvd",
    "city": "San Francisco",
    "postalCode": "94121",
    "state": "California",
    "countryCode": "US",
    "website": "https://www.torgsynrx.com/",
    "phone": "(415) 752-3737",
    "phoneUnformatted": "+14157523737",
    "claimThisBusiness": true,
    "location": {
      "lat": 37.7805398,
      "lng": -122.4797596
    },
    "totalScore": 3.8,
    "permanentlyClosed": false,
    "temporarilyClosed": false,
    "placeId": "ChIJD5o9OxCHhYARHagxJIDVDiM",
    "categories": [
      "Pharmacy"
    ],
    "fid": "0x808587103b3d9a0f:0x230ed5802431a81d",
    "cid": "2526191187341191197",
    "reviewsCount": 20,
    "imagesCount": 4,
    "imageCategories": [],
    "scrapedAt": "2025-06-20T06:18:23.905Z",
    "googleFoodUrl": null,
    "hotelAds": [],
    "openingHours": [
      {
        "day": "Monday",
        "hours": "9\u202fAM to 5\u202fPM"
      },
      {
        "day": "Tuesday",
        "hours": "9\u202fAM to 5\u202fPM"
      },
      {
        "day": "Wednesday",
        "hours": "9\u202fAM to 5\u202fPM"
      },
      {
        "day": "Thursday",
        "hours": "9\u202fAM to 5\u202fPM"
      },
      {
        "day": "Friday",
        "hours": "9\u202fAM to 5\u202fPM"
      },
      {
        "day": "Saturday",
        "hours": "9\u202fAM to 5\u202fPM"
      },
      {
        "day": "Sunday",
        "hours": "Closed"
      }
    ],
    "peopleAlsoSearch": [],
    "placesTags": [],
    "reviewsTags": [],
    "additionalInfo": {
      "Service options": [
        {
          "Delivery": true
        },
        {
          "In-store pickup": true
        }
      ],
      "Accessibility": [
        {
          "Wheelchair accessible entrance": true
        }
      ],
      "Planning": [
        {
          "Quick visit": true
        }
      ],
      "Payments": [
        {
          "Credit cards": true
        },
        {
          "Debit cards": true
        },
        {
          "NFC mobile payments": true
        },
        {
          "Credit cards": true
        }
      ]
    },
    "gasPrices": [],
    "url": "https://www.google.com/maps/search/?api=1&query=Torgsyn%20Discount%20Pharmacy%20Inc&query_place_id=ChIJD5o9OxCHhYARHagxJIDVDiM",
    "searchPageUrl": "https://www.google.com/maps/search/independent%20pharmacy%20San%20Francisco%20California?hl=en",
    "searchString": "independent pharmacy San Francisco California",
    "language": "en",
    "rank": 3,
    "isAdvertisement": false,
    "imageUrl": "https://lh3.googleusercontent.com/gps-cs-s/AC9h4nqAoA2W2CRFWUyCGV5ItimhjM4iu4tg7drdKt3zzaqXgrZKG9hPQ7Wlc9ji2pX7Wa-4jIS_2sQXEa0lnJJ2Y1KHT7ilXKb2lRdK5jiPzV-HBhrW8Pnt9ZT8ObIq4vjsQh0_vgIO=w408-h544-k-no",
    "kgmid": "/g/1tf5qg66"
  },
  {
    "title": "Alto Pharmacy",
    "price": null,
    "categoryName": "Pharmacy",
    "address": "1400 Tennessee St #2, San Francisco, CA 94107",
    "neighborhood": "Central Waterfront",
    "street": "1400 Tennessee St #2",
    "city": "San Francisco",
    "postalCode": "94107",
    "state": "California",
    "countryCode": "US",
    "website": "https://www.alto.com/",
    "phone": "(800) 874-5881",
    "phoneUnformatted": "+18008745881",
    "claimThisBusiness": false,
    "location": {
      "lat": 37.7538924,
      "lng": -122.3891308
    },
    "totalScore": 3.9,
    "permanentlyClosed": false,
    "temporarilyClosed": false,
    "placeId": "ChIJoTtlvrp_j4ARJ9GqTGv-bZQ",
    "categories": [
      "Pharmacy"
    ],
    "fid": "0x808f7fbabe653ba1:0x946dfe6b4caad127",
    "cid": "10695484426876014887",
    "reviewsCount": 882,
    "imagesCount": 16,
    "imageCategories": [],
    "scrapedAt": "2025-06-20T06:18:23.905Z",
    "googleFoodUrl": null,
    "hotelAds": [],
    "openingHours": [
      {
        "day": "Monday",
        "hours": "9\u202fAM to 6\u202fPM"
      },
      {
        "day": "Tuesday",
        "hours": "9\u202fAM to 6\u202fPM"
      },
      {
        "day": "Wednesday",
        "hours": "9\u202fAM to 6\u202fPM"
      },
      {
        "day": "Thursday",
        "hours": "9\u202fAM to 6\u202fPM"
      },
      {
        "day": "Friday",
        "hours": "9\u202fAM to 6\u202fPM"
      },
      {
        "day": "Saturday",
        "hours": "8\u202fAM to 4:30\u202fPM"
      },
      {
        "day": "Sunday",
        "hours": "8\u202fAM to 4:30\u202fPM"
      }
    ],
    "additionalOpeningHours": {
      "Online service hours": [
        {
          "day": "Monday",
          "hours": "6\u202fAM\u20139\u202fPM"
        },
        {
          "day": "Tuesday",
          "hours": "6\u202fAM\u20139\u202fPM"
        },
        {
          "day": "Wednesday",
          "hours": "6\u202fAM\u20139\u202fPM"
        },
        {
          "day": "Thursday",
          "hours": "6\u202fAM\u20139\u202fPM"
        },
        {
          "day": "Friday",
          "hours": "6\u202fAM\u20139\u202fPM"
        },
        {
          "day": "Saturday",
          "hours": "7\u202fAM\u20136\u202fPM"
        },
        {
          "day": "Sunday",
          "hours": "7\u202fAM\u20136\u202fPM"
        }
      ]
    },
    "peopleAlsoSearch": [],
    "placesTags": [],
    "reviewsTags": [],
    "additionalInfo": {
      "Service options": [
        {
          "Delivery": true
        },
        {
          "In-store pickup": true
        },
        {
          "Same-day delivery": true
        }
      ],
      "Accessibility": [
        {
          "Wheelchair accessible entrance": true
        }
      ],
      "Crowd": [
        {
          "LGBTQ+ friendly": true
        },
        {
          "Transgender safespace": true
        }
      ],
      "Payments": [
        {
          "Credit cards": true
        },
        {
          "Debit cards": true
        },
        {
          "NFC mobile payments": true
        },
        {
          "Credit cards": true
        }
      ]
    },
    "gasPrices": [],
    "url": "https://www.google.com/maps/search/?api=1&query=Alto%20Pharmacy&query_place_id=ChIJoTtlvrp_j4ARJ9GqTGv-bZQ",
    "searchPageUrl": "https://www.google.com/maps/search/independent%20pharmacy%20San%20Francisco%20California?hl=en",
    "searchString": "independent pharmacy San Francisco California",
    "language": "en",
    "rank": 4,
    "isAdvertisement": false,
    "imageUrl": "https://lh3.googleusercontent.com/p/AF1QipNdlo4Ja5ykVeBX4IMKs5fF0IBeKodUnSuUsiTh=w408-h272-k-no",
    "kgmid": "/g/11bzt6jbrg"
  },
  {
    "title": "Walgreens Pharmacy",
    "description": "Department of the Walgreens chain providing prescription medications & other health-related items.",
    "price": null,
    "categoryName": "Pharmacy",
    "address": "2050 Irving St, San Francisco, CA 94122",
    "neighborhood": "Sunset District",
    "street": "2050 Irving St",
    "city": "San Francisco",
    "postalCode": "94122",
    "state": "California",
    "countryCode": "US",
    "website": "https://www.walgreens.com/locator/walgreens-2050+irving+st-san+francisco-ca-94122/id=2705",
    "phone": "(415) 664-4215",
    "phoneUnformatted": "+14156644215",
    "claimThisBusiness": false,
    "location": {
      "lat": 37.7637124,
      "lng": -122.4800471
    },
    "totalScore": 3.7,
    "permanentlyClosed": false,
    "temporarilyClosed": false,
    "placeId": "ChIJ4UxSuRyHhYAR_BjMhFj5ARg",
    "categories": [
      "Pharmacy"
    ],
    "fid": "0x8085871cb9524ce1:0x1801f95884cc18fc",
    "cid": "1729937890467387644",
    "reviewsCount": 16,
    "imagesCount": 7,
    "imageCategories": [],
    "scrapedAt": "2025-06-20T06:18:23.906Z",
    "googleFoodUrl": null,
    "hotelAds": [],
    "openingHours": [
      {
        "day": "Monday",
        "hours": "9\u202fAM to 9\u202fPM"
      },
      {
        "day": "Tuesday",
        "hours": "9\u202fAM to 9\u202fPM"
      },
      {
        "day": "Wednesday",
        "hours": "9\u202fAM to 9\u202fPM"
      },
      {
        "day": "Thursday",
        "hours": "9\u202fAM to 9\u202fPM"
      },
      {
        "day": "Friday",
        "hours": "9\u202fAM to 9\u202fPM"
      },
      {
        "day": "Saturday",
        "hours": "9\u202fAM to 1:30\u202fPM, 2 to 5\u202fPM"
      },
      {
        "day": "Sunday",
        "hours": "10\u202fAM to 1:30\u202fPM, 2 to 6\u202fPM"
      }
    ],
    "additionalOpeningHours": {
      "Drive through": [
        {
          "day": "Monday",
          "hours": "9\u202fAM\u20139\u202fPM"
        },
        {
          "day": "Tuesday",
          "hours": "9\u202fAM\u20139\u202fPM"
        },
        {
          "day": "Wednesday",
          "hours": "9\u202fAM\u20139\u202fPM"
        },
        {
          "day": "Thursday",
          "hours": "9\u202fAM\u20139\u202fPM"
        },
        {
          "day": "Friday",
          "hours": "9\u202fAM\u20139\u202fPM"
        },
        {
          "day": "Saturday",
          "hours": "9\u202fAM\u20131:30\u202fPM"
        },
        {
          "day": "Sunday",
          "hours": "10\u202fAM\u20131:30\u202fPM"
        }
      ]
    },
    "peopleAlsoSearch": [],
    "placesTags": [],
    "reviewsTags": [],
    "additionalInfo": {
      "Service options": [
        {
          "Curbside pickup": true
        },
        {
          "Delivery": true
        },
        {
          "In-store pickup": true
        },
        {
          "Onsite services": true
        }
      ],
      "Accessibility": [
        {
          "Wheelchair accessible entrance": true
        },
        {
          "Wheelchair accessible parking lot": true
        }
      ],
      "Offerings": [
        {
          "Naloxone": true
        },
        {
          "Passport photos": true
        }
      ],
      "Planning": [
        {
          "Quick visit": true
        }
      ],
      "Payments": [
        {
          "Credit cards": true
        },
        {
          "Debit cards": true
        }
      ]
    },
    "gasPrices": [],
    "url": "https://www.google.com/maps/search/?api=1&query=Walgreens%20Pharmacy&query_place_id=ChIJ4UxSuRyHhYAR_BjMhFj5ARg",
    "searchPageUrl": "https://www.google.com/maps/search/independent%20pharmacy%20San%20Francisco%20California?hl=en",
    "searchString": "independent pharmacy San Francisco California",
    "language": "en",
    "rank": 5,
    "isAdvertisement": false,
    "imageUrl": "https://lh3.googleusercontent.com/gps-cs-s/AC9h4nrIQeq4T8jjpRGmy-_RGtDZK40_ix0vhT_lnBZethqaBJkJVKvFGbwyY09sKVLjjiYDt17P0XdfbfD3X1ZQnAV_V7m70-ZgtBnzlNKjDYy1T8owal5hsorwfUWqqQoCz32OMgyA=w426-h240-k-no",
    "kgmid": "/g/11h04nvh16"
  }
]