[
  {
    "title": "Oak's Pharmacy",
    "price": null,
    "categoryName": "Pharmacy",
    "address": "417 Riverdale Ave, Yonkers, NY 10705, United States",
    "neighborhood": "Ludlow",
    "street": "417 Riverdale Ave",
    "city": "Yonkers",
    "postalCode": "10705",
    "state": "New York",
    "countryCode": "US",
    "website": "https://www.oaksrx.com/",
    "phone": "+1 914-327-3555",
    "phoneUnformatted": "+19143273555",
    "claimThisBusiness": true,
    "location": {
      "lat": 40.918094,
      "lng": -73.9018552
    },
    "totalScore": 4.8,
    "permanentlyClosed": false,
    "temporarilyClosed": false,
    "placeId": null,
    "categories": [
      "Pharmacy"
    ],
    "fid": "0x89c2f2433ad58299:0x2a5eb913b9a0c44b",
    "cid": "3053081091773613131",
    "reviewsCount": 50,
    "imagesCount": 3,
    "imageCategories": [],
    "scrapedAt": "2025-06-22T06:12:45.067Z",
    "googleFoodUrl": null,
    "hotelAds": [],
    "openingHours": [
      {
        "day": "Monday",
        "hours": "9\u202fAM to 7\u202fPM"
      },
      {
        "day": "Tuesday",
        "hours": "9\u202fAM to 7\u202fPM"
      },
      {
        "day": "Wednesday",
        "hours": "9\u202fAM to 7\u202fPM"
      },
      {
        "day": "Thursday",
        "hours": "9\u202fAM to 7\u202fPM"
      },
      {
        "day": "Friday",
        "hours": "9\u202fAM to 7\u202fPM"
      },
      {
        "day": "Saturday",
        "hours": "9\u202fAM to 5\u202fPM"
      },
      {
        "day": "Sunday",
        "hours": "Closed"
      }
    ],
    "peopleAlsoSearch": [],
    "placesTags": [],
    "reviewsTags": [],
    "additionalInfo": {
      "Service options": [
        {
          "Delivery": true
        }
      ],
      "Accessibility": [
        {
          "Wheelchair-accessible entrance": true
        }
      ],
      "Planning": [
        {
          "Quick visit": true
        }
      ],
      "Payments": [
        {
          "Credit cards": true
        },
        {
          "Debit cards": true
        },
        {
          "NFC mobile payments": true
        },
        {
          "Credit cards": true
        }
      ],
      "Parking": [
        {
          "On-site parking": true
        }
      ]
    },
    "gasPrices": [],
    "url": "https://www.google.com/maps/search/?api=1&query=Oak's%20Pharmacy&query_place_id=ChIJmYLVOkPywokRS8SguRO5Xio",
    "searchPageUrl": "https://www.google.com/maps/search/independent%20pharmacy%20Yonkers%20NY/@64.94267025847846,-167.73503139124153,13z?hl=en",
    "searchString": "independent pharmacy Yonkers NY",
    "language": "en",
    "rank": 1,
    "isAdvertisement": false,
    "imageUrl": "https://lh3.googleusercontent.com/gps-cs-s/AC9h4nppNEB28-fjl2Y7K3YrvHlQeRyms_QuSTwNLpaolfEctD654mWZlnaU7EICKT36eVZ6mXJ3N7VNS_tCF6nio9SCwTAE9kvtIF6dJsYns39PvJkUVAl7krx258l-LXDimmlyVb8=w418-h240-k-no",
    "kgmid": "/g/1pp2vgh3t",
    "classification": "independent",
    "is_independent": true,
    "is_compounding": false,
    "confidence": 0.9,
    "source": "perplexity",
    "method": "llm"
  },
  {
    "title": "Midland pharmacy",
    "price": null,
    "categoryName": "Pharmacy",
    "address": "861 Midland Ave, Yonkers, NY 10704, United States",
    "neighborhood": "Dunwoodie",
    "street": "861 Midland Ave",
    "city": "Yonkers",
    "postalCode": "10704",
    "state": "New York",
    "countryCode": "US",
    "phone": "+1 914-968-0349",
    "phoneUnformatted": "+19149680349",
    "claimThisBusiness": false,
    "location": {
      "lat": 40.9357805,
      "lng": -73.8608247
    },
    "totalScore": 5,
    "permanentlyClosed": false,
    "temporarilyClosed": false,
    "placeId": null,
    "categories": [
      "Pharmacy"
    ],
    "fid": "0x89c2ed3c8db66b03:0x90824ac084d7f4d0",
    "cid": "10412967479156929744",
    "reviewsCount": 63,
    "imagesCount": 14,
    "imageCategories": [],
    "scrapedAt": "2025-06-22T06:12:45.068Z",
    "googleFoodUrl": null,
    "hotelAds": [],
    "openingHours": [
      {
        "day": "Monday",
        "hours": "9\u202fAM to 6\u202fPM"
      },
      {
        "day": "Tuesday",
        "hours": "9\u202fAM to 6\u202fPM"
      },
      {
        "day": "Wednesday",
        "hours": "9\u202fAM to 6\u202fPM"
      },
      {
        "day": "Thursday",
        "hours": "9\u202fAM to 6\u202fPM"
      },
      {
        "day": "Friday",
        "hours": "9\u202fAM to 6\u202fPM"
      },
      {
        "day": "Saturday",
        "hours": "Closed"
      },
      {
        "day": "Sunday",
        "hours": "Closed"
      }
    ],
    "peopleAlsoSearch": [],
    "placesTags": [],
    "reviewsTags": [],
    "additionalInfo": {
      "From the business": [
        {
          "Small Business": true
        }
      ],
      "Service options": [
        {
          "Delivery": true
        },
        {
          "In-store pick-up": true
        },
        {
          "Same-day delivery": true
        }
      ],
      "Accessibility": [
        {
          "Wheelchair-accessible entrance": true
        }
      ],
      "Planning": [
        {
          "Quick visit": true
        }
      ],
      "Payments": [
        {
          "Credit cards": true
        },
        {
          "Debit cards": true
        },
        {
          "NFC mobile payments": true
        },
        {
          "Credit cards": true
        }
      ]
    },
    "gasPrices": [],
    "url": "https://www.google.com/maps/search/?api=1&query=Midland%20pharmacy&query_place_id=ChIJA2u2jTztwokR0PTXhMBKgpA",
    "searchPageUrl": "https://www.google.com/maps/search/independent%20pharmacy%20Yonkers%20NY/@64.94267025847846,-167.73503139124153,13z?hl=en",
    "searchString": "independent pharmacy Yonkers NY",
    "language": "en",
    "rank": 2,
    "isAdvertisement": false,
    "imageUrl": "https://lh3.googleusercontent.com/p/AF1QipMyv4Zl4q7HYo84o1FamjzkMsNS1r8aVEl4S7xc=w408-h306-k-no",
    "kgmid": "/g/11jyl0lnzy",
    "classification": "independent",
    "is_independent": true,
    "is_compounding": false,
    "confidence": 0.85,
    "source": "perplexity",
    "method": "llm"
  },
  {
    "title": "WestRiver Pharmacy",
    "price": null,
    "categoryName": "Pharmacy",
    "address": "66 Main St, Yonkers, NY 10701, United States",
    "neighborhood": "Ludlow",
    "street": "66 Main St",
    "city": "Yonkers",
    "postalCode": "10701",
    "state": "New York",
    "countryCode": "US",
    "website": "http://www.westriverny.com/",
    "phone": "+1 914-457-3351",
    "phoneUnformatted": "+19144573351",
    "claimThisBusiness": false,
    "location": {
      "lat": 40.934322,
      "lng": -73.90149
    },
    "totalScore": 4.6,
    "permanentlyClosed": false,
    "temporarilyClosed": false,
    "placeId": null,
    "categories": [
      "Pharmacy"
    ],
    "fid": "0x89c2f333f608a8d1:0x51a41a3cce9fd6bf",
    "cid": "5882855861719652031",
    "reviewsCount": 115,
    "imagesCount": 3,
    "imageCategories": [],
    "scrapedAt": "2025-06-22T06:12:45.068Z",
    "googleFoodUrl": null,
    "hotelAds": [],
    "openingHours": [
      {
        "day": "Monday",
        "hours": "9\u202fAM to 7\u202fPM"
      },
      {
        "day": "Tuesday",
        "hours": "9\u202fAM to 7\u202fPM"
      },
      {
        "day": "Wednesday",
        "hours": "9\u202fAM to 7\u202fPM"
      },
      {
        "day": "Thursday",
        "hours": "9\u202fAM to 7\u202fPM"
      },
      {
        "day": "Friday",
        "hours": "9\u202fAM to 7\u202fPM"
      },
      {
        "day": "Saturday",
        "hours": "Closed"
      },
      {
        "day": "Sunday",
        "hours": "Closed"
      }
    ],
    "peopleAlsoSearch": [],
    "placesTags": [],
    "reviewsTags": [],
    "additionalInfo": {
      "From the business": [
        {
          "Small Business": true
        }
      ],
      "Service options": [
        {
          "Delivery": true
        },
        {
          "Same-day delivery": true
        }
      ],
      "Accessibility": [
        {
          "Wheelchair-accessible entrance": true
        }
      ],
      "Planning": [
        {
          "Quick visit": true
        }
      ],
      "Payments": [
        {
          "Credit cards": true
        },
        {
          "Debit cards": true
        },
        {
          "NFC mobile payments": true
        },
        {
          "Credit cards": true
        }
      ]
    },
    "gasPrices": [],
    "url": "https://www.google.com/maps/search/?api=1&query=WestRiver%20Pharmacy&query_place_id=ChIJ0agI9jPzwokRv9afzjwapFE",
    "searchPageUrl": "https://www.google.com/maps/search/independent%20pharmacy%20Yonkers%20NY/@64.94267025847846,-167.73503139124153,13z?hl=en",
    "searchString": "independent pharmacy Yonkers NY",
    "language": "en",
    "rank": 3,
    "isAdvertisement": false,
    "imageUrl": "https://lh3.googleusercontent.com/gps-cs-s/AC9h4nqm4aA_Ot-1yFQJlvbYWzrLcCV4VbIrLltF7prdNlikiS7kPkoFEPl9MDufadbaOF1kDtnoERmVHDYBjwNPb-ABX5V79njxG5EaH8TQ3dBwFykChEH0EPh7-Q8XOY3ChOZaBXbF=w408-h306-k-no",
    "kgmid": "/g/11ghrhfn7y",
    "classification": "independent",
    "is_independent": true,
    "is_compounding": false,
    "confidence": 0.9,
    "source": "perplexity",
    "method": "llm"
  },
  {
    "title": "Yonkers Pharmacy",
    "price": null,
    "categoryName": "Pharmacy",
    "address": "944 N Broadway, Yonkers, NY 10701, United States",
    "neighborhood": "Northwest Yonkers",
    "street": "944 N Broadway",
    "city": "Yonkers",
    "postalCode": "10701",
    "state": "New York",
    "countryCode": "US",
    "website": "http://yonkerspharm.com/",
    "phone": "+1 914-963-8800",
    "phoneUnformatted": "+19149638800",
    "claimThisBusiness": false,
    "location": {
      "lat": 40.9673995,
      "lng": -73.8849048
    },
    "totalScore": 5,
    "permanentlyClosed": false,
    "temporarilyClosed": false,
    "placeId": null,
    "categories": [
      "Pharmacy"
    ],
    "fid": "0x89c2ed06406cc2a9:0x6424b0d11bdf5819",
    "cid": "7216086915116652569",
    "reviewsCount": 28,
    "imagesCount": 2,
    "imageCategories": [],
    "scrapedAt": "2025-06-22T06:12:45.068Z",
    "googleFoodUrl": null,
    "hotelAds": [],
    "openingHours": [
      {
        "day": "Monday",
        "hours": "9\u202fAM to 7\u202fPM"
      },
      {
        "day": "Tuesday",
        "hours": "9\u202fAM to 7\u202fPM"
      },
      {
        "day": "Wednesday",
        "hours": "9\u202fAM to 7\u202fPM"
      },
      {
        "day": "Thursday",
        "hours": "9\u202fAM to 7\u202fPM"
      },
      {
        "day": "Friday",
        "hours": "9\u202fAM to 7\u202fPM"
      },
      {
        "day": "Saturday",
        "hours": "9\u202fAM to 4\u202fPM"
      },
      {
        "day": "Sunday",
        "hours": "Closed"
      }
    ],
    "peopleAlsoSearch": [],
    "placesTags": [],
    "reviewsTags": [],
    "additionalInfo": {
      "From the business": [
        {
          "Small Business": true
        }
      ],
      "Service options": [
        {
          "Delivery": true
        },
        {
          "In-store pick-up": true
        },
        {
          "Same-day delivery": true
        }
      ],
      "Accessibility": [
        {
          "Wheelchair-accessible car park": true
        },
        {
          "Wheelchair-accessible entrance": true
        }
      ],
      "Planning": [
        {
          "Quick visit": true
        }
      ],
      "Payments": [
        {
          "Credit cards": true
        },
        {
          "Debit cards": true
        },
        {
          "NFC mobile payments": true
        },
        {
          "Credit cards": true
        }
      ],
      "Parking": [
        {
          "Free parking lot": true
        },
        {
          "On-site parking": true
        }
      ]
    },
    "gasPrices": [],
    "url": "https://www.google.com/maps/search/?api=1&query=Yonkers%20Pharmacy&query_place_id=ChIJqcJsQAbtwokRGVjfG9GwJGQ",
    "searchPageUrl": "https://www.google.com/maps/search/independent%20pharmacy%20Yonkers%20NY/@64.94267025847846,-167.73503139124153,13z?hl=en",
    "searchString": "independent pharmacy Yonkers NY",
    "language": "en",
    "rank": 4,
    "isAdvertisement": false,
    "imageUrl": "https://lh3.googleusercontent.com/p/AF1QipPs96olpxiuPI2EFesZ3eaukjnZmRRrpWv6cBGJ=w408-h544-k-no",
    "kgmid": "/g/1w0j53d0",
    "classification": "independent",
    "is_independent": true,
    "is_compounding": false,
    "confidence": 0.9,
    "source": "perplexity",
    "method": "llm"
  },
  {
    "title": "Health Rx Pharmacy",
    "price": null,
    "categoryName": "Pharmacy",
    "address": "984 N Broadway Ste L06, Yonkers, NY 10701, United States",
    "neighborhood": "Northwest Yonkers",
    "street": "984 N Broadway Ste L06",
    "city": "Yonkers",
    "postalCode": "10701",
    "state": "New York",
    "countryCode": "US",
    "website": "http://www.healthrxny.com/",
    "phone": "+1 914-751-5432",
    "phoneUnformatted": "+19147515432",
    "claimThisBusiness": false,
    "location": {
      "lat": 40.9682154,
      "lng": -73.8841266
    },
    "totalScore": 4.6,
    "permanentlyClosed": false,
    "temporarilyClosed": false,
    "placeId": null,
    "categories": [
      "Pharmacy",
      "ATM",
      "Copy shop",
      "Delivery service",
      "Fax service",
      "Health and beauty shop",
      "Medical supply store",
      "Print shop",
      "Vitamin & supplements store"
    ],
    "fid": "0x89c2ed0618e7f365:0xd842f17a7f10dca8",
    "cid": "15583283169075453096",
    "reviewsCount": 79,
    "imagesCount": 12,
    "imageCategories": [],
    "scrapedAt": "2025-06-22T06:12:45.069Z",
    "googleFoodUrl": null,
    "hotelAds": [],
    "openingHours": [
      {
        "day": "Monday",
        "hours": "9\u202fAM to 6:30\u202fPM"
      },
      {
        "day": "Tuesday",
        "hours": "9\u202fAM to 6:30\u202fPM"
      },
      {
        "day": "Wednesday",
        "hours": "9\u202fAM to 6:30\u202fPM"
      },
      {
        "day": "Thursday",
        "hours": "9\u202fAM to 6:30\u202fPM"
      },
      {
        "day": "Friday",
        "hours": "9\u202fAM to 6:30\u202fPM"
      },
      {
        "day": "Saturday",
        "hours": "9\u202fAM to 2\u202fPM"
      },
      {
        "day": "Sunday",
        "hours": "Closed"
      }
    ],
    "peopleAlsoSearch": [],
    "placesTags": [],
    "reviewsTags": [],
    "additionalInfo": {
      "From the business": [
        {
          "Small Business": true
        }
      ],
      "Service options": [
        {
          "Kerbside pickup": true
        },
        {
          "Delivery": true
        },
        {
          "In-store pick-up": true
        },
        {
          "In-store shopping": true
        },
        {
          "On-site services": true
        },
        {
          "Same-day delivery": true
        },
        {
          "Hindi": true
        }
      ],
      "Accessibility": [
        {
          "Wheelchair-accessible car park": true
        },
        {
          "Wheelchair-accessible entrance": true
        },
        {
          "Wheelchair-accessible seating": true
        },
        {
          "Wheelchair-accessible toilet": true
        }
      ],
      "Crowd": [
        {
          "LGBTQ+ friendly": true
        },
        {
          "Transgender safe space": true
        }
      ],
      "Planning": [
        {
          "Quick visit": true
        }
      ],
      "Payments": [
        {
          "Credit cards": true
        },
        {
          "Debit cards": true
        },
        {
          "NFC mobile payments": true
        },
        {
          "Credit cards": true
        }
      ],
      "Parking": [
        {
          "On-site parking": true
        }
      ]
    },
    "gasPrices": [],
    "url": "https://www.google.com/maps/search/?api=1&query=Health%20Rx%20Pharmacy&query_place_id=ChIJZfPnGAbtwokRqNwQf3rxQtg",
    "searchPageUrl": "https://www.google.com/maps/search/independent%20pharmacy%20Yonkers%20NY/@64.94267025847846,-167.73503139124153,13z?hl=en",
    "searchString": "independent pharmacy Yonkers NY",
    "language": "en",
    "rank": 5,
    "isAdvertisement": false,
    "imageUrl": "https://lh3.googleusercontent.com/p/AF1QipMDzk5DqQl-C38nO67K1vpYEFv1Hn6HmNNzyJfh=w408-h272-k-no",
    "kgmid": "/g/1hhj5w7d_",
    "classification": "independent",
    "is_independent": true,
    "is_compounding": false,
    "confidence": 0.9,
    "source": "perplexity",
    "method": "llm"
  },
  {
    "title": "South Broadway Pharmacy",
    "price": null,
    "categoryName": "Pharmacy",
    "address": "314 S Broadway, Yonkers, NY 10705, United States",
    "neighborhood": "Park Hill",
    "street": "314 S Broadway",
    "city": "Yonkers",
    "postalCode": "10705",
    "state": "New York",
    "countryCode": "US",
    "phone": "+1 914-965-1000",
    "phoneUnformatted": "+19149651000",
    "claimThisBusiness": false,
    "location": {
      "lat": 40.9225472,
      "lng": -73.8956157
    },
    "totalScore": 4.7,
    "permanentlyClosed": false,
    "temporarilyClosed": false,
    "placeId": null,
    "categories": [
      "Pharmacy"
    ],
    "fid": "0x89c2f267392d6865:0xbeb114c6022cf0d1",
    "cid": "13740786778756673745",
    "reviewsCount": 47,
    "imagesCount": 2,
    "imageCategories": [],
    "scrapedAt": "2025-06-22T06:12:45.069Z",
    "googleFoodUrl": null,
    "hotelAds": [],
    "openingHours": [
      {
        "day": "Monday",
        "hours": "10\u202fAM to 7\u202fPM"
      },
      {
        "day": "Tuesday",
        "hours": "10\u202fAM to 7\u202fPM"
      },
      {
        "day": "Wednesday",
        "hours": "10\u202fAM to 7\u202fPM"
      },
      {
        "day": "Thursday",
        "hours": "10\u202fAM to 7\u202fPM"
      },
      {
        "day": "Friday",
        "hours": "10\u202fAM to 7\u202fPM"
      },
      {
        "day": "Saturday",
        "hours": "10\u202fAM to 5\u202fPM"
      },
      {
        "day": "Sunday",
        "hours": "Closed"
      }
    ],
    "peopleAlsoSearch": [],
    "placesTags": [],
    "reviewsTags": [],
    "additionalInfo": {
      "From the business": [
        {
          "Small Business": true
        }
      ],
      "Service options": [
        {
          "Delivery": true
        },
        {
          "In-store pick-up": true
        }
      ],
      "Accessibility": [
        {
          "Wheelchair-accessible entrance": true
        }
      ],
      "Planning": [
        {
          "Quick visit": true
        }
      ],
      "Payments": [
        {
          "Credit cards": true
        },
        {
          "Debit cards": true
        },
        {
          "NFC mobile payments": true
        },
        {
          "Credit cards": true
        }
      ]
    },
    "gasPrices": [],
    "url": "https://www.google.com/maps/search/?api=1&query=South%20Broadway%20Pharmacy&query_place_id=ChIJZWgtOWfywokR0fAsAsYUsb4",
    "searchPageUrl": "https://www.google.com/maps/search/independent%20pharmacy%20Yonkers%20NY/@64.94267025847846,-167.73503139124153,13z?hl=en",
    "searchString": "independent pharmacy Yonkers NY",
    "language": "en",
    "rank": 6,
    "isAdvertisement": false,
    "imageUrl": "https://lh3.googleusercontent.com/gps-cs-s/AC9h4nqGhWS-yD8LIkIxuT7z61z3n1Cj-WFigIbF5KH4g6Q8Ywhjp50dhU2OD4O00fdrq-aq7rtj3VjUz2t9WK3Q7idLCH22dkhWDjwaybxuEOw8t7e5TQ3tSgMOxKcDcNGacIZZlLlE=w408-h725-k-no",
    "kgmid": "/g/1tcv_bs2",
    "classification": "independent",
    "is_independent": true,
    "is_compounding": false,
    "confidence": 0.85,
    "source": "perplexity",
    "method": "llm"
  },
  {
    "title": "Central Park Pharmacy",
    "price": null,
    "categoryName": "Pharmacy",
    "address": "1915 Central Park Ave Suite 1S, Yonkers, NY 10710, United States",
    "neighborhood": "Northeast Yonkers",
    "street": "1915 Central Park Ave Suite 1S",
    "city": "Yonkers",
    "postalCode": "10710",
    "state": "New York",
    "countryCode": "US",
    "website": "https://centralparkpharmacy.com/",
    "phone": "+1 914-898-9009",
    "phoneUnformatted": "+19148989009",
    "claimThisBusiness": false,
    "location": {
      "lat": 40.9640041,
      "lng": -73.8396565
    },
    "totalScore": 4.1,
    "permanentlyClosed": false,
    "temporarilyClosed": false,
    "placeId": null,
    "categories": [
      "Pharmacy"
    ],
    "fid": "0x89c2932fa0d91139:0x1f82a48fd4d170bf",
    "cid": "2270558099805925567",
    "reviewsCount": 29,
    "imagesCount": 31,
    "imageCategories": [],
    "scrapedAt": "2025-06-22T06:12:45.069Z",
    "googleFoodUrl": null,
    "hotelAds": [],
    "openingHours": [
      {
        "day": "Monday",
        "hours": "9\u202fAM to 6\u202fPM"
      },
      {
        "day": "Tuesday",
        "hours": "9\u202fAM to 6\u202fPM"
      },
      {
        "day": "Wednesday",
        "hours": "9\u202fAM to 6\u202fPM"
      },
      {
        "day": "Thursday",
        "hours": "9\u202fAM to 6\u202fPM"
      },
      {
        "day": "Friday",
        "hours": "9\u202fAM to 6\u202fPM"
      },
      {
        "day": "Saturday",
        "hours": "9\u202fAM to 3\u202fPM"
      },
      {
        "day": "Sunday",
        "hours": "Closed"
      }
    ],
    "peopleAlsoSearch": [],
    "placesTags": [],
    "reviewsTags": [],
    "additionalInfo": {
      "From the business": [
        {
          "Small Business": true
        }
      ],
      "Service options": [
        {
          "Delivery": true
        },
        {
          "On-site services": true
        }
      ],
      "Accessibility": [
        {
          "Wheelchair-accessible entrance": true
        }
      ],
      "Planning": [
        {
          "Quick visit": true
        }
      ],
      "Payments": [
        {
          "Credit cards": true
        },
        {
          "Debit cards": true
        },
        {
          "NFC mobile payments": true
        },
        {
          "Credit cards": true
        }
      ],
      "Parking": [
        {
          "On-site parking": true
        }
      ]
    },
    "gasPrices": [],
    "url": "https://www.google.com/maps/search/?api=1&query=Central%20Park%20Pharmacy&query_place_id=ChIJORHZoC-TwokRv3DR1I-kgh8",
    "searchPageUrl": "https://www.google.com/maps/search/independent%20pharmacy%20Yonkers%20NY/@64.94267025847846,-167.73503139124153,13z?hl=en",
    "searchString": "independent pharmacy Yonkers NY",
    "language": "en",
    "rank": 7,
    "isAdvertisement": false,
    "imageUrl": "https://lh3.googleusercontent.com/p/AF1QipPsQffB_89BWH74TdD-cDFfGAfMak_4ku0jWT7r=w408-h306-k-no",
    "kgmid": "/g/11mvpbhp0t",
    "classification": "independent",
    "is_independent": true,
    "is_compounding": false,
    "confidence": 0.9,
    "source": "perplexity",
    "method": "llm"
  },
  {
    "title": "Trust Specialty Pharmacy",
    "price": null,
    "categoryName": "Pharmacy",
    "address": "1034 N Broadway, Yonkers, NY 10701, United States",
    "neighborhood": "Northwest Yonkers",
    "street": "1034 N Broadway",
    "city": "Yonkers",
    "postalCode": "10701",
    "state": "New York",
    "countryCode": "US",
    "website": "https://www.trustspecialtypharmacy.com/",
    "phone": "+1 914-768-8585",
    "phoneUnformatted": "+19147688585",
    "claimThisBusiness": false,
    "location": {
      "lat": 40.9698945,
      "lng": -73.8833909
    },
    "totalScore": 5,
    "permanentlyClosed": false,
    "temporarilyClosed": false,
    "placeId": "ChIJN9zJfgbtwokRtH0lrrCROk4",
    "categories": [
      "Pharmacy"
    ],
    "fid": "0x89c2ed067ec9dc37:0x4e3a91b0ae257db4",
    "cid": "5636978071629561268",
    "reviewsCount": 13,
    "imagesCount": 3,
    "imageCategories": [],
    "scrapedAt": "2025-06-22T06:12:45.069Z",
    "googleFoodUrl": null,
    "hotelAds": [],
    "openingHours": [
      {
        "day": "Monday",
        "hours": "9\u202fAM to 5\u202fPM"
      },
      {
        "day": "Tuesday",
        "hours": "9\u202fAM to 5\u202fPM"
      },
      {
        "day": "Wednesday",
        "hours": "9\u202fAM to 5\u202fPM"
      },
      {
        "day": "Thursday",
        "hours": "9\u202fAM to 5\u202fPM"
      },
      {
        "day": "Friday",
        "hours": "9\u202fAM to 5\u202fPM"
      },
      {
        "day": "Saturday",
        "hours": "Closed"
      },
      {
        "day": "Sunday",
        "hours": "Closed"
      }
    ],
    "peopleAlsoSearch": [],
    "placesTags": [],
    "reviewsTags": [],
    "additionalInfo": {
      "Service options": [
        {
          "Delivery": true
        },
        {
          "On-site services": true
        }
      ],
      "Accessibility": [
        {
          "Wheelchair-accessible car park": true
        },
        {
          "Wheelchair-accessible entrance": true
        }
      ],
      "Payments": [
        {
          "Debit cards": true
        },
        {
          "Credit cards": true
        }
      ],
      "Parking": [
        {
          "On-site parking": true
        }
      ]
    },
    "gasPrices": [],
    "url": "https://www.google.com/maps/search/?api=1&query=Trust%20Specialty%20Pharmacy&query_place_id=ChIJN9zJfgbtwokRtH0lrrCROk4",
    "searchPageUrl": "https://www.google.com/maps/search/independent%20pharmacy%20Yonkers%20NY/@64.94267025847846,-167.73503139124153,13z?hl=en",
    "searchString": "independent pharmacy Yonkers NY",
    "language": "en",
    "rank": 8,
    "isAdvertisement": false,
    "imageUrl": "https://lh3.googleusercontent.com/gps-cs-s/AC9h4no5Th9qLrUC4wYIF_pCB6exdIAyzu5-D2BYR3SxEdQAaqCVMvWdvKj5hpv2h3jjXUpUKWUP6bOUEG0jmpyQYJyY5qWLE0d5xuF3gKPhaq_UnSP7OzdviTuhJJ9cAVbYBtmgfKLF_w=w408-h544-k-no",
    "kgmid": "/g/11kc8mrw6s",
    "classification": "hospital",
    "is_independent": false,
    "confidence": 1.0,
    "source": "rule-based"
  },
  {
    "title": "Lake Avenue Pharmacy",
    "price": null,
    "categoryName": "Pharmacy",
    "address": "130 Lake Ave, Yonkers, NY 10703, United States",
    "neighborhood": null,
    "street": "130 Lake Ave",
    "city": "Yonkers",
    "postalCode": "10703",
    "state": "New York",
    "countryCode": "US",
    "website": "http://lakeavepharmacy.com/",
    "phone": "+1 914-965-3034",
    "phoneUnformatted": "+19149653034",
    "claimThisBusiness": false,
    "location": {
      "lat": 40.9468496,
      "lng": -73.8866869
    },
    "totalScore": 4.9,
    "permanentlyClosed": false,
    "temporarilyClosed": false,
    "placeId": null,
    "categories": [
      "Pharmacy",
      "Candy store",
      "Gift shop",
      "Lottery retailer"
    ],
    "fid": "0x89c2ed784f574f0d:0x44955faf14ba0e49",
    "cid": "4941961371680640585",
    "reviewsCount": 23,
    "imagesCount": 2,
    "imageCategories": [],
    "scrapedAt": "2025-06-22T06:12:45.069Z",
    "googleFoodUrl": null,
    "hotelAds": [],
    "openingHours": [
      {
        "day": "Monday",
        "hours": "9\u202fAM to 6\u202fPM"
      },
      {
        "day": "Tuesday",
        "hours": "9\u202fAM to 6\u202fPM"
      },
      {
        "day": "Wednesday",
        "hours": "9\u202fAM to 6\u202fPM"
      },
      {
        "day": "Thursday",
        "hours": "9\u202fAM to 6\u202fPM"
      },
      {
        "day": "Friday",
        "hours": "9\u202fAM to 6\u202fPM"
      },
      {
        "day": "Saturday",
        "hours": "10\u202fAM to 4\u202fPM"
      },
      {
        "day": "Sunday",
        "hours": "Closed"
      }
    ],
    "additionalOpeningHours": {
      "Delivery": [
        {
          "day": "Monday",
          "hours": "1\u20135\u202fpm"
        },
        {
          "day": "Tuesday",
          "hours": "1\u20135\u202fpm"
        },
        {
          "day": "Wednesday",
          "hours": "1\u20135\u202fpm"
        },
        {
          "day": "Thursday",
          "hours": "1\u20135\u202fpm"
        },
        {
          "day": "Friday",
          "hours": "1\u20135\u202fpm"
        },
        {
          "day": "Saturday",
          "hours": "Closed"
        },
        {
          "day": "Sunday",
          "hours": "Closed"
        }
      ]
    },
    "peopleAlsoSearch": [],
    "placesTags": [],
    "reviewsTags": [],
    "additionalInfo": {
      "From the business": [
        {
          "Small Business": true
        }
      ],
      "Service options": [
        {
          "Kerbside pickup": true
        },
        {
          "Delivery": true
        },
        {
          "In-store pick-up": true
        },
        {
          "In-store shopping": true
        },
        {
          "Same-day delivery": true
        },
        {
          "English": true
        }
      ],
      "Accessibility": [
        {
          "Wheelchair-accessible car park": true
        },
        {
          "Wheelchair-accessible entrance": true
        }
      ],
      "Offerings": [
        {
          "Passport photos": true
        }
      ],
      "Crowd": [
        {
          "LGBTQ+ friendly": true
        },
        {
          "Transgender safe space": true
        }
      ],
      "Planning": [
        {
          "Quick visit": true
        }
      ],
      "Payments": [
        {
          "Cheques": true
        },
        {
          "Credit cards": true
        },
        {
          "Debit cards": true
        },
        {
          "NFC mobile payments": true
        },
        {
          "SNAP/EBT": true
        },
        {
          "Credit cards": true
        }
      ],
      "Parking": [
        {
          "Free of charge street parking": true
        },
        {
          "On-site parking": true
        },
        {
          "Paid parking lot": true
        },
        {
          "Paid street parking": true
        }
      ]
    },
    "gasPrices": [],
    "url": "https://www.google.com/maps/search/?api=1&query=Lake%20Avenue%20Pharmacy&query_place_id=ChIJDU9XT3jtwokRSQ66FK9flUQ",
    "searchPageUrl": "https://www.google.com/maps/search/independent%20pharmacy%20Yonkers%20NY/@64.94267025847846,-167.73503139124153,13z?hl=en",
    "searchString": "independent pharmacy Yonkers NY",
    "language": "en",
    "rank": 9,
    "isAdvertisement": false,
    "imageUrl": "https://lh3.googleusercontent.com/p/AF1QipOr3frXJoAUQEJc-hM7SAkfGjsDiTN2JhEnXtfq=w425-h240-k-no",
    "kgmid": "/g/1tqg181_",
    "classification": "independent",
    "is_independent": true,
    "is_compounding": false,
    "confidence": 0.9,
    "source": "perplexity",
    "method": "llm"
  },
  {
    "title": "GETTY SQUARE PHARMACY",
    "price": null,
    "categoryName": "Pharmacy",
    "address": "1 S Broadway, Yonkers, NY 10701, United States",
    "neighborhood": "Getty Square",
    "street": "1 S Broadway",
    "city": "Yonkers",
    "postalCode": "10701",
    "state": "New York",
    "countryCode": "US",
    "phone": "+1 914-457-5742",
    "phoneUnformatted": "+19144575742",
    "claimThisBusiness": false,
    "location": {
      "lat": 40.9338578,
      "lng": -73.8981712
    },
    "totalScore": 4.7,
    "permanentlyClosed": false,
    "temporarilyClosed": false,
    "placeId": null,
    "categories": [
      "Pharmacy",
      "Copy shop",
      "Fax service",
      "Print shop"
    ],
    "fid": "0x89c2f30b2692e273:0x5261c6b5b6c4e99f",
    "cid": "5936244267608762783",
    "reviewsCount": 129,
    "imagesCount": 16,
    "imageCategories": [],
    "scrapedAt": "2025-06-22T06:12:45.069Z",
    "googleFoodUrl": null,
    "hotelAds": [],
    "openingHours": [
      {
        "day": "Monday",
        "hours": "9:30\u202fAM to 6:20\u202fPM"
      },
      {
        "day": "Tuesday",
        "hours": "9:30\u202fAM to 6:20\u202fPM"
      },
      {
        "day": "Wednesday",
        "hours": "9:30\u202fAM to 6:20\u202fPM"
      },
      {
        "day": "Thursday",
        "hours": "9:30\u202fAM to 6:20\u202fPM"
      },
      {
        "day": "Friday",
        "hours": "9:30\u202fAM to 6:20\u202fPM"
      },
      {
        "day": "Saturday",
        "hours": "10\u202fAM to 2:50\u202fPM"
      },
      {
        "day": "Sunday",
        "hours": "Closed"
      }
    ],
    "peopleAlsoSearch": [],
    "placesTags": [],
    "reviewsTags": [],
    "additionalInfo": {
      "From the business": [
        {
          "Small Business": true
        }
      ],
      "Service options": [
        {
          "Delivery": true
        }
      ],
      "Accessibility": [
        {
          "Wheelchair-accessible entrance": true
        }
      ],
      "Planning": [
        {
          "Quick visit": true
        }
      ],
      "Payments": [
        {
          "Credit cards": true
        },
        {
          "Debit cards": true
        },
        {
          "NFC mobile payments": true
        },
        {
          "Credit cards": true
        }
      ]
    },
    "gasPrices": [],
    "url": "https://www.google.com/maps/search/?api=1&query=GETTY%20SQUARE%20PHARMACY&query_place_id=ChIJc-KSJgvzwokRn-nEtrXGYVI",
    "searchPageUrl": "https://www.google.com/maps/search/independent%20pharmacy%20Yonkers%20NY/@64.94267025847846,-167.73503139124153,13z?hl=en",
    "searchString": "independent pharmacy Yonkers NY",
    "language": "en",
    "rank": 10,
    "isAdvertisement": false,
    "imageUrl": "https://lh3.googleusercontent.com/p/AF1QipPcd50u7hiAtc1mk2xbse6XlzMrIUjnjyadaGlg=w408-h272-k-no",
    "kgmid": "/g/11h0t4mvtj",
    "classification": "independent",
    "is_independent": true,
    "is_compounding": false,
    "confidence": 0.85,
    "source": "perplexity",
    "method": "llm"
  },
  {
    "title": "Sunrise Pharmacy",
    "price": null,
    "categoryName": "Pharmacy",
    "address": "2 Park Ave, Yonkers, NY 10703, United States",
    "neighborhood": "Getty Square",
    "street": "2 Park Ave",
    "city": "Yonkers",
    "postalCode": "10703",
    "state": "New York",
    "countryCode": "US",
    "phone": "+1 914-964-1010",
    "phoneUnformatted": "+19149641010",
    "claimThisBusiness": false,
    "location": {
      "lat": 40.9399155,
      "lng": -73.8917983
    },
    "totalScore": 4.7,
    "permanentlyClosed": false,
    "temporarilyClosed": false,
    "placeId": null,
    "categories": [
      "Pharmacy"
    ],
    "fid": "0x89c2ed8081810b15:0xe3de3710c7b50698",
    "cid": "16419621836648941208",
    "reviewsCount": 23,
    "imagesCount": 2,
    "imageCategories": [],
    "scrapedAt": "2025-06-22T06:12:45.069Z",
    "googleFoodUrl": null,
    "hotelAds": [],
    "openingHours": [
      {
        "day": "Monday",
        "hours": "9\u202fAM to 6\u202fPM"
      },
      {
        "day": "Tuesday",
        "hours": "9\u202fAM to 6\u202fPM"
      },
      {
        "day": "Wednesday",
        "hours": "9\u202fAM to 6\u202fPM"
      },
      {
        "day": "Thursday",
        "hours": "9\u202fAM to 6\u202fPM"
      },
      {
        "day": "Friday",
        "hours": "9\u202fAM to 6\u202fPM"
      },
      {
        "day": "Saturday",
        "hours": "9\u202fAM to 2\u202fPM"
      },
      {
        "day": "Sunday",
        "hours": "Closed"
      }
    ],
    "peopleAlsoSearch": [],
    "placesTags": [],
    "reviewsTags": [],
    "additionalInfo": {
      "From the business": [
        {
          "Small Business": true
        }
      ],
      "Accessibility": [
        {
          "Wheelchair-accessible entrance": true
        }
      ],
      "Offerings": [
        {
          "Medication disposal": true
        }
      ],
      "Planning": [
        {
          "Quick visit": true
        }
      ],
      "Payments": [
        {
          "Credit cards": true
        },
        {
          "Debit cards": true
        },
        {
          "Credit cards": true
        }
      ]
    },
    "gasPrices": [],
    "url": "https://www.google.com/maps/search/?api=1&query=Sunrise%20Pharmacy&query_place_id=ChIJFQuBgYDtwokRmAa1xxA33uM",
    "searchPageUrl": "https://www.google.com/maps/search/independent%20pharmacy%20Yonkers%20NY/@64.94267025847846,-167.73503139124153,13z?hl=en",
    "searchString": "independent pharmacy Yonkers NY",
    "language": "en",
    "rank": 11,
    "isAdvertisement": false,
    "imageUrl": "https://lh3.googleusercontent.com/p/AF1QipPWSqPDmAgPRXy1nISF_sb1-ngFgo3h8t0chO8G=w408-h392-k-no",
    "kgmid": "/g/1pp2x6jrx",
    "classification": "independent",
    "is_independent": true,
    "is_compounding": false,
    "confidence": 0.85,
    "source": "perplexity",
    "method": "llm"
  },
  {
    "title": "McLean Ave Pharmacy",
    "price": null,
    "categoryName": "Pharmacy",
    "address": "211 McLean Ave, Yonkers, NY 10705, United States",
    "neighborhood": "Park Hill",
    "street": "211 McLean Ave",
    "city": "Yonkers",
    "postalCode": "10705",
    "state": "New York",
    "countryCode": "US",
    "phone": "+1 914-327-4888",
    "phoneUnformatted": "+19143274888",
    "claimThisBusiness": false,
    "location": {
      "lat": 40.9131291,
      "lng": -73.8900201
    },
    "totalScore": 4.7,
    "permanentlyClosed": false,
    "temporarilyClosed": false,
    "placeId": null,
    "categories": [
      "Pharmacy",
      "Dollar store",
      "Drug store",
      "Medical supply store"
    ],
    "fid": "0x89c2f258967bae59:0xae22cdec2148e6f3",
    "cid": "12547817925862024947",
    "reviewsCount": 27,
    "imagesCount": 3,
    "imageCategories": [],
    "scrapedAt": "2025-06-22T06:12:45.070Z",
    "googleFoodUrl": null,
    "hotelAds": [],
    "openingHours": [
      {
        "day": "Monday",
        "hours": "9\u202fAM to 7\u202fPM"
      },
      {
        "day": "Tuesday",
        "hours": "9\u202fAM to 7\u202fPM"
      },
      {
        "day": "Wednesday",
        "hours": "9\u202fAM to 7\u202fPM"
      },
      {
        "day": "Thursday",
        "hours": "9\u202fAM to 7\u202fPM"
      },
      {
        "day": "Friday",
        "hours": "9\u202fAM to 7\u202fPM"
      },
      {
        "day": "Saturday",
        "hours": "10\u202fAM to 4\u202fPM"
      },
      {
        "day": "Sunday",
        "hours": "Closed"
      }
    ],
    "peopleAlsoSearch": [],
    "placesTags": [],
    "reviewsTags": [],
    "additionalInfo": {
      "From the business": [
        {
          "Small Business": true
        }
      ],
      "Service options": [
        {
          "Delivery": true
        }
      ],
      "Accessibility": [
        {
          "Wheelchair-accessible entrance": true
        }
      ],
      "Planning": [
        {
          "Quick visit": true
        }
      ],
      "Payments": [
        {
          "Credit cards": true
        },
        {
          "Debit cards": true
        },
        {
          "NFC mobile payments": true
        },
        {
          "Credit cards": true
        }
      ]
    },
    "gasPrices": [],
    "url": "https://www.google.com/maps/search/?api=1&query=McLean%20Ave%20Pharmacy&query_place_id=ChIJWa57lljywokR8-ZIIezNIq4",
    "searchPageUrl": "https://www.google.com/maps/search/independent%20pharmacy%20Yonkers%20NY/@64.94267025847846,-167.73503139124153,13z?hl=en",
    "searchString": "independent pharmacy Yonkers NY",
    "language": "en",
    "rank": 12,
    "isAdvertisement": false,
    "imageUrl": "https://lh3.googleusercontent.com/p/AF1QipOQhWqmV3J8dWb1DFkwHQOavcz9MgA_U3Lqn9gP=w408-h306-k-no",
    "kgmid": "/g/11cm4f2g2j",
    "classification": "independent",
    "is_independent": true,
    "is_compounding": false,
    "confidence": 0.85,
    "source": "perplexity",
    "method": "llm"
  },
  {
    "title": "Stanley Pharmacy Inc",
    "price": null,
    "categoryName": "Pharmacy",
    "address": "2 S Broadway, Yonkers, NY 10701, United States",
    "neighborhood": "Getty Square",
    "street": "2 S Broadway",
    "city": "Yonkers",
    "postalCode": "10701",
    "state": "New York",
    "countryCode": "US",
    "website": "http://www.stanleypharmany.com/",
    "phone": "+1 914-476-6060",
    "phoneUnformatted": "+19144766060",
    "claimThisBusiness": false,
    "location": {
      "lat": 40.9334848,
      "lng": -73.8978132
    },
    "totalScore": 4.4,
    "permanentlyClosed": false,
    "temporarilyClosed": false,
    "placeId": null,
    "categories": [
      "Pharmacy",
      "Cosmetics store"
    ],
    "fid": "0x89c2f27adea0f637:0x88045165a1197461",
    "cid": "9801048186001388641",
    "reviewsCount": 37,
    "imagesCount": 24,
    "imageCategories": [],
    "scrapedAt": "2025-06-22T06:12:45.070Z",
    "googleFoodUrl": null,
    "hotelAds": [],
    "openingHours": [
      {
        "day": "Monday",
        "hours": "9\u202fAM to 7\u202fPM"
      },
      {
        "day": "Tuesday",
        "hours": "9\u202fAM to 7\u202fPM"
      },
      {
        "day": "Wednesday",
        "hours": "9\u202fAM to 7\u202fPM"
      },
      {
        "day": "Thursday",
        "hours": "9\u202fAM to 7\u202fPM"
      },
      {
        "day": "Friday",
        "hours": "9\u202fAM to 7\u202fPM"
      },
      {
        "day": "Saturday",
        "hours": "9\u202fAM to 4\u202fPM"
      },
      {
        "day": "Sunday",
        "hours": "Closed"
      }
    ],
    "peopleAlsoSearch": [],
    "placesTags": [],
    "reviewsTags": [],
    "additionalInfo": {
      "From the business": [
        {
          "Small Business": true
        }
      ],
      "Service options": [
        {
          "Delivery": true
        },
        {
          "Same-day delivery": true
        }
      ],
      "Accessibility": [
        {
          "Wheelchair-accessible entrance": true
        }
      ],
      "Planning": [
        {
          "Quick visit": true
        }
      ],
      "Payments": [
        {
          "Credit cards": true
        },
        {
          "Debit cards": true
        },
        {
          "NFC mobile payments": true
        },
        {
          "Credit cards": true
        }
      ]
    },
    "gasPrices": [],
    "url": "https://www.google.com/maps/search/?api=1&query=Stanley%20Pharmacy%20Inc&query_place_id=ChIJN_ag3nrywokRYXQZoWVRBIg",
    "searchPageUrl": "https://www.google.com/maps/search/independent%20pharmacy%20Yonkers%20NY/@64.94267025847846,-167.73503139124153,13z?hl=en",
    "searchString": "independent pharmacy Yonkers NY",
    "language": "en",
    "rank": 13,
    "isAdvertisement": false,
    "imageUrl": "https://lh3.googleusercontent.com/p/AF1QipP3f57d5xoUfTdEY2VUiB0r94_bgtFXWsR2jwbL=w408-h510-k-no",
    "kgmid": "/g/1v4ptyk4",
    "classification": "independent",
    "is_independent": true,
    "is_compounding": false,
    "confidence": 0.9,
    "source": "perplexity",
    "method": "llm"
  },
  {
    "title": "Sunlight Pharmacy",
    "price": null,
    "categoryName": "Pharmacy",
    "address": "967 N Broadway, Yonkers, NY 10701, United States",
    "neighborhood": "Northwest Yonkers",
    "street": "967 N Broadway",
    "city": "Yonkers",
    "postalCode": "10701",
    "state": "New York",
    "countryCode": "US",
    "phone": "+1 914-999-3199",
    "phoneUnformatted": "+19149993199",
    "claimThisBusiness": true,
    "location": {
      "lat": 40.9688196,
      "lng": -73.8864694
    },
    "totalScore": 4.8,
    "permanentlyClosed": false,
    "temporarilyClosed": false,
    "placeId": null,
    "categories": [
      "Pharmacy"
    ],
    "fid": "0x89c2edb19ff19717:0x8e8bea6acd5f6d2a",
    "cid": "10271561119581564202",
    "reviewsCount": 16,
    "imagesCount": 3,
    "imageCategories": [],
    "scrapedAt": "2025-06-22T06:12:45.070Z",
    "googleFoodUrl": null,
    "hotelAds": [],
    "openingHours": [
      {
        "day": "Monday",
        "hours": "9\u202fAM to 7\u202fPM"
      },
      {
        "day": "Tuesday",
        "hours": "9\u202fAM to 7\u202fPM"
      },
      {
        "day": "Wednesday",
        "hours": "9\u202fAM to 7\u202fPM"
      },
      {
        "day": "Thursday",
        "hours": "9\u202fAM to 7\u202fPM"
      },
      {
        "day": "Friday",
        "hours": "9\u202fAM to 7\u202fPM"
      },
      {
        "day": "Saturday",
        "hours": "9\u202fAM to 4\u202fPM"
      },
      {
        "day": "Sunday",
        "hours": "Closed"
      }
    ],
    "peopleAlsoSearch": [],
    "placesTags": [],
    "reviewsTags": [],
    "additionalInfo": {
      "Service options": [
        {
          "Delivery": true
        },
        {
          "In-store pick-up": true
        },
        {
          "Same-day delivery": true
        }
      ],
      "Accessibility": [
        {
          "Wheelchair-accessible car park": true
        },
        {
          "Wheelchair-accessible entrance": true
        }
      ],
      "Payments": [
        {
          "Credit cards": true
        },
        {
          "Debit cards": true
        },
        {
          "NFC mobile payments": true
        },
        {
          "Credit cards": true
        }
      ],
      "Parking": [
        {
          "On-site parking": true
        }
      ]
    },
    "gasPrices": [],
    "url": "https://www.google.com/maps/search/?api=1&query=Sunlight%20Pharmacy&query_place_id=ChIJF5fxn7HtwokRKm1fzWrqi44",
    "searchPageUrl": "https://www.google.com/maps/search/independent%20pharmacy%20Yonkers%20NY/@64.94267025847846,-167.73503139124153,13z?hl=en",
    "searchString": "independent pharmacy Yonkers NY",
    "language": "en",
    "rank": 14,
    "isAdvertisement": false,
    "imageUrl": "https://lh3.googleusercontent.com/gps-cs-s/AC9h4nrjzgOwpeJjSgOJXTYDcvcjGAMLu8YBGO4xQ1-APbNTCFW9UU-38dMyNwH0YH8ycdZeUv6DdfViC9Qlgp5Czm-e29kg0DQY9Rx03p35qmpUR-44wWtY765y1YeKz9JHl0dhxEp5Pg=w408-h306-k-no",
    "kgmid": "/g/11h6db225m",
    "classification": "independent",
    "is_independent": true,
    "is_compounding": false,
    "confidence": 0.85,
    "source": "perplexity",
    "method": "llm"
  },
  {
    "title": "Le Mac Pharmacy Inc",
    "price": null,
    "categoryName": "Pharmacy",
    "address": "623 McLean Ave, Yonkers, NY 10705, United States",
    "neighborhood": "Lincoln Park",
    "street": "623 McLean Ave",
    "city": "Yonkers",
    "postalCode": "10705",
    "state": "New York",
    "countryCode": "US",
    "website": "https://www.lemacpharmacy.com/",
    "phone": "+1 914-965-6100",
    "phoneUnformatted": "+19149656100",
    "claimThisBusiness": false,
    "location": {
      "lat": 40.909282,
      "lng": -73.87988
    },
    "totalScore": 4.4,
    "permanentlyClosed": false,
    "temporarilyClosed": false,
    "placeId": null,
    "categories": [
      "Pharmacy"
    ],
    "fid": "0x89c2f2f05dc473df:0xee764ef6e385ce8",
    "cid": "1073938015660301544",
    "reviewsCount": 49,
    "imagesCount": 2,
    "imageCategories": [],
    "scrapedAt": "2025-06-22T06:12:45.070Z",
    "googleFoodUrl": null,
    "hotelAds": [],
    "openingHours": [
      {
        "day": "Monday",
        "hours": "8:30\u202fAM to 7\u202fPM"
      },
      {
        "day": "Tuesday",
        "hours": "8:30\u202fAM to 7\u202fPM"
      },
      {
        "day": "Wednesday",
        "hours": "8:30\u202fAM to 7\u202fPM"
      },
      {
        "day": "Thursday",
        "hours": "8:30\u202fAM to 7\u202fPM"
      },
      {
        "day": "Friday",
        "hours": "8:30\u202fAM to 7\u202fPM"
      },
      {
        "day": "Saturday",
        "hours": "9\u202fAM to 6\u202fPM"
      },
      {
        "day": "Sunday",
        "hours": "9\u202fAM to 4\u202fPM"
      }
    ],
    "peopleAlsoSearch": [],
    "placesTags": [],
    "reviewsTags": [],
    "additionalInfo": {
      "From the business": [
        {
          "Small Business": true
        }
      ],
      "Service options": [
        {
          "Kerbside pickup": true
        },
        {
          "Delivery": true
        },
        {
          "In-store pick-up": true
        },
        {
          "Same-day delivery": true
        }
      ],
      "Accessibility": [
        {
          "Wheelchair-accessible entrance": true
        }
      ],
      "Offerings": [
        {
          "Medication disposal": true
        }
      ],
      "Planning": [
        {
          "Appointment required": true
        },
        {
          "Quick visit": true
        }
      ],
      "Payments": [
        {
          "Credit cards": true
        },
        {
          "Debit cards": true
        },
        {
          "NFC mobile payments": true
        },
        {
          "Credit cards": true
        }
      ]
    },
    "gasPrices": [],
    "url": "https://www.google.com/maps/search/?api=1&query=Le%20Mac%20Pharmacy%20Inc&query_place_id=ChIJ33PEXfDywokR6Fw4bu9k5w4",
    "searchPageUrl": "https://www.google.com/maps/search/independent%20pharmacy%20Yonkers%20NY/@64.94267025847846,-167.73503139124153,13z?hl=en",
    "searchString": "independent pharmacy Yonkers NY",
    "language": "en",
    "rank": 15,
    "isAdvertisement": false,
    "imageUrl": "https://lh3.googleusercontent.com/gps-cs-s/AC9h4nqrTxDApMfV5_uCzPE5LatqWFznqqm4qAaNHJk_5b-VVMgnYllNzR5wzYG_GLDS0xMnoSZKhjMhUiXWyMdtvzYQnmFoBD5TSdv6ja6YmDUnfVbFVgZCyZyt6Qqaw2fcLSJKQnvE=w408-h725-k-no",
    "kgmid": "/g/1wz53m_l",
    "classification": "independent",
    "is_independent": true,
    "is_compounding": false,
    "confidence": 0.9,
    "source": "perplexity",
    "method": "llm"
  },
  {
    "title": "Robert Jacobson Pharmacy & Surgical Supplies",
    "price": null,
    "categoryName": "Pharmacy",
    "address": "231 Ashburton Ave, Yonkers, NY 10701, United States",
    "neighborhood": "Getty Square",
    "street": "231 Ashburton Ave",
    "city": "Yonkers",
    "postalCode": "10701",
    "state": "New York",
    "countryCode": "US",
    "website": "http://www.jacobsonspharmacy.com/",
    "phone": "+1 914-965-3049",
    "phoneUnformatted": "+19149653049",
    "claimThisBusiness": false,
    "location": {
      "lat": 40.9393962,
      "lng": -73.8866308
    },
    "totalScore": 4.7,
    "permanentlyClosed": false,
    "temporarilyClosed": false,
    "placeId": null,
    "categories": [
      "Pharmacy"
    ],
    "fid": "0x89c2ed7fce7819df:0xf060a7f6e6e7b376",
    "cid": "17321028845744665462",
    "reviewsCount": 127,
    "imagesCount": 6,
    "imageCategories": [],
    "scrapedAt": "2025-06-22T06:12:45.070Z",
    "googleFoodUrl": null,
    "hotelAds": [],
    "openingHours": [
      {
        "day": "Monday",
        "hours": "9\u202fAM to 7:30\u202fPM"
      },
      {
        "day": "Tuesday",
        "hours": "9\u202fAM to 7:30\u202fPM"
      },
      {
        "day": "Wednesday",
        "hours": "9\u202fAM to 7:30\u202fPM"
      },
      {
        "day": "Thursday",
        "hours": "9\u202fAM to 7:30\u202fPM"
      },
      {
        "day": "Friday",
        "hours": "9\u202fAM to 7:30\u202fPM"
      },
      {
        "day": "Saturday",
        "hours": "9\u202fAM to 5\u202fPM"
      },
      {
        "day": "Sunday",
        "hours": "Closed"
      }
    ],
    "additionalOpeningHours": {
      "Delivery": [
        {
          "day": "Monday",
          "hours": "10:30\u202fam\u20135\u202fpm"
        },
        {
          "day": "Tuesday",
          "hours": "10:30\u202fam\u20135\u202fpm"
        },
        {
          "day": "Wednesday",
          "hours": "10:30\u202fam\u20135\u202fpm"
        },
        {
          "day": "Thursday",
          "hours": "10:30\u202fam\u20135\u202fpm"
        },
        {
          "day": "Friday",
          "hours": "10:30\u202fam\u20135\u202fpm"
        },
        {
          "day": "Saturday",
          "hours": "9\u202fam\u20133\u202fpm"
        },
        {
          "day": "Sunday",
          "hours": "Closed"
        }
      ]
    },
    "peopleAlsoSearch": [],
    "placesTags": [],
    "reviewsTags": [],
    "additionalInfo": {
      "From the business": [
        {
          "Small Business": true
        }
      ],
      "Service options": [
        {
          "Delivery": true
        },
        {
          "In-store pick-up": true
        },
        {
          "In-store shopping": true
        },
        {
          "Same-day delivery": true
        },
        {
          "Arabic": true
        }
      ],
      "Accessibility": [
        {
          "Wheelchair-accessible car park": true
        },
        {
          "Wheelchair-accessible entrance": true
        }
      ],
      "Planning": [
        {
          "Quick visit": true
        }
      ],
      "Payments": [
        {
          "Credit cards": true
        },
        {
          "Debit cards": true
        },
        {
          "NFC mobile payments": true
        }
      ],
      "Parking": [
        {
          "On-site parking": true
        }
      ]
    },
    "gasPrices": [],
    "url": "https://www.google.com/maps/search/?api=1&query=Robert%20Jacobson%20Pharmacy%20%26%20Surgical%20Supplies&query_place_id=ChIJ3xl4zn_twokRdrPn5vanYPA",
    "searchPageUrl": "https://www.google.com/maps/search/independent%20pharmacy%20Yonkers%20NY/@64.94267025847846,-167.73503139124153,13z?hl=en",
    "searchString": "independent pharmacy Yonkers NY",
    "language": "en",
    "rank": 16,
    "isAdvertisement": false,
    "imageUrl": "https://lh3.googleusercontent.com/gps-cs-s/AC9h4np6VD6r9yji8DTyCfYbduUrHrf-f4Mg7K62ON_KvKcvBJVqqsSJTkUqT4JpLWDxebHWub1B6rl9NBDImZmPoibXl1OiOc-Gs6v--BiM_iplAXUg1-QYURoF4QyqX5bDXRfGzS7c=w408-h306-k-no",
    "kgmid": "/g/1tkp5xp6",
    "classification": "independent",
    "is_independent": true,
    "is_compounding": false,
    "confidence": 0.9,
    "source": "perplexity",
    "method": "llm"
  },
  {
    "title": "Family Wellness Pharmacy",
    "price": null,
    "categoryName": "Pharmacy",
    "address": "1086 N Broadway, Yonkers, NY 10701, United States",
    "neighborhood": "Northwest Yonkers",
    "street": "1086 N Broadway",
    "city": "Yonkers",
    "postalCode": "10701",
    "state": "New York",
    "countryCode": "US",
    "phone": "+1 914-476-8000",
    "phoneUnformatted": "+19144768000",
    "claimThisBusiness": false,
    "location": {
      "lat": 40.9720588,
      "lng": -73.882094
    },
    "totalScore": 4.7,
    "permanentlyClosed": false,
    "temporarilyClosed": false,
    "placeId": null,
    "categories": [
      "Pharmacy"
    ],
    "fid": "0x89c2ed040bfb19ed:0x58a30c9f9302cff1",
    "cid": "6386962576047263729",
    "reviewsCount": 30,
    "imagesCount": 3,
    "imageCategories": [],
    "scrapedAt": "2025-06-22T06:12:45.070Z",
    "googleFoodUrl": null,
    "hotelAds": [],
    "openingHours": [
      {
        "day": "Monday",
        "hours": "9\u202fAM to 6\u202fPM"
      },
      {
        "day": "Tuesday",
        "hours": "9\u202fAM to 6\u202fPM"
      },
      {
        "day": "Wednesday",
        "hours": "9\u202fAM to 6\u202fPM"
      },
      {
        "day": "Thursday",
        "hours": "9\u202fAM to 6\u202fPM"
      },
      {
        "day": "Friday",
        "hours": "9\u202fAM to 6\u202fPM"
      },
      {
        "day": "Saturday",
        "hours": "Closed"
      },
      {
        "day": "Sunday",
        "hours": "Closed"
      }
    ],
    "peopleAlsoSearch": [],
    "placesTags": [],
    "reviewsTags": [],
    "additionalInfo": {
      "From the business": [
        {
          "Small Business": true
        }
      ],
      "Service options": [
        {
          "Delivery": true
        },
        {
          "In-store pick-up": true
        },
        {
          "Same-day delivery": true
        }
      ],
      "Accessibility": [
        {
          "Wheelchair-accessible car park": true
        },
        {
          "Wheelchair-accessible entrance": true
        }
      ],
      "Amenities": [
        {
          "Wi-Fi": true
        },
        {
          "Free Wi-Fi": true
        }
      ],
      "Planning": [
        {
          "Quick visit": true
        }
      ],
      "Payments": [
        {
          "Cheques": true
        },
        {
          "Credit cards": true
        },
        {
          "Debit cards": true
        },
        {
          "NFC mobile payments": true
        },
        {
          "Credit cards": true
        }
      ],
      "Parking": [
        {
          "On-site parking": true
        }
      ]
    },
    "gasPrices": [],
    "url": "https://www.google.com/maps/search/?api=1&query=Family%20Wellness%20Pharmacy&query_place_id=ChIJ7Rn7CwTtwokR8c8Ck58Mo1g",
    "searchPageUrl": "https://www.google.com/maps/search/independent%20pharmacy%20Yonkers%20NY/@64.94267025847846,-167.73503139124153,13z?hl=en",
    "searchString": "independent pharmacy Yonkers NY",
    "language": "en",
    "rank": 17,
    "isAdvertisement": false,
    "imageUrl": "https://lh3.googleusercontent.com/p/AF1QipNlQVF0I9zbdtDQpbv2Di1APEBv61siG54AEQm0=w408-h272-k-no",
    "kgmid": "/g/11gbk4x9rr",
    "classification": "independent",
    "is_independent": true,
    "is_compounding": false,
    "confidence": 0.85,
    "source": "perplexity",
    "method": "llm"
  },
  {
    "title": "Prime Care Pharmacy Services, Inc.",
    "price": null,
    "categoryName": "Pharmacy",
    "address": "5 Odell Plaza # 141, Yonkers, NY 10701, United States",
    "neighborhood": "Northwest Yonkers",
    "street": "5 Odell Plaza # 141",
    "city": "Yonkers",
    "postalCode": "10701",
    "state": "New York",
    "countryCode": "US",
    "website": "http://www.primecareltcpharmacy.com/",
    "phone": "+1 914-375-4300",
    "phoneUnformatted": "+19143754300",
    "claimThisBusiness": true,
    "location": {
      "lat": 40.9682858,
      "lng": -73.8819541
    },
    "totalScore": 5,
    "permanentlyClosed": false,
    "temporarilyClosed": false,
    "placeId": null,
    "categories": [
      "Pharmacy"
    ],
    "fid": "0x89c2ed05adb60817:0x8db9ed15bf38d171",
    "cid": "10212454307697578353",
    "reviewsCount": 2,
    "imagesCount": 1,
    "imageCategories": [],
    "scrapedAt": "2025-06-22T06:12:45.070Z",
    "googleFoodUrl": null,
    "hotelAds": [],
    "openingHours": [],
    "peopleAlsoSearch": [],
    "placesTags": [],
    "reviewsTags": [],
    "additionalInfo": {
      "Parking": [
        {
          "On-site parking": true
        }
      ]
    },
    "gasPrices": [],
    "url": "https://www.google.com/maps/search/?api=1&query=Prime%20Care%20Pharmacy%20Services%2C%20Inc.&query_place_id=ChIJFwi2rQXtwokRcdE4vxXtuY0",
    "searchPageUrl": "https://www.google.com/maps/search/independent%20pharmacy%20Yonkers%20NY/@64.94267025847846,-167.73503139124153,13z?hl=en",
    "searchString": "independent pharmacy Yonkers NY",
    "language": "en",
    "rank": 18,
    "isAdvertisement": false,
    "imageUrl": "https://streetviewpixels-pa.googleapis.com/v1/thumbnail?panoid=V0eXL0rmVfXvQWVz_D1KYw&cb_client=search.gws-prod.gps&w=408&h=240&yaw=199.03227&pitch=0&thumbfov=100",
    "kgmid": "/g/1v9t_vcx",
    "classification": "independent",
    "is_independent": true,
    "is_compounding": false,
    "confidence": 0.85,
    "source": "perplexity",
    "method": "llm"
  },
  {
    "title": "Jani's Pharmacy",
    "price": null,
    "categoryName": "Pharmacy",
    "address": "455 S Broadway, Yonkers, NY 10705, United States",
    "neighborhood": "Ludlow",
    "street": "455 S Broadway",
    "city": "Yonkers",
    "postalCode": "10705",
    "state": "New York",
    "countryCode": "US",
    "phone": "+1 914-963-3565",
    "phoneUnformatted": "+19149633565",
    "claimThisBusiness": false,
    "location": {
      "lat": 40.9178665,
      "lng": -73.8968666
    },
    "totalScore": 4.3,
    "permanentlyClosed": false,
    "temporarilyClosed": false,
    "placeId": null,
    "categories": [
      "Pharmacy"
    ],
    "fid": "0x89c2f25c4c942ce9:0x3e69d0c6499ee9c3",
    "cid": "4497355252963404227",
    "reviewsCount": 15,
    "imagesCount": 16,
    "imageCategories": [],
    "scrapedAt": "2025-06-22T06:12:45.070Z",
    "googleFoodUrl": null,
    "hotelAds": [],
    "openingHours": [
      {
        "day": "Monday",
        "hours": "9:30\u202fAM to 6:30\u202fPM"
      },
      {
        "day": "Tuesday",
        "hours": "9:30\u202fAM to 6:30\u202fPM"
      },
      {
        "day": "Wednesday",
        "hours": "9:30\u202fAM to 6:30\u202fPM"
      },
      {
        "day": "Thursday",
        "hours": "9:30\u202fAM to 6:30\u202fPM"
      },
      {
        "day": "Friday",
        "hours": "9:30\u202fAM to 6:30\u202fPM"
      },
      {
        "day": "Saturday",
        "hours": "10\u202fAM to 4\u202fPM"
      },
      {
        "day": "Sunday",
        "hours": "Closed"
      }
    ],
    "peopleAlsoSearch": [],
    "placesTags": [],
    "reviewsTags": [],
    "additionalInfo": {
      "Service options": [
        {
          "In-store pick-up": true
        }
      ],
      "Planning": [
        {
          "Quick visit": true
        }
      ],
      "Payments": [
        {
          "Credit cards": true
        },
        {
          "Debit cards": true
        },
        {
          "NFC mobile payments": true
        },
        {
          "Credit cards": true
        }
      ]
    },
    "gasPrices": [],
    "url": "https://www.google.com/maps/search/?api=1&query=Jani's%20Pharmacy&query_place_id=ChIJ6SyUTFzywokRw-meScbQaT4",
    "searchPageUrl": "https://www.google.com/maps/search/independent%20pharmacy%20Yonkers%20NY/@64.94267025847846,-167.73503139124153,13z?hl=en",
    "searchString": "independent pharmacy Yonkers NY",
    "language": "en",
    "rank": 19,
    "isAdvertisement": false,
    "imageUrl": "https://lh3.googleusercontent.com/gps-cs-s/AC9h4noHwN15NaRX1xoblEyDX7fgQcx3vICX6rzRg09j3MpAt_GjbpXDdGvTD3jvWsq8u4F9dQkmKt43s_0BWU21sRMJTlbnBp_ijLOqdjODlwfToNFHGdPtkBeFshCi8jI6ygU0zZP_Tw=w408-h544-k-no",
    "kgmid": "/g/1tm2bl_x",
    "classification": "independent",
    "is_independent": true,
    "is_compounding": false,
    "confidence": 0.85,
    "source": "perplexity",
    "method": "llm"
  },
  {
    "title": "Sawmill Pharmacy",
    "price": null,
    "categoryName": "Pharmacy",
    "address": "321 Saw Mill River Rd, Yonkers, NY 10701, United States",
    "neighborhood": "Northwest Yonkers",
    "street": "321 Saw Mill River Rd",
    "city": "Yonkers",
    "postalCode": "10701",
    "state": "New York",
    "countryCode": "US",
    "phone": "+1 914-613-9374",
    "phoneUnformatted": "+19146139374",
    "claimThisBusiness": false,
    "location": {
      "lat": 40.9477395,
      "lng": -73.8768455
    },
    "totalScore": 4.6,
    "permanentlyClosed": false,
    "temporarilyClosed": false,
    "placeId": null,
    "categories": [
      "Pharmacy"
    ],
    "fid": "0x89c2ed39ac87131b:0xe7bd72ccc41ae909",
    "cid": "16698629217148659977",
    "reviewsCount": 11,
    "imagesCount": 2,
    "imageCategories": [],
    "scrapedAt": "2025-06-22T06:12:45.070Z",
    "googleFoodUrl": null,
    "hotelAds": [],
    "openingHours": [
      {
        "day": "Monday",
        "hours": "10:30\u202fAM to 7\u202fPM"
      },
      {
        "day": "Tuesday",
        "hours": "10:30\u202fAM to 7\u202fPM"
      },
      {
        "day": "Wednesday",
        "hours": "10:30\u202fAM to 7\u202fPM"
      },
      {
        "day": "Thursday",
        "hours": "10:30\u202fAM to 7\u202fPM"
      },
      {
        "day": "Friday",
        "hours": "10:30\u202fAM to 7\u202fPM"
      },
      {
        "day": "Saturday",
        "hours": "10:30\u202fAM to 4\u202fam"
      },
      {
        "day": "Sunday",
        "hours": "Closed"
      }
    ],
    "peopleAlsoSearch": [],
    "placesTags": [],
    "reviewsTags": [],
    "additionalInfo": {
      "From the business": [
        {
          "Small Business": true
        }
      ],
      "Service options": [
        {
          "Delivery": true
        },
        {
          "In-store pick-up": true
        },
        {
          "Same-day delivery": true
        }
      ],
      "Accessibility": [
        {
          "Wheelchair-accessible entrance": true
        }
      ],
      "Amenities": [
        {
          "Wi-Fi": true
        },
        {
          "Free Wi-Fi": true
        }
      ],
      "Crowd": [
        {
          "LGBTQ+ friendly": true
        }
      ],
      "Planning": [
        {
          "Quick visit": true
        }
      ],
      "Payments": [
        {
          "Credit cards": true
        },
        {
          "Debit cards": true
        },
        {
          "NFC mobile payments": true
        },
        {
          "Credit cards": true
        }
      ]
    },
    "gasPrices": [],
    "url": "https://www.google.com/maps/search/?api=1&query=Sawmill%20Pharmacy&query_place_id=ChIJGxOHrDntwokRCekaxMxyvec",
    "searchPageUrl": "https://www.google.com/maps/search/independent%20pharmacy%20Yonkers%20NY/@64.94267025847846,-167.73503139124153,13z?hl=en",
    "searchString": "independent pharmacy Yonkers NY",
    "language": "en",
    "rank": 20,
    "isAdvertisement": false,
    "imageUrl": "https://lh3.googleusercontent.com/gps-cs-s/AC9h4noAmz9bjLnbC_ZzB77hs2YiOd3gWP6YEpkBLNPN47CE4K54CGN3TGmnH5QsQrg7BPezLMClkAYD6_IUKCk-PloTvzpfPseLHywM5yANF2tIHqhiI2ejW_5mRDq6rcuiHr_ooLR3=w408-h306-k-no",
    "kgmid": "/g/11h8084_34",
    "classification": "independent",
    "is_independent": true,
    "is_compounding": false,
    "confidence": 0.85,
    "source": "perplexity",
    "method": "llm"
  }
]