[
  {
    "title": "RxSavers Pharmacy & Compounding",
    "price": null,
    "categoryName": "Pharmacy",
    "address": "515 Lancaster Ave, Reading, PA 19611",
    "neighborhood": null,
    "street": "515 Lancaster Ave",
    "city": "Reading",
    "postalCode": "19611",
    "state": "Pennsylvania",
    "countryCode": "US",
    "website": "https://www.rxsaverspharmacy.com/?utm_source=gmb&utm_medium=googlemap&utm_campaign=googlemap",
    "phone": "(484) 339-5277",
    "phoneUnformatted": "+14843395277",
    "claimThisBusiness": false,
    "location": {
      "lat": 40.3195738,
      "lng": -75.9364124
    },
    "totalScore": 5,
    "permanentlyClosed": false,
    "temporarilyClosed": false,
    "placeId": null,
    "categories": [
      "Pharmacy"
    ],
    "fid": "0x89c671b4f845439f:0xd91314aa22f21ec",
    "cid": "977616790734447084",
    "reviewsCount": 1,
    "imagesCount": 8,
    "imageCategories": [],
    "scrapedAt": "2025-06-22T06:36:41.426Z",
    "googleFoodUrl": null,
    "hotelAds": [],
    "openingHours": [
      {
        "day": "Monday",
        "hours": "9\u202fAM to 6\u202fPM"
      },
      {
        "day": "Tuesday",
        "hours": "9\u202fAM to 6\u202fPM"
      },
      {
        "day": "Wednesday",
        "hours": "9\u202fAM to 6\u202fPM"
      },
      {
        "day": "Thursday",
        "hours": "9\u202fAM to 6\u202fPM"
      },
      {
        "day": "Friday",
        "hours": "9\u202fAM to 6\u202fPM"
      },
      {
        "day": "Saturday",
        "hours": "9\u202fAM to 1\u202fPM"
      },
      {
        "day": "Sunday",
        "hours": "Closed"
      }
    ],
    "peopleAlsoSearch": [],
    "placesTags": [],
    "reviewsTags": [],
    "additionalInfo": {
      "From the business": [
        {
          "Small business": true
        }
      ],
      "Service options": [
        {
          "Delivery": true
        }
      ],
      "Planning": [
        {
          "Quick visit": true
        }
      ],
      "Payments": [
        {
          "Credit cards": true
        }
      ]
    },
    "gasPrices": [],
    "url": "https://www.google.com/maps/search/?api=1&query=RxSavers%20Pharmacy%20%26%20Compounding&query_place_id=ChIJn0NF-LRxxokR7CEvokoxkQ0",
    "searchPageUrl": "https://www.google.com/maps/search/independent%20pharmacy%20Reading%20PA/@61.56929586514925,-147.35651604297223,9z?hl=en",
    "searchString": "independent pharmacy Reading PA",
    "language": "en",
    "rank": 1,
    "isAdvertisement": false,
    "imageUrl": "https://lh3.googleusercontent.com/p/AF1QipO6O0u8lYAQLWbEzFo23Qieh4i17lGBN-zLwpXR=w408-h306-k-no",
    "kgmid": "/g/11v3gh5j5m",
    "classification": "independent",
    "is_independent": true,
    "is_compounding": true,
    "confidence": 0.9,
    "source": "perplexity",
    "method": "llm"
  },
  {
    "title": "READING COMMUNITY PHARMACY",
    "price": null,
    "categoryName": "Pharmacy",
    "address": "526 Penn St #2, Reading, PA 19602",
    "neighborhood": null,
    "street": "526 Penn St #2",
    "city": "Reading",
    "postalCode": "19602",
    "state": "Pennsylvania",
    "countryCode": "US",
    "website": "http://www.readingcommunitypharmacy.com/",
    "phone": "(610) 750-6761",
    "phoneUnformatted": "+16107506761",
    "claimThisBusiness": false,
    "location": {
      "lat": 40.3349476,
      "lng": -75.9266602
    },
    "totalScore": 4.7,
    "permanentlyClosed": false,
    "temporarilyClosed": false,
    "placeId": null,
    "categories": [
      "Pharmacy"
    ],
    "fid": "0x89c6710856bf26c7:0xdd31e4dc790cd4b9",
    "cid": "15938772191815718073",
    "reviewsCount": 12,
    "imagesCount": 3,
    "imageCategories": [],
    "scrapedAt": "2025-06-22T06:36:41.430Z",
    "googleFoodUrl": null,
    "hotelAds": [],
    "openingHours": [
      {
        "day": "Monday",
        "hours": "9\u202fAM to 5\u202fPM"
      },
      {
        "day": "Tuesday",
        "hours": "9\u202fAM to 5\u202fPM"
      },
      {
        "day": "Wednesday",
        "hours": "9\u202fAM to 5\u202fPM"
      },
      {
        "day": "Thursday",
        "hours": "9\u202fAM to 5\u202fPM"
      },
      {
        "day": "Friday",
        "hours": "9\u202fAM to 5\u202fPM"
      },
      {
        "day": "Saturday",
        "hours": "9\u202fAM to 2\u202fPM"
      },
      {
        "day": "Sunday",
        "hours": "Closed"
      }
    ],
    "peopleAlsoSearch": [],
    "placesTags": [],
    "reviewsTags": [],
    "additionalInfo": {
      "From the business": [
        {
          "Small business": true
        }
      ],
      "Service options": [
        {
          "Delivery": true
        }
      ],
      "Accessibility": [
        {
          "Wheelchair accessible entrance": true
        },
        {
          "Wheelchair accessible parking lot": true
        }
      ],
      "Planning": [
        {
          "Quick visit": true
        }
      ],
      "Payments": [
        {
          "Credit cards": true
        }
      ]
    },
    "gasPrices": [],
    "url": "https://www.google.com/maps/search/?api=1&query=READING%20COMMUNITY%20PHARMACY&query_place_id=ChIJxya_VghxxokRudQMedzkMd0",
    "searchPageUrl": "https://www.google.com/maps/search/independent%20pharmacy%20Reading%20PA/@61.56929586514925,-147.35651604297223,9z?hl=en",
    "searchString": "independent pharmacy Reading PA",
    "language": "en",
    "rank": 2,
    "isAdvertisement": false,
    "imageUrl": "https://lh3.googleusercontent.com/p/AF1QipOHveWtlTPs9PFm3AeLb8xTkoS9MDgIqb0CS8Ly=w408-h306-k-no",
    "kgmid": "/g/11j4h1z254",
    "classification": "independent",
    "is_independent": true,
    "is_compounding": false,
    "confidence": 0.9,
    "source": "perplexity",
    "method": "llm"
  },
  {
    "title": "Oakside Care Pharmacy",
    "price": null,
    "categoryName": "Pharmacy",
    "address": "440 Lehigh St, Reading, PA 19601",
    "neighborhood": null,
    "street": "440 Lehigh St",
    "city": "Reading",
    "postalCode": "19601",
    "state": "Pennsylvania",
    "countryCode": "US",
    "website": "https://www.oaksidecare.com/",
    "phone": "(484) 663-5760",
    "phoneUnformatted": "+14846635760",
    "claimThisBusiness": false,
    "location": {
      "lat": 40.3540931,
      "lng": -75.9482753
    },
    "totalScore": 4.8,
    "permanentlyClosed": false,
    "temporarilyClosed": false,
    "placeId": null,
    "categories": [
      "Pharmacy"
    ],
    "fid": "0x89c676d8c89a1b05:0x714d2a77ceb03ece",
    "cid": "8164228393549709006",
    "reviewsCount": 19,
    "imagesCount": 7,
    "imageCategories": [],
    "scrapedAt": "2025-06-22T06:36:41.430Z",
    "googleFoodUrl": null,
    "hotelAds": [],
    "openingHours": [
      {
        "day": "Monday",
        "hours": "9\u202fAM to 7\u202fPM"
      },
      {
        "day": "Tuesday",
        "hours": "9\u202fAM to 7\u202fPM"
      },
      {
        "day": "Wednesday",
        "hours": "9\u202fAM to 7\u202fPM"
      },
      {
        "day": "Thursday",
        "hours": "9\u202fAM to 7\u202fPM"
      },
      {
        "day": "Friday",
        "hours": "9\u202fAM to 7\u202fPM"
      },
      {
        "day": "Saturday",
        "hours": "9\u202fAM to 1\u202fPM"
      },
      {
        "day": "Sunday",
        "hours": "Closed"
      }
    ],
    "peopleAlsoSearch": [],
    "placesTags": [],
    "reviewsTags": [],
    "additionalInfo": {
      "From the business": [
        {
          "Small business": true
        }
      ],
      "Service options": [
        {
          "Delivery": true
        },
        {
          "In-store pickup": true
        },
        {
          "In-store shopping": true
        },
        {
          "Same-day delivery": true
        },
        {
          "English": true
        }
      ],
      "Accessibility": [
        {
          "Wheelchair accessible entrance": true
        },
        {
          "Wheelchair accessible parking lot": true
        }
      ],
      "Planning": [
        {
          "Quick visit": true
        }
      ],
      "Payments": [
        {
          "Credit cards": true
        },
        {
          "Debit cards": true
        },
        {
          "NFC mobile payments": true
        },
        {
          "Credit cards": true
        }
      ]
    },
    "gasPrices": [],
    "url": "https://www.google.com/maps/search/?api=1&query=Oakside%20Care%20Pharmacy&query_place_id=ChIJBRuayNh2xokRzj6wzncqTXE",
    "searchPageUrl": "https://www.google.com/maps/search/independent%20pharmacy%20Reading%20PA/@61.56929586514925,-147.35651604297223,9z?hl=en",
    "searchString": "independent pharmacy Reading PA",
    "language": "en",
    "rank": 3,
    "isAdvertisement": false,
    "imageUrl": "https://lh3.googleusercontent.com/p/AF1QipOMpEVd8unyIk6Bu5kkhfLgHEgdJNhLGaSs9FOJ=w408-h544-k-no",
    "kgmid": "/g/12hyj4dxh",
    "classification": "independent",
    "is_independent": true,
    "is_compounding": false,
    "confidence": 0.9,
    "source": "perplexity",
    "method": "llm"
  },
  {
    "title": "West Reading Drug Store",
    "price": null,
    "categoryName": "Pharmacy",
    "address": "538 Penn Ave, West Reading, PA 19611",
    "neighborhood": null,
    "street": "538 Penn Ave",
    "city": "West Reading",
    "postalCode": "19611",
    "state": "Pennsylvania",
    "countryCode": "US",
    "website": "http://westreadingdrug.com/",
    "phone": "(610) 375-4366",
    "phoneUnformatted": "+16103754366",
    "claimThisBusiness": false,
    "location": {
      "lat": 40.335637,
      "lng": -75.9490697
    },
    "totalScore": 4.7,
    "permanentlyClosed": false,
    "temporarilyClosed": false,
    "placeId": "ChIJ7-9xMypxxokR3XOV8wpiuZE",
    "categories": [
      "Pharmacy",
      "Gift shop"
    ],
    "fid": "0x89c6712a3371efef:0x91b9620af39573dd",
    "cid": "10500531805366875101",
    "reviewsCount": 46,
    "imagesCount": 5,
    "imageCategories": [],
    "scrapedAt": "2025-06-22T06:36:41.430Z",
    "googleFoodUrl": null,
    "hotelAds": [],
    "openingHours": [
      {
        "day": "Monday",
        "hours": "8\u202fAM to 7\u202fPM"
      },
      {
        "day": "Tuesday",
        "hours": "8\u202fAM to 7\u202fPM"
      },
      {
        "day": "Wednesday",
        "hours": "8\u202fAM to 7\u202fPM"
      },
      {
        "day": "Thursday",
        "hours": "8\u202fAM to 7\u202fPM"
      },
      {
        "day": "Friday",
        "hours": "8\u202fAM to 7\u202fPM"
      },
      {
        "day": "Saturday",
        "hours": "9\u202fAM to 2\u202fPM"
      },
      {
        "day": "Sunday",
        "hours": "9\u202fAM to 1\u202fPM"
      }
    ],
    "peopleAlsoSearch": [],
    "placesTags": [],
    "reviewsTags": [],
    "additionalInfo": {
      "From the business": [
        {
          "Small business": true
        }
      ],
      "Service options": [
        {
          "Delivery": true
        },
        {
          "In-store pickup": true
        },
        {
          "In-store shopping": true
        },
        {
          "Onsite services": true
        },
        {
          "Same-day delivery": true
        }
      ],
      "Accessibility": [
        {
          "Wheelchair accessible entrance": true
        },
        {
          "Wheelchair accessible parking lot": true
        }
      ],
      "Planning": [
        {
          "Quick visit": true
        }
      ],
      "Payments": [
        {
          "Credit cards": true
        },
        {
          "Debit cards": true
        },
        {
          "NFC mobile payments": true
        },
        {
          "Credit cards": true
        }
      ]
    },
    "gasPrices": [],
    "url": "https://www.google.com/maps/search/?api=1&query=West%20Reading%20Drug%20Store&query_place_id=ChIJ7-9xMypxxokR3XOV8wpiuZE",
    "searchPageUrl": "https://www.google.com/maps/search/independent%20pharmacy%20Reading%20PA/@61.56929586514925,-147.35651604297223,9z?hl=en",
    "searchString": "independent pharmacy Reading PA",
    "language": "en",
    "rank": 4,
    "isAdvertisement": false,
    "imageUrl": "https://lh3.googleusercontent.com/gps-cs-s/AC9h4nq1b7o3MhBhKURjE6OMng0pq2uwOWjcGFxPFt4zei3ANvec4u_R8jSCb2Ujf3mzLfQHwte5UrV1pjBJW4gtXH7zXTzCfaLpEcaGQzaqZbvx7YMsbk_x3W-fKp7Asa8jQsBJ6QLR=w408-h544-k-no",
    "kgmid": "/g/1vm7cdqn",
    "classification": "hospital",
    "is_independent": false,
    "confidence": 1.0,
    "source": "rule-based"
  },
  {
    "title": "Temple Community Pharmacy",
    "price": null,
    "categoryName": "Pharmacy",
    "address": "3535 N 5th Street Hwy, Reading, PA 19605",
    "neighborhood": null,
    "street": "3535 N 5th Street Hwy",
    "city": "Reading",
    "postalCode": "19605",
    "state": "Pennsylvania",
    "countryCode": "US",
    "website": "http://www.pharmacytemple.com/",
    "phone": "(484) 317-1600",
    "phoneUnformatted": "+14843171600",
    "claimThisBusiness": false,
    "location": {
      "lat": 40.3888353,
      "lng": -75.9271323
    },
    "totalScore": 4.7,
    "permanentlyClosed": false,
    "temporarilyClosed": false,
    "placeId": null,
    "categories": [
      "Pharmacy",
      "Medical equipment supplier",
      "Medical supply store"
    ],
    "fid": "0x89c67715f4d941f3:0x5e25e90fd21044fe",
    "cid": "6784084667861583102",
    "reviewsCount": 51,
    "imagesCount": 8,
    "imageCategories": [],
    "scrapedAt": "2025-06-22T06:36:41.430Z",
    "googleFoodUrl": null,
    "hotelAds": [],
    "openingHours": [
      {
        "day": "Monday",
        "hours": "9\u202fAM to 7\u202fPM"
      },
      {
        "day": "Tuesday",
        "hours": "9\u202fAM to 7\u202fPM"
      },
      {
        "day": "Wednesday",
        "hours": "9\u202fAM to 7\u202fPM"
      },
      {
        "day": "Thursday",
        "hours": "9\u202fAM to 7\u202fPM"
      },
      {
        "day": "Friday",
        "hours": "9\u202fAM to 7\u202fPM"
      },
      {
        "day": "Saturday",
        "hours": "9\u202fAM to 5\u202fPM"
      },
      {
        "day": "Sunday",
        "hours": "Closed"
      }
    ],
    "peopleAlsoSearch": [],
    "placesTags": [],
    "reviewsTags": [],
    "additionalInfo": {
      "From the business": [
        {
          "Small business": true
        }
      ],
      "Service options": [
        {
          "Delivery": true
        },
        {
          "Onsite services": true
        }
      ],
      "Accessibility": [
        {
          "Wheelchair accessible entrance": true
        },
        {
          "Wheelchair accessible parking lot": true
        }
      ],
      "Amenities": [
        {
          "Wi-Fi": true
        },
        {
          "Free Wi-Fi": true
        }
      ],
      "Planning": [
        {
          "Quick visit": true
        }
      ],
      "Payments": [
        {
          "Credit cards": true
        },
        {
          "Debit cards": true
        },
        {
          "NFC mobile payments": true
        },
        {
          "Credit cards": true
        }
      ]
    },
    "gasPrices": [],
    "url": "https://www.google.com/maps/search/?api=1&query=Temple%20Community%20Pharmacy&query_place_id=ChIJ80HZ9BV3xokR_kQQ0g_pJV4",
    "searchPageUrl": "https://www.google.com/maps/search/independent%20pharmacy%20Reading%20PA/@61.56929586514925,-147.35651604297223,9z?hl=en",
    "searchString": "independent pharmacy Reading PA",
    "language": "en",
    "rank": 5,
    "isAdvertisement": false,
    "imageUrl": "https://lh3.googleusercontent.com/p/AF1QipO7CCbT3hydkIQANaVm1if93x0SwDV6ogI04PMP=w408-h306-k-no",
    "kgmid": "/g/11qmqg6g4h",
    "classification": "independent",
    "is_independent": true,
    "is_compounding": false,
    "confidence": 0.9,
    "source": "perplexity",
    "method": "llm"
  },
  {
    "title": "VCare Discount Pharmacy",
    "price": null,
    "categoryName": "Pharmacy",
    "address": "108 S 5th St, Reading, PA 19602",
    "neighborhood": null,
    "street": "108 S 5th St",
    "city": "Reading",
    "postalCode": "19602",
    "state": "Pennsylvania",
    "countryCode": "US",
    "website": "http://healthmart.com/",
    "phone": "(610) 374-0911",
    "phoneUnformatted": "+16103740911",
    "claimThisBusiness": false,
    "location": {
      "lat": 40.3332174,
      "lng": -75.9281714
    },
    "totalScore": 4.9,
    "permanentlyClosed": false,
    "temporarilyClosed": false,
    "placeId": null,
    "categories": [
      "Pharmacy"
    ],
    "fid": "0x89c670cbf28ce30d:0x79e4d27afcb00bfb",
    "cid": "8783376598946548731",
    "reviewsCount": 21,
    "imagesCount": 2,
    "imageCategories": [],
    "scrapedAt": "2025-06-22T06:36:41.431Z",
    "googleFoodUrl": null,
    "hotelAds": [],
    "openingHours": [
      {
        "day": "Monday",
        "hours": "9\u202fAM to 5:30\u202fPM"
      },
      {
        "day": "Tuesday",
        "hours": "9\u202fAM to 5:30\u202fPM"
      },
      {
        "day": "Wednesday",
        "hours": "9\u202fAM to 5:30\u202fPM"
      },
      {
        "day": "Thursday",
        "hours": "9\u202fAM to 5:30\u202fPM"
      },
      {
        "day": "Friday",
        "hours": "9\u202fAM to 5:30\u202fPM"
      },
      {
        "day": "Saturday",
        "hours": "9\u202fAM to 1\u202fPM"
      },
      {
        "day": "Sunday",
        "hours": "Closed"
      }
    ],
    "peopleAlsoSearch": [],
    "placesTags": [],
    "reviewsTags": [],
    "additionalInfo": {
      "Service options": [
        {
          "Delivery": true
        },
        {
          "Same-day delivery": true
        },
        {
          "English": true
        }
      ],
      "Accessibility": [
        {
          "Wheelchair accessible entrance": true
        },
        {
          "Wheelchair accessible parking lot": true
        }
      ],
      "Crowd": [
        {
          "LGBTQ+ friendly": true
        },
        {
          "Transgender safespace": true
        }
      ],
      "Planning": [
        {
          "Quick visit": true
        }
      ],
      "Payments": [
        {
          "Checks": true
        },
        {
          "Credit cards": true
        },
        {
          "Debit cards": true
        },
        {
          "NFC mobile payments": true
        },
        {
          "Credit cards": true
        }
      ]
    },
    "gasPrices": [],
    "url": "https://www.google.com/maps/search/?api=1&query=VCare%20Discount%20Pharmacy&query_place_id=ChIJDeOM8stwxokR-wuw_HrS5Hk",
    "searchPageUrl": "https://www.google.com/maps/search/independent%20pharmacy%20Reading%20PA/@61.56929586514925,-147.35651604297223,9z?hl=en",
    "searchString": "independent pharmacy Reading PA",
    "language": "en",
    "rank": 6,
    "isAdvertisement": false,
    "imageUrl": "https://lh3.googleusercontent.com/p/AF1QipNFMjDzqZIPZHo1bhfLdWTAWAC9sPDAtKi0mj9-=w408-h408-k-no",
    "kgmid": "/g/11cn2mjy4f",
    "classification": "independent",
    "is_independent": true,
    "is_compounding": false,
    "confidence": 0.85,
    "source": "perplexity",
    "method": "llm"
  },
  {
    "title": "Penn Pharmacy",
    "price": null,
    "categoryName": "Pharmacy",
    "address": "900 Penn St, Reading, PA 19602",
    "neighborhood": null,
    "street": "900 Penn St",
    "city": "Reading",
    "postalCode": "19602",
    "state": "Pennsylvania",
    "countryCode": "US",
    "phone": "(610) 374-1444",
    "phoneUnformatted": "+16103741444",
    "claimThisBusiness": false,
    "location": {
      "lat": 40.3349278,
      "lng": -75.9199561
    },
    "totalScore": 4.1,
    "permanentlyClosed": false,
    "temporarilyClosed": false,
    "placeId": null,
    "categories": [
      "Pharmacy"
    ],
    "fid": "0x89c670b4df3b6cb9:0x2d7c2557440bfab5",
    "cid": "3277535685552896693",
    "reviewsCount": 30,
    "imagesCount": 14,
    "imageCategories": [],
    "scrapedAt": "2025-06-22T06:36:41.431Z",
    "googleFoodUrl": null,
    "hotelAds": [],
    "openingHours": [
      {
        "day": "Monday",
        "hours": "9\u202fAM to 6\u202fPM"
      },
      {
        "day": "Tuesday",
        "hours": "9\u202fAM to 6\u202fPM"
      },
      {
        "day": "Wednesday",
        "hours": "9\u202fAM to 6\u202fPM"
      },
      {
        "day": "Thursday",
        "hours": "9\u202fAM to 6\u202fPM"
      },
      {
        "day": "Friday",
        "hours": "9\u202fAM to 6\u202fPM"
      },
      {
        "day": "Saturday",
        "hours": "9\u202fAM to 2\u202fPM"
      },
      {
        "day": "Sunday",
        "hours": "Closed"
      }
    ],
    "peopleAlsoSearch": [],
    "placesTags": [],
    "reviewsTags": [],
    "additionalInfo": {
      "From the business": [
        {
          "Small business": true
        }
      ],
      "Service options": [
        {
          "Delivery": true
        },
        {
          "In-store pickup": true
        }
      ],
      "Accessibility": [
        {
          "Wheelchair accessible entrance": true
        },
        {
          "Wheelchair accessible parking lot": true
        }
      ]
    },
    "gasPrices": [],
    "url": "https://www.google.com/maps/search/?api=1&query=Penn%20Pharmacy&query_place_id=ChIJuWw737RwxokRtfoLRFclfC0",
    "searchPageUrl": "https://www.google.com/maps/search/independent%20pharmacy%20Reading%20PA/@61.56929586514925,-147.35651604297223,9z?hl=en",
    "searchString": "independent pharmacy Reading PA",
    "language": "en",
    "rank": 7,
    "isAdvertisement": false,
    "imageUrl": "https://lh3.googleusercontent.com/p/AF1QipMBs8HbX7K45E8TID25qKwkRW2WSvdQW3xkPvUj=w408-h544-k-no",
    "kgmid": "/g/1thpxslb",
    "classification": "independent",
    "is_independent": true,
    "is_compounding": false,
    "confidence": 0.85,
    "source": "perplexity",
    "method": "llm"
  },
  {
    "title": "Patient Care Pharmacy",
    "price": null,
    "categoryName": "Pharmacy",
    "address": "100 N 5th St, Reading, PA 19601",
    "neighborhood": null,
    "street": "100 N 5th St",
    "city": "Reading",
    "postalCode": "19601",
    "state": "Pennsylvania",
    "countryCode": "US",
    "phone": "(610) 750-7800",
    "phoneUnformatted": "+16107507800",
    "claimThisBusiness": true,
    "location": {
      "lat": 40.3372774,
      "lng": -75.9280018
    },
    "totalScore": 4.7,
    "permanentlyClosed": false,
    "temporarilyClosed": false,
    "placeId": null,
    "categories": [
      "Pharmacy"
    ],
    "fid": "0x89c670cb4d3867cd:0xf9f255f122863380",
    "cid": "18010552353962734464",
    "reviewsCount": 12,
    "imagesCount": 3,
    "imageCategories": [],
    "scrapedAt": "2025-06-22T06:36:41.431Z",
    "googleFoodUrl": null,
    "hotelAds": [],
    "openingHours": [
      {
        "day": "Monday",
        "hours": "9\u202fAM to 6\u202fPM"
      },
      {
        "day": "Tuesday",
        "hours": "9\u202fAM to 6\u202fPM"
      },
      {
        "day": "Wednesday",
        "hours": "9\u202fAM to 6\u202fPM"
      },
      {
        "day": "Thursday",
        "hours": "9\u202fAM to 6\u202fPM"
      },
      {
        "day": "Friday",
        "hours": "9\u202fAM to 6\u202fPM"
      },
      {
        "day": "Saturday",
        "hours": "9\u202fAM to 2\u202fPM"
      },
      {
        "day": "Sunday",
        "hours": "Closed"
      }
    ],
    "peopleAlsoSearch": [],
    "placesTags": [],
    "reviewsTags": [],
    "additionalInfo": {
      "Service options": [
        {
          "Delivery": true
        },
        {
          "Same-day delivery": true
        }
      ],
      "Accessibility": [
        {
          "Wheelchair accessible parking lot": true
        }
      ],
      "Payments": [
        {
          "Credit cards": true
        }
      ]
    },
    "gasPrices": [],
    "url": "https://www.google.com/maps/search/?api=1&query=Patient%20Care%20Pharmacy&query_place_id=ChIJzWc4TctwxokRgDOGIvFV8vk",
    "searchPageUrl": "https://www.google.com/maps/search/independent%20pharmacy%20Reading%20PA/@61.56929586514925,-147.35651604297223,9z?hl=en",
    "searchString": "independent pharmacy Reading PA",
    "language": "en",
    "rank": 8,
    "isAdvertisement": false,
    "imageUrl": "https://lh3.googleusercontent.com/gps-cs-s/AC9h4noYAZdKDyOhn6L5oj-nbe_HyD2wjoMRmcY6iscCvLS9UQIhWvamA62bEI9ewxhO1-yrcN-AFhWrxV-lrhS8PMoXv5RUwWZuqksj0b_IqBW7M-e7cHCRM2b-YH8DKNBb_oTs0X3V=w408-h306-k-no",
    "kgmid": "/g/11b6tc_bc9",
    "classification": "independent",
    "is_independent": true,
    "is_compounding": false,
    "confidence": 0.85,
    "source": "perplexity",
    "method": "llm"
  },
  {
    "title": "Community Pharmacy",
    "price": null,
    "categoryName": "Pharmacy",
    "address": "145 N 6th St #107, Reading, PA 19601",
    "neighborhood": null,
    "street": "145 N 6th St #107",
    "city": "Reading",
    "postalCode": "19601",
    "state": "Pennsylvania",
    "countryCode": "US",
    "phone": "(610) 208-4660",
    "phoneUnformatted": "+16102084660",
    "claimThisBusiness": true,
    "location": {
      "lat": 40.3381692,
      "lng": -75.9254179
    },
    "totalScore": 3.4,
    "permanentlyClosed": false,
    "temporarilyClosed": false,
    "placeId": null,
    "categories": [
      "Pharmacy"
    ],
    "fid": "0x89c6773526d8bca7:0xd4f2ee3aa7472967",
    "cid": "15344588816086673767",
    "reviewsCount": 8,
    "imagesCount": 1,
    "imageCategories": [],
    "scrapedAt": "2025-06-22T06:36:41.431Z",
    "googleFoodUrl": null,
    "hotelAds": [],
    "openingHours": [
      {
        "day": "Monday",
        "hours": "8\u202fAM to 4:30\u202fPM"
      },
      {
        "day": "Tuesday",
        "hours": "8\u202fAM to 4:30\u202fPM"
      },
      {
        "day": "Wednesday",
        "hours": "8\u202fAM to 4:30\u202fPM"
      },
      {
        "day": "Thursday",
        "hours": "8\u202fAM to 4:30\u202fPM"
      },
      {
        "day": "Friday",
        "hours": "8\u202fAM to 4:30\u202fPM"
      },
      {
        "day": "Saturday",
        "hours": "Closed"
      },
      {
        "day": "Sunday",
        "hours": "Closed"
      }
    ],
    "peopleAlsoSearch": [],
    "placesTags": [],
    "reviewsTags": [],
    "additionalInfo": {
      "Payments": [
        {
          "Credit cards": true
        }
      ]
    },
    "gasPrices": [],
    "url": "https://www.google.com/maps/search/?api=1&query=Community%20Pharmacy&query_place_id=ChIJp7zYJjV3xokRZylHpzru8tQ",
    "searchPageUrl": "https://www.google.com/maps/search/independent%20pharmacy%20Reading%20PA/@61.56929586514925,-147.35651604297223,9z?hl=en",
    "searchString": "independent pharmacy Reading PA",
    "language": "en",
    "rank": 9,
    "isAdvertisement": false,
    "imageUrl": "https://streetviewpixels-pa.googleapis.com/v1/thumbnail?panoid=gqYbmXDkw3ZzTvTUe6K-aQ&cb_client=search.gws-prod.gps&w=408&h=240&yaw=186.4624&pitch=0&thumbfov=100",
    "kgmid": "/g/1tsjfllv",
    "classification": "independent",
    "is_independent": true,
    "is_compounding": false,
    "confidence": 0.85,
    "source": "perplexity",
    "method": "llm"
  },
  {
    "title": "Vista pharmacy",
    "price": null,
    "categoryName": "Pharmacy",
    "address": "938 N 8th St, Reading, PA 19604, United States",
    "neighborhood": null,
    "street": "938 N 8th St",
    "city": "Reading",
    "postalCode": "19604",
    "state": "Pennsylvania",
    "countryCode": "US",
    "phone": "+1 610-927-6566",
    "phoneUnformatted": "+16109276566",
    "claimThisBusiness": false,
    "location": {
      "lat": 40.3499156,
      "lng": -75.920625
    },
    "totalScore": 5,
    "permanentlyClosed": false,
    "temporarilyClosed": false,
    "placeId": null,
    "categories": [
      "Pharmacy"
    ],
    "fid": "0x89c67763b4cbf8db:0x521265dc7071d8a0",
    "cid": "5913901258144602272",
    "reviewsCount": 34,
    "imagesCount": 17,
    "imageCategories": [],
    "scrapedAt": "2025-06-22T06:36:51.336Z",
    "googleFoodUrl": null,
    "hotelAds": [],
    "openingHours": [
      {
        "day": "Monday",
        "hours": "8:30\u202fAM to 5:30\u202fPM"
      },
      {
        "day": "Tuesday",
        "hours": "8:30\u202fAM to 5:30\u202fPM"
      },
      {
        "day": "Wednesday",
        "hours": "8:30\u202fAM to 5:30\u202fPM"
      },
      {
        "day": "Thursday",
        "hours": "8:30\u202fAM to 5:30\u202fPM"
      },
      {
        "day": "Friday",
        "hours": "8:30\u202fAM to 5:30\u202fPM"
      },
      {
        "day": "Saturday",
        "hours": "8:30\u202fAM to 1:30\u202fPM"
      },
      {
        "day": "Sunday",
        "hours": "Closed"
      }
    ],
    "additionalOpeningHours": {
      "Delivery": [
        {
          "day": "Monday",
          "hours": "9\u202fam\u20135\u202fpm"
        },
        {
          "day": "Tuesday",
          "hours": "9\u202fam\u20135\u202fpm"
        },
        {
          "day": "Wednesday",
          "hours": "9\u202fam\u20135\u202fpm"
        },
        {
          "day": "Thursday",
          "hours": "9\u202fam\u20135\u202fpm"
        },
        {
          "day": "Friday",
          "hours": "9\u202fam\u20135\u202fpm"
        },
        {
          "day": "Saturday",
          "hours": "Closed"
        },
        {
          "day": "Sunday",
          "hours": "Closed"
        }
      ],
      "Pickup": [
        {
          "day": "Monday",
          "hours": "8:30\u202fam\u20135:30\u202fpm"
        },
        {
          "day": "Tuesday",
          "hours": "8:30\u202fam\u20135:30\u202fpm"
        },
        {
          "day": "Wednesday",
          "hours": "8:30\u202fam\u20135:30\u202fpm"
        },
        {
          "day": "Thursday",
          "hours": "8:30\u202fam\u20135:30\u202fpm"
        },
        {
          "day": "Friday",
          "hours": "8:30\u202fam\u20135:30\u202fpm"
        },
        {
          "day": "Saturday",
          "hours": "8:30\u202fam\u20131:30\u202fpm"
        },
        {
          "day": "Sunday",
          "hours": "Closed"
        }
      ]
    },
    "peopleAlsoSearch": [],
    "placesTags": [],
    "reviewsTags": [],
    "additionalInfo": {
      "From the business": [
        {
          "Small Business": true
        }
      ],
      "Service options": [
        {
          "Delivery": true
        }
      ],
      "Accessibility": [
        {
          "Wheelchair-accessible car park": true
        },
        {
          "Wheelchair-accessible entrance": true
        }
      ],
      "Planning": [
        {
          "Quick visit": true
        }
      ],
      "Payments": [
        {
          "Credit cards": true
        },
        {
          "Debit cards": true
        },
        {
          "NFC mobile payments": true
        },
        {
          "Credit cards": true
        }
      ]
    },
    "gasPrices": [],
    "url": "https://www.google.com/maps/search/?api=1&query=Vista%20pharmacy&query_place_id=ChIJ2_jLtGN3xokRoNhxcNxlElI",
    "searchPageUrl": "https://www.google.com/maps/search/independent%20pharmacy%20Reading%20PA/@-14.568549527189342,-170.69640815,12z?hl=en",
    "searchString": "independent pharmacy Reading PA",
    "language": "en",
    "rank": 7,
    "isAdvertisement": false,
    "imageUrl": "https://lh3.googleusercontent.com/p/AF1QipNpmP2UL-datZ2R_l38_OUFX_2cdnAuV-0vbys=w408-h306-k-no",
    "kgmid": "/g/11fsnjlv74",
    "classification": "independent",
    "is_independent": true,
    "is_compounding": false,
    "confidence": 0.85,
    "source": "perplexity",
    "method": "llm"
  },
  {
    "title": "BERKS DISCOUNT PHARMACY",
    "price": null,
    "categoryName": "Pharmacy",
    "address": "500 Penn St STE B, Reading, PA 19602",
    "neighborhood": null,
    "street": "500 Penn St STE B",
    "city": "Reading",
    "postalCode": "19602",
    "state": "Pennsylvania",
    "countryCode": "US",
    "website": "http://berksdiscountrx.com/",
    "phone": "(610) 373-1800",
    "phoneUnformatted": "+16103731800",
    "claimThisBusiness": false,
    "location": {
      "lat": 40.334992,
      "lng": -75.9276252
    },
    "totalScore": 4.5,
    "permanentlyClosed": false,
    "temporarilyClosed": false,
    "placeId": null,
    "categories": [
      "Pharmacy",
      "Drug store"
    ],
    "fid": "0x89c670cb745805cd:0x34db368711aa65fb",
    "cid": "3808697863616751099",
    "reviewsCount": 30,
    "imagesCount": 1,
    "imageCategories": [],
    "scrapedAt": "2025-06-22T06:36:51.705Z",
    "googleFoodUrl": null,
    "hotelAds": [],
    "openingHours": [
      {
        "day": "Monday",
        "hours": "8:30\u202fAM to 5:30\u202fPM"
      },
      {
        "day": "Tuesday",
        "hours": "8:30\u202fAM to 5:30\u202fPM"
      },
      {
        "day": "Wednesday",
        "hours": "8:30\u202fAM to 5:30\u202fPM"
      },
      {
        "day": "Thursday",
        "hours": "8:30\u202fAM to 5:30\u202fPM"
      },
      {
        "day": "Friday",
        "hours": "8:30\u202fAM to 5:30\u202fPM"
      },
      {
        "day": "Saturday",
        "hours": "9\u202fAM to 2\u202fPM"
      },
      {
        "day": "Sunday",
        "hours": "Closed"
      }
    ],
    "peopleAlsoSearch": [],
    "placesTags": [],
    "reviewsTags": [],
    "additionalInfo": {
      "From the business": [
        {
          "Small business": true
        }
      ],
      "Service options": [
        {
          "Delivery": true
        },
        {
          "Spanish": true
        }
      ],
      "Accessibility": [
        {
          "Wheelchair accessible entrance": true
        }
      ],
      "Planning": [
        {
          "Quick visit": true
        }
      ],
      "Payments": [
        {
          "Credit cards": true
        },
        {
          "Debit cards": true
        },
        {
          "NFC mobile payments": true
        },
        {
          "Credit cards": true
        }
      ]
    },
    "gasPrices": [],
    "url": "https://www.google.com/maps/search/?api=1&query=BERKS%20DISCOUNT%20PHARMACY&query_place_id=ChIJzQVYdMtwxokR-2WqEYc22zQ",
    "searchPageUrl": "https://www.google.com/maps/search/independent%20pharmacy%20Reading%20PA/@69.9064287015676,-142.75332010026844,9z?hl=en",
    "searchString": "independent pharmacy Reading PA",
    "language": "en",
    "rank": 9,
    "isAdvertisement": false,
    "imageUrl": "https://streetviewpixels-pa.googleapis.com/v1/thumbnail?panoid=g8PeunnMBQDsTIdg3W4O1Q&cb_client=search.gws-prod.gps&w=408&h=240&yaw=188.76321&pitch=0&thumbfov=100",
    "kgmid": "/g/11b6ljkyhw",
    "classification": "independent",
    "is_independent": true,
    "is_compounding": false,
    "confidence": 0.9,
    "source": "perplexity",
    "method": "llm"
  },
  {
    "title": "CVS Pharmacy",
    "price": null,
    "categoryName": "Pharmacy",
    "address": "544 Penn St, Reading, PA 19602, United States",
    "neighborhood": null,
    "street": "544 Penn St",
    "city": "Reading",
    "postalCode": "19602",
    "state": "Pennsylvania",
    "countryCode": "US",
    "website": "https://www.cvs.com/store-locator/reading-pa-pharmacies/544-penn-st-reading-pa-19602/storeid=4064?WT.mc_id=LS_GOOGLE_RX_4064",
    "phone": "+1 610-376-3438",
    "phoneUnformatted": "+16103763438",
    "claimThisBusiness": false,
    "location": {
      "lat": 40.3347797,
      "lng": -75.9260931
    },
    "totalScore": 4.3,
    "permanentlyClosed": false,
    "temporarilyClosed": false,
    "placeId": "ChIJ0fsrAstwxokRj2fr-bGX8mw",
    "categories": [
      "Pharmacy"
    ],
    "fid": "0x89c670cb022bfbd1:0x6cf297b1f9eb678f",
    "cid": "7850503891118155663",
    "reviewsCount": 7,
    "imagesCount": 5,
    "imageCategories": [],
    "scrapedAt": "2025-06-22T06:36:55.760Z",
    "googleFoodUrl": null,
    "hotelAds": [],
    "openingHours": [
      {
        "day": "Monday",
        "hours": "9\u202fAM to 1:30\u202fPM, 2 to 5\u202fPM"
      },
      {
        "day": "Tuesday",
        "hours": "9\u202fAM to 1:30\u202fPM, 2 to 5\u202fPM"
      },
      {
        "day": "Wednesday",
        "hours": "9\u202fAM to 1:30\u202fPM, 2 to 5\u202fPM"
      },
      {
        "day": "Thursday",
        "hours": "9\u202fAM to 1:30\u202fPM, 2 to 5\u202fPM"
      },
      {
        "day": "Friday",
        "hours": "9\u202fAM to 1:30\u202fPM, 2 to 5\u202fPM"
      },
      {
        "day": "Saturday",
        "hours": "9\u202fAM to 1:30\u202fPM, 2 to 5\u202fPM"
      },
      {
        "day": "Sunday",
        "hours": "10\u202fAM to 2\u202fPM"
      }
    ],
    "peopleAlsoSearch": [],
    "placesTags": [],
    "reviewsTags": [],
    "additionalInfo": {
      "Service options": [
        {
          "Delivery": true
        },
        {
          "In-store pick-up": true
        },
        {
          "In-store shopping": true
        },
        {
          "On-site services": true
        }
      ],
      "Accessibility": [
        {
          "Wheelchair-accessible car park": true
        },
        {
          "Wheelchair-accessible entrance": true
        }
      ],
      "Offerings": [
        {
          "Naloxone": true
        }
      ],
      "Crowd": [
        {
          "LGBTQ+ friendly": true
        },
        {
          "Transgender safe space": true
        }
      ],
      "Planning": [
        {
          "Quick visit": true
        }
      ],
      "Payments": [
        {
          "Credit cards": true
        },
        {
          "Debit cards": true
        },
        {
          "NFC mobile payments": true
        },
        {
          "SNAP/EBT": true
        },
        {
          "Credit cards": true
        }
      ]
    },
    "gasPrices": [],
    "url": "https://www.google.com/maps/search/?api=1&query=CVS%20Pharmacy&query_place_id=ChIJ0fsrAstwxokRj2fr-bGX8mw",
    "searchPageUrl": "https://www.google.com/maps/search/independent%20pharmacy%20Reading%20PA/@-14.035020572810657,-170.97204273438993,12z?hl=en",
    "searchString": "independent pharmacy Reading PA",
    "language": "en",
    "rank": 12,
    "isAdvertisement": false,
    "imageUrl": "https://lh3.googleusercontent.com/p/AF1QipNOBjX3zi-WOwIjgZmCBFYMHp5Q0Q7ZQYesTwU3=w408-h272-k-no",
    "kgmid": "/g/11c469690y",
    "classification": "chain",
    "is_independent": false,
    "confidence": 1.0,
    "source": "rule-based"
  },
  {
    "title": "Waikiki Health",
    "price": null,
    "categoryName": "Pharmacy",
    "address": "277 \u02bb\u014chua Ave, Honolulu, HI 96815",
    "neighborhood": "Waikiki",
    "street": "277 \u02bb\u014chua Ave",
    "city": "Honolulu",
    "postalCode": "96815",
    "state": "Hawaii",
    "countryCode": "US",
    "website": "http://www.waikikihc.org/",
    "phone": "(808) 922-4787",
    "phoneUnformatted": "+18089224787",
    "claimThisBusiness": false,
    "location": {
      "lat": 21.2755786,
      "lng": -157.8205323
    },
    "totalScore": 4.2,
    "permanentlyClosed": false,
    "temporarilyClosed": false,
    "placeId": null,
    "categories": [
      "Pharmacy",
      "Community health centre",
      "Non-profit organization",
      "Medical clinic"
    ],
    "fid": "0x7c007279d23fac67:0x4b307dd8f131cefb",
    "cid": "5417968722439687931",
    "reviewsCount": 156,
    "imagesCount": 24,
    "imageCategories": [],
    "scrapedAt": "2025-06-22T06:36:57.773Z",
    "googleFoodUrl": null,
    "hotelAds": [],
    "openingHours": [
      {
        "day": "Monday",
        "hours": "7:30\u202fAM to 6:30\u202fPM"
      },
      {
        "day": "Tuesday",
        "hours": "6:30\u202fAM to 6:30\u202fPM"
      },
      {
        "day": "Wednesday",
        "hours": "7:30\u202fAM to 6:30\u202fPM"
      },
      {
        "day": "Thursday",
        "hours": "7:30\u202fAM to 6:30\u202fPM"
      },
      {
        "day": "Friday",
        "hours": "6:30\u202fAM to 6:30\u202fPM"
      },
      {
        "day": "Saturday",
        "hours": "9\u202fAM to 4\u202fPM"
      },
      {
        "day": "Sunday",
        "hours": "Closed"
      }
    ],
    "peopleAlsoSearch": [],
    "placesTags": [],
    "reviewsTags": [],
    "additionalInfo": {
      "Service options": [
        {
          "Onsite services": true
        }
      ],
      "Accessibility": [
        {
          "Wheelchair accessible entrance": true
        },
        {
          "Wheelchair accessible parking lot": true
        },
        {
          "Wheelchair accessible restroom": true
        }
      ],
      "Amenities": [
        {
          "Restroom": true
        }
      ],
      "Planning": [
        {
          "Appointments recommended": true
        }
      ],
      "Payments": [
        {
          "Credit cards": true
        },
        {
          "Debit cards": true
        },
        {
          "NFC mobile payments": true
        },
        {
          "Offers free or low-cost care based on individual circumstances": true
        },
        {
          "Credit cards": true
        }
      ]
    },
    "gasPrices": [],
    "url": "https://www.google.com/maps/search/?api=1&query=Waikiki%20Health&query_place_id=ChIJZ6w_0nlyAHwR-84x8dh9MEs",
    "searchPageUrl": "https://www.google.com/maps/search/independent%20pharmacy%20Reading%20PA/@21.362194516217112,-157.94533183601516,11z?hl=en",
    "searchString": "independent pharmacy Reading PA",
    "language": "en",
    "rank": 7,
    "isAdvertisement": false,
    "imageUrl": "https://lh3.googleusercontent.com/gps-cs-s/AC9h4nouM148wmzB7FRhNS-tsI_wLJi8BP7GCNox2HTGJsBg_fyO8_YbfdZCkX3bxm_IcgMqTc0hRSc4utZoVaOxUzfHHGGr5pEv5ArfrguL_z2rf3-XRu27isXublWGnrTACrbQndFP=w408-h544-k-no",
    "kgmid": "/g/1v4k6qy7",
    "classification": "hospital",
    "is_independent": false,
    "is_compounding": false,
    "confidence": 0.95,
    "source": "perplexity",
    "method": "llm"
  },
  {
    "title": "Capstone Compounding Pharmacy",
    "price": null,
    "categoryName": "Pharmacy",
    "address": "220 N Park Rd bldg 3, Wyomissing, PA 19610",
    "neighborhood": null,
    "street": "220 N Park Rd bldg 3",
    "city": "Wyomissing",
    "postalCode": "19610",
    "state": "Pennsylvania",
    "countryCode": "US",
    "website": "http://www.capstonecompounding.com/",
    "phone": "(800) 286-2014",
    "phoneUnformatted": "+18002862014",
    "claimThisBusiness": false,
    "location": {
      "lat": 40.3400651,
      "lng": -75.9573929
    },
    "totalScore": 4.5,
    "permanentlyClosed": false,
    "temporarilyClosed": false,
    "placeId": null,
    "categories": [
      "Pharmacy"
    ],
    "fid": "0x89c6712d5b075667:0xb8cfef40d3c017da",
    "cid": "13317125684867373018",
    "reviewsCount": 50,
    "imagesCount": 1,
    "imageCategories": [],
    "scrapedAt": "2025-06-22T06:37:04.940Z",
    "googleFoodUrl": null,
    "hotelAds": [],
    "openingHours": [
      {
        "day": "Monday",
        "hours": "8:30\u202fAM to 5\u202fPM"
      },
      {
        "day": "Tuesday",
        "hours": "8:30\u202fAM to 5\u202fPM"
      },
      {
        "day": "Wednesday",
        "hours": "8:30\u202fAM to 5\u202fPM"
      },
      {
        "day": "Thursday",
        "hours": "8:30\u202fAM to 5\u202fPM"
      },
      {
        "day": "Friday",
        "hours": "8:30\u202fAM to 5\u202fPM"
      },
      {
        "day": "Saturday",
        "hours": "Closed"
      },
      {
        "day": "Sunday",
        "hours": "Closed"
      }
    ],
    "peopleAlsoSearch": [],
    "placesTags": [],
    "reviewsTags": [],
    "additionalInfo": {
      "From the business": [
        {
          "Small business": true
        }
      ],
      "Service options": [
        {
          "Delivery": true
        },
        {
          "In-store pickup": true
        },
        {
          "Same-day delivery": true
        }
      ],
      "Accessibility": [
        {
          "Wheelchair accessible entrance": true
        },
        {
          "Wheelchair accessible parking lot": true
        },
        {
          "Wheelchair accessible restroom": true
        }
      ],
      "Payments": [
        {
          "Credit cards": true
        },
        {
          "Debit cards": true
        },
        {
          "NFC mobile payments": true
        },
        {
          "Credit cards": true
        }
      ]
    },
    "gasPrices": [],
    "url": "https://www.google.com/maps/search/?api=1&query=Capstone%20Compounding%20Pharmacy&query_place_id=ChIJZ1YHWy1xxokR2hfA00Dvz7g",
    "searchPageUrl": "https://www.google.com/maps/search/independent%20pharmacy%20Reading%20PA/@0.26455042080942154,-176.2718486830829,13z?hl=en",
    "searchString": "independent pharmacy Reading PA",
    "language": "en",
    "rank": 12,
    "isAdvertisement": false,
    "imageUrl": "https://streetviewpixels-pa.googleapis.com/v1/thumbnail?panoid=tW1Tl4V2ViF8FSTExvmrxw&cb_client=search.gws-prod.gps&w=408&h=240&yaw=251.8263&pitch=0&thumbfov=100",
    "kgmid": "/g/11f4lf4_ny",
    "classification": "independent",
    "is_independent": true,
    "is_compounding": true,
    "confidence": 0.95,
    "source": "perplexity",
    "method": "llm"
  },
  {
    "title": "Reading Hospital Ambulatory Pharmacy",
    "price": null,
    "categoryName": "Pharmacy",
    "address": "420 S 5th Ave, West Reading, PA 19611",
    "neighborhood": null,
    "street": "420 S 5th Ave",
    "city": "West Reading",
    "postalCode": "19611",
    "state": "Pennsylvania",
    "countryCode": "US",
    "website": "https://towerhealth.org/locations/reading-hospital-ambulatory-pharmacy",
    "phone": "(484) 628-7426",
    "phoneUnformatted": "+14846287426",
    "claimThisBusiness": false,
    "location": {
      "lat": 40.3298984,
      "lng": -75.9488962
    },
    "totalScore": 4.4,
    "permanentlyClosed": false,
    "temporarilyClosed": false,
    "placeId": "ChIJpeE1cShxxokRwSr8szeiaBk",
    "categories": [
      "Pharmacy"
    ],
    "fid": "0x89c671287135e1a5:0x1968a237b3fc2ac1",
    "cid": "1830891608652655297",
    "reviewsCount": 38,
    "imagesCount": 6,
    "imageCategories": [],
    "scrapedAt": "2025-06-22T06:37:04.940Z",
    "googleFoodUrl": null,
    "hotelAds": [],
    "openingHours": [
      {
        "day": "Monday",
        "hours": "7\u202fAM to 7\u202fPM"
      },
      {
        "day": "Tuesday",
        "hours": "7\u202fAM to 7\u202fPM"
      },
      {
        "day": "Wednesday",
        "hours": "7\u202fAM to 7\u202fPM"
      },
      {
        "day": "Thursday",
        "hours": "7\u202fAM to 7\u202fPM"
      },
      {
        "day": "Friday",
        "hours": "7\u202fAM to 9\u202fPM"
      },
      {
        "day": "Saturday",
        "hours": "8\u202fAM to 4\u202fPM"
      },
      {
        "day": "Sunday",
        "hours": "8\u202fAM to 4\u202fPM"
      }
    ],
    "peopleAlsoSearch": [],
    "placesTags": [],
    "reviewsTags": [],
    "additionalInfo": {
      "Service options": [
        {
          "Delivery": true
        }
      ],
      "Accessibility": [
        {
          "Wheelchair accessible entrance": true
        },
        {
          "Wheelchair accessible parking lot": true
        }
      ],
      "Offerings": [
        {
          "Medication disposal": true
        }
      ],
      "Amenities": [
        {
          "Wi-Fi": true
        },
        {
          "Free Wi-Fi": true
        }
      ],
      "Crowd": [
        {
          "LGBTQ+ friendly": true
        },
        {
          "Transgender safespace": true
        }
      ],
      "Payments": [
        {
          "Checks": true
        },
        {
          "Credit cards": true
        },
        {
          "Debit cards": true
        },
        {
          "Credit cards": true
        }
      ]
    },
    "gasPrices": [],
    "url": "https://www.google.com/maps/search/?api=1&query=Reading%20Hospital%20Ambulatory%20Pharmacy&query_place_id=ChIJpeE1cShxxokRwSr8szeiaBk",
    "searchPageUrl": "https://www.google.com/maps/search/independent%20pharmacy%20Reading%20PA/@0.26455042080942154,-176.2718486830829,13z?hl=en",
    "searchString": "independent pharmacy Reading PA",
    "language": "en",
    "rank": 13,
    "isAdvertisement": false,
    "imageUrl": "https://lh3.googleusercontent.com/p/AF1QipPjiDlrO__52sqTq3ZN_-0Iq4ZZYQyaJE_Y0vkr=w912-h240-k-no",
    "kgmid": "/g/11fxcd56pl",
    "classification": "hospital",
    "is_independent": false,
    "confidence": 1.0,
    "source": "rule-based"
  },
  {
    "title": "CVS Pharmacy",
    "price": null,
    "categoryName": "Pharmacy",
    "address": "1303 Lancaster Ave, Reading, PA 19607",
    "neighborhood": null,
    "street": "1303 Lancaster Ave",
    "city": "Reading",
    "postalCode": "19607",
    "state": "Pennsylvania",
    "countryCode": "US",
    "website": "https://www.cvs.com/store-locator/reading-pa-pharmacies/1303-lancaster-ave-reading-pa-19607/storeid=3242?WT.mc_id=LS_GOOGLE_RX_3242",
    "phone": "(610) 796-3103",
    "phoneUnformatted": "+16107963103",
    "claimThisBusiness": false,
    "location": {
      "lat": 40.3127669,
      "lng": -75.9485504
    },
    "totalScore": 2.8,
    "permanentlyClosed": false,
    "temporarilyClosed": false,
    "placeId": "ChIJwx3ZHgBxxokRdSjKLwV4GQw",
    "categories": [
      "Pharmacy"
    ],
    "fid": "0x89c671001ed91dc3:0xc1978052fca2875",
    "cid": "871859966544849013",
    "reviewsCount": 15,
    "imagesCount": 9,
    "imageCategories": [],
    "scrapedAt": "2025-06-22T06:37:04.940Z",
    "googleFoodUrl": null,
    "hotelAds": [],
    "openingHours": [
      {
        "day": "Monday",
        "hours": "9\u202fAM to 1:30\u202fPM, 2 to 9\u202fPM"
      },
      {
        "day": "Tuesday",
        "hours": "9\u202fAM to 1:30\u202fPM, 2 to 9\u202fPM"
      },
      {
        "day": "Wednesday",
        "hours": "9\u202fAM to 1:30\u202fPM, 2 to 9\u202fPM"
      },
      {
        "day": "Thursday",
        "hours": "9\u202fAM to 1:30\u202fPM, 2 to 9\u202fPM"
      },
      {
        "day": "Friday",
        "hours": "9\u202fAM to 1:30\u202fPM, 2 to 9\u202fPM"
      },
      {
        "day": "Saturday",
        "hours": "9\u202fAM to 1:30\u202fPM, 2 to 6\u202fPM"
      },
      {
        "day": "Sunday",
        "hours": "10\u202fAM to 1:30\u202fPM, 2 to 5\u202fPM"
      }
    ],
    "peopleAlsoSearch": [],
    "placesTags": [],
    "reviewsTags": [],
    "additionalInfo": {
      "Service options": [
        {
          "Delivery": true
        },
        {
          "Drive-through": true
        },
        {
          "In-store pickup": true
        },
        {
          "In-store shopping": true
        },
        {
          "Onsite services": true
        }
      ],
      "Accessibility": [
        {
          "Wheelchair accessible entrance": true
        },
        {
          "Wheelchair accessible parking lot": true
        }
      ],
      "Offerings": [
        {
          "Medication disposal": true
        },
        {
          "Naloxone": true
        },
        {
          "Passport photos": true
        }
      ],
      "Crowd": [
        {
          "LGBTQ+ friendly": true
        },
        {
          "Transgender safespace": true
        }
      ],
      "Planning": [
        {
          "Quick visit": true
        }
      ],
      "Payments": [
        {
          "Credit cards": true
        },
        {
          "Debit cards": true
        },
        {
          "NFC mobile payments": true
        },
        {
          "Credit cards": true
        }
      ]
    },
    "gasPrices": [],
    "url": "https://www.google.com/maps/search/?api=1&query=CVS%20Pharmacy&query_place_id=ChIJwx3ZHgBxxokRdSjKLwV4GQw",
    "searchPageUrl": "https://www.google.com/maps/search/independent%20pharmacy%20Reading%20PA/@0.26455042080942154,-176.2718486830829,13z?hl=en",
    "searchString": "independent pharmacy Reading PA",
    "language": "en",
    "rank": 14,
    "isAdvertisement": false,
    "imageUrl": "https://lh3.googleusercontent.com/p/AF1QipNSGRxE6PREG8EOvsndxazow5eY7rAauMsem3lI=w408-h272-k-no",
    "kgmid": "/g/11wc0bk2sq",
    "classification": "chain",
    "is_independent": false,
    "confidence": 1.0,
    "source": "rule-based"
  },
  {
    "title": "Pagoda Pharmacy",
    "price": null,
    "categoryName": "Pharmacy",
    "address": "600 Greenwich St unit 4, Reading, PA 19601, United States",
    "neighborhood": null,
    "street": "600 Greenwich St unit 4",
    "city": "Reading",
    "postalCode": "19601",
    "state": "Pennsylvania",
    "countryCode": "US",
    "phone": "+1 484-577-4408",
    "phoneUnformatted": "+14845774408",
    "claimThisBusiness": false,
    "location": {
      "lat": 40.3442184,
      "lng": -75.9247497
    },
    "totalScore": 4.4,
    "permanentlyClosed": false,
    "temporarilyClosed": false,
    "placeId": null,
    "categories": [
      "Pharmacy"
    ],
    "fid": "0x89c677486656680d:0xd2ab0887de35da45",
    "cid": "15180236348624067141",
    "reviewsCount": 7,
    "imagesCount": 6,
    "imageCategories": [],
    "scrapedAt": "2025-06-22T06:37:06.397Z",
    "googleFoodUrl": null,
    "hotelAds": [],
    "openingHours": [
      {
        "day": "Monday",
        "hours": "9\u202fAM to 6\u202fPM"
      },
      {
        "day": "Tuesday",
        "hours": "9\u202fAM to 6\u202fPM"
      },
      {
        "day": "Wednesday",
        "hours": "9\u202fAM to 6\u202fPM"
      },
      {
        "day": "Thursday",
        "hours": "9\u202fAM to 6\u202fPM"
      },
      {
        "day": "Friday",
        "hours": "9\u202fAM to 6\u202fPM"
      },
      {
        "day": "Saturday",
        "hours": "9\u202fAM to 1\u202fPM"
      },
      {
        "day": "Sunday",
        "hours": "Closed"
      }
    ],
    "peopleAlsoSearch": [],
    "placesTags": [],
    "reviewsTags": [],
    "additionalInfo": {
      "From the business": [
        {
          "Small Business": true
        }
      ],
      "Service options": [
        {
          "Delivery": true
        },
        {
          "Same-day delivery": true
        }
      ],
      "Accessibility": [
        {
          "Wheelchair-accessible car park": true
        },
        {
          "Wheelchair-accessible entrance": true
        }
      ],
      "Planning": [
        {
          "Quick visit": true
        }
      ],
      "Payments": [
        {
          "Credit cards": true
        },
        {
          "Debit cards": true
        },
        {
          "NFC mobile payments": true
        },
        {
          "Credit cards": true
        }
      ]
    },
    "gasPrices": [],
    "url": "https://www.google.com/maps/search/?api=1&query=Pagoda%20Pharmacy&query_place_id=ChIJDWhWZkh3xokRRdo13ocIq9I",
    "searchPageUrl": "https://www.google.com/maps/search/independent%20pharmacy%20Reading%20PA/@25.956363585943656,-171.7996947823842,13z?hl=en",
    "searchString": "independent pharmacy Reading PA",
    "language": "en",
    "rank": 13,
    "isAdvertisement": false,
    "imageUrl": "https://lh3.googleusercontent.com/p/AF1QipOBGDDusDe2tBSznLQzV3diccegjbndjC2OuJcV=w408-h306-k-no",
    "kgmid": "/g/11c6slld0r",
    "classification": "independent",
    "is_independent": true,
    "is_compounding": false,
    "confidence": 0.85,
    "source": "perplexity",
    "method": "llm"
  },
  {
    "title": "Walgreens",
    "description": "Drugstore chain with health & beauty aids, prescriptions & photo services, plus mini-mart basics.",
    "price": "$$",
    "categoryName": "Drug store",
    "address": "932 E Front St, Port Angeles, WA 98362",
    "neighborhood": null,
    "street": "932 E Front St",
    "city": "Port Angeles",
    "postalCode": "98362",
    "state": "Washington",
    "countryCode": "US",
    "website": "https://www.walgreens.com/locator/walgreens-932+e+front+st-port+angeles-wa-98362/id=11215",
    "phone": "(360) 457-4456",
    "phoneUnformatted": "+13604574456",
    "claimThisBusiness": false,
    "location": {
      "lat": 48.1131207,
      "lng": -123.4169551
    },
    "locatedIn": "Walgreens Pharmacy",
    "totalScore": 3.6,
    "permanentlyClosed": false,
    "temporarilyClosed": false,
    "placeId": "ChIJQ2Ihja6xj1QR2CDQTr8xBVA",
    "categories": [
      "Drug store",
      "Beauty supply store",
      "Convenience store",
      "Cosmetics store",
      "Greeting card shop",
      "Perfume store",
      "Stationery store"
    ],
    "fid": "0x548fb1ae8d216243:0x500531bf4ed020d8",
    "cid": "5766069595648565464",
    "reviewsCount": 57,
    "imagesCount": 71,
    "imageCategories": [],
    "scrapedAt": "2025-06-22T06:37:46.249Z",
    "googleFoodUrl": null,
    "hotelAds": [],
    "openingHours": [
      {
        "day": "Monday",
        "hours": "7\u202fAM to 10\u202fPM"
      },
      {
        "day": "Tuesday",
        "hours": "7\u202fAM to 10\u202fPM"
      },
      {
        "day": "Wednesday",
        "hours": "7\u202fAM to 10\u202fPM"
      },
      {
        "day": "Thursday",
        "hours": "7\u202fAM to 10\u202fPM"
      },
      {
        "day": "Friday",
        "hours": "7\u202fAM to 10\u202fPM"
      },
      {
        "day": "Saturday",
        "hours": "7\u202fAM to 10\u202fPM"
      },
      {
        "day": "Sunday",
        "hours": "7\u202fAM to 10\u202fPM"
      }
    ],
    "additionalOpeningHours": {
      "Walgreens Pharmacy": [
        {
          "day": "Monday",
          "hours": "9\u202fAM\u20131:30\u202fPM"
        },
        {
          "day": "Tuesday",
          "hours": "9\u202fAM\u20131:30\u202fPM"
        },
        {
          "day": "Wednesday",
          "hours": "9\u202fAM\u20131:30\u202fPM"
        },
        {
          "day": "Thursday",
          "hours": "9\u202fAM\u20131:30\u202fPM"
        },
        {
          "day": "Friday",
          "hours": "9\u202fAM\u20131:30\u202fPM"
        },
        {
          "day": "Saturday",
          "hours": "10\u202fAM\u20131:30\u202fPM"
        },
        {
          "day": "Sunday",
          "hours": "Closed"
        }
      ],
      "Walgreens Photo": [
        {
          "day": "Monday",
          "hours": "7\u202fAM\u201310\u202fPM"
        },
        {
          "day": "Tuesday",
          "hours": "7\u202fAM\u201310\u202fPM"
        },
        {
          "day": "Wednesday",
          "hours": "7\u202fAM\u201310\u202fPM"
        },
        {
          "day": "Thursday",
          "hours": "7\u202fAM\u201310\u202fPM"
        },
        {
          "day": "Friday",
          "hours": "7\u202fAM\u201310\u202fPM"
        },
        {
          "day": "Saturday",
          "hours": "7\u202fAM\u201310\u202fPM"
        },
        {
          "day": "Sunday",
          "hours": "7\u202fAM\u201310\u202fPM"
        }
      ],
      "Pickup": [
        {
          "day": "Monday",
          "hours": "7\u202fAM\u201310\u202fPM"
        },
        {
          "day": "Tuesday",
          "hours": "7\u202fAM\u201310\u202fPM"
        },
        {
          "day": "Wednesday",
          "hours": "7\u202fAM\u201310\u202fPM"
        },
        {
          "day": "Thursday",
          "hours": "7\u202fAM\u201310\u202fPM"
        },
        {
          "day": "Friday",
          "hours": "7\u202fAM\u201310\u202fPM"
        },
        {
          "day": "Saturday",
          "hours": "7\u202fAM\u201310\u202fPM"
        },
        {
          "day": "Sunday",
          "hours": "7\u202fAM\u201310\u202fPM"
        }
      ]
    },
    "peopleAlsoSearch": [],
    "placesTags": [],
    "reviewsTags": [],
    "additionalInfo": {
      "Service options": [
        {
          "Curbside pickup": true
        },
        {
          "Delivery": true
        },
        {
          "Drive-through": true
        },
        {
          "In-store pickup": true
        },
        {
          "Onsite services": true
        }
      ],
      "Accessibility": [
        {
          "Wheelchair accessible entrance": true
        },
        {
          "Wheelchair accessible parking lot": true
        }
      ],
      "Planning": [
        {
          "Quick visit": true
        }
      ],
      "Payments": [
        {
          "Checks": true
        },
        {
          "Credit cards": true
        },
        {
          "Debit cards": true
        },
        {
          "NFC mobile payments": true
        },
        {
          "SNAP/EBT": true
        },
        {
          "Credit cards": true
        }
      ]
    },
    "gasPrices": [],
    "url": "https://www.google.com/maps/search/?api=1&query=Walgreens&query_place_id=ChIJQ2Ihja6xj1QR2CDQTr8xBVA",
    "searchPageUrl": "https://www.google.com/maps/search/independent%20pharmacy%20Reading%20PA/@48.27430768932854,-124.48078308505484,8z?hl=en",
    "searchString": "independent pharmacy Reading PA",
    "language": "en",
    "rank": 4,
    "isAdvertisement": false,
    "imageUrl": "https://lh3.googleusercontent.com/gps-cs-s/AC9h4nrx14TfhM8u10hs_LTBL4pcRVDDAhIVeBdUUm7iikmxObMcYnOJ5h3cazWYh1QxKCNghVOMRJRClbzlUfzVFP0aNy8LTXxK3sAaT0B00bAoUZyvXQ1wSzB0MV6TaSpRD1HEpfrN=w426-h240-k-no",
    "kgmid": "/g/1tfc1qfd",
    "classification": "chain",
    "is_independent": false,
    "confidence": 1.0,
    "source": "rule-based"
  }
]