[
  {
    "title": "Burnet Pharmacy",
    "price": null,
    "categoryName": "Pharmacy",
    "address": "3056 Burnet Ave Unit 12, Syracuse, NY 13206, United States",
    "neighborhood": "Eastwood",
    "street": "3056 Burnet Ave Unit 12",
    "city": "Syracuse",
    "postalCode": "13206",
    "state": "New York",
    "countryCode": "US",
    "website": "http://www.burnetpharmacy.com/",
    "phone": "+1 315-437-0102",
    "phoneUnformatted": "+13154370102",
    "claimThisBusiness": false,
    "location": {
      "lat": 43.0604605,
      "lng": -76.0940246
    },
    "totalScore": 4.9,
    "permanentlyClosed": false,
    "temporarilyClosed": false,
    "placeId": null,
    "categories": [
      "Pharmacy"
    ],
    "fid": "0x89d9f2d121ea68e9:0x17108e02480818ed",
    "cid": "1661984402949282029",
    "reviewsCount": 28,
    "imagesCount": 9,
    "imageCategories": [],
    "scrapedAt": "2025-06-22T06:13:28.322Z",
    "googleFoodUrl": null,
    "hotelAds": [],
    "openingHours": [
      {
        "day": "Monday",
        "hours": "9\u202fAM to 6\u202fPM"
      },
      {
        "day": "Tuesday",
        "hours": "9\u202fAM to 6\u202fPM"
      },
      {
        "day": "Wednesday",
        "hours": "9\u202fAM to 6\u202fPM"
      },
      {
        "day": "Thursday",
        "hours": "9\u202fAM to 6\u202fPM"
      },
      {
        "day": "Friday",
        "hours": "9\u202fAM to 12:30\u202fPM, 2 to 6\u202fPM"
      },
      {
        "day": "Saturday",
        "hours": "10\u202fAM to 3\u202fPM"
      },
      {
        "day": "Sunday",
        "hours": "Closed"
      }
    ],
    "peopleAlsoSearch": [],
    "placesTags": [],
    "reviewsTags": [],
    "additionalInfo": {
      "From the business": [
        {
          "Small Business": true
        }
      ],
      "Service options": [
        {
          "Delivery": true
        },
        {
          "In-store pick-up": true
        },
        {
          "In-store shopping": true
        },
        {
          "Same-day delivery": false
        },
        {
          "Arabic": true
        }
      ],
      "Accessibility": [
        {
          "Wheelchair-accessible car park": true
        },
        {
          "Wheelchair-accessible entrance": true
        }
      ],
      "Payments": [
        {
          "Credit cards": true
        },
        {
          "Debit cards": true
        },
        {
          "NFC mobile payments": true
        },
        {
          "Credit cards": true
        }
      ],
      "Parking": [
        {
          "Free parking lot": true
        }
      ]
    },
    "gasPrices": [],
    "url": "https://www.google.com/maps/search/?api=1&query=Burnet%20Pharmacy&query_place_id=ChIJ6WjqIdHy2YkR7RgISAKOEBc",
    "searchPageUrl": "https://www.google.com/maps/search/independent%20pharmacy%20Syracuse%20NY/@61.56929586514925,-150.80891300000008,9z?hl=en",
    "searchString": "independent pharmacy Syracuse NY",
    "language": "en",
    "rank": 1,
    "isAdvertisement": false,
    "imageUrl": "https://lh3.googleusercontent.com/p/AF1QipNfVEfuvCzM3Ge4zufWayze4M_J8p8JA6_XmVMt=w427-h240-k-no",
    "kgmid": "/g/11cn5qhl_k",
    "classification": "independent",
    "is_independent": true,
    "is_compounding": false,
    "confidence": 0.9,
    "source": "perplexity",
    "method": "llm"
  },
  {
    "title": "C & JS Northside Pharmacy",
    "price": null,
    "categoryName": "Pharmacy",
    "address": "2301 Teall Ave, Syracuse, NY 13206, United States",
    "neighborhood": null,
    "street": "2301 Teall Ave",
    "city": "Syracuse",
    "postalCode": "13206",
    "state": "New York",
    "countryCode": "US",
    "website": "https://www.candjnorthsidepharmacy.com/",
    "phone": "+1 315-455-6677",
    "phoneUnformatted": "+13154556677",
    "claimThisBusiness": true,
    "location": {
      "lat": 43.082246,
      "lng": -76.1251775
    },
    "totalScore": 5,
    "permanentlyClosed": false,
    "temporarilyClosed": false,
    "placeId": null,
    "categories": [
      "Pharmacy"
    ],
    "fid": "0x89d9f28ea01e8d37:0xfe2bf121d719c120",
    "cid": "18314997437277258016",
    "reviewsCount": 16,
    "imagesCount": null,
    "imageCategories": [],
    "scrapedAt": "2025-06-22T06:13:28.323Z",
    "googleFoodUrl": null,
    "hotelAds": [],
    "openingHours": [
      {
        "day": "Monday",
        "hours": "9\u202fAM to 5\u202fPM"
      },
      {
        "day": "Tuesday",
        "hours": "9\u202fAM to 5\u202fPM"
      },
      {
        "day": "Wednesday",
        "hours": "9\u202fAM to 5\u202fPM"
      },
      {
        "day": "Thursday",
        "hours": "9\u202fAM to 5\u202fPM"
      },
      {
        "day": "Friday",
        "hours": "9\u202fAM to 5\u202fPM"
      },
      {
        "day": "Saturday",
        "hours": "9\u202fAM to 2\u202fPM"
      },
      {
        "day": "Sunday",
        "hours": "Closed"
      }
    ],
    "peopleAlsoSearch": [],
    "placesTags": [],
    "reviewsTags": [],
    "additionalInfo": {
      "Service options": [
        {
          "Delivery": true
        }
      ],
      "Accessibility": [
        {
          "Wheelchair-accessible car park": true
        },
        {
          "Wheelchair-accessible entrance": true
        }
      ],
      "Planning": [
        {
          "Quick visit": true
        }
      ],
      "Payments": [
        {
          "Credit cards": true
        },
        {
          "Debit cards": true
        },
        {
          "Credit cards": true
        }
      ]
    },
    "gasPrices": [],
    "url": "https://www.google.com/maps/search/?api=1&query=C%20%26%20JS%20Northside%20Pharmacy&query_place_id=ChIJN40eoI7y2YkRIMEZ1yHxK_4",
    "searchPageUrl": "https://www.google.com/maps/search/independent%20pharmacy%20Syracuse%20NY/@61.56929586514925,-150.80891300000008,9z?hl=en",
    "searchString": "independent pharmacy Syracuse NY",
    "language": "en",
    "rank": 2,
    "isAdvertisement": false,
    "kgmid": "/g/1tjz4c6v",
    "classification": "independent",
    "is_independent": true,
    "is_compounding": false,
    "confidence": 0.9,
    "source": "perplexity",
    "method": "llm"
  },
  {
    "title": "Harbor Pharmacy",
    "price": null,
    "categoryName": "Pharmacy",
    "address": "918 James St, Syracuse, NY 13203",
    "neighborhood": "Northside",
    "street": "918 James St",
    "city": "Syracuse",
    "postalCode": "13203",
    "state": "New York",
    "countryCode": "US",
    "phone": "(315) 342-6822",
    "phoneUnformatted": "+13153426822",
    "claimThisBusiness": true,
    "location": {
      "lat": 43.0570553,
      "lng": -76.1374808
    },
    "totalScore": 4,
    "permanentlyClosed": false,
    "temporarilyClosed": false,
    "placeId": null,
    "categories": [
      "Pharmacy"
    ],
    "fid": "0x89d9f3ab867055ed:0x2ca69c819776a9ba",
    "cid": "3217431064208648634",
    "reviewsCount": 2,
    "imagesCount": 1,
    "imageCategories": [],
    "scrapedAt": "2025-06-22T06:13:59.102Z",
    "googleFoodUrl": null,
    "hotelAds": [],
    "openingHours": [],
    "peopleAlsoSearch": [],
    "placesTags": [],
    "reviewsTags": [],
    "additionalInfo": {
      "Accessibility": [
        {
          "Wheelchair accessible entrance": true
        },
        {
          "Wheelchair accessible parking lot": true
        }
      ],
      "Payments": [
        {
          "Credit cards": true
        }
      ]
    },
    "gasPrices": [],
    "url": "https://www.google.com/maps/search/?api=1&query=Harbor%20Pharmacy&query_place_id=ChIJ7VVwhqvz2YkRuql2l4Gcpiw",
    "searchPageUrl": "https://www.google.com/maps/search/independent%20pharmacy%20Syracuse%20NY/@-14.347810753163994,-169.2774386277914,12z?hl=en",
    "searchString": "independent pharmacy Syracuse NY",
    "language": "en",
    "rank": 2,
    "isAdvertisement": false,
    "imageUrl": "https://streetviewpixels-pa.googleapis.com/v1/thumbnail?panoid=UUzIgH8OM9-nhm6pMnP0oA&cb_client=search.gws-prod.gps&w=408&h=240&yaw=241.9194&pitch=0&thumbfov=100",
    "kgmid": "/g/11bx45_9kf",
    "classification": "independent",
    "is_independent": true,
    "is_compounding": false,
    "confidence": 0.85,
    "source": "perplexity",
    "method": "llm"
  },
  {
    "title": "Westside Family Pharmacy LLC",
    "price": null,
    "categoryName": "Pharmacy",
    "address": "216 Seymour St, Syracuse, NY 13204",
    "neighborhood": "Westside",
    "street": "216 Seymour St",
    "city": "Syracuse",
    "postalCode": "13204",
    "state": "New York",
    "countryCode": "US",
    "website": "http://www.westsidedrugs.com/",
    "phone": "(315) 928-6333",
    "phoneUnformatted": "+13159286333",
    "claimThisBusiness": false,
    "location": {
      "lat": 43.0426947,
      "lng": -76.1593117
    },
    "totalScore": 4.2,
    "permanentlyClosed": false,
    "temporarilyClosed": false,
    "placeId": null,
    "categories": [
      "Pharmacy"
    ],
    "fid": "0x89d9f37319ce112d:0x66e13b9c3aa64197",
    "cid": "7413272003813458327",
    "reviewsCount": 43,
    "imagesCount": 17,
    "imageCategories": [],
    "scrapedAt": "2025-06-22T06:14:06.200Z",
    "googleFoodUrl": null,
    "hotelAds": [],
    "openingHours": [
      {
        "day": "Monday",
        "hours": "9\u202fAM to 6\u202fPM"
      },
      {
        "day": "Tuesday",
        "hours": "9\u202fAM to 6\u202fPM"
      },
      {
        "day": "Wednesday",
        "hours": "9\u202fAM to 6\u202fPM"
      },
      {
        "day": "Thursday",
        "hours": "9\u202fAM to 6\u202fPM"
      },
      {
        "day": "Friday",
        "hours": "9\u202fAM to 6\u202fPM"
      },
      {
        "day": "Saturday",
        "hours": "9\u202fAM to 2\u202fPM"
      },
      {
        "day": "Sunday",
        "hours": "Closed"
      }
    ],
    "peopleAlsoSearch": [],
    "placesTags": [],
    "reviewsTags": [],
    "additionalInfo": {
      "From the business": [
        {
          "Small business": true
        }
      ],
      "Service options": [
        {
          "Delivery": true
        },
        {
          "Onsite services": true
        },
        {
          "Same-day delivery": true
        }
      ],
      "Accessibility": [
        {
          "Wheelchair accessible entrance": true
        },
        {
          "Wheelchair accessible parking lot": true
        }
      ],
      "Planning": [
        {
          "Quick visit": true
        }
      ],
      "Payments": [
        {
          "Credit cards": true
        },
        {
          "Debit cards": true
        },
        {
          "NFC mobile payments": true
        },
        {
          "SNAP/EBT": true
        },
        {
          "Credit cards": true
        }
      ]
    },
    "gasPrices": [],
    "url": "https://www.google.com/maps/search/?api=1&query=Westside%20Family%20Pharmacy%20LLC&query_place_id=ChIJLRHOGXPz2YkRl0GmOpw74WY",
    "searchPageUrl": "https://www.google.com/maps/search/independent%20pharmacy%20Syracuse%20NY/@45.410355141996405,-73.82116800051296,8z?hl=en",
    "searchString": "independent pharmacy Syracuse NY",
    "language": "en",
    "rank": 3,
    "isAdvertisement": false,
    "imageUrl": "https://lh3.googleusercontent.com/p/AF1QipPDGoDxu9doZchOJdCESWFQAfyIB56AxGolgkWL=w408-h306-k-no",
    "kgmid": "/g/11fkyxzmnj",
    "classification": "independent",
    "is_independent": true,
    "is_compounding": false,
    "confidence": 0.9,
    "source": "perplexity",
    "method": "llm"
  },
  {
    "title": "Syracuse Onondaga Businesses",
    "price": null,
    "categoryName": "Pharmacy",
    "address": "201 E Jefferson St, Syracuse, NY 13202, United States",
    "neighborhood": "Downtown",
    "street": "201 E Jefferson St",
    "city": "Syracuse",
    "postalCode": "13202",
    "state": "New York",
    "countryCode": "US",
    "website": "http://www.onondagasbdc.org/",
    "phone": "+1 315-435-5711",
    "phoneUnformatted": "+13154355711",
    "claimThisBusiness": true,
    "location": {
      "lat": 43.0471862,
      "lng": -76.1504376
    },
    "totalScore": 5,
    "permanentlyClosed": false,
    "temporarilyClosed": false,
    "placeId": null,
    "categories": [
      "Pharmacy"
    ],
    "fid": "0x89d9f3beb5ed3727:0x1c921ccc5aec02ca",
    "cid": "2058739643686060746",
    "reviewsCount": 1,
    "imagesCount": 1,
    "imageCategories": [],
    "scrapedAt": "2025-06-22T06:14:06.717Z",
    "googleFoodUrl": null,
    "hotelAds": [],
    "openingHours": [],
    "peopleAlsoSearch": [],
    "placesTags": [],
    "reviewsTags": [],
    "additionalInfo": {
      "Accessibility": [
        {
          "Wheelchair-accessible car park": true
        },
        {
          "Wheelchair-accessible entrance": true
        }
      ]
    },
    "gasPrices": [],
    "url": "https://www.google.com/maps/search/?api=1&query=Syracuse%20Onondaga%20Businesses&query_place_id=ChIJJzfttb7z2YkRygLsWswckhw",
    "searchPageUrl": "https://www.google.com/maps/search/independent%20pharmacy%20Syracuse%20NY/@22.87074910283459,-161.85289204136058,13z?hl=en",
    "searchString": "independent pharmacy Syracuse NY",
    "language": "en",
    "rank": 4,
    "isAdvertisement": false,
    "imageUrl": "https://streetviewpixels-pa.googleapis.com/v1/thumbnail?panoid=8d05A2m3plDly8BaCuKKdA&cb_client=search.gws-prod.gps&w=408&h=240&yaw=35.189045&pitch=0&thumbfov=100",
    "kgmid": "/g/1td1qwnf",
    "classification": "not_a_pharmacy",
    "is_independent": false,
    "is_compounding": false,
    "confidence": 0.95,
    "source": "perplexity",
    "method": "llm"
  },
  {
    "title": "Kinney Drugs",
    "price": null,
    "categoryName": "Drug store",
    "address": "406 Butternut St, Syracuse, NY 13208, United States",
    "neighborhood": "Northside",
    "street": "406 Butternut St",
    "city": "Syracuse",
    "postalCode": "13208",
    "state": "New York",
    "countryCode": "US",
    "website": "https://kinneydrugs.com/locations/pharmacy/87/",
    "phone": "+1 315-474-8851",
    "phoneUnformatted": "+13154748851",
    "claimThisBusiness": false,
    "location": {
      "lat": 43.058647,
      "lng": -76.149431
    },
    "locatedIn": "Kinney Drugs Pharmacy",
    "totalScore": 3.3,
    "permanentlyClosed": false,
    "temporarilyClosed": false,
    "placeId": null,
    "categories": [
      "Drug store",
      "Convenience store",
      "General store"
    ],
    "fid": "0x89d9f3b47990e9ab:0x906eb44c06096a40",
    "cid": "10407454027511589440",
    "reviewsCount": 82,
    "imagesCount": 16,
    "imageCategories": [],
    "scrapedAt": "2025-06-22T06:14:06.717Z",
    "googleFoodUrl": null,
    "hotelAds": [],
    "openingHours": [
      {
        "day": "Monday",
        "hours": "8\u202fAM to 8\u202fPM"
      },
      {
        "day": "Tuesday",
        "hours": "8\u202fAM to 8\u202fPM"
      },
      {
        "day": "Wednesday",
        "hours": "8\u202fAM to 8\u202fPM"
      },
      {
        "day": "Thursday",
        "hours": "8\u202fAM to 8\u202fPM"
      },
      {
        "day": "Friday",
        "hours": "8\u202fAM to 8\u202fPM"
      },
      {
        "day": "Saturday",
        "hours": "8\u202fAM to 5\u202fPM"
      },
      {
        "day": "Sunday",
        "hours": "9\u202fAM to 3\u202fPM"
      }
    ],
    "additionalOpeningHours": {
      "Kinney Drugs Pharmacy": [
        {
          "day": "Monday",
          "hours": "9\u202fam\u20138\u202fpm"
        },
        {
          "day": "Tuesday",
          "hours": "9\u202fam\u20138\u202fpm"
        },
        {
          "day": "Wednesday",
          "hours": "9\u202fam\u20138\u202fpm"
        },
        {
          "day": "Thursday",
          "hours": "9\u202fam\u20138\u202fpm"
        },
        {
          "day": "Friday",
          "hours": "9\u202fam\u20138\u202fpm"
        },
        {
          "day": "Saturday",
          "hours": "9\u202fam\u20135\u202fpm"
        },
        {
          "day": "Sunday",
          "hours": "9\u202fam\u20133\u202fpm"
        }
      ]
    },
    "peopleAlsoSearch": [],
    "placesTags": [],
    "reviewsTags": [],
    "additionalInfo": {
      "Service options": [
        {
          "Kerbside pickup": true
        },
        {
          "Delivery": true
        },
        {
          "Drive-through": true
        },
        {
          "In-store shopping": true
        },
        {
          "Same-day delivery": true
        }
      ],
      "Accessibility": [
        {
          "Assistive hearing loop": true
        },
        {
          "Wheelchair-accessible car park": true
        },
        {
          "Wheelchair-accessible entrance": true
        },
        {
          "Wheelchair-accessible seating": true
        },
        {
          "Wheelchair-accessible toilet": true
        }
      ],
      "Offerings": [
        {
          "Passport photos": true
        }
      ],
      "Amenities": [
        {
          "Gender-neutral toilets": true
        }
      ],
      "Crowd": [
        {
          "LGBTQ+ friendly": true
        }
      ],
      "Planning": [
        {
          "Quick visit": true
        }
      ],
      "Payments": [
        {
          "Cheques": true
        },
        {
          "Credit cards": true
        },
        {
          "Debit cards": true
        },
        {
          "NFC mobile payments": true
        },
        {
          "SNAP/EBT": true
        },
        {
          "Credit cards": true
        }
      ]
    },
    "gasPrices": [],
    "url": "https://www.google.com/maps/search/?api=1&query=Kinney%20Drugs&query_place_id=ChIJq-mQebTz2YkRQGoJBky0bpA",
    "searchPageUrl": "https://www.google.com/maps/search/independent%20pharmacy%20Syracuse%20NY/@22.87074910283459,-161.85289204136058,13z?hl=en",
    "searchString": "independent pharmacy Syracuse NY",
    "language": "en",
    "rank": 5,
    "isAdvertisement": false,
    "imageUrl": "https://lh3.googleusercontent.com/gps-cs-s/AC9h4nqFCAYaDxhAW8dZdlOZXZWtrDEL9fdlBLEnZU_3ZyjPPq-afPlv_EF3evvAwufaSgzB8Lr8SOB27h-T-DEyw6mgof57iKhjJ2NVyydWFnnDIIn-PHaeyKER2pdvwBPpnFNJbRoZ=w408-h544-k-no",
    "kgmid": "/g/11b6t47klc",
    "classification": "chain",
    "is_independent": false,
    "is_compounding": false,
    "confidence": 0.95,
    "source": "perplexity",
    "method": "llm"
  },
  {
    "title": "Syracuse Community Health Pharmacy LLC",
    "price": null,
    "categoryName": "Pharmacy",
    "address": "819 S Salina St Suite B, Syracuse, NY 13202, United States",
    "neighborhood": "Southside",
    "street": "819 S Salina St Suite B",
    "city": "Syracuse",
    "postalCode": "13202",
    "state": "New York",
    "countryCode": "US",
    "website": "http://syracusedrugs.com/",
    "phone": "+1 315-671-1900",
    "phoneUnformatted": "+13156711900",
    "claimThisBusiness": false,
    "location": {
      "lat": 43.0399773,
      "lng": -76.1500293
    },
    "totalScore": 2.7,
    "permanentlyClosed": false,
    "temporarilyClosed": false,
    "placeId": "ChIJKULmMZTz2YkRgbNXSgr3OEg",
    "categories": [
      "Pharmacy",
      "Mental health service"
    ],
    "fid": "0x89d9f39431e64229:0x4838f70a4a57b381",
    "cid": "5204180992995603329",
    "reviewsCount": 7,
    "imagesCount": 1,
    "imageCategories": [],
    "scrapedAt": "2025-06-22T06:14:06.717Z",
    "googleFoodUrl": null,
    "hotelAds": [],
    "openingHours": [
      {
        "day": "Monday",
        "hours": "8\u202fAM to 6\u202fPM"
      },
      {
        "day": "Tuesday",
        "hours": "8\u202fAM to 6\u202fPM"
      },
      {
        "day": "Wednesday",
        "hours": "8\u202fAM to 6\u202fPM"
      },
      {
        "day": "Thursday",
        "hours": "8\u202fAM to 6\u202fPM"
      },
      {
        "day": "Friday",
        "hours": "8\u202fAM to 6\u202fPM"
      },
      {
        "day": "Saturday",
        "hours": "Closed"
      },
      {
        "day": "Sunday",
        "hours": "Closed"
      }
    ],
    "peopleAlsoSearch": [],
    "placesTags": [],
    "reviewsTags": [],
    "additionalInfo": {
      "From the business": [
        {
          "Small Business": true
        }
      ],
      "Service options": [
        {
          "Delivery": true
        },
        {
          "Same-day delivery": true
        }
      ],
      "Accessibility": [
        {
          "Wheelchair-accessible car park": true
        },
        {
          "Wheelchair-accessible entrance": true
        }
      ]
    },
    "gasPrices": [],
    "url": "https://www.google.com/maps/search/?api=1&query=Syracuse%20Community%20Health%20Pharmacy%20LLC&query_place_id=ChIJKULmMZTz2YkRgbNXSgr3OEg",
    "searchPageUrl": "https://www.google.com/maps/search/independent%20pharmacy%20Syracuse%20NY/@22.87074910283459,-161.85289204136058,13z?hl=en",
    "searchString": "independent pharmacy Syracuse NY",
    "language": "en",
    "rank": 6,
    "isAdvertisement": false,
    "imageUrl": "https://streetviewpixels-pa.googleapis.com/v1/thumbnail?panoid=VpzpmG_l8UuweeuGfqIZew&cb_client=search.gws-prod.gps&w=408&h=240&yaw=61.80137&pitch=0&thumbfov=100",
    "kgmid": "/g/1tj7xcj8",
    "classification": "hospital",
    "is_independent": false,
    "confidence": 1.0,
    "source": "rule-based"
  },
  {
    "title": "Genoa Healthcare",
    "price": null,
    "categoryName": "Pharmacy",
    "address": "329 N Salina St suite p, Syracuse, NY 13203, United States",
    "neighborhood": "Northside",
    "street": "329 N Salina St suite p",
    "city": "Syracuse",
    "postalCode": "13203",
    "state": "New York",
    "countryCode": "US",
    "website": "http://www.genoahealthcare.com/",
    "phone": "+1 315-930-3823",
    "phoneUnformatted": "+13159303823",
    "claimThisBusiness": false,
    "location": {
      "lat": 43.0559431,
      "lng": -76.1528185
    },
    "totalScore": 4.8,
    "permanentlyClosed": false,
    "temporarilyClosed": false,
    "placeId": null,
    "categories": [
      "Pharmacy"
    ],
    "fid": "0x89d9f358ed1083f9:0x87d194c7000147c2",
    "cid": "9786767047672285122",
    "reviewsCount": 15,
    "imagesCount": 8,
    "imageCategories": [],
    "scrapedAt": "2025-06-22T06:14:06.717Z",
    "googleFoodUrl": null,
    "hotelAds": [],
    "openingHours": [
      {
        "day": "Monday",
        "hours": "8:30\u202fAM to 5\u202fPM"
      },
      {
        "day": "Tuesday",
        "hours": "8:30\u202fAM to 5\u202fPM"
      },
      {
        "day": "Wednesday",
        "hours": "8:30\u202fAM to 5\u202fPM"
      },
      {
        "day": "Thursday",
        "hours": "8:30\u202fAM to 5\u202fPM"
      },
      {
        "day": "Friday",
        "hours": "8:30\u202fAM to 5\u202fPM"
      },
      {
        "day": "Saturday",
        "hours": "7\u202fAM to 12:30\u202fPM"
      },
      {
        "day": "Sunday",
        "hours": "7\u202fAM to 12:30\u202fPM"
      }
    ],
    "peopleAlsoSearch": [],
    "placesTags": [],
    "reviewsTags": [],
    "additionalInfo": {
      "Accessibility": [
        {
          "Wheelchair-accessible car park": true
        },
        {
          "Wheelchair-accessible entrance": true
        }
      ]
    },
    "gasPrices": [],
    "url": "https://www.google.com/maps/search/?api=1&query=Genoa%20Healthcare&query_place_id=ChIJ-YMQ7Vjz2YkRwkcBAMeU0Yc",
    "searchPageUrl": "https://www.google.com/maps/search/independent%20pharmacy%20Syracuse%20NY/@22.87074910283459,-161.85289204136058,13z?hl=en",
    "searchString": "independent pharmacy Syracuse NY",
    "language": "en",
    "rank": 7,
    "isAdvertisement": false,
    "imageUrl": "https://lh3.googleusercontent.com/gps-cs-s/AC9h4nqO-7eG2Q68shfB2eD1OEdsHPTP7EJ9xXf7IaFpjh7gYkx695uN8pwZlkmkB6MCjYVINMeZUGjJq6ZK9TrajlNm_E_v13tvxMCMXM30Jp9fVNDlKvr1yK7euVDYgrjiDu2YSQ6CsQ=w408-h544-k-no",
    "kgmid": "/g/11f7bm02jm",
    "classification": "chain",
    "is_independent": false,
    "is_compounding": false,
    "confidence": 0.95,
    "source": "perplexity",
    "method": "llm"
  },
  {
    "title": "Willsboro Pharmacy",
    "price": null,
    "categoryName": "Pharmacy",
    "address": "3932 NY-22, Willsboro, NY 12996",
    "neighborhood": null,
    "street": "3932 NY-22",
    "city": "Willsboro",
    "postalCode": "12996",
    "state": "New York",
    "countryCode": "US",
    "website": "https://www.cornerdrugstore.com/?corpID=315100&pharmID=2631",
    "phone": "(518) 963-8946",
    "phoneUnformatted": "+15189638946",
    "claimThisBusiness": true,
    "location": {
      "lat": 44.3716917,
      "lng": -73.3982433
    },
    "totalScore": 3.7,
    "permanentlyClosed": false,
    "temporarilyClosed": false,
    "placeId": null,
    "categories": [
      "Pharmacy"
    ],
    "fid": "0x4cca89dcb15c657f:0xb114a89cca3cf2f6",
    "cid": "12760009035608814326",
    "reviewsCount": 3,
    "reviewsDistribution": {
      "oneStar": 1,
      "twoStar": 0,
      "threeStar": 0,
      "fourStar": 0,
      "fiveStar": 2
    },
    "imagesCount": 2,
    "imageCategories": [],
    "scrapedAt": "2025-06-22T06:14:07.116Z",
    "googleFoodUrl": null,
    "hotelAds": [],
    "openingHours": [
      {
        "day": "Monday",
        "hours": "9\u202fAM to 5:30\u202fPM"
      },
      {
        "day": "Tuesday",
        "hours": "9\u202fAM to 5:30\u202fPM"
      },
      {
        "day": "Wednesday",
        "hours": "9\u202fAM to 5:30\u202fPM"
      },
      {
        "day": "Thursday",
        "hours": "9\u202fAM to 5:30\u202fPM"
      },
      {
        "day": "Friday",
        "hours": "9\u202fAM to 5:30\u202fPM"
      },
      {
        "day": "Saturday",
        "hours": "9\u202fAM to 1\u202fPM"
      },
      {
        "day": "Sunday",
        "hours": "Closed"
      }
    ],
    "peopleAlsoSearch": [],
    "placesTags": [],
    "reviewsTags": [],
    "additionalInfo": {
      "Service options": [
        {
          "Delivery": true
        }
      ],
      "Accessibility": [
        {
          "Wheelchair accessible entrance": true
        },
        {
          "Wheelchair accessible parking lot": true
        }
      ],
      "Planning": [
        {
          "Quick visit": true
        }
      ],
      "Payments": [
        {
          "Credit cards": true
        },
        {
          "Debit cards": true
        },
        {
          "Credit cards": true
        }
      ]
    },
    "gasPrices": [],
    "url": "https://www.google.com/maps/search/?api=1&query=Willsboro%20Pharmacy&query_place_id=ChIJf2VcsdyJykwR9vI8ypyoFLE",
    "searchPageUrl": "https://www.google.com/maps/search/independent%20pharmacy%20Syracuse%20NY/@45.410355141996405,-73.82116800051296,8z?hl=en",
    "searchString": "independent pharmacy Syracuse NY",
    "language": "en",
    "rank": 21,
    "isAdvertisement": false,
    "imageUrl": "https://lh3.googleusercontent.com/gps-cs-s/AC9h4nrbWoUCWUJbVvblhgXCTcvHtNajgyv-yygDF5FoHfkbl_nanIuD_WXMANzzzqDsYTa-HMgVyQh9d2NtfcH4g96eQPf7IXwgiHiD2NEw7XNcLDZHtI6mtFIKkeets9iloPh12eBMmw=w408-h305-k-no",
    "kgmid": "/g/1tk4qsh6",
    "classification": "independent",
    "is_independent": true,
    "is_compounding": false,
    "confidence": 0.9,
    "source": "perplexity",
    "method": "llm"
  },
  {
    "title": "HealthDirect Pharmacy Services",
    "price": null,
    "categoryName": "Pharmacy",
    "address": "515 Stewart Dr #3417, Syracuse, NY 13212",
    "neighborhood": null,
    "street": "515 Stewart Dr #3417",
    "city": "Syracuse",
    "postalCode": "13212",
    "state": "New York",
    "countryCode": "US",
    "website": "https://www.hdrxservices.com/location/syracuse/",
    "phone": "(315) 214-6457",
    "phoneUnformatted": "+13152146457",
    "claimThisBusiness": false,
    "location": {
      "lat": 43.1210854,
      "lng": -76.1012249
    },
    "totalScore": 5,
    "permanentlyClosed": false,
    "temporarilyClosed": false,
    "placeId": null,
    "categories": [
      "Pharmacy"
    ],
    "fid": "0x89d9ed3b3e8621ab:0xdeba68b6dda1213f",
    "cid": "16049255356699844927",
    "reviewsCount": 2,
    "imagesCount": 3,
    "imageCategories": [],
    "scrapedAt": "2025-06-22T06:14:33.635Z",
    "googleFoodUrl": null,
    "hotelAds": [],
    "openingHours": [
      {
        "day": "Monday",
        "hours": "8\u202fAM to 8\u202fPM"
      },
      {
        "day": "Tuesday",
        "hours": "8\u202fAM to 8\u202fPM"
      },
      {
        "day": "Wednesday",
        "hours": "8\u202fAM to 8\u202fPM"
      },
      {
        "day": "Thursday",
        "hours": "8\u202fAM to 8\u202fPM"
      },
      {
        "day": "Friday",
        "hours": "8\u202fAM to 8\u202fPM"
      },
      {
        "day": "Saturday",
        "hours": "9\u202fAM to 5\u202fPM"
      },
      {
        "day": "Sunday",
        "hours": "9\u202fAM to 5\u202fPM"
      }
    ],
    "peopleAlsoSearch": [],
    "placesTags": [],
    "reviewsTags": [],
    "additionalInfo": {
      "Service options": [
        {
          "Delivery": true
        }
      ],
      "Accessibility": [
        {
          "Wheelchair accessible entrance": true
        },
        {
          "Wheelchair accessible parking lot": true
        }
      ]
    },
    "gasPrices": [],
    "url": "https://www.google.com/maps/search/?api=1&query=HealthDirect%20Pharmacy%20Services&query_place_id=ChIJqyGGPjvt2YkRPyGh3bZout4",
    "searchPageUrl": "https://www.google.com/maps/search/independent%20pharmacy%20Syracuse%20NY/@42.54640259466427,-73.82116800051296,8z?hl=en",
    "searchString": "independent pharmacy Syracuse NY",
    "language": "en",
    "rank": 8,
    "isAdvertisement": false,
    "imageUrl": "https://lh3.googleusercontent.com/p/AF1QipMoAvZwQ6c9-ShD2rVg0L48rbt77td451RcOC-R=w725-h240-k-no",
    "kgmid": "/g/1tf2ysw7",
    "classification": "independent",
    "is_independent": true,
    "is_compounding": false,
    "confidence": 0.85,
    "source": "perplexity",
    "method": "llm"
  },
  {
    "title": "SUNY Upstate Outpatient Pharmacy at Nappi",
    "price": null,
    "categoryName": "Pharmacy",
    "address": "725 E Adams St, Syracuse, NY 13210",
    "neighborhood": "Eastside",
    "street": "725 E Adams St",
    "city": "Syracuse",
    "postalCode": "13210",
    "state": "New York",
    "countryCode": "US",
    "website": "https://www.upstate.edu/outpatient-pharmacy/index.php",
    "phone": "(315) 464-4380",
    "phoneUnformatted": "+13154644380",
    "claimThisBusiness": false,
    "location": {
      "lat": 43.0429788,
      "lng": -76.1416647
    },
    "totalScore": 5,
    "permanentlyClosed": false,
    "temporarilyClosed": false,
    "placeId": null,
    "categories": [
      "Pharmacy"
    ],
    "fid": "0x89d9f3006e2e634d:0xa43cca13d605ef87",
    "cid": "11834556107366723463",
    "reviewsCount": 4,
    "imagesCount": 1,
    "imageCategories": [],
    "scrapedAt": "2025-06-22T06:14:33.635Z",
    "googleFoodUrl": null,
    "hotelAds": [],
    "openingHours": [
      {
        "day": "Monday",
        "hours": "8\u202fAM to 6\u202fPM"
      },
      {
        "day": "Tuesday",
        "hours": "8\u202fAM to 6\u202fPM"
      },
      {
        "day": "Wednesday",
        "hours": "8\u202fAM to 6\u202fPM"
      },
      {
        "day": "Thursday",
        "hours": "8\u202fAM to 6\u202fPM"
      },
      {
        "day": "Friday",
        "hours": "8\u202fAM to 6\u202fPM"
      },
      {
        "day": "Saturday",
        "hours": "Closed"
      },
      {
        "day": "Sunday",
        "hours": "Closed"
      }
    ],
    "peopleAlsoSearch": [],
    "placesTags": [],
    "reviewsTags": [],
    "additionalInfo": {
      "Accessibility": [
        {
          "Wheelchair accessible entrance": true
        },
        {
          "Wheelchair accessible parking lot": true
        }
      ],
      "Payments": [
        {
          "Checks": true
        },
        {
          "Credit cards": true
        },
        {
          "Debit cards": true
        },
        {
          "Credit cards": true
        }
      ]
    },
    "gasPrices": [],
    "url": "https://www.google.com/maps/search/?api=1&query=SUNY%20Upstate%20Outpatient%20Pharmacy%20at%20Nappi&query_place_id=ChIJTWMubgDz2YkRh-8F1hPKPKQ",
    "searchPageUrl": "https://www.google.com/maps/search/independent%20pharmacy%20Syracuse%20NY/@42.54640259466427,-73.82116800051296,8z?hl=en",
    "searchString": "independent pharmacy Syracuse NY",
    "language": "en",
    "rank": 9,
    "isAdvertisement": false,
    "imageUrl": "https://streetviewpixels-pa.googleapis.com/v1/thumbnail?panoid=1MWsqkupEHgDxzyzGn2Thw&cb_client=search.gws-prod.gps&w=408&h=240&yaw=353.31308&pitch=0&thumbfov=100",
    "kgmid": "/g/11lcz93z2r",
    "classification": "hospital",
    "is_independent": false,
    "is_compounding": false,
    "confidence": 0.98,
    "source": "perplexity",
    "method": "llm"
  },
  {
    "title": "Upstate Outpatient Pharmacy at Downtown",
    "price": null,
    "categoryName": "Pharmacy",
    "address": "750 E Adams St, Syracuse, NY 13210",
    "neighborhood": "Eastside",
    "street": "750 E Adams St",
    "city": "Syracuse",
    "postalCode": "13210",
    "state": "New York",
    "countryCode": "US",
    "website": "https://www.upstate.edu/outpatient-pharmacy/index.php",
    "phone": "(315) 464-3784",
    "phoneUnformatted": "+13154643784",
    "claimThisBusiness": false,
    "location": {
      "lat": 43.0423185,
      "lng": -76.1410157
    },
    "totalScore": 5,
    "permanentlyClosed": false,
    "temporarilyClosed": false,
    "placeId": null,
    "categories": [
      "Pharmacy"
    ],
    "fid": "0x89d9f3007878c42b:0x8efda7784246cc4d",
    "cid": "10303575657443413069",
    "reviewsCount": 1,
    "imagesCount": 1,
    "imageCategories": [],
    "scrapedAt": "2025-06-22T06:14:33.635Z",
    "googleFoodUrl": null,
    "hotelAds": [],
    "openingHours": [
      {
        "day": "Monday",
        "hours": "8\u202fAM to 6\u202fPM"
      },
      {
        "day": "Tuesday",
        "hours": "8\u202fAM to 6\u202fPM"
      },
      {
        "day": "Wednesday",
        "hours": "8\u202fAM to 6\u202fPM"
      },
      {
        "day": "Thursday",
        "hours": "8\u202fAM to 6\u202fPM"
      },
      {
        "day": "Friday",
        "hours": "8\u202fAM to 6\u202fPM"
      },
      {
        "day": "Saturday",
        "hours": "9\u202fAM to 2\u202fPM"
      },
      {
        "day": "Sunday",
        "hours": "9\u202fAM to 2\u202fPM"
      }
    ],
    "peopleAlsoSearch": [],
    "placesTags": [],
    "reviewsTags": [],
    "additionalInfo": {
      "Service options": [
        {
          "Delivery": true
        }
      ],
      "Accessibility": [
        {
          "Wheelchair accessible entrance": true
        },
        {
          "Wheelchair accessible parking lot": true
        }
      ],
      "Payments": [
        {
          "Checks": true
        },
        {
          "Credit cards": true
        },
        {
          "Debit cards": true
        },
        {
          "Credit cards": true
        }
      ]
    },
    "gasPrices": [],
    "url": "https://www.google.com/maps/search/?api=1&query=Upstate%20Outpatient%20Pharmacy%20at%20Downtown&query_place_id=ChIJK8R4eADz2YkRTcxGQnin_Y4",
    "searchPageUrl": "https://www.google.com/maps/search/independent%20pharmacy%20Syracuse%20NY/@42.54640259466427,-73.82116800051296,8z?hl=en",
    "searchString": "independent pharmacy Syracuse NY",
    "language": "en",
    "rank": 10,
    "isAdvertisement": false,
    "imageUrl": "https://streetviewpixels-pa.googleapis.com/v1/thumbnail?panoid=ijbmG3_FTiW_VNpakHZBog&cb_client=search.gws-prod.gps&w=408&h=240&yaw=254.5522&pitch=0&thumbfov=100",
    "kgmid": "/g/11lcz93x38",
    "classification": "hospital",
    "is_independent": false,
    "is_compounding": false,
    "confidence": 0.98,
    "source": "perplexity",
    "method": "llm"
  },
  {
    "title": "Genoa Healthcare",
    "price": null,
    "categoryName": "Pharmacy",
    "address": "1045 James St, Syracuse, NY 13203",
    "neighborhood": "Northside",
    "street": "1045 James St",
    "city": "Syracuse",
    "postalCode": "13203",
    "state": "New York",
    "countryCode": "US",
    "website": "https://www.genoahealthcare.com/",
    "phone": "(315) 314-8353",
    "phoneUnformatted": "+13153148353",
    "claimThisBusiness": false,
    "location": {
      "lat": 43.0606555,
      "lng": -76.1330617
    },
    "totalScore": 3.7,
    "permanentlyClosed": false,
    "temporarilyClosed": false,
    "placeId": null,
    "categories": [
      "Pharmacy"
    ],
    "fid": "0x89d9f3905c185c35:0xc2384e2056b6d6b3",
    "cid": "13995021742854559411",
    "reviewsCount": 9,
    "imagesCount": 1,
    "imageCategories": [],
    "scrapedAt": "2025-06-22T06:14:33.635Z",
    "googleFoodUrl": null,
    "hotelAds": [],
    "openingHours": [
      {
        "day": "Monday",
        "hours": "8:30\u202fAM to 12:30\u202fPM, 1 to 5\u202fPM"
      },
      {
        "day": "Tuesday",
        "hours": "8:30\u202fAM to 12:30\u202fPM, 1 to 5\u202fPM"
      },
      {
        "day": "Wednesday",
        "hours": "8:30\u202fAM to 12:30\u202fPM, 1 to 5\u202fPM"
      },
      {
        "day": "Thursday",
        "hours": "8:30\u202fAM to 12:30\u202fPM, 1 to 5\u202fPM"
      },
      {
        "day": "Friday",
        "hours": "8:30\u202fAM to 12:30\u202fPM, 1 to 5\u202fPM"
      },
      {
        "day": "Saturday",
        "hours": "Closed"
      },
      {
        "day": "Sunday",
        "hours": "Closed"
      }
    ],
    "peopleAlsoSearch": [],
    "placesTags": [],
    "reviewsTags": [],
    "additionalInfo": {
      "Accessibility": [
        {
          "Wheelchair accessible entrance": true
        },
        {
          "Wheelchair accessible parking lot": true
        }
      ]
    },
    "gasPrices": [],
    "url": "https://www.google.com/maps/search/?api=1&query=Genoa%20Healthcare&query_place_id=ChIJNVwYXJDz2YkRs9a2ViBOOMI",
    "searchPageUrl": "https://www.google.com/maps/search/independent%20pharmacy%20Syracuse%20NY/@42.54640259466427,-73.82116800051296,8z?hl=en",
    "searchString": "independent pharmacy Syracuse NY",
    "language": "en",
    "rank": 12,
    "isAdvertisement": false,
    "imageUrl": "https://streetviewpixels-pa.googleapis.com/v1/thumbnail?panoid=H50C-DVXFQv3ihUOOjsaLA&cb_client=search.gws-prod.gps&w=408&h=240&yaw=48.80318&pitch=0&thumbfov=100",
    "kgmid": "/g/11h2hhczhn",
    "classification": "chain",
    "is_independent": false,
    "is_compounding": false,
    "confidence": 0.95,
    "source": "perplexity",
    "method": "llm"
  },
  {
    "title": "Noble Health Services",
    "price": null,
    "categoryName": "Pharmacy",
    "address": "6040 Tarbell Rd, Syracuse, NY 13206",
    "neighborhood": null,
    "street": "6040 Tarbell Rd",
    "city": "Syracuse",
    "postalCode": "13206",
    "state": "New York",
    "countryCode": "US",
    "website": "https://noblehealthservices.com/",
    "phone": "(888) 843-2040",
    "phoneUnformatted": "+18888432040",
    "claimThisBusiness": false,
    "location": {
      "lat": 43.0895642,
      "lng": -76.1005103
    },
    "totalScore": 3.1,
    "permanentlyClosed": false,
    "temporarilyClosed": false,
    "placeId": null,
    "categories": [
      "Pharmacy"
    ],
    "fid": "0x89d9f2a69079f0ed:0x1d0b2939e12daba4",
    "cid": "2092811780411468708",
    "reviewsCount": 89,
    "imagesCount": 1,
    "imageCategories": [],
    "scrapedAt": "2025-06-22T06:14:33.635Z",
    "googleFoodUrl": null,
    "hotelAds": [],
    "openingHours": [
      {
        "day": "Monday",
        "hours": "8:30\u202fAM to 5\u202fPM"
      },
      {
        "day": "Tuesday",
        "hours": "8:30\u202fAM to 5\u202fPM"
      },
      {
        "day": "Wednesday",
        "hours": "8:30\u202fAM to 5\u202fPM"
      },
      {
        "day": "Thursday",
        "hours": "8:30\u202fAM to 5\u202fPM"
      },
      {
        "day": "Friday",
        "hours": "8:30\u202fAM to 5\u202fPM"
      },
      {
        "day": "Saturday",
        "hours": "8:30\u202fAM to 12:30\u202fPM"
      },
      {
        "day": "Sunday",
        "hours": "Closed"
      }
    ],
    "peopleAlsoSearch": [],
    "placesTags": [],
    "reviewsTags": [],
    "additionalInfo": {
      "Service options": [
        {
          "Delivery": true
        }
      ],
      "Accessibility": [
        {
          "Wheelchair accessible entrance": true
        },
        {
          "Wheelchair accessible parking lot": true
        }
      ],
      "Payments": [
        {
          "Debit cards": true
        },
        {
          "NFC mobile payments": true
        },
        {
          "Credit cards": true
        }
      ]
    },
    "gasPrices": [],
    "url": "https://www.google.com/maps/search/?api=1&query=Noble%20Health%20Services&query_place_id=ChIJ7fB5kKby2YkRpKst4TkpCx0",
    "searchPageUrl": "https://www.google.com/maps/search/independent%20pharmacy%20Syracuse%20NY/@42.54640259466427,-73.82116800051296,8z?hl=en",
    "searchString": "independent pharmacy Syracuse NY",
    "language": "en",
    "rank": 13,
    "isAdvertisement": false,
    "imageUrl": "https://lh3.googleusercontent.com/p/AF1QipM_nDeXG-i4ZHhOsquMP81q5HXntnaWCq-iKhJZ=w1301-h240-k-no",
    "kgmid": "/g/11b6x8hg70",
    "classification": "independent",
    "is_independent": true,
    "is_compounding": false,
    "confidence": 0.85,
    "source": "perplexity",
    "method": "llm"
  },
  {
    "title": "SUNY Upstate Outpatient Pharmacy at Community Campus",
    "price": null,
    "categoryName": "Pharmacy",
    "address": "5000 W Seneca Turnpike, Syracuse, NY 13215",
    "neighborhood": null,
    "street": "5000 W Seneca Turnpike",
    "city": "Syracuse",
    "postalCode": "13215",
    "state": "New York",
    "countryCode": "US",
    "website": "https://www.upstate.edu/outpatient-pharmacy/",
    "phone": "(315) 492-5311",
    "phoneUnformatted": "+13154925311",
    "claimThisBusiness": false,
    "location": {
      "lat": 43.0049521,
      "lng": -76.1710664
    },
    "totalScore": 4.7,
    "permanentlyClosed": false,
    "temporarilyClosed": false,
    "placeId": null,
    "categories": [
      "Pharmacy"
    ],
    "fid": "0x89d9f42245d3b067:0x76a2eba43fbb2448",
    "cid": "8548654133379015752",
    "reviewsCount": 19,
    "imagesCount": 1,
    "imageCategories": [],
    "scrapedAt": "2025-06-22T06:14:33.635Z",
    "googleFoodUrl": null,
    "hotelAds": [],
    "openingHours": [
      {
        "day": "Monday",
        "hours": "8\u202fAM to 6\u202fPM"
      },
      {
        "day": "Tuesday",
        "hours": "8\u202fAM to 6\u202fPM"
      },
      {
        "day": "Wednesday",
        "hours": "8\u202fAM to 6\u202fPM"
      },
      {
        "day": "Thursday",
        "hours": "8\u202fAM to 6\u202fPM"
      },
      {
        "day": "Friday",
        "hours": "8\u202fAM to 6\u202fPM"
      },
      {
        "day": "Saturday",
        "hours": "Closed"
      },
      {
        "day": "Sunday",
        "hours": "Closed"
      }
    ],
    "peopleAlsoSearch": [],
    "placesTags": [],
    "reviewsTags": [],
    "additionalInfo": {
      "Service options": [
        {
          "Delivery": true
        },
        {
          "Onsite services": true
        }
      ],
      "Accessibility": [
        {
          "Wheelchair accessible entrance": true
        },
        {
          "Wheelchair accessible parking lot": true
        }
      ],
      "Payments": [
        {
          "Credit cards": true
        },
        {
          "Debit cards": true
        },
        {
          "Credit cards": true
        }
      ],
      "Parking": [
        {
          "Free parking lot": true
        }
      ]
    },
    "gasPrices": [],
    "url": "https://www.google.com/maps/search/?api=1&query=SUNY%20Upstate%20Outpatient%20Pharmacy%20at%20Community%20Campus&query_place_id=ChIJZ7DTRSL02YkRSCS7P6TronY",
    "searchPageUrl": "https://www.google.com/maps/search/independent%20pharmacy%20Syracuse%20NY/@42.54640259466427,-73.82116800051296,8z?hl=en",
    "searchString": "independent pharmacy Syracuse NY",
    "language": "en",
    "rank": 14,
    "isAdvertisement": false,
    "imageUrl": "https://streetviewpixels-pa.googleapis.com/v1/thumbnail?panoid=IUf7IhmjcW_tkLHqcD4znw&cb_client=search.gws-prod.gps&w=408&h=240&yaw=171.97018&pitch=0&thumbfov=100",
    "kgmid": "/g/11s0z94vrg",
    "classification": "hospital",
    "is_independent": false,
    "is_compounding": false,
    "confidence": 0.98,
    "source": "perplexity",
    "method": "llm"
  },
  {
    "title": "Kinney Drugs Pharmacy",
    "price": null,
    "categoryName": "Pharmacy",
    "address": "406 Butternut St, Syracuse, NY 13208",
    "neighborhood": "Northside",
    "street": "406 Butternut St",
    "city": "Syracuse",
    "postalCode": "13208",
    "state": "New York",
    "countryCode": "US",
    "website": "https://kinneydrugs.com/locations/pharmacy/87/",
    "phone": "(315) 474-8851",
    "phoneUnformatted": "+13154748851",
    "claimThisBusiness": false,
    "location": {
      "lat": 43.0585322,
      "lng": -76.1495498
    },
    "totalScore": 4,
    "permanentlyClosed": false,
    "temporarilyClosed": false,
    "placeId": null,
    "categories": [
      "Pharmacy"
    ],
    "fid": "0x89d9f3883ff6f209:0x7662cd0ac84b6bca",
    "cid": "8530606090386893770",
    "reviewsCount": 1,
    "imagesCount": 4,
    "imageCategories": [],
    "scrapedAt": "2025-06-22T06:14:33.636Z",
    "googleFoodUrl": null,
    "hotelAds": [],
    "openingHours": [
      {
        "day": "Monday",
        "hours": "9\u202fAM to 8\u202fPM"
      },
      {
        "day": "Tuesday",
        "hours": "9\u202fAM to 8\u202fPM"
      },
      {
        "day": "Wednesday",
        "hours": "9\u202fAM to 8\u202fPM"
      },
      {
        "day": "Thursday",
        "hours": "9\u202fAM to 8\u202fPM"
      },
      {
        "day": "Friday",
        "hours": "9\u202fAM to 8\u202fPM"
      },
      {
        "day": "Saturday",
        "hours": "9\u202fAM to 5\u202fPM"
      },
      {
        "day": "Sunday",
        "hours": "9\u202fAM to 3\u202fPM"
      }
    ],
    "peopleAlsoSearch": [],
    "placesTags": [],
    "reviewsTags": [],
    "additionalInfo": {
      "Service options": [
        {
          "Curbside pickup": true
        },
        {
          "Delivery": true
        },
        {
          "Drive-through": true
        },
        {
          "In-store shopping": true
        },
        {
          "Same-day delivery": true
        }
      ],
      "Accessibility": [
        {
          "Wheelchair accessible entrance": true
        },
        {
          "Wheelchair accessible parking lot": true
        },
        {
          "Wheelchair accessible restroom": true
        },
        {
          "Wheelchair accessible seating": true
        }
      ],
      "Offerings": [
        {
          "Passport photos": true
        }
      ],
      "Amenities": [
        {
          "Gender-neutral restroom": true
        }
      ],
      "Crowd": [
        {
          "LGBTQ+ friendly": true
        }
      ],
      "Planning": [
        {
          "Quick visit": true
        }
      ],
      "Payments": [
        {
          "Checks": true
        },
        {
          "Credit cards": true
        },
        {
          "Debit cards": true
        },
        {
          "NFC mobile payments": true
        },
        {
          "Credit cards": true
        }
      ]
    },
    "gasPrices": [],
    "url": "https://www.google.com/maps/search/?api=1&query=Kinney%20Drugs%20Pharmacy&query_place_id=ChIJCfL2P4jz2YkRymtLyArNYnY",
    "searchPageUrl": "https://www.google.com/maps/search/independent%20pharmacy%20Syracuse%20NY/@42.54640259466427,-73.82116800051296,8z?hl=en",
    "searchString": "independent pharmacy Syracuse NY",
    "language": "en",
    "rank": 15,
    "isAdvertisement": false,
    "imageUrl": "https://lh3.googleusercontent.com/p/AF1QipPCd0Baayef2LM52FuBuKtP3PwXFjoZ1jJkBvAA=w514-h240-k-no",
    "kgmid": "/g/11sw3k7zrp",
    "classification": "chain",
    "is_independent": false,
    "is_compounding": false,
    "confidence": 0.95,
    "source": "perplexity",
    "method": "llm"
  },
  {
    "title": "Price Chopper Pharmacy",
    "price": null,
    "categoryName": "Pharmacy",
    "address": "2515 Erie Blvd E, Syracuse, NY 13224",
    "neighborhood": "Eastside",
    "street": "2515 Erie Blvd E",
    "city": "Syracuse",
    "postalCode": "13224",
    "state": "New York",
    "countryCode": "US",
    "website": "https://www.pricechopper.com/stores/ny/syracuse/pharmacy-172.html",
    "phone": "(315) 449-1016",
    "phoneUnformatted": "+13154491016",
    "claimThisBusiness": false,
    "location": {
      "lat": 43.0549283,
      "lng": -76.1016283
    },
    "totalScore": 4,
    "permanentlyClosed": false,
    "temporarilyClosed": false,
    "placeId": null,
    "categories": [
      "Pharmacy",
      "Drug store",
      "Vitamin & supplements store"
    ],
    "fid": "0x89d9f32748b72c1b:0x58fe69e67b1e5ba9",
    "cid": "6412679358051146665",
    "reviewsCount": 18,
    "imagesCount": 2,
    "imageCategories": [],
    "scrapedAt": "2025-06-22T06:14:33.636Z",
    "googleFoodUrl": null,
    "hotelAds": [],
    "openingHours": [
      {
        "day": "Monday",
        "hours": "8\u202fAM to 7\u202fPM"
      },
      {
        "day": "Tuesday",
        "hours": "8\u202fAM to 7\u202fPM"
      },
      {
        "day": "Wednesday",
        "hours": "8\u202fAM to 7\u202fPM"
      },
      {
        "day": "Thursday",
        "hours": "8\u202fAM to 7\u202fPM"
      },
      {
        "day": "Friday",
        "hours": "8\u202fAM to 7\u202fPM"
      },
      {
        "day": "Saturday",
        "hours": "9\u202fAM to 4\u202fPM"
      },
      {
        "day": "Sunday",
        "hours": "9\u202fAM to 3\u202fPM"
      }
    ],
    "peopleAlsoSearch": [],
    "placesTags": [],
    "reviewsTags": [],
    "additionalInfo": {
      "Service options": [
        {
          "Curbside pickup": true
        },
        {
          "Delivery": true
        },
        {
          "In-store pickup": true
        }
      ],
      "Accessibility": [
        {
          "Wheelchair accessible entrance": true
        },
        {
          "Wheelchair accessible parking lot": true
        }
      ],
      "Amenities": [
        {
          "Wi-Fi": true
        },
        {
          "Free Wi-Fi": true
        }
      ],
      "Planning": [
        {
          "Quick visit": true
        }
      ],
      "Payments": [
        {
          "Checks": true
        },
        {
          "Credit cards": true
        }
      ]
    },
    "gasPrices": [],
    "url": "https://www.google.com/maps/search/?api=1&query=Price%20Chopper%20Pharmacy&query_place_id=ChIJGyy3SCfz2YkRqVsee-Zp_lg",
    "searchPageUrl": "https://www.google.com/maps/search/independent%20pharmacy%20Syracuse%20NY/@42.54640259466427,-73.82116800051296,8z?hl=en",
    "searchString": "independent pharmacy Syracuse NY",
    "language": "en",
    "rank": 16,
    "isAdvertisement": false,
    "imageUrl": "https://lh3.googleusercontent.com/gps-cs-s/AC9h4npYsqPTN0Khjs-AuVuD3zOnI0SNJt5owBVZlNgWbrC77I0WK1r1Ik1FjlYQtJcP3P3D01SVYzabZmWEV3GWxKOrdoNVDsmSF-edcTjp0AKQnKgfTokUzRFIjx7JpvRO7BLc7v97=w408-h270-k-no",
    "kgmid": "/g/11b66jrktw",
    "classification": "chain",
    "is_independent": false,
    "is_compounding": false,
    "confidence": 0.95,
    "source": "perplexity",
    "method": "llm"
  },
  {
    "title": "Kinney Drugs Pharmacy",
    "price": null,
    "categoryName": "Pharmacy",
    "address": "2912 James St, Syracuse, NY 13206",
    "neighborhood": "Eastwood",
    "street": "2912 James St",
    "city": "Syracuse",
    "postalCode": "13206",
    "state": "New York",
    "countryCode": "US",
    "website": "https://kinneydrugs.com/locations/pharmacy/108/",
    "phone": "(315) 703-3356",
    "phoneUnformatted": "+13157033356",
    "claimThisBusiness": false,
    "location": {
      "lat": 43.0686242,
      "lng": -76.1056066
    },
    "totalScore": 1,
    "permanentlyClosed": false,
    "temporarilyClosed": false,
    "placeId": null,
    "categories": [
      "Pharmacy"
    ],
    "fid": "0x89d9f300ec5d2fb9:0x5d1e64f98d628dd6",
    "cid": "6709911517810298326",
    "reviewsCount": 1,
    "imagesCount": 4,
    "imageCategories": [],
    "scrapedAt": "2025-06-22T06:14:33.636Z",
    "googleFoodUrl": null,
    "hotelAds": [],
    "openingHours": [
      {
        "day": "Monday",
        "hours": "9\u202fAM to 8\u202fPM"
      },
      {
        "day": "Tuesday",
        "hours": "9\u202fAM to 8\u202fPM"
      },
      {
        "day": "Wednesday",
        "hours": "9\u202fAM to 8\u202fPM"
      },
      {
        "day": "Thursday",
        "hours": "9\u202fAM to 8\u202fPM"
      },
      {
        "day": "Friday",
        "hours": "9\u202fAM to 8\u202fPM"
      },
      {
        "day": "Saturday",
        "hours": "9\u202fAM to 6\u202fPM"
      },
      {
        "day": "Sunday",
        "hours": "9\u202fAM to 3\u202fPM"
      }
    ],
    "peopleAlsoSearch": [],
    "placesTags": [],
    "reviewsTags": [],
    "additionalInfo": {
      "Service options": [
        {
          "Curbside pickup": true
        },
        {
          "Delivery": true
        },
        {
          "Drive-through": true
        },
        {
          "In-store shopping": true
        },
        {
          "Same-day delivery": true
        }
      ],
      "Accessibility": [
        {
          "Wheelchair accessible entrance": true
        },
        {
          "Wheelchair accessible parking lot": true
        },
        {
          "Wheelchair accessible restroom": true
        },
        {
          "Wheelchair accessible seating": true
        }
      ],
      "Offerings": [
        {
          "Passport photos": true
        }
      ],
      "Amenities": [
        {
          "Gender-neutral restroom": true
        }
      ],
      "Crowd": [
        {
          "LGBTQ+ friendly": true
        }
      ],
      "Planning": [
        {
          "Quick visit": true
        }
      ],
      "Payments": [
        {
          "Checks": true
        },
        {
          "Credit cards": true
        },
        {
          "Debit cards": true
        },
        {
          "NFC mobile payments": true
        },
        {
          "Credit cards": true
        }
      ]
    },
    "gasPrices": [],
    "url": "https://www.google.com/maps/search/?api=1&query=Kinney%20Drugs%20Pharmacy&query_place_id=ChIJuS9d7ADz2YkR1o1ijflkHl0",
    "searchPageUrl": "https://www.google.com/maps/search/independent%20pharmacy%20Syracuse%20NY/@42.54640259466427,-73.82116800051296,8z?hl=en",
    "searchString": "independent pharmacy Syracuse NY",
    "language": "en",
    "rank": 17,
    "isAdvertisement": false,
    "imageUrl": "https://lh3.googleusercontent.com/p/AF1QipM8M8jussTko9OjryZlYXfpODUFWH_15XU-gHU8=w427-h240-k-no",
    "kgmid": "/g/11v5f9ydbb",
    "classification": "chain",
    "is_independent": false,
    "is_compounding": false,
    "confidence": 0.95,
    "source": "perplexity",
    "method": "llm"
  },
  {
    "title": "Kinney Drugs",
    "price": null,
    "categoryName": "Drug store",
    "address": "104 Lafayette Rd, Syracuse, NY 13205",
    "neighborhood": "Valley",
    "street": "104 Lafayette Rd",
    "city": "Syracuse",
    "postalCode": "13205",
    "state": "New York",
    "countryCode": "US",
    "website": "https://kinneydrugs.com/locations/pharmacy/85/",
    "phone": "(315) 492-0248",
    "phoneUnformatted": "+13154920248",
    "claimThisBusiness": false,
    "location": {
      "lat": 43.0011978,
      "lng": -76.1306014
    },
    "locatedIn": "Kinney Drugs Pharmacy",
    "totalScore": 3.5,
    "permanentlyClosed": false,
    "temporarilyClosed": false,
    "placeId": null,
    "categories": [
      "Drug store",
      "Convenience store",
      "General store"
    ],
    "fid": "0x89d9f4f528c9c951:0xc623a1bcd0d20f67",
    "cid": "14277433076023955303",
    "reviewsCount": 83,
    "imagesCount": 8,
    "imageCategories": [],
    "scrapedAt": "2025-06-22T06:14:33.636Z",
    "googleFoodUrl": null,
    "hotelAds": [],
    "openingHours": [
      {
        "day": "Monday",
        "hours": "7\u202fAM to 9\u202fPM"
      },
      {
        "day": "Tuesday",
        "hours": "7\u202fAM to 9\u202fPM"
      },
      {
        "day": "Wednesday",
        "hours": "7\u202fAM to 9\u202fPM"
      },
      {
        "day": "Thursday",
        "hours": "7\u202fAM to 9\u202fPM"
      },
      {
        "day": "Friday",
        "hours": "7\u202fAM to 9\u202fPM"
      },
      {
        "day": "Saturday",
        "hours": "7\u202fAM to 9\u202fPM"
      },
      {
        "day": "Sunday",
        "hours": "7\u202fAM to 8\u202fPM"
      }
    ],
    "additionalOpeningHours": {
      "Kinney Drugs Pharmacy": [
        {
          "day": "Monday",
          "hours": "8:30\u202fAM\u20138:30\u202fPM"
        },
        {
          "day": "Tuesday",
          "hours": "8:30\u202fAM\u20138:30\u202fPM"
        },
        {
          "day": "Wednesday",
          "hours": "8:30\u202fAM\u20138:30\u202fPM"
        },
        {
          "day": "Thursday",
          "hours": "8:30\u202fAM\u20138:30\u202fPM"
        },
        {
          "day": "Friday",
          "hours": "8:30\u202fAM\u20138:30\u202fPM"
        },
        {
          "day": "Saturday",
          "hours": "9\u202fAM\u20137\u202fPM"
        },
        {
          "day": "Sunday",
          "hours": "9\u202fAM\u20135\u202fPM"
        }
      ]
    },
    "peopleAlsoSearch": [],
    "placesTags": [],
    "reviewsTags": [],
    "additionalInfo": {
      "Service options": [
        {
          "Curbside pickup": true
        },
        {
          "Delivery": true
        },
        {
          "Drive-through": true
        },
        {
          "In-store shopping": true
        }
      ],
      "Accessibility": [
        {
          "Assistive hearing loop": true
        },
        {
          "Wheelchair accessible entrance": true
        },
        {
          "Wheelchair accessible parking lot": true
        },
        {
          "Wheelchair accessible restroom": true
        },
        {
          "Wheelchair accessible seating": true
        }
      ],
      "Offerings": [
        {
          "Passport photos": true
        }
      ],
      "Amenities": [
        {
          "Gender-neutral restroom": true
        }
      ],
      "Crowd": [
        {
          "LGBTQ+ friendly": true
        }
      ],
      "Planning": [
        {
          "Quick visit": true
        }
      ],
      "Payments": [
        {
          "Checks": true
        },
        {
          "Credit cards": true
        },
        {
          "Debit cards": true
        },
        {
          "NFC mobile payments": true
        },
        {
          "SNAP/EBT": true
        },
        {
          "Credit cards": true
        }
      ]
    },
    "gasPrices": [],
    "url": "https://www.google.com/maps/search/?api=1&query=Kinney%20Drugs&query_place_id=ChIJUcnJKPX02YkRZw_S0LyhI8Y",
    "searchPageUrl": "https://www.google.com/maps/search/independent%20pharmacy%20Syracuse%20NY/@42.54640259466427,-73.82116800051296,8z?hl=en",
    "searchString": "independent pharmacy Syracuse NY",
    "language": "en",
    "rank": 18,
    "isAdvertisement": false,
    "imageUrl": "https://lh3.googleusercontent.com/gps-cs-s/AC9h4noB-KOcxMMnXTPgTK0gZD3_K7Dgeix9pdWfomTVayWuarFWzeYKMGNS3Lz40LG6uKKaGVVJa_Nh6nl1oW1vYQ0CswCJldjzW1wmW-jwNmUPUS8YnTxlPUR0WAKDCTdtgRnIt7ky=w408-h544-k-no",
    "kgmid": "/g/1tscp_tp",
    "classification": "chain",
    "is_independent": false,
    "is_compounding": false,
    "confidence": 0.95,
    "source": "perplexity",
    "method": "llm"
  },
  {
    "title": "Kinney Drugs Pharmacy",
    "price": null,
    "categoryName": "Pharmacy",
    "address": "104 Lafayette Rd, Syracuse, NY 13205",
    "neighborhood": "Valley",
    "street": "104 Lafayette Rd",
    "city": "Syracuse",
    "postalCode": "13205",
    "state": "New York",
    "countryCode": "US",
    "website": "https://kinneydrugs.com/locations/pharmacy/85/",
    "phone": "(315) 492-0248",
    "phoneUnformatted": "+13154920248",
    "claimThisBusiness": false,
    "location": {
      "lat": 43.0011904,
      "lng": -76.1305826
    },
    "totalScore": 3,
    "permanentlyClosed": false,
    "temporarilyClosed": false,
    "placeId": null,
    "categories": [
      "Pharmacy"
    ],
    "fid": "0x89d9f509d5d97143:0xfef39948a79a0963",
    "cid": "18371195842302970211",
    "reviewsCount": 1,
    "imagesCount": 4,
    "imageCategories": [],
    "scrapedAt": "2025-06-22T06:14:33.636Z",
    "googleFoodUrl": null,
    "hotelAds": [],
    "openingHours": [
      {
        "day": "Monday",
        "hours": "8:30\u202fAM to 8:30\u202fPM"
      },
      {
        "day": "Tuesday",
        "hours": "8:30\u202fAM to 8:30\u202fPM"
      },
      {
        "day": "Wednesday",
        "hours": "8:30\u202fAM to 8:30\u202fPM"
      },
      {
        "day": "Thursday",
        "hours": "8:30\u202fAM to 8:30\u202fPM"
      },
      {
        "day": "Friday",
        "hours": "8:30\u202fAM to 8:30\u202fPM"
      },
      {
        "day": "Saturday",
        "hours": "9\u202fAM to 7\u202fPM"
      },
      {
        "day": "Sunday",
        "hours": "9\u202fAM to 5\u202fPM"
      }
    ],
    "peopleAlsoSearch": [],
    "placesTags": [],
    "reviewsTags": [],
    "additionalInfo": {
      "Service options": [
        {
          "Curbside pickup": true
        },
        {
          "Delivery": true
        },
        {
          "Drive-through": true
        },
        {
          "In-store shopping": true
        }
      ],
      "Accessibility": [
        {
          "Wheelchair accessible entrance": true
        },
        {
          "Wheelchair accessible parking lot": true
        },
        {
          "Wheelchair accessible restroom": true
        },
        {
          "Wheelchair accessible seating": true
        }
      ],
      "Offerings": [
        {
          "Passport photos": true
        }
      ],
      "Amenities": [
        {
          "Gender-neutral restroom": true
        }
      ],
      "Crowd": [
        {
          "LGBTQ+ friendly": true
        }
      ],
      "Planning": [
        {
          "Quick visit": true
        }
      ],
      "Payments": [
        {
          "Checks": true
        },
        {
          "Credit cards": true
        },
        {
          "Debit cards": true
        },
        {
          "NFC mobile payments": true
        },
        {
          "Credit cards": true
        }
      ]
    },
    "gasPrices": [],
    "url": "https://www.google.com/maps/search/?api=1&query=Kinney%20Drugs%20Pharmacy&query_place_id=ChIJQ3HZ1Qn12YkRYwmap0iZ8_4",
    "searchPageUrl": "https://www.google.com/maps/search/independent%20pharmacy%20Syracuse%20NY/@42.54640259466427,-73.82116800051296,8z?hl=en",
    "searchString": "independent pharmacy Syracuse NY",
    "language": "en",
    "rank": 19,
    "isAdvertisement": false,
    "imageUrl": "https://lh3.googleusercontent.com/p/AF1QipOhkfOlbKsgekq1MztPqgIEkhwrQ2Zqj4Ug6An0=w408-h306-k-no",
    "kgmid": "/g/11kqwm1rbs",
    "classification": "chain",
    "is_independent": false,
    "is_compounding": false,
    "confidence": 0.95,
    "source": "perplexity",
    "method": "llm"
  }
]