[
  {
    "title": "Strive Compounding Pharmacy",
    "price": null,
    "categoryName": "Pharmacy",
    "address": "1077 Central Pkwy S suite 800, San Antonio, TX 78232",
    "neighborhood": "Uptown Central",
    "street": "1077 Central Pkwy S suite 800",
    "city": "San Antonio",
    "postalCode": "78232",
    "state": "Texas",
    "countryCode": "US",
    "website": "https://www.strivepharmacy.com/locations/texas/san-antonio-78232",
    "phone": "(830) 816-5910",
    "phoneUnformatted": "+18308165910",
    "claimThisBusiness": false,
    "location": {
      "lat": 29.5681531,
      "lng": -98.4774315
    },
    "totalScore": 4.9,
    "permanentlyClosed": false,
    "temporarilyClosed": false,
    "placeId": null,
    "categories": [
      "Pharmacy"
    ],
    "fid": "0x865c717b90dd1dc9:0xf442b5d4989b06be",
    "cid": "17600830218415310526",
    "reviewsCount": 244,
    "imagesCount": 11,
    "imageCategories": [],
    "scrapedAt": "2025-06-22T06:41:41.863Z",
    "googleFoodUrl": null,
    "hotelAds": [],
    "openingHours": [
      {
        "day": "Monday",
        "hours": "9\u202fAM to 5:30\u202fPM"
      },
      {
        "day": "Tuesday",
        "hours": "9\u202fAM to 5:30\u202fPM"
      },
      {
        "day": "Wednesday",
        "hours": "9\u202fAM to 5:30\u202fPM"
      },
      {
        "day": "Thursday",
        "hours": "9\u202fAM to 5:30\u202fPM"
      },
      {
        "day": "Friday",
        "hours": "9\u202fAM to 5:30\u202fPM"
      },
      {
        "day": "Saturday",
        "hours": "Closed"
      },
      {
        "day": "Sunday",
        "hours": "Closed"
      }
    ],
    "peopleAlsoSearch": [],
    "placesTags": [],
    "reviewsTags": [],
    "additionalInfo": {
      "Service options": [
        {
          "Delivery": true
        },
        {
          "In-store pickup": true
        },
        {
          "In-store shopping": true
        }
      ],
      "Accessibility": [
        {
          "Wheelchair accessible entrance": true
        },
        {
          "Wheelchair accessible parking lot": true
        }
      ],
      "Payments": [
        {
          "Credit cards": true
        },
        {
          "Debit cards": true
        },
        {
          "Credit cards": true
        }
      ],
      "Parking": [
        {
          "Free parking lot": true
        },
        {
          "Free street parking": true
        },
        {
          "On-site parking": true
        }
      ]
    },
    "gasPrices": [],
    "url": "https://www.google.com/maps/search/?api=1&query=Strive%20Compounding%20Pharmacy&query_place_id=ChIJyR3dkHtxXIYRvgabmNS1QvQ",
    "searchPageUrl": "https://www.google.com/maps/search/independent%20pharmacy%20San%20Antonio%20TX/@52.092859987054844,-179.90774136292754,14z?hl=en",
    "searchString": "independent pharmacy San Antonio TX",
    "language": "en",
    "rank": 1,
    "isAdvertisement": false,
    "imageUrl": "https://lh3.googleusercontent.com/p/AF1QipMVjzhdaL9Vpge7THsCHumHItMa_f9YfLJxMrhd=w408-h306-k-no",
    "kgmid": "/g/11sjv2zys2",
    "classification": "independent",
    "is_independent": true,
    "is_compounding": true,
    "confidence": 0.95,
    "source": "perplexity",
    "method": "llm"
  },
  {
    "title": "Good Life Pharmacy",
    "price": null,
    "categoryName": "Pharmacy",
    "address": "26108 Overlook Pkwy, San Antonio, TX 78260",
    "neighborhood": null,
    "street": "26108 Overlook Pkwy",
    "city": "San Antonio",
    "postalCode": "78260",
    "state": "Texas",
    "countryCode": "US",
    "website": "http://www.goodlifepharm.com/",
    "phone": "(210) 819-4515",
    "phoneUnformatted": "+12108194515",
    "claimThisBusiness": false,
    "location": {
      "lat": 29.685048,
      "lng": -98.473458
    },
    "totalScore": 4.9,
    "permanentlyClosed": false,
    "temporarilyClosed": false,
    "placeId": null,
    "categories": [
      "Pharmacy",
      "Convenience store"
    ],
    "fid": "0x865c8810ace73f03:0x7ec55e0bc0213120",
    "cid": "9134810823751971104",
    "reviewsCount": 60,
    "imagesCount": 2,
    "imageCategories": [],
    "scrapedAt": "2025-06-22T06:41:41.865Z",
    "googleFoodUrl": null,
    "hotelAds": [],
    "openingHours": [
      {
        "day": "Monday",
        "hours": "9\u202fAM to 7\u202fPM"
      },
      {
        "day": "Tuesday",
        "hours": "9\u202fAM to 7\u202fPM"
      },
      {
        "day": "Wednesday",
        "hours": "9\u202fAM to 7\u202fPM"
      },
      {
        "day": "Thursday",
        "hours": "9\u202fAM to 7\u202fPM"
      },
      {
        "day": "Friday",
        "hours": "9\u202fAM to 7\u202fPM"
      },
      {
        "day": "Saturday",
        "hours": "9\u202fAM to 2\u202fPM"
      },
      {
        "day": "Sunday",
        "hours": "Closed"
      }
    ],
    "peopleAlsoSearch": [],
    "placesTags": [],
    "reviewsTags": [],
    "additionalInfo": {
      "From the business": [
        {
          "Small business": true
        }
      ],
      "Service options": [
        {
          "Delivery": true
        },
        {
          "Drive-through": true
        },
        {
          "In-store pickup": true
        }
      ],
      "Accessibility": [
        {
          "Wheelchair accessible entrance": true
        },
        {
          "Wheelchair accessible parking lot": true
        }
      ],
      "Planning": [
        {
          "Quick visit": true
        }
      ],
      "Payments": [
        {
          "Credit cards": true
        },
        {
          "Debit cards": true
        },
        {
          "NFC mobile payments": true
        },
        {
          "Credit cards": true
        }
      ]
    },
    "gasPrices": [],
    "url": "https://www.google.com/maps/search/?api=1&query=Good%20Life%20Pharmacy&query_place_id=ChIJAz_nrBCIXIYRIDEhwAtexX4",
    "searchPageUrl": "https://www.google.com/maps/search/independent%20pharmacy%20San%20Antonio%20TX/@52.092859987054844,-179.90774136292754,14z?hl=en",
    "searchString": "independent pharmacy San Antonio TX",
    "language": "en",
    "rank": 2,
    "isAdvertisement": false,
    "imageUrl": "https://lh3.googleusercontent.com/gps-cs-s/AC9h4noxADghaKxsX1Ma1EtkJqp3_QETBoN-IKlXJwwyaPD9sI_BmEVzguLSLW9O8nE7DvVR-8Z1lnVAKXhJip1hhQE878aHvn9dU6FVV6NYpv6P02RN61uO6PXSUddwpoR-_mcbngTewg=w408-h306-k-no",
    "kgmid": "/g/11b6hmwlwv",
    "classification": "independent",
    "is_independent": true,
    "is_compounding": false,
    "confidence": 0.9,
    "source": "perplexity",
    "method": "llm"
  },
  {
    "title": "Stonegate Pharmacy on Broadway",
    "price": null,
    "categoryName": "Pharmacy",
    "address": "2515 Broadway, San Antonio, TX 78215",
    "neighborhood": "Westfort Alliance",
    "street": "2515 Broadway",
    "city": "San Antonio",
    "postalCode": "78215",
    "state": "Texas",
    "countryCode": "US",
    "website": "http://stonegaterx.com/",
    "phone": "(210) 354-0101",
    "phoneUnformatted": "+12103540101",
    "claimThisBusiness": false,
    "location": {
      "lat": 29.4500726,
      "lng": -98.4745767
    },
    "totalScore": 4.1,
    "permanentlyClosed": false,
    "temporarilyClosed": false,
    "placeId": null,
    "categories": [
      "Pharmacy",
      "Drug store"
    ],
    "fid": "0x865cf58d480be7d3:0x46af6ea4c50037af",
    "cid": "5093411357538138031",
    "reviewsCount": 63,
    "imagesCount": 56,
    "imageCategories": [],
    "scrapedAt": "2025-06-22T06:41:41.865Z",
    "googleFoodUrl": null,
    "hotelAds": [],
    "openingHours": [
      {
        "day": "Monday",
        "hours": "8:30\u202fAM to 6:30\u202fPM"
      },
      {
        "day": "Tuesday",
        "hours": "8:30\u202fAM to 6:30\u202fPM"
      },
      {
        "day": "Wednesday",
        "hours": "8:30\u202fAM to 6:30\u202fPM"
      },
      {
        "day": "Thursday",
        "hours": "8:30\u202fAM to 6:30\u202fPM"
      },
      {
        "day": "Friday",
        "hours": "8:30\u202fAM to 6:30\u202fPM"
      },
      {
        "day": "Saturday",
        "hours": "Closed"
      },
      {
        "day": "Sunday",
        "hours": "Closed"
      }
    ],
    "peopleAlsoSearch": [],
    "placesTags": [],
    "reviewsTags": [],
    "additionalInfo": {
      "Service options": [
        {
          "Delivery": true
        },
        {
          "In-store pickup": true
        },
        {
          "In-store shopping": true
        },
        {
          "Same-day delivery": true
        }
      ],
      "Accessibility": [
        {
          "Wheelchair accessible entrance": true
        },
        {
          "Wheelchair accessible parking lot": true
        }
      ],
      "Crowd": [
        {
          "LGBTQ+ friendly": true
        },
        {
          "Transgender safespace": true
        }
      ],
      "Planning": [
        {
          "Quick visit": true
        }
      ],
      "Payments": [
        {
          "Checks": true
        },
        {
          "Credit cards": true
        },
        {
          "Debit cards": true
        },
        {
          "Credit cards": true
        }
      ]
    },
    "gasPrices": [],
    "url": "https://www.google.com/maps/search/?api=1&query=Stonegate%20Pharmacy%20on%20Broadway&query_place_id=ChIJ0-cLSI31XIYRrzcAxaRur0Y",
    "searchPageUrl": "https://www.google.com/maps/search/independent%20pharmacy%20San%20Antonio%20TX/@52.092859987054844,-179.90774136292754,14z?hl=en",
    "searchString": "independent pharmacy San Antonio TX",
    "language": "en",
    "rank": 3,
    "isAdvertisement": false,
    "imageUrl": "https://lh3.googleusercontent.com/p/AF1QipNUywYvFMxOpUPL8veYB9TgHWMjmU4-e-0ZhQc=w408-h272-k-no",
    "kgmid": "/g/11btx3y4lz",
    "classification": "independent",
    "is_independent": true,
    "is_compounding": false,
    "confidence": 0.9,
    "source": "perplexity",
    "method": "llm"
  },
  {
    "title": "Evolve Specialty Pharmacy & Wellness",
    "price": null,
    "categoryName": "Pharmacy",
    "address": "19239 Stone Oak Pkwy Ste # 103, San Antonio, TX 78258",
    "neighborhood": "Stone Oak",
    "street": "19239 Stone Oak Pkwy Ste # 103",
    "city": "San Antonio",
    "postalCode": "78258",
    "state": "Texas",
    "countryCode": "US",
    "website": "https://evolvepharmacy.com/",
    "phone": "(210) 314-6464",
    "phoneUnformatted": "+12103146464",
    "claimThisBusiness": false,
    "location": {
      "lat": 29.6291527,
      "lng": -98.4959689
    },
    "totalScore": 5,
    "permanentlyClosed": false,
    "temporarilyClosed": false,
    "placeId": null,
    "categories": [
      "Pharmacy",
      "Drug store"
    ],
    "fid": "0x865c63789560364b:0x5c6f703b1bc9a964",
    "cid": "6660665773075835236",
    "reviewsCount": 18,
    "imagesCount": 4,
    "imageCategories": [],
    "scrapedAt": "2025-06-22T06:41:41.866Z",
    "googleFoodUrl": null,
    "hotelAds": [],
    "openingHours": [
      {
        "day": "Monday",
        "hours": "9\u202fAM to 5\u202fPM"
      },
      {
        "day": "Tuesday",
        "hours": "9\u202fAM to 5\u202fPM"
      },
      {
        "day": "Wednesday",
        "hours": "9\u202fAM to 5\u202fPM"
      },
      {
        "day": "Thursday",
        "hours": "9\u202fAM to 5\u202fPM"
      },
      {
        "day": "Friday",
        "hours": "9:15\u202fAM to 5\u202fPM"
      },
      {
        "day": "Saturday",
        "hours": "Closed"
      },
      {
        "day": "Sunday",
        "hours": "Closed"
      }
    ],
    "additionalOpeningHours": {
      "Delivery": [
        {
          "day": "Monday",
          "hours": "9\u202fAM\u20135\u202fPM"
        },
        {
          "day": "Tuesday",
          "hours": "9\u202fAM\u20135\u202fPM"
        },
        {
          "day": "Wednesday",
          "hours": "9\u202fAM\u20135\u202fPM"
        },
        {
          "day": "Thursday",
          "hours": "9\u202fAM\u20135\u202fPM"
        },
        {
          "day": "Friday",
          "hours": "9\u202fAM\u20135\u202fPM"
        },
        {
          "day": "Saturday",
          "hours": "Closed"
        },
        {
          "day": "Sunday",
          "hours": "Closed"
        }
      ]
    },
    "peopleAlsoSearch": [],
    "placesTags": [],
    "reviewsTags": [],
    "additionalInfo": {
      "From the business": [
        {
          "Small business": true
        }
      ],
      "Service options": [
        {
          "Curbside pickup": true
        },
        {
          "Delivery": true
        },
        {
          "In-store pickup": true
        },
        {
          "In-store shopping": true
        },
        {
          "Onsite services": true
        },
        {
          "Same-day delivery": true
        }
      ],
      "Accessibility": [
        {
          "Wheelchair accessible entrance": true
        },
        {
          "Wheelchair accessible parking lot": true
        },
        {
          "Wheelchair accessible restroom": true
        },
        {
          "Wheelchair accessible seating": true
        }
      ],
      "Payments": [
        {
          "Checks": true
        },
        {
          "Credit cards": true
        },
        {
          "Debit cards": true
        },
        {
          "NFC mobile payments": true
        },
        {
          "Credit cards": true
        }
      ]
    },
    "gasPrices": [],
    "url": "https://www.google.com/maps/search/?api=1&query=Evolve%20Specialty%20Pharmacy%20%26%20Wellness&query_place_id=ChIJSzZglXhjXIYRZKnJGztwb1w",
    "searchPageUrl": "https://www.google.com/maps/search/independent%20pharmacy%20San%20Antonio%20TX/@52.092859987054844,-179.90774136292754,14z?hl=en",
    "searchString": "independent pharmacy San Antonio TX",
    "language": "en",
    "rank": 4,
    "isAdvertisement": false,
    "imageUrl": "https://lh3.googleusercontent.com/p/AF1QipMIJdtKgQjr4NZXX29TJ5kFuFygSd5xwcU7Wstn=w408-h544-k-no",
    "kgmid": "/g/11s5mp3nsf",
    "classification": "independent",
    "is_independent": true,
    "is_compounding": false,
    "confidence": 0.85,
    "source": "perplexity",
    "method": "llm"
  },
  {
    "title": "The Mix Pharmacy Compounding & CBD",
    "price": null,
    "categoryName": "Pharmacy",
    "address": "14369 Blanco Rd, San Antonio, TX 78216",
    "neighborhood": "Cadillac Drive",
    "street": "14369 Blanco Rd",
    "city": "San Antonio",
    "postalCode": "78216",
    "state": "Texas",
    "countryCode": "US",
    "website": "http://www.mixingpharmacy.com/",
    "phone": "(210) 226-1112",
    "phoneUnformatted": "+12102261112",
    "claimThisBusiness": false,
    "location": {
      "lat": 29.5732313,
      "lng": -98.5159474
    },
    "totalScore": 4.6,
    "permanentlyClosed": false,
    "temporarilyClosed": false,
    "placeId": null,
    "categories": [
      "Pharmacy"
    ],
    "fid": "0x865c6117a149f4db:0xe976b208b93c5e39",
    "cid": "16822829208626290233",
    "reviewsCount": 11,
    "imagesCount": 8,
    "imageCategories": [],
    "scrapedAt": "2025-06-22T06:41:41.866Z",
    "googleFoodUrl": null,
    "hotelAds": [],
    "openingHours": [
      {
        "day": "Monday",
        "hours": "10\u202fAM to 6\u202fPM"
      },
      {
        "day": "Tuesday",
        "hours": "10\u202fAM to 6\u202fPM"
      },
      {
        "day": "Wednesday",
        "hours": "10\u202fAM to 6\u202fPM"
      },
      {
        "day": "Thursday",
        "hours": "10\u202fAM to 6\u202fPM"
      },
      {
        "day": "Friday",
        "hours": "10\u202fAM to 6\u202fPM"
      },
      {
        "day": "Saturday",
        "hours": "Closed"
      },
      {
        "day": "Sunday",
        "hours": "Closed"
      }
    ],
    "peopleAlsoSearch": [],
    "placesTags": [],
    "reviewsTags": [],
    "additionalInfo": {
      "From the business": [
        {
          "Small business": true
        }
      ],
      "Service options": [
        {
          "Delivery": true
        },
        {
          "In-store pickup": true
        },
        {
          "Same-day delivery": true
        }
      ],
      "Accessibility": [
        {
          "Wheelchair accessible entrance": true
        },
        {
          "Wheelchair accessible parking lot": true
        }
      ],
      "Planning": [
        {
          "Quick visit": true
        }
      ],
      "Payments": [
        {
          "Credit cards": true
        },
        {
          "Debit cards": true
        },
        {
          "NFC mobile payments": true
        },
        {
          "Credit cards": true
        }
      ]
    },
    "gasPrices": [],
    "url": "https://www.google.com/maps/search/?api=1&query=The%20Mix%20Pharmacy%20Compounding%20%26%20CBD&query_place_id=ChIJ2_RJoRdhXIYROV48uQiyduk",
    "searchPageUrl": "https://www.google.com/maps/search/independent%20pharmacy%20San%20Antonio%20TX/@52.092859987054844,-179.90774136292754,14z?hl=en",
    "searchString": "independent pharmacy San Antonio TX",
    "language": "en",
    "rank": 5,
    "isAdvertisement": false,
    "imageUrl": "https://lh3.googleusercontent.com/p/AF1QipNn2XPCCAjdWlXgab4ZOdE66UXQ43j_IyR9gkHg=w408-h301-k-no",
    "kgmid": "/g/11j1rhxlnc",
    "classification": "independent",
    "is_independent": true,
    "is_compounding": true,
    "confidence": 0.95,
    "source": "perplexity",
    "method": "llm"
  },
  {
    "title": "Broadway Pharmacy",
    "price": null,
    "categoryName": "Pharmacy",
    "address": "6100 Broadway, San Antonio, TX 78209",
    "neighborhood": "Alamo Heights",
    "street": "6100 Broadway",
    "city": "San Antonio",
    "postalCode": "78209",
    "state": "Texas",
    "countryCode": "US",
    "website": "http://www.broadwayrx.com/",
    "phone": "(210) 824-3322",
    "phoneUnformatted": "+12108243322",
    "claimThisBusiness": false,
    "location": {
      "lat": 29.4831583,
      "lng": -98.4658986
    },
    "totalScore": 4.4,
    "permanentlyClosed": false,
    "temporarilyClosed": false,
    "placeId": null,
    "categories": [
      "Pharmacy"
    ],
    "fid": "0x865cf5726e64ae41:0xb6db7026a2898ac5",
    "cid": "13176248446040509125",
    "reviewsCount": 18,
    "imagesCount": 1,
    "imageCategories": [],
    "scrapedAt": "2025-06-22T06:41:41.866Z",
    "googleFoodUrl": null,
    "hotelAds": [],
    "openingHours": [
      {
        "day": "Monday",
        "hours": "8:30\u202fAM to 6\u202fPM"
      },
      {
        "day": "Tuesday",
        "hours": "8:30\u202fAM to 6\u202fPM"
      },
      {
        "day": "Wednesday",
        "hours": "8:30\u202fAM to 6\u202fPM"
      },
      {
        "day": "Thursday",
        "hours": "8:30\u202fAM to 6\u202fPM"
      },
      {
        "day": "Friday",
        "hours": "8:30\u202fAM to 6\u202fPM"
      },
      {
        "day": "Saturday",
        "hours": "9\u202fAM to 1\u202fPM"
      },
      {
        "day": "Sunday",
        "hours": "Closed"
      }
    ],
    "peopleAlsoSearch": [],
    "placesTags": [],
    "reviewsTags": [],
    "additionalInfo": {
      "From the business": [
        {
          "Small business": true
        }
      ],
      "Service options": [
        {
          "Delivery": true
        },
        {
          "In-store pickup": true
        }
      ],
      "Accessibility": [
        {
          "Wheelchair accessible parking lot": true
        }
      ],
      "Payments": [
        {
          "Debit cards": true
        },
        {
          "NFC mobile payments": true
        },
        {
          "Credit cards": true
        }
      ]
    },
    "gasPrices": [],
    "url": "https://www.google.com/maps/search/?api=1&query=Broadway%20Pharmacy&query_place_id=ChIJQa5kbnL1XIYRxYqJoiZw27Y",
    "searchPageUrl": "https://www.google.com/maps/search/independent%20pharmacy%20San%20Antonio%20TX/@52.092859987054844,-179.90774136292754,14z?hl=en",
    "searchString": "independent pharmacy San Antonio TX",
    "language": "en",
    "rank": 6,
    "isAdvertisement": false,
    "imageUrl": "https://streetviewpixels-pa.googleapis.com/v1/thumbnail?panoid=CMLF1_2DrhxVwYowEcVUew&cb_client=search.gws-prod.gps&w=408&h=240&yaw=173.14838&pitch=0&thumbfov=100",
    "kgmid": "/g/1tdmkxlz",
    "classification": "independent",
    "is_independent": true,
    "is_compounding": false,
    "confidence": 0.9,
    "source": "perplexity",
    "method": "llm"
  },
  {
    "title": "15RX Pharmacy-2",
    "price": null,
    "categoryName": "Pharmacy",
    "address": "11212 Texas 151 Access Rd #110, San Antonio, TX 78251",
    "neighborhood": "Far West Side",
    "street": "11212 Texas 151 Access Rd #110",
    "city": "San Antonio",
    "postalCode": "78251",
    "state": "Texas",
    "countryCode": "US",
    "website": "http://www.15rx.com/",
    "phone": "(210) 543-1579",
    "phoneUnformatted": "+12105431579",
    "claimThisBusiness": true,
    "location": {
      "lat": 29.4663085,
      "lng": -98.6972742
    },
    "totalScore": 4.7,
    "permanentlyClosed": false,
    "temporarilyClosed": false,
    "placeId": null,
    "categories": [
      "Pharmacy",
      "Medical supply store"
    ],
    "fid": "0x865c42fa553fb9d1:0xe90c38b60d1ee28",
    "cid": "1049553716569566760",
    "reviewsCount": 83,
    "imagesCount": 1,
    "imageCategories": [],
    "scrapedAt": "2025-06-22T06:41:41.866Z",
    "googleFoodUrl": null,
    "hotelAds": [],
    "openingHours": [
      {
        "day": "Monday",
        "hours": "8:30\u202fAM to 6\u202fPM"
      },
      {
        "day": "Tuesday",
        "hours": "8:30\u202fAM to 6\u202fPM"
      },
      {
        "day": "Wednesday",
        "hours": "8:30\u202fAM to 6\u202fPM"
      },
      {
        "day": "Thursday",
        "hours": "8:30\u202fAM to 6\u202fPM"
      },
      {
        "day": "Friday",
        "hours": "8:30\u202fAM to 6\u202fPM"
      },
      {
        "day": "Saturday",
        "hours": "9\u202fAM to 3\u202fPM"
      },
      {
        "day": "Sunday",
        "hours": "Closed"
      }
    ],
    "peopleAlsoSearch": [],
    "placesTags": [],
    "reviewsTags": [],
    "additionalInfo": {
      "Service options": [
        {
          "Delivery": true
        },
        {
          "In-store pickup": true
        }
      ],
      "Accessibility": [
        {
          "Wheelchair accessible entrance": true
        },
        {
          "Wheelchair accessible parking lot": true
        }
      ],
      "Payments": [
        {
          "Credit cards": true
        },
        {
          "Debit cards": true
        },
        {
          "NFC mobile payments": true
        },
        {
          "Credit cards": true
        }
      ]
    },
    "gasPrices": [],
    "url": "https://www.google.com/maps/search/?api=1&query=15RX%20Pharmacy-2&query_place_id=ChIJ0bk_VfpCXIYRKO7RYIvDkA4",
    "searchPageUrl": "https://www.google.com/maps/search/independent%20pharmacy%20San%20Antonio%20TX/@52.092859987054844,-179.90774136292754,14z?hl=en",
    "searchString": "independent pharmacy San Antonio TX",
    "language": "en",
    "rank": 7,
    "isAdvertisement": false,
    "imageUrl": "https://streetviewpixels-pa.googleapis.com/v1/thumbnail?panoid=ASMrSvnGvJ29tivQ2lAsiA&cb_client=search.gws-prod.gps&w=408&h=240&yaw=299.35843&pitch=0&thumbfov=100",
    "kgmid": "/g/1hc7nt1d2",
    "classification": "independent",
    "is_independent": true,
    "is_compounding": false,
    "confidence": 0.85,
    "source": "perplexity",
    "method": "llm"
  },
  {
    "title": "PREMIER PHARMACY",
    "price": null,
    "categoryName": "Pharmacy",
    "address": "2425 Babcock Rd, San Antonio, TX 78229",
    "neighborhood": "Northwest Side",
    "street": "2425 Babcock Rd",
    "city": "San Antonio",
    "postalCode": "78229",
    "state": "Texas",
    "countryCode": "US",
    "website": "https://premierpharmacysa.com/contact-us/",
    "phone": "(210) 298-9000",
    "phoneUnformatted": "+12102989000",
    "claimThisBusiness": true,
    "location": {
      "lat": 29.5063261,
      "lng": -98.5847949
    },
    "totalScore": 4.4,
    "permanentlyClosed": false,
    "temporarilyClosed": false,
    "placeId": null,
    "categories": [
      "Pharmacy"
    ],
    "fid": "0x865c5d00104d9917:0x4d0b4e2bc098d93c",
    "cid": "5551616915486071100",
    "reviewsCount": 5,
    "imagesCount": 1,
    "imageCategories": [],
    "scrapedAt": "2025-06-22T06:41:41.867Z",
    "googleFoodUrl": null,
    "hotelAds": [],
    "openingHours": [],
    "peopleAlsoSearch": [],
    "placesTags": [],
    "reviewsTags": [],
    "additionalInfo": {
      "Service options": [
        {
          "Delivery": true
        },
        {
          "In-store pickup": true
        }
      ],
      "Accessibility": [
        {
          "Wheelchair accessible entrance": true
        },
        {
          "Wheelchair accessible parking lot": true
        }
      ],
      "Payments": [
        {
          "Credit cards": true
        }
      ]
    },
    "gasPrices": [],
    "url": "https://www.google.com/maps/search/?api=1&query=PREMIER%20PHARMACY&query_place_id=ChIJF5lNEABdXIYRPNmYwCtOC00",
    "searchPageUrl": "https://www.google.com/maps/search/independent%20pharmacy%20San%20Antonio%20TX/@52.092859987054844,-179.90774136292754,14z?hl=en",
    "searchString": "independent pharmacy San Antonio TX",
    "language": "en",
    "rank": 8,
    "isAdvertisement": false,
    "imageUrl": "https://streetviewpixels-pa.googleapis.com/v1/thumbnail?panoid=L9ASINW4ior3xfEgSQZvEw&cb_client=search.gws-prod.gps&w=408&h=240&yaw=91.497734&pitch=0&thumbfov=100",
    "kgmid": "/g/11w26cdnl_",
    "classification": "independent",
    "is_independent": true,
    "is_compounding": false,
    "confidence": 0.9,
    "source": "perplexity",
    "method": "llm"
  },
  {
    "title": "SYNERGY PHARMACY",
    "price": null,
    "categoryName": "Pharmacy",
    "address": "1314 E Sonterra Blvd STE 2102, San Antonio, TX 78258",
    "neighborhood": "Stone Oak",
    "street": "1314 E Sonterra Blvd STE 2102",
    "city": "San Antonio",
    "postalCode": "78258",
    "state": "Texas",
    "countryCode": "US",
    "website": "http://www.synergypharmacy.net/",
    "phone": "(210) 704-1551",
    "phoneUnformatted": "+12107041551",
    "claimThisBusiness": false,
    "location": {
      "lat": 29.613821,
      "lng": -98.4729836
    },
    "totalScore": 4.9,
    "permanentlyClosed": false,
    "temporarilyClosed": false,
    "placeId": null,
    "categories": [
      "Pharmacy"
    ],
    "fid": "0x865c892b8ee39015:0x741f00a9e87e311f",
    "cid": "8367407362427728159",
    "reviewsCount": 353,
    "imagesCount": 3,
    "imageCategories": [],
    "scrapedAt": "2025-06-22T06:41:41.867Z",
    "googleFoodUrl": null,
    "hotelAds": [],
    "openingHours": [
      {
        "day": "Monday",
        "hours": "9\u202fAM to 6\u202fPM"
      },
      {
        "day": "Tuesday",
        "hours": "9\u202fAM to 6\u202fPM"
      },
      {
        "day": "Wednesday",
        "hours": "9\u202fAM to 6\u202fPM"
      },
      {
        "day": "Thursday",
        "hours": "9\u202fAM to 6\u202fPM"
      },
      {
        "day": "Friday",
        "hours": "9\u202fAM to 6\u202fPM"
      },
      {
        "day": "Saturday",
        "hours": "Closed"
      },
      {
        "day": "Sunday",
        "hours": "Closed"
      }
    ],
    "peopleAlsoSearch": [],
    "placesTags": [],
    "reviewsTags": [],
    "additionalInfo": {
      "From the business": [
        {
          "Small business": true
        }
      ],
      "Service options": [
        {
          "Delivery": true
        },
        {
          "In-store pickup": true
        },
        {
          "Onsite services": true
        },
        {
          "Same-day delivery": true
        }
      ],
      "Accessibility": [
        {
          "Wheelchair accessible entrance": true
        },
        {
          "Wheelchair accessible parking lot": true
        }
      ],
      "Payments": [
        {
          "Credit cards": true
        },
        {
          "Debit cards": true
        },
        {
          "NFC mobile payments": true
        },
        {
          "Credit cards": true
        }
      ]
    },
    "gasPrices": [],
    "url": "https://www.google.com/maps/search/?api=1&query=SYNERGY%20PHARMACY&query_place_id=ChIJFZDjjiuJXIYRHzF-6KkAH3Q",
    "searchPageUrl": "https://www.google.com/maps/search/independent%20pharmacy%20San%20Antonio%20TX/@52.092859987054844,-179.90774136292754,14z?hl=en",
    "searchString": "independent pharmacy San Antonio TX",
    "language": "en",
    "rank": 9,
    "isAdvertisement": false,
    "imageUrl": "https://lh3.googleusercontent.com/gps-cs-s/AC9h4nq4K9z3OUSrmaf4Jh96MbhEsowpJ9HONw116az2ryKGz3UkaDJSmM6SbVtkuNDvxbm61N2Jpsiu_nx3MJHS3_eiIw3JMPs03tPSNLsMCjwafV7WBaPBEEVt8Gaf3WRzwBug5GL6=w408-h544-k-no",
    "kgmid": "/g/11qnbff9f0",
    "classification": "independent",
    "is_independent": true,
    "is_compounding": false,
    "confidence": 0.9,
    "source": "perplexity",
    "method": "llm"
  },
  {
    "title": "Alamo Specialty Pharmacy @ Huebner",
    "price": null,
    "categoryName": "Pharmacy",
    "address": "8832 Huebner Rd, San Antonio, TX 78240",
    "neighborhood": "Northwest Side",
    "street": "8832 Huebner Rd",
    "city": "San Antonio",
    "postalCode": "78240",
    "state": "Texas",
    "countryCode": "US",
    "website": "https://alamospecialtyrx.com/",
    "phone": "(210) 314-6782",
    "phoneUnformatted": "+12103146782",
    "claimThisBusiness": false,
    "location": {
      "lat": 29.5239051,
      "lng": -98.5987289
    },
    "totalScore": 4.8,
    "permanentlyClosed": false,
    "temporarilyClosed": false,
    "placeId": null,
    "categories": [
      "Pharmacy",
      "Medical supply store",
      "Pain management physician",
      "Sports medicine clinic"
    ],
    "fid": "0x865c6781f5b633df:0x762459540dc7711c",
    "cid": "8513027413180379420",
    "reviewsCount": 74,
    "imagesCount": 7,
    "imageCategories": [],
    "scrapedAt": "2025-06-22T06:41:41.867Z",
    "googleFoodUrl": null,
    "hotelAds": [],
    "openingHours": [
      {
        "day": "Monday",
        "hours": "9\u202fAM to 6\u202fPM"
      },
      {
        "day": "Tuesday",
        "hours": "9\u202fAM to 6\u202fPM"
      },
      {
        "day": "Wednesday",
        "hours": "9\u202fAM to 6\u202fPM"
      },
      {
        "day": "Thursday",
        "hours": "9\u202fAM to 6\u202fPM"
      },
      {
        "day": "Friday",
        "hours": "9\u202fAM to 6\u202fPM"
      },
      {
        "day": "Saturday",
        "hours": "Closed"
      },
      {
        "day": "Sunday",
        "hours": "Closed"
      }
    ],
    "peopleAlsoSearch": [],
    "placesTags": [],
    "reviewsTags": [],
    "additionalInfo": {
      "Service options": [
        {
          "Delivery": true
        },
        {
          "In-store pickup": true
        },
        {
          "Same-day delivery": true
        }
      ],
      "Accessibility": [
        {
          "Wheelchair accessible entrance": true
        },
        {
          "Wheelchair accessible parking lot": true
        }
      ],
      "Amenities": [
        {
          "Wi-Fi": true
        },
        {
          "Free Wi-Fi": true
        }
      ],
      "Payments": [
        {
          "Checks": true
        },
        {
          "Credit cards": true
        },
        {
          "Debit cards": true
        }
      ]
    },
    "gasPrices": [],
    "url": "https://www.google.com/maps/search/?api=1&query=Alamo%20Specialty%20Pharmacy%20%40%20Huebner&query_place_id=ChIJ3zO29YFnXIYRHHHHDVRZJHY",
    "searchPageUrl": "https://www.google.com/maps/search/independent%20pharmacy%20San%20Antonio%20TX/@52.092859987054844,-179.90774136292754,14z?hl=en",
    "searchString": "independent pharmacy San Antonio TX",
    "language": "en",
    "rank": 10,
    "isAdvertisement": false,
    "imageUrl": "https://lh3.googleusercontent.com/p/AF1QipN44NmCkT9EQ1vNU7HxAkpthZlz7ehtZlkz99AU=w408-h306-k-no",
    "kgmid": "/g/11hdjcyv9p",
    "classification": "independent",
    "is_independent": true,
    "is_compounding": false,
    "confidence": 0.9,
    "source": "perplexity",
    "method": "llm"
  },
  {
    "title": "Champs Pharmacy",
    "price": null,
    "categoryName": "Pharmacy",
    "address": "7718 Louis Pasteur Dr, San Antonio, TX 78229",
    "neighborhood": "Northwest Side",
    "street": "7718 Louis Pasteur Dr",
    "city": "San Antonio",
    "postalCode": "78229",
    "state": "Texas",
    "countryCode": "US",
    "website": "http://champsmedical.com/",
    "phone": "(210) 614-1212",
    "phoneUnformatted": "+12106141212",
    "claimThisBusiness": false,
    "location": {
      "lat": 29.5086571,
      "lng": -98.5691783
    },
    "totalScore": 4.1,
    "permanentlyClosed": false,
    "temporarilyClosed": false,
    "placeId": null,
    "categories": [
      "Pharmacy"
    ],
    "fid": "0x865c5e0102c17eeb:0x5851ce5398344484",
    "cid": "6364094606882391172",
    "reviewsCount": 85,
    "imagesCount": 19,
    "imageCategories": [],
    "scrapedAt": "2025-06-22T06:41:41.867Z",
    "googleFoodUrl": null,
    "hotelAds": [],
    "openingHours": [
      {
        "day": "Monday",
        "hours": "9\u202fAM to 5:30\u202fPM"
      },
      {
        "day": "Tuesday",
        "hours": "9\u202fAM to 5:30\u202fPM"
      },
      {
        "day": "Wednesday",
        "hours": "9\u202fAM to 5:30\u202fPM"
      },
      {
        "day": "Thursday",
        "hours": "9\u202fAM to 5:30\u202fPM"
      },
      {
        "day": "Friday",
        "hours": "9\u202fAM to 5:30\u202fPM"
      },
      {
        "day": "Saturday",
        "hours": "9\u202fAM to 1\u202fPM"
      },
      {
        "day": "Sunday",
        "hours": "Closed"
      }
    ],
    "peopleAlsoSearch": [],
    "placesTags": [],
    "reviewsTags": [],
    "additionalInfo": {
      "Service options": [
        {
          "Delivery": true
        },
        {
          "Drive-through": true
        },
        {
          "In-store pickup": true
        },
        {
          "In-store shopping": true
        },
        {
          "Same-day delivery": true
        }
      ],
      "Accessibility": [
        {
          "Wheelchair accessible entrance": true
        },
        {
          "Wheelchair accessible parking lot": true
        }
      ],
      "Planning": [
        {
          "Quick visit": true
        }
      ],
      "Payments": [
        {
          "Credit cards": true
        },
        {
          "Debit cards": true
        },
        {
          "NFC mobile payments": true
        },
        {
          "Credit cards": true
        }
      ]
    },
    "gasPrices": [],
    "url": "https://www.google.com/maps/search/?api=1&query=Champs%20Pharmacy&query_place_id=ChIJ637BAgFeXIYRhEQ0mFPOUVg",
    "searchPageUrl": "https://www.google.com/maps/search/independent%20pharmacy%20San%20Antonio%20TX/@52.092859987054844,-179.90774136292754,14z?hl=en",
    "searchString": "independent pharmacy San Antonio TX",
    "language": "en",
    "rank": 11,
    "isAdvertisement": false,
    "imageUrl": "https://lh3.googleusercontent.com/gps-cs-s/AC9h4nqpzIGYZ-iIxNEiYeXoJBL5nb0lUl6kLucZS7zdftLiWacfnlX36m-rZnwmO_vomlOKfUOzwgEEW67mb_iHPD5soDjaBX1Lx7ogYPx_zdKX98kLFyDG1it8dAP15TLdwR6brkdJ=w408-h306-k-no",
    "kgmid": "/g/1tcvv8gy",
    "classification": "independent",
    "is_independent": true,
    "is_compounding": false,
    "confidence": 0.85,
    "source": "perplexity",
    "method": "llm"
  },
  {
    "title": "ORTIZ PHARMACY",
    "price": null,
    "categoryName": "Pharmacy",
    "address": "1805 Castroville Rd, San Antonio, TX 78237",
    "neighborhood": "Inner West Side",
    "street": "1805 Castroville Rd",
    "city": "San Antonio",
    "postalCode": "78237",
    "state": "Texas",
    "countryCode": "US",
    "website": "https://www.ortizpharmacy.com/",
    "phone": "(210) 432-2361",
    "phoneUnformatted": "+12104322361",
    "claimThisBusiness": true,
    "location": {
      "lat": 29.4141822,
      "lng": -98.565146
    },
    "totalScore": 5,
    "permanentlyClosed": false,
    "temporarilyClosed": false,
    "placeId": null,
    "categories": [
      "Pharmacy"
    ],
    "fid": "0x865c595167a2afc5:0x64292fc7a5903369",
    "cid": "7217352412360618857",
    "reviewsCount": 1,
    "imagesCount": 1,
    "imageCategories": [],
    "scrapedAt": "2025-06-22T06:41:41.867Z",
    "googleFoodUrl": null,
    "hotelAds": [],
    "openingHours": [],
    "peopleAlsoSearch": [],
    "placesTags": [],
    "reviewsTags": [],
    "additionalInfo": {
      "Service options": [
        {
          "Delivery": true
        },
        {
          "Drive-through": true
        }
      ],
      "Accessibility": [
        {
          "Wheelchair accessible entrance": true
        },
        {
          "Wheelchair accessible parking lot": true
        }
      ],
      "Payments": [
        {
          "Credit cards": true
        }
      ]
    },
    "gasPrices": [],
    "url": "https://www.google.com/maps/search/?api=1&query=ORTIZ%20PHARMACY&query_place_id=ChIJxa-iZ1FZXIYRaTOQpccvKWQ",
    "searchPageUrl": "https://www.google.com/maps/search/independent%20pharmacy%20San%20Antonio%20TX/@52.092859987054844,-179.90774136292754,14z?hl=en",
    "searchString": "independent pharmacy San Antonio TX",
    "language": "en",
    "rank": 12,
    "isAdvertisement": false,
    "imageUrl": "https://streetviewpixels-pa.googleapis.com/v1/thumbnail?panoid=ApekvJotbPwBQh2xOslNqw&cb_client=search.gws-prod.gps&w=408&h=240&yaw=4.1520863&pitch=0&thumbfov=100",
    "kgmid": "/g/11shpg1j5r",
    "classification": "independent",
    "is_independent": true,
    "is_compounding": false,
    "confidence": 0.9,
    "source": "perplexity",
    "method": "llm"
  },
  {
    "title": "Pharmacy Plus",
    "price": null,
    "categoryName": "Pharmacy",
    "address": "9026 Culebra Rd STE 107, San Antonio, TX 78251",
    "neighborhood": "San Antonio Creekside",
    "street": "9026 Culebra Rd STE 107",
    "city": "San Antonio",
    "postalCode": "78251",
    "state": "Texas",
    "countryCode": "US",
    "phone": "(210) 757-3388",
    "phoneUnformatted": "+12107573388",
    "claimThisBusiness": false,
    "location": {
      "lat": 29.4784329,
      "lng": -98.6662732
    },
    "totalScore": 4.4,
    "permanentlyClosed": false,
    "temporarilyClosed": false,
    "placeId": null,
    "categories": [
      "Pharmacy"
    ],
    "fid": "0x865c4355180f4e47:0x9176ad9bbdb869",
    "cid": "40944359637366889",
    "reviewsCount": 20,
    "imagesCount": 8,
    "imageCategories": [],
    "scrapedAt": "2025-06-22T06:41:41.867Z",
    "googleFoodUrl": null,
    "hotelAds": [],
    "openingHours": [
      {
        "day": "Monday",
        "hours": "9\u202fAM to 5\u202fPM"
      },
      {
        "day": "Tuesday",
        "hours": "9\u202fAM to 5\u202fPM"
      },
      {
        "day": "Wednesday",
        "hours": "9\u202fAM to 5\u202fPM"
      },
      {
        "day": "Thursday",
        "hours": "9\u202fAM to 5\u202fPM"
      },
      {
        "day": "Friday",
        "hours": "9\u202fAM to 5\u202fPM"
      },
      {
        "day": "Saturday",
        "hours": "Closed"
      },
      {
        "day": "Sunday",
        "hours": "Closed"
      }
    ],
    "peopleAlsoSearch": [],
    "placesTags": [],
    "reviewsTags": [],
    "additionalInfo": {
      "From the business": [
        {
          "Small business": true
        }
      ],
      "Service options": [
        {
          "Delivery": true
        },
        {
          "In-store pickup": true
        }
      ],
      "Accessibility": [
        {
          "Wheelchair accessible entrance": true
        },
        {
          "Wheelchair accessible parking lot": true
        }
      ],
      "Planning": [
        {
          "Quick visit": true
        }
      ],
      "Payments": [
        {
          "Credit cards": true
        },
        {
          "Debit cards": true
        },
        {
          "NFC mobile payments": true
        },
        {
          "Credit cards": true
        }
      ]
    },
    "gasPrices": [],
    "url": "https://www.google.com/maps/search/?api=1&query=Pharmacy%20Plus&query_place_id=ChIJR04PGFVDXIYRabi9m612kQA",
    "searchPageUrl": "https://www.google.com/maps/search/independent%20pharmacy%20San%20Antonio%20TX/@52.092859987054844,-179.90774136292754,14z?hl=en",
    "searchString": "independent pharmacy San Antonio TX",
    "language": "en",
    "rank": 13,
    "isAdvertisement": false,
    "imageUrl": "https://lh3.googleusercontent.com/gps-cs-s/AC9h4npNRqn_tkz584iL4H2lo-F8fNTmkO1Z97icM7SU7C_TqvZq7NQSVuoKAbEQMNdAyQMpt0zj1JJK8PJjZZQNx3qxZJM-vV0brIQVxZaQAARUalyiWkmXflyJxLiN6p4qfBDi5PtrEg=w408-h306-k-no",
    "kgmid": "/g/11j01bssn1",
    "classification": "independent",
    "is_independent": true,
    "is_compounding": false,
    "confidence": 0.85,
    "source": "perplexity",
    "method": "llm"
  },
  {
    "title": "Pinecrest Pharmacy",
    "price": null,
    "categoryName": "Pharmacy",
    "address": "21803 I-10 UNIT 105, San Antonio, TX 78257",
    "neighborhood": "Northwest Side",
    "street": "21803 I-10 UNIT 105",
    "city": "San Antonio",
    "postalCode": "78257",
    "state": "Texas",
    "countryCode": "US",
    "website": "https://pinecrestrx.com/",
    "phone": "(210) 886-8013",
    "phoneUnformatted": "+12108868013",
    "claimThisBusiness": false,
    "location": {
      "lat": 29.64485,
      "lng": -98.621446
    },
    "totalScore": 4.3,
    "permanentlyClosed": false,
    "temporarilyClosed": false,
    "placeId": "ChIJD4f4BABlXIYR92lO1G4bIUc",
    "categories": [
      "Pharmacy"
    ],
    "fid": "0x865c650004f8870f:0x47211b6ed44e69f7",
    "cid": "5125408013746596343",
    "reviewsCount": 11,
    "imagesCount": 2,
    "imageCategories": [],
    "scrapedAt": "2025-06-22T06:41:41.867Z",
    "googleFoodUrl": null,
    "hotelAds": [],
    "openingHours": [
      {
        "day": "Monday",
        "hours": "9\u202fAM to 6\u202fPM"
      },
      {
        "day": "Tuesday",
        "hours": "9\u202fAM to 6\u202fPM"
      },
      {
        "day": "Wednesday",
        "hours": "9\u202fAM to 6\u202fPM"
      },
      {
        "day": "Thursday",
        "hours": "9\u202fAM to 6\u202fPM"
      },
      {
        "day": "Friday",
        "hours": "9\u202fAM to 6\u202fPM"
      },
      {
        "day": "Saturday",
        "hours": "10\u202fAM to 3\u202fPM"
      },
      {
        "day": "Sunday",
        "hours": "Closed"
      }
    ],
    "peopleAlsoSearch": [],
    "placesTags": [],
    "reviewsTags": [],
    "additionalInfo": {
      "From the business": [
        {
          "Small business": true
        }
      ],
      "Service options": [
        {
          "Curbside pickup": true
        },
        {
          "Delivery": true
        },
        {
          "In-store pickup": true
        },
        {
          "In-store shopping": true
        },
        {
          "Onsite services": true
        },
        {
          "Same-day delivery": true
        }
      ],
      "Accessibility": [
        {
          "Wheelchair accessible entrance": true
        },
        {
          "Wheelchair accessible parking lot": true
        }
      ],
      "Crowd": [
        {
          "LGBTQ+ friendly": true
        },
        {
          "Transgender safespace": true
        }
      ],
      "Planning": [
        {
          "Quick visit": true
        }
      ],
      "Payments": [
        {
          "Checks": true
        },
        {
          "Credit cards": true
        },
        {
          "Debit cards": true
        },
        {
          "NFC mobile payments": true
        },
        {
          "Credit cards": true
        }
      ]
    },
    "gasPrices": [],
    "url": "https://www.google.com/maps/search/?api=1&query=Pinecrest%20Pharmacy&query_place_id=ChIJD4f4BABlXIYR92lO1G4bIUc",
    "searchPageUrl": "https://www.google.com/maps/search/independent%20pharmacy%20San%20Antonio%20TX/@52.092859987054844,-179.90774136292754,14z?hl=en",
    "searchString": "independent pharmacy San Antonio TX",
    "language": "en",
    "rank": 14,
    "isAdvertisement": false,
    "imageUrl": "https://lh3.googleusercontent.com/p/AF1QipO0WITJ9I_9CHIgU4vFmSZotVdaiYL6oI3bYeJQ=w408-h272-k-no",
    "kgmid": "/g/11jzxlv45n",
    "classification": "hospital",
    "is_independent": false,
    "confidence": 1.0,
    "source": "rule-based"
  },
  {
    "title": "South San Pharmacy",
    "price": null,
    "categoryName": "Pharmacy",
    "address": "919 SW Military Dr, San Antonio, TX 78221",
    "neighborhood": "South Side",
    "street": "919 SW Military Dr",
    "city": "San Antonio",
    "postalCode": "78221",
    "state": "Texas",
    "countryCode": "US",
    "website": "https://southsanpharmacy.com/",
    "phone": "(210) 922-1816",
    "phoneUnformatted": "+12109221816",
    "claimThisBusiness": false,
    "location": {
      "lat": 29.3570884,
      "lng": -98.5065009
    },
    "totalScore": 5,
    "permanentlyClosed": false,
    "temporarilyClosed": false,
    "placeId": null,
    "categories": [
      "Pharmacy",
      "Drug store"
    ],
    "fid": "0x865c584025b2cac7:0xd5c577fe7ee216c2",
    "cid": "15403850035424794306",
    "reviewsCount": 19,
    "imagesCount": 19,
    "imageCategories": [],
    "scrapedAt": "2025-06-22T06:41:41.868Z",
    "googleFoodUrl": null,
    "hotelAds": [],
    "openingHours": [
      {
        "day": "Monday",
        "hours": "9\u202fAM to 6\u202fPM"
      },
      {
        "day": "Tuesday",
        "hours": "9\u202fAM to 6\u202fPM"
      },
      {
        "day": "Wednesday",
        "hours": "9\u202fAM to 6\u202fPM"
      },
      {
        "day": "Thursday",
        "hours": "9\u202fAM to 6\u202fPM"
      },
      {
        "day": "Friday",
        "hours": "9\u202fAM to 6\u202fPM"
      },
      {
        "day": "Saturday",
        "hours": "9:30\u202fAM to 1:30\u202fPM"
      },
      {
        "day": "Sunday",
        "hours": "Closed"
      }
    ],
    "additionalOpeningHours": {
      "Delivery": [
        {
          "day": "Monday",
          "hours": "9\u202fAM\u20136\u202fPM"
        },
        {
          "day": "Tuesday",
          "hours": "9\u202fAM\u20136\u202fPM"
        },
        {
          "day": "Wednesday",
          "hours": "9\u202fAM\u20136\u202fPM"
        },
        {
          "day": "Thursday",
          "hours": "9\u202fAM\u20136\u202fPM"
        },
        {
          "day": "Friday",
          "hours": "9\u202fAM\u20136\u202fPM"
        },
        {
          "day": "Saturday",
          "hours": "9:30\u202fAM\u20131\u202fPM"
        },
        {
          "day": "Sunday",
          "hours": "Closed"
        }
      ]
    },
    "peopleAlsoSearch": [],
    "placesTags": [],
    "reviewsTags": [],
    "additionalInfo": {
      "From the business": [
        {
          "Identifies as Latino-owned": true
        },
        {
          "Small business": true
        }
      ],
      "Service options": [
        {
          "Curbside pickup": true
        },
        {
          "Delivery": true
        },
        {
          "In-store pickup": true
        },
        {
          "Onsite services": true
        },
        {
          "Same-day delivery": true
        }
      ],
      "Accessibility": [
        {
          "Wheelchair accessible entrance": true
        },
        {
          "Wheelchair accessible parking lot": true
        }
      ],
      "Planning": [
        {
          "Quick visit": true
        }
      ],
      "Payments": [
        {
          "Checks": true
        },
        {
          "Credit cards": true
        },
        {
          "Debit cards": true
        },
        {
          "NFC mobile payments": true
        },
        {
          "Credit cards": true
        }
      ]
    },
    "gasPrices": [],
    "url": "https://www.google.com/maps/search/?api=1&query=South%20San%20Pharmacy&query_place_id=ChIJx8qyJUBYXIYRwhbifv53xdU",
    "searchPageUrl": "https://www.google.com/maps/search/independent%20pharmacy%20San%20Antonio%20TX/@52.092859987054844,-179.90774136292754,14z?hl=en",
    "searchString": "independent pharmacy San Antonio TX",
    "language": "en",
    "rank": 15,
    "isAdvertisement": false,
    "imageUrl": "https://lh3.googleusercontent.com/p/AF1QipNAq6e6taQN_EKg7oUubBizLwc66tSdrxQj9ZIQ=w408-h544-k-no",
    "kgmid": "/g/11bw2hz8w5",
    "classification": "independent",
    "is_independent": true,
    "is_compounding": false,
    "confidence": 0.9,
    "source": "perplexity",
    "method": "llm"
  },
  {
    "title": "Zikam Neighborhood Pharmacy",
    "price": null,
    "categoryName": "Pharmacy",
    "address": "21920 Bulverde Rd #102-103, San Antonio, TX 78259",
    "neighborhood": "Northwood Hills",
    "street": "21920 Bulverde Rd #102-103",
    "city": "San Antonio",
    "postalCode": "78259",
    "state": "Texas",
    "countryCode": "US",
    "website": "http://www.zikampharmacy.com/",
    "phone": "(210) 503-5063",
    "phoneUnformatted": "+12105035063",
    "claimThisBusiness": true,
    "location": {
      "lat": 29.6441078,
      "lng": -98.4245483
    },
    "totalScore": 4.8,
    "permanentlyClosed": false,
    "temporarilyClosed": false,
    "placeId": null,
    "categories": [
      "Pharmacy"
    ],
    "fid": "0x865c891137900cdf:0xf0d239c274b5eade",
    "cid": "17352995821556460254",
    "reviewsCount": 82,
    "imagesCount": 31,
    "imageCategories": [],
    "scrapedAt": "2025-06-22T06:41:41.868Z",
    "googleFoodUrl": null,
    "hotelAds": [],
    "openingHours": [
      {
        "day": "Monday",
        "hours": "9\u202fAM to 6\u202fPM"
      },
      {
        "day": "Tuesday",
        "hours": "9\u202fAM to 6\u202fPM"
      },
      {
        "day": "Wednesday",
        "hours": "9\u202fAM to 6\u202fPM"
      },
      {
        "day": "Thursday",
        "hours": "9\u202fAM to 6\u202fPM"
      },
      {
        "day": "Friday",
        "hours": "9\u202fAM to 6\u202fPM"
      },
      {
        "day": "Saturday",
        "hours": "10\u202fAM to 3\u202fPM"
      },
      {
        "day": "Sunday",
        "hours": "Closed"
      }
    ],
    "peopleAlsoSearch": [],
    "placesTags": [],
    "reviewsTags": [],
    "additionalInfo": {
      "From the business": [
        {
          "Small business": true
        }
      ],
      "Service options": [
        {
          "Delivery": true
        },
        {
          "In-store pickup": true
        },
        {
          "Same-day delivery": true
        }
      ],
      "Accessibility": [
        {
          "Wheelchair accessible entrance": true
        },
        {
          "Wheelchair accessible parking lot": true
        }
      ],
      "Planning": [
        {
          "Quick visit": true
        }
      ],
      "Payments": [
        {
          "Credit cards": true
        },
        {
          "Debit cards": true
        },
        {
          "NFC mobile payments": true
        },
        {
          "Credit cards": true
        }
      ]
    },
    "gasPrices": [],
    "url": "https://www.google.com/maps/search/?api=1&query=Zikam%20Neighborhood%20Pharmacy&query_place_id=ChIJ3wyQNxGJXIYR3uq1dMI50vA",
    "searchPageUrl": "https://www.google.com/maps/search/independent%20pharmacy%20San%20Antonio%20TX/@52.092859987054844,-179.90774136292754,14z?hl=en",
    "searchString": "independent pharmacy San Antonio TX",
    "language": "en",
    "rank": 16,
    "isAdvertisement": false,
    "imageUrl": "https://lh3.googleusercontent.com/gps-cs-s/AC9h4nr28tLQSJ9rmSBhsdBDbOER-fQs7VZ0vcRiIzjM3H86Ksef_YKyrp2gvqxuMtn1nZwQVzgrHfEScz8F64fWElGvhHoSHGn6BoqUeIUS_A6yN4sFoLpnbF740_lgeL6jXfRUyEHHlA=w408-h306-k-no",
    "kgmid": "/g/11bv1q8v46",
    "classification": "independent",
    "is_independent": true,
    "is_compounding": false,
    "confidence": 0.9,
    "source": "perplexity",
    "method": "llm"
  },
  {
    "title": "Nvision Pharmacy",
    "price": null,
    "categoryName": "Pharmacy",
    "address": "8223 Fredericksburg Rd, San Antonio, TX 78229",
    "neighborhood": "Northwest Side",
    "street": "8223 Fredericksburg Rd",
    "city": "San Antonio",
    "postalCode": "78229",
    "state": "Texas",
    "countryCode": "US",
    "website": "http://www.nvisionpharmacy.com/",
    "phone": "(210) 263-9615",
    "phoneUnformatted": "+12102639615",
    "claimThisBusiness": false,
    "location": {
      "lat": 29.515505,
      "lng": -98.5725956
    },
    "totalScore": 4.9,
    "permanentlyClosed": false,
    "temporarilyClosed": false,
    "placeId": null,
    "categories": [
      "Pharmacy"
    ],
    "fid": "0x865c5d2bd7f2cc5b:0xbaab3a18cfd2ec2f",
    "cid": "13450908590312451119",
    "reviewsCount": 530,
    "imagesCount": 4,
    "imageCategories": [],
    "scrapedAt": "2025-06-22T06:41:41.868Z",
    "googleFoodUrl": null,
    "hotelAds": [],
    "openingHours": [
      {
        "day": "Monday",
        "hours": "9\u202fAM to 6\u202fPM"
      },
      {
        "day": "Tuesday",
        "hours": "9\u202fAM to 6\u202fPM"
      },
      {
        "day": "Wednesday",
        "hours": "9\u202fAM to 6\u202fPM"
      },
      {
        "day": "Thursday",
        "hours": "9\u202fAM to 6\u202fPM"
      },
      {
        "day": "Friday",
        "hours": "9\u202fAM to 6\u202fPM"
      },
      {
        "day": "Saturday",
        "hours": "Closed"
      },
      {
        "day": "Sunday",
        "hours": "Closed"
      }
    ],
    "peopleAlsoSearch": [],
    "placesTags": [],
    "reviewsTags": [],
    "additionalInfo": {
      "From the business": [
        {
          "Small business": true
        }
      ],
      "Service options": [
        {
          "Curbside pickup": true
        },
        {
          "Delivery": true
        },
        {
          "In-store pickup": true
        },
        {
          "Same-day delivery": true
        }
      ],
      "Accessibility": [
        {
          "Wheelchair accessible entrance": true
        },
        {
          "Wheelchair accessible parking lot": true
        },
        {
          "Wheelchair accessible seating": true
        }
      ],
      "Payments": [
        {
          "Credit cards": true
        },
        {
          "Debit cards": true
        },
        {
          "NFC mobile payments": true
        },
        {
          "Credit cards": true
        }
      ],
      "Parking": [
        {
          "Free parking lot": true
        }
      ]
    },
    "gasPrices": [],
    "url": "https://www.google.com/maps/search/?api=1&query=Nvision%20Pharmacy&query_place_id=ChIJW8zy1ytdXIYRL-zSzxg6q7o",
    "searchPageUrl": "https://www.google.com/maps/search/independent%20pharmacy%20San%20Antonio%20TX/@52.092859987054844,-179.90774136292754,14z?hl=en",
    "searchString": "independent pharmacy San Antonio TX",
    "language": "en",
    "rank": 17,
    "isAdvertisement": false,
    "imageUrl": "https://lh3.googleusercontent.com/gps-cs-s/AC9h4nqVkPKPsigl5Xaqbi-540lfN43cZlfek9P3BfdPAN1vxKhEvE0FUIwJUO5VylT5DoJ5lE_0Vl_hAZpA4_V547OGgpgUWV0iab2-tbK0RXcJnphPyiihzgP61IE7uTu9EAAos0q7=w426-h240-k-no",
    "kgmid": "/g/11qm3dmyfc",
    "classification": "independent",
    "is_independent": true,
    "is_compounding": false,
    "confidence": 0.85,
    "source": "perplexity",
    "method": "llm"
  },
  {
    "title": "Rx Square Pharmacy",
    "price": null,
    "categoryName": "Pharmacy",
    "address": "9018 Culebra Rd Suite 101, San Antonio, TX 78251",
    "neighborhood": "San Antonio Creekside",
    "street": "9018 Culebra Rd Suite 101",
    "city": "San Antonio",
    "postalCode": "78251",
    "state": "Texas",
    "countryCode": "US",
    "website": "http://www.rxsquarepharmacy.com/",
    "phone": "(210) 781-4101",
    "phoneUnformatted": "+12107814101",
    "claimThisBusiness": false,
    "location": {
      "lat": 29.4787362,
      "lng": -98.6656882
    },
    "totalScore": 4.8,
    "permanentlyClosed": false,
    "temporarilyClosed": false,
    "placeId": null,
    "categories": [
      "Pharmacy"
    ],
    "fid": "0x865c43a58b7a9951:0xd632017ef035bb21",
    "cid": "15434400517659671329",
    "reviewsCount": 84,
    "imagesCount": 4,
    "imageCategories": [],
    "scrapedAt": "2025-06-22T06:41:41.868Z",
    "googleFoodUrl": null,
    "hotelAds": [],
    "openingHours": [
      {
        "day": "Monday",
        "hours": "9\u202fAM to 5\u202fPM"
      },
      {
        "day": "Tuesday",
        "hours": "9\u202fAM to 5\u202fPM"
      },
      {
        "day": "Wednesday",
        "hours": "9\u202fAM to 5\u202fPM"
      },
      {
        "day": "Thursday",
        "hours": "9\u202fAM to 5\u202fPM"
      },
      {
        "day": "Friday",
        "hours": "9\u202fAM to 5\u202fPM"
      },
      {
        "day": "Saturday",
        "hours": "Closed"
      },
      {
        "day": "Sunday",
        "hours": "Closed"
      }
    ],
    "peopleAlsoSearch": [],
    "placesTags": [],
    "reviewsTags": [],
    "additionalInfo": {
      "From the business": [
        {
          "Small business": true
        }
      ],
      "Service options": [
        {
          "Curbside pickup": true
        },
        {
          "Delivery": true
        },
        {
          "In-store pickup": true
        },
        {
          "In-store shopping": true
        },
        {
          "Same-day delivery": true
        },
        {
          "Spanish": true
        }
      ],
      "Accessibility": [
        {
          "Wheelchair accessible entrance": true
        },
        {
          "Wheelchair accessible parking lot": true
        },
        {
          "Wheelchair accessible restroom": false
        }
      ],
      "Planning": [
        {
          "Quick visit": true
        }
      ],
      "Payments": [
        {
          "Credit cards": true
        },
        {
          "Debit cards": true
        },
        {
          "Credit cards": true
        }
      ]
    },
    "gasPrices": [],
    "url": "https://www.google.com/maps/search/?api=1&query=Rx%20Square%20Pharmacy&query_place_id=ChIJUZl6i6VDXIYRIbs18H4BMtY",
    "searchPageUrl": "https://www.google.com/maps/search/independent%20pharmacy%20San%20Antonio%20TX/@52.092859987054844,-179.90774136292754,14z?hl=en",
    "searchString": "independent pharmacy San Antonio TX",
    "language": "en",
    "rank": 18,
    "isAdvertisement": false,
    "imageUrl": "https://lh3.googleusercontent.com/p/AF1QipOUSKc72RVGlDBnsW8x600UvcZa4JcLESA7WYLh=w408-h544-k-no",
    "kgmid": "/g/11gj_r2zg9",
    "classification": "independent",
    "is_independent": true,
    "is_compounding": false,
    "confidence": 0.92,
    "source": "perplexity",
    "method": "llm"
  },
  {
    "title": "Texas Best Pharmacy",
    "price": null,
    "categoryName": "Pharmacy",
    "address": "1919 Rogers Rd Suite 103, San Antonio, TX 78251",
    "neighborhood": "Far West Side",
    "street": "1919 Rogers Rd Suite 103",
    "city": "San Antonio",
    "postalCode": "78251",
    "state": "Texas",
    "countryCode": "US",
    "website": "http://texasbestpharm.com/",
    "phone": "(210) 314-8018",
    "phoneUnformatted": "+12103148018",
    "claimThisBusiness": false,
    "location": {
      "lat": 29.4527094,
      "lng": -98.6833863
    },
    "totalScore": 4.6,
    "permanentlyClosed": false,
    "temporarilyClosed": false,
    "placeId": "ChIJrYaP0YRDXIYRaMKFJNZDSCs",
    "categories": [
      "Pharmacy"
    ],
    "fid": "0x865c4384d18f86ad:0x2b4843d62485c268",
    "cid": "3118817328968876648",
    "reviewsCount": 10,
    "imagesCount": 2,
    "imageCategories": [],
    "scrapedAt": "2025-06-22T06:41:41.868Z",
    "googleFoodUrl": null,
    "hotelAds": [],
    "openingHours": [
      {
        "day": "Monday",
        "hours": "9:30\u202fAM to 5:30\u202fPM"
      },
      {
        "day": "Tuesday",
        "hours": "9:30\u202fAM to 5:30\u202fPM"
      },
      {
        "day": "Wednesday",
        "hours": "9:30\u202fAM to 5:30\u202fPM"
      },
      {
        "day": "Thursday",
        "hours": "9:30\u202fAM to 5:30\u202fPM"
      },
      {
        "day": "Friday",
        "hours": "9:30\u202fAM to 5:30\u202fPM"
      },
      {
        "day": "Saturday",
        "hours": "Closed"
      },
      {
        "day": "Sunday",
        "hours": "Closed"
      }
    ],
    "peopleAlsoSearch": [],
    "placesTags": [],
    "reviewsTags": [],
    "additionalInfo": {
      "From the business": [
        {
          "Small business": true
        }
      ],
      "Service options": [
        {
          "Delivery": true
        },
        {
          "In-store pickup": true
        },
        {
          "In-store shopping": true
        },
        {
          "Same-day delivery": true
        }
      ],
      "Accessibility": [
        {
          "Wheelchair accessible entrance": true
        },
        {
          "Wheelchair accessible parking lot": true
        }
      ],
      "Planning": [
        {
          "Quick visit": true
        }
      ],
      "Payments": [
        {
          "Credit cards": true
        },
        {
          "Debit cards": true
        },
        {
          "NFC mobile payments": true
        },
        {
          "Credit cards": true
        }
      ]
    },
    "gasPrices": [],
    "url": "https://www.google.com/maps/search/?api=1&query=Texas%20Best%20Pharmacy&query_place_id=ChIJrYaP0YRDXIYRaMKFJNZDSCs",
    "searchPageUrl": "https://www.google.com/maps/search/independent%20pharmacy%20San%20Antonio%20TX/@52.092859987054844,-179.90774136292754,14z?hl=en",
    "searchString": "independent pharmacy San Antonio TX",
    "language": "en",
    "rank": 19,
    "isAdvertisement": false,
    "imageUrl": "https://lh3.googleusercontent.com/p/AF1QipPiCVBnWxbHXXJ5JYpL9DrvmS5GjZCv4h9uGHO7=w408-h305-k-no",
    "kgmid": "/g/11frt4pn53",
    "classification": "hospital",
    "is_independent": false,
    "confidence": 1.0,
    "source": "rule-based"
  },
  {
    "title": "Crawford Pharmacy",
    "price": null,
    "categoryName": "Pharmacy",
    "address": "145 W Hart Ave Suite 104, San Antonio, TX 78214",
    "neighborhood": "South Side",
    "street": "145 W Hart Ave Suite 104",
    "city": "San Antonio",
    "postalCode": "78214",
    "state": "Texas",
    "countryCode": "US",
    "website": "http://www.lifecarepharmacy.com/?page_id=149",
    "phone": "(210) 932-1200",
    "phoneUnformatted": "+12109321200",
    "claimThisBusiness": false,
    "location": {
      "lat": 29.378646,
      "lng": -98.5039482
    },
    "totalScore": 4,
    "permanentlyClosed": false,
    "temporarilyClosed": false,
    "placeId": null,
    "categories": [
      "Pharmacy"
    ],
    "fid": "0x865c588a9d016fb7:0xeb8a0282cb0767eb",
    "cid": "16972380906474399723",
    "reviewsCount": 22,
    "imagesCount": 1,
    "imageCategories": [],
    "scrapedAt": "2025-06-22T06:41:41.868Z",
    "googleFoodUrl": null,
    "hotelAds": [],
    "openingHours": [
      {
        "day": "Monday",
        "hours": "9\u202fAM to 5\u202fPM"
      },
      {
        "day": "Tuesday",
        "hours": "9\u202fAM to 5\u202fPM"
      },
      {
        "day": "Wednesday",
        "hours": "9\u202fAM to 5\u202fPM"
      },
      {
        "day": "Thursday",
        "hours": "9\u202fAM to 5\u202fPM"
      },
      {
        "day": "Friday",
        "hours": "9\u202fAM to 5\u202fPM"
      },
      {
        "day": "Saturday",
        "hours": "Closed"
      },
      {
        "day": "Sunday",
        "hours": "Closed"
      }
    ],
    "peopleAlsoSearch": [],
    "placesTags": [],
    "reviewsTags": [],
    "additionalInfo": {
      "From the business": [
        {
          "Small business": true
        }
      ],
      "Service options": [
        {
          "Delivery": true
        }
      ],
      "Accessibility": [
        {
          "Wheelchair accessible parking lot": true
        },
        {
          "Wheelchair accessible entrance": false
        }
      ],
      "Planning": [
        {
          "Quick visit": true
        }
      ],
      "Payments": [
        {
          "Credit cards": true
        }
      ]
    },
    "gasPrices": [],
    "url": "https://www.google.com/maps/search/?api=1&query=Crawford%20Pharmacy&query_place_id=ChIJt28BnYpYXIYR62cHy4ICius",
    "searchPageUrl": "https://www.google.com/maps/search/independent%20pharmacy%20San%20Antonio%20TX/@52.092859987054844,-179.90774136292754,14z?hl=en",
    "searchString": "independent pharmacy San Antonio TX",
    "language": "en",
    "rank": 20,
    "isAdvertisement": false,
    "imageUrl": "https://streetviewpixels-pa.googleapis.com/v1/thumbnail?panoid=CQ5My7uh0hOT2OoOScwwVw&cb_client=search.gws-prod.gps&w=408&h=240&yaw=24.58911&pitch=0&thumbfov=100",
    "kgmid": "/g/1262r0vby",
    "classification": "independent",
    "is_independent": true,
    "is_compounding": false,
    "confidence": 0.9,
    "source": "perplexity",
    "method": "llm"
  }
]