[
  {
    "title": "Bailey's Pharmacy St. Petersburg",
    "price": null,
    "categoryName": "Pharmacy",
    "address": "3065 34th St N suite b, St. Petersburg, FL 33713",
    "neighborhood": null,
    "street": "3065 34th St N suite b",
    "city": "St. Petersburg",
    "postalCode": "33713",
    "state": "Florida",
    "countryCode": "US",
    "website": "http://www.baileypharmacy.com/",
    "phone": "(727) 256-1410",
    "phoneUnformatted": "+17272561410",
    "claimThisBusiness": false,
    "location": {
      "lat": 27.8000095,
      "lng": -82.6791499
    },
    "totalScore": 4.8,
    "permanentlyClosed": false,
    "temporarilyClosed": false,
    "placeId": null,
    "categories": [
      "Pharmacy"
    ],
    "fid": "0x88c2e3121db80bdf:0xec2b8328e1bad24d",
    "cid": "17017839828558598733",
    "reviewsCount": 89,
    "imagesCount": 25,
    "imageCategories": [],
    "scrapedAt": "2025-06-22T04:23:52.554Z",
    "googleFoodUrl": null,
    "hotelAds": [],
    "openingHours": [
      {
        "day": "Monday",
        "hours": "9\u202fAM to 5\u202fPM"
      },
      {
        "day": "Tuesday",
        "hours": "9\u202fAM to 5\u202fPM"
      },
      {
        "day": "Wednesday",
        "hours": "9\u202fAM to 5\u202fPM"
      },
      {
        "day": "Thursday",
        "hours": "9\u202fAM to 5\u202fPM"
      },
      {
        "day": "Friday",
        "hours": "9\u202fAM to 5\u202fPM"
      },
      {
        "day": "Saturday",
        "hours": "Closed"
      },
      {
        "day": "Sunday",
        "hours": "Closed"
      }
    ],
    "peopleAlsoSearch": [],
    "placesTags": [],
    "reviewsTags": [],
    "additionalInfo": {
      "From the business": [
        {
          "Identifies as Black-owned": true
        },
        {
          "Identifies as women-owned": true
        }
      ],
      "Service options": [
        {
          "Delivery": true
        },
        {
          "Drive-through": true
        },
        {
          "In-store pickup": true
        },
        {
          "In-store shopping": true
        },
        {
          "Same-day delivery": true
        }
      ],
      "Accessibility": [
        {
          "Wheelchair accessible entrance": true
        },
        {
          "Wheelchair accessible parking lot": true
        }
      ],
      "Amenities": [
        {
          "Gender-neutral restroom": true
        }
      ],
      "Crowd": [
        {
          "LGBTQ+ friendly": true
        },
        {
          "Transgender safespace": true
        }
      ],
      "Payments": [
        {
          "Checks": true
        },
        {
          "Credit cards": true
        },
        {
          "Debit cards": true
        },
        {
          "NFC mobile payments": true
        },
        {
          "Credit cards": true
        }
      ]
    },
    "gasPrices": [],
    "url": "https://www.google.com/maps/search/?api=1&query=Bailey's%20Pharmacy%20St.%20Petersburg&query_place_id=ChIJ3wu4HRLjwogRTdK64SiDK-w",
    "searchPageUrl": "https://www.google.com/maps/search/independent%20pharmacy%20St.%20Petersburg%20FL/@63.653579074253855,-160.01530488540766,9z?hl=en",
    "searchString": "independent pharmacy St. Petersburg FL",
    "language": "en",
    "rank": 1,
    "isAdvertisement": false,
    "imageUrl": "https://lh3.googleusercontent.com/p/AF1QipOEN7CX10sBF5Vpr8X3caHBvZnf9viAUS1lfCI0=w426-h240-k-no",
    "kgmid": "/g/11g_qmv1t3",
    "classification": "independent",
    "is_independent": true,
    "is_compounding": false,
    "confidence": 0.9,
    "source": "perplexity",
    "method": "llm"
  },
  {
    "title": "Bell Pharmacy",
    "price": null,
    "categoryName": "Pharmacy",
    "address": "3535 Central Ave, St. Petersburg, FL 33713",
    "neighborhood": "United Central",
    "street": "3535 Central Ave",
    "city": "St. Petersburg",
    "postalCode": "33713",
    "state": "Florida",
    "countryCode": "US",
    "website": "http://bellspecialtypharmacy.com/",
    "phone": "(813) 689-2273",
    "phoneUnformatted": "+18136892273",
    "claimThisBusiness": false,
    "location": {
      "lat": 27.7712678,
      "lng": -82.6816179
    },
    "totalScore": 4.8,
    "permanentlyClosed": false,
    "temporarilyClosed": false,
    "placeId": null,
    "categories": [
      "Pharmacy"
    ],
    "fid": "0x88c2d275d250c601:0xc997e428ecc960eb",
    "cid": "14526329987529269483",
    "reviewsCount": 70,
    "imagesCount": 34,
    "imageCategories": [],
    "scrapedAt": "2025-06-22T04:23:52.555Z",
    "googleFoodUrl": null,
    "hotelAds": [],
    "openingHours": [
      {
        "day": "Monday",
        "hours": "9\u202fAM to 7\u202fPM"
      },
      {
        "day": "Tuesday",
        "hours": "9\u202fAM to 7\u202fPM"
      },
      {
        "day": "Wednesday",
        "hours": "9\u202fAM to 7\u202fPM"
      },
      {
        "day": "Thursday",
        "hours": "9\u202fAM to 7\u202fPM"
      },
      {
        "day": "Friday",
        "hours": "9\u202fAM to 7\u202fPM"
      },
      {
        "day": "Saturday",
        "hours": "10\u202fAM to 3\u202fPM"
      },
      {
        "day": "Sunday",
        "hours": "Closed"
      }
    ],
    "additionalOpeningHours": {
      "Delivery": [
        {
          "day": "Monday",
          "hours": "9\u202fAM\u20137\u202fPM"
        },
        {
          "day": "Tuesday",
          "hours": "9\u202fAM\u20137\u202fPM"
        },
        {
          "day": "Wednesday",
          "hours": "9\u202fAM\u20137\u202fPM"
        },
        {
          "day": "Thursday",
          "hours": "9\u202fAM\u20137\u202fPM"
        },
        {
          "day": "Friday",
          "hours": "9\u202fAM\u20137\u202fPM"
        },
        {
          "day": "Saturday",
          "hours": "Closed"
        },
        {
          "day": "Sunday",
          "hours": "Closed"
        }
      ],
      "Pickup": [
        {
          "day": "Monday",
          "hours": "9\u202fAM\u20137\u202fPM"
        },
        {
          "day": "Tuesday",
          "hours": "9\u202fAM\u20137\u202fPM"
        },
        {
          "day": "Wednesday",
          "hours": "9\u202fAM\u20137\u202fPM"
        },
        {
          "day": "Thursday",
          "hours": "9\u202fAM\u20137\u202fPM"
        },
        {
          "day": "Friday",
          "hours": "9\u202fAM\u20137\u202fPM"
        },
        {
          "day": "Saturday",
          "hours": "Closed"
        },
        {
          "day": "Sunday",
          "hours": "Closed"
        }
      ]
    },
    "peopleAlsoSearch": [],
    "placesTags": [],
    "reviewsTags": [],
    "additionalInfo": {
      "From the business": [
        {
          "Identifies as LGBTQ+ owned": true
        },
        {
          "Small business": true
        }
      ],
      "Service options": [
        {
          "Curbside pickup": true
        },
        {
          "Delivery": true
        },
        {
          "In-store pickup": true
        },
        {
          "In-store shopping": true
        },
        {
          "Same-day delivery": false
        }
      ],
      "Accessibility": [
        {
          "Wheelchair accessible entrance": true
        },
        {
          "Wheelchair accessible parking lot": true
        },
        {
          "Wheelchair accessible restroom": true
        },
        {
          "Wheelchair accessible seating": true
        }
      ],
      "Amenities": [
        {
          "Gender-neutral restroom": true
        },
        {
          "Wi-Fi": true
        },
        {
          "Free Wi-Fi": true
        }
      ],
      "Crowd": [
        {
          "LGBTQ+ friendly": true
        },
        {
          "Transgender safespace": true
        }
      ],
      "Planning": [
        {
          "Quick visit": true
        },
        {
          "Accepts walk-ins": true
        }
      ],
      "Payments": [
        {
          "Checks": true
        },
        {
          "Credit cards": true
        },
        {
          "Debit cards": true
        },
        {
          "NFC mobile payments": true
        },
        {
          "Credit cards": true
        }
      ],
      "Parking": [
        {
          "Free parking lot": true
        },
        {
          "Free street parking": true
        },
        {
          "On-site parking": true
        }
      ]
    },
    "gasPrices": [],
    "url": "https://www.google.com/maps/search/?api=1&query=Bell%20Pharmacy&query_place_id=ChIJAcZQ0nXSwogR62DJ7Cjkl8k",
    "searchPageUrl": "https://www.google.com/maps/search/independent%20pharmacy%20St.%20Petersburg%20FL/@63.653579074253855,-160.01530488540766,9z?hl=en",
    "searchString": "independent pharmacy St. Petersburg FL",
    "language": "en",
    "rank": 2,
    "isAdvertisement": false,
    "imageUrl": "https://lh3.googleusercontent.com/p/AF1QipO95PidlG0DKrmXi0zjaXzG93QZyWaUugd3tj-G=w408-h272-k-no",
    "kgmid": "/g/11b809zksq",
    "classification": "independent",
    "is_independent": true,
    "is_compounding": false,
    "confidence": 0.85,
    "source": "perplexity",
    "method": "llm"
  },
  {
    "title": "Southcare Pharmacy",
    "price": null,
    "categoryName": "Pharmacy",
    "address": "6450 38th Ave N Ste 110, St. Petersburg, FL 33710",
    "neighborhood": null,
    "street": "6450 38th Ave N Ste 110",
    "city": "St. Petersburg",
    "postalCode": "33710",
    "state": "Florida",
    "countryCode": "US",
    "website": "http://www.southcarerx.com/",
    "phone": "(727) 344-3902",
    "phoneUnformatted": "+17273443902",
    "claimThisBusiness": false,
    "location": {
      "lat": 27.8057621,
      "lng": -82.7253987
    },
    "totalScore": 5,
    "permanentlyClosed": false,
    "temporarilyClosed": false,
    "placeId": null,
    "categories": [
      "Pharmacy",
      "Drug store"
    ],
    "fid": "0x88c2e34858251b53:0xed2eda38ecf3bc1",
    "cid": "1068177348371626945",
    "reviewsCount": 23,
    "imagesCount": 13,
    "imageCategories": [],
    "scrapedAt": "2025-06-22T04:23:52.556Z",
    "googleFoodUrl": null,
    "hotelAds": [],
    "openingHours": [
      {
        "day": "Monday",
        "hours": "9\u202fAM to 5:30\u202fPM"
      },
      {
        "day": "Tuesday",
        "hours": "9\u202fAM to 5:30\u202fPM"
      },
      {
        "day": "Wednesday",
        "hours": "9\u202fAM to 5:30\u202fPM"
      },
      {
        "day": "Thursday",
        "hours": "9\u202fAM to 5:30\u202fPM"
      },
      {
        "day": "Friday",
        "hours": "9\u202fAM to 5:30\u202fPM"
      },
      {
        "day": "Saturday",
        "hours": "9\u202fAM to 12\u202fPM"
      },
      {
        "day": "Sunday",
        "hours": "Closed"
      }
    ],
    "peopleAlsoSearch": [],
    "placesTags": [],
    "reviewsTags": [],
    "additionalInfo": {
      "From the business": [
        {
          "Small business": true
        }
      ],
      "Service options": [
        {
          "Delivery": true
        },
        {
          "In-store pickup": true
        },
        {
          "Onsite services": true
        }
      ],
      "Accessibility": [
        {
          "Wheelchair accessible entrance": true
        },
        {
          "Wheelchair accessible parking lot": true
        }
      ],
      "Planning": [
        {
          "Quick visit": true
        }
      ],
      "Payments": [
        {
          "Checks": true
        },
        {
          "Credit cards": true
        },
        {
          "Debit cards": true
        },
        {
          "NFC mobile payments": true
        },
        {
          "Credit cards": true
        }
      ]
    },
    "gasPrices": [],
    "url": "https://www.google.com/maps/search/?api=1&query=Southcare%20Pharmacy&query_place_id=ChIJUxslWEjjwogRwTvPjqPt0g4",
    "searchPageUrl": "https://www.google.com/maps/search/independent%20pharmacy%20St.%20Petersburg%20FL/@63.653579074253855,-160.01530488540766,9z?hl=en",
    "searchString": "independent pharmacy St. Petersburg FL",
    "language": "en",
    "rank": 3,
    "isAdvertisement": false,
    "imageUrl": "https://lh3.googleusercontent.com/p/AF1QipN8XujaSjHgWpkNot8c8mffTM8GcJv9gmhud6il=w408-h306-k-no",
    "kgmid": "/g/1tks72t6",
    "classification": "independent",
    "is_independent": true,
    "is_compounding": false,
    "confidence": 0.92,
    "source": "perplexity",
    "method": "llm"
  },
  {
    "title": "Healthmed Pharmacy",
    "price": null,
    "categoryName": "Pharmacy",
    "address": "1839 Central Ave, St. Petersburg, FL 33713",
    "neighborhood": "Grand Central District",
    "street": "1839 Central Ave",
    "city": "St. Petersburg",
    "postalCode": "33713",
    "state": "Florida",
    "countryCode": "US",
    "phone": "(727) 894-3001",
    "phoneUnformatted": "+17278943001",
    "claimThisBusiness": false,
    "location": {
      "lat": 27.7713813,
      "lng": -82.6586572
    },
    "totalScore": 4.2,
    "permanentlyClosed": false,
    "temporarilyClosed": false,
    "placeId": null,
    "categories": [
      "Pharmacy"
    ],
    "fid": "0x88c2e22dfb07f72b:0xe48b55956e30ba56",
    "cid": "16468350562697525846",
    "reviewsCount": 24,
    "imagesCount": 5,
    "imageCategories": [],
    "scrapedAt": "2025-06-22T04:23:52.556Z",
    "googleFoodUrl": null,
    "hotelAds": [],
    "openingHours": [
      {
        "day": "Monday",
        "hours": "9\u202fAM to 5:30\u202fPM"
      },
      {
        "day": "Tuesday",
        "hours": "9\u202fAM to 5:30\u202fPM"
      },
      {
        "day": "Wednesday",
        "hours": "9\u202fAM to 5:30\u202fPM"
      },
      {
        "day": "Thursday",
        "hours": "9\u202fAM to 5:30\u202fPM"
      },
      {
        "day": "Friday",
        "hours": "9\u202fAM to 5:30\u202fPM"
      },
      {
        "day": "Saturday",
        "hours": "Closed"
      },
      {
        "day": "Sunday",
        "hours": "Closed"
      }
    ],
    "peopleAlsoSearch": [],
    "placesTags": [],
    "reviewsTags": [],
    "additionalInfo": {
      "From the business": [
        {
          "Small business": true
        }
      ],
      "Service options": [
        {
          "Delivery": true
        },
        {
          "Same-day delivery": true
        }
      ],
      "Accessibility": [
        {
          "Wheelchair accessible entrance": true
        },
        {
          "Wheelchair accessible parking lot": true
        }
      ],
      "Planning": [
        {
          "Quick visit": true
        }
      ],
      "Payments": [
        {
          "Credit cards": true
        },
        {
          "Debit cards": true
        },
        {
          "NFC mobile payments": true
        },
        {
          "Credit cards": true
        }
      ]
    },
    "gasPrices": [],
    "url": "https://www.google.com/maps/search/?api=1&query=Healthmed%20Pharmacy&query_place_id=ChIJK_cH-y3iwogRVrowbpVVi-Q",
    "searchPageUrl": "https://www.google.com/maps/search/independent%20pharmacy%20St.%20Petersburg%20FL/@63.653579074253855,-160.01530488540766,9z?hl=en",
    "searchString": "independent pharmacy St. Petersburg FL",
    "language": "en",
    "rank": 4,
    "isAdvertisement": false,
    "imageUrl": "https://lh3.googleusercontent.com/p/AF1QipP0exZMCBweBwiB6M0fO_AzkkThGlTUyB6gVcmz=w408-h306-k-no",
    "kgmid": "/g/1tjv4970",
    "classification": "independent",
    "is_independent": true,
    "is_compounding": false,
    "confidence": 0.85,
    "source": "perplexity",
    "method": "llm"
  },
  {
    "title": "Urban Specialty Pharmacy",
    "price": null,
    "categoryName": "Pharmacy",
    "address": "1617 34th St S SUITE A, St. Petersburg, FL 33711",
    "neighborhood": "Childs Park",
    "street": "1617 34th St S SUITE A",
    "city": "St. Petersburg",
    "postalCode": "33711",
    "state": "Florida",
    "countryCode": "US",
    "website": "http://www.urbanspecialtyrx.com/",
    "phone": "(727) 327-9881",
    "phoneUnformatted": "+17273279881",
    "claimThisBusiness": false,
    "location": {
      "lat": 27.7540656,
      "lng": -82.6798328
    },
    "totalScore": 4.6,
    "permanentlyClosed": false,
    "temporarilyClosed": false,
    "placeId": null,
    "categories": [
      "Pharmacy"
    ],
    "fid": "0x88c2e251eee43d69:0x371e4809bd149285",
    "cid": "3971691128051503749",
    "reviewsCount": 40,
    "imagesCount": 9,
    "imageCategories": [],
    "scrapedAt": "2025-06-22T04:23:52.556Z",
    "googleFoodUrl": null,
    "hotelAds": [],
    "openingHours": [
      {
        "day": "Monday",
        "hours": "9\u202fAM to 5\u202fPM"
      },
      {
        "day": "Tuesday",
        "hours": "9\u202fAM to 5\u202fPM"
      },
      {
        "day": "Wednesday",
        "hours": "9\u202fAM to 5\u202fPM"
      },
      {
        "day": "Thursday",
        "hours": "9\u202fAM to 5\u202fPM"
      },
      {
        "day": "Friday",
        "hours": "9\u202fAM to 5\u202fPM"
      },
      {
        "day": "Saturday",
        "hours": "Closed"
      },
      {
        "day": "Sunday",
        "hours": "Closed"
      }
    ],
    "peopleAlsoSearch": [],
    "placesTags": [],
    "reviewsTags": [],
    "additionalInfo": {
      "From the business": [
        {
          "Small business": true
        }
      ],
      "Service options": [
        {
          "Delivery": true
        },
        {
          "In-store pickup": true
        },
        {
          "In-store shopping": true
        },
        {
          "Same-day delivery": true
        }
      ],
      "Accessibility": [
        {
          "Wheelchair accessible entrance": true
        },
        {
          "Wheelchair accessible parking lot": true
        }
      ],
      "Payments": [
        {
          "Debit cards": true
        },
        {
          "Credit cards": true
        }
      ]
    },
    "gasPrices": [],
    "url": "https://www.google.com/maps/search/?api=1&query=Urban%20Specialty%20Pharmacy&query_place_id=ChIJaT3k7lHiwogRhZIUvQlIHjc",
    "searchPageUrl": "https://www.google.com/maps/search/independent%20pharmacy%20St.%20Petersburg%20FL/@63.653579074253855,-160.01530488540766,9z?hl=en",
    "searchString": "independent pharmacy St. Petersburg FL",
    "language": "en",
    "rank": 5,
    "isAdvertisement": false,
    "imageUrl": "https://lh3.googleusercontent.com/gps-cs-s/AC9h4nqdz0Rt3VcqTsgN4S5kuP1hZdhkYgcdJxJeUdtb54t-qsrcLdO4SrU39PJjb7a0CPji-AQu2EtFkzlRo9dApO7QZqpFdCLJ9i920lJJlR3Kyp3W0a_OoUEHIsouFFpl9y-rZ1XvnQ=w533-h240-k-no",
    "kgmid": "/g/12628w28j",
    "classification": "independent",
    "is_independent": true,
    "is_compounding": false,
    "confidence": 0.9,
    "source": "perplexity",
    "method": "llm"
  },
  {
    "title": "Bay Life Compounding Pharmacy",
    "price": null,
    "categoryName": "Pharmacy",
    "address": "4000 Park St N, St. Petersburg, FL 33709",
    "neighborhood": "Jungle Terrace",
    "street": "4000 Park St N",
    "city": "St. Petersburg",
    "postalCode": "33709",
    "state": "Florida",
    "countryCode": "US",
    "website": "http://baylifecompoundingpharmacy.com/",
    "phone": "(727) 216-6374",
    "phoneUnformatted": "+17272166374",
    "claimThisBusiness": false,
    "location": {
      "lat": 27.8080947,
      "lng": -82.7543113
    },
    "totalScore": 4.5,
    "permanentlyClosed": false,
    "temporarilyClosed": false,
    "placeId": null,
    "categories": [
      "Pharmacy",
      "Medical supply store",
      "Pharmaceutical company",
      "Pharmaceutical lab",
      "Veterinary pharmacy",
      "Weight loss service"
    ],
    "fid": "0x88c2f036c17eb393:0x418b3f5d9ef9f2f5",
    "cid": "4722938305559786229",
    "reviewsCount": 176,
    "imagesCount": 83,
    "imageCategories": [],
    "scrapedAt": "2025-06-22T04:23:52.556Z",
    "googleFoodUrl": null,
    "hotelAds": [],
    "openingHours": [
      {
        "day": "Monday",
        "hours": "9:30\u202fAM to 5:30\u202fPM"
      },
      {
        "day": "Tuesday",
        "hours": "9:30\u202fAM to 5:30\u202fPM"
      },
      {
        "day": "Wednesday",
        "hours": "9:30\u202fAM to 5:30\u202fPM"
      },
      {
        "day": "Thursday",
        "hours": "9:30\u202fAM to 5:30\u202fPM"
      },
      {
        "day": "Friday",
        "hours": "9:30\u202fAM to 5:30\u202fPM"
      },
      {
        "day": "Saturday",
        "hours": "Closed"
      },
      {
        "day": "Sunday",
        "hours": "Closed"
      }
    ],
    "peopleAlsoSearch": [],
    "placesTags": [],
    "reviewsTags": [],
    "additionalInfo": {
      "From the business": [
        {
          "Small business": true
        }
      ],
      "Service options": [
        {
          "Delivery": true
        },
        {
          "In-store pickup": true
        },
        {
          "In-store shopping": true
        },
        {
          "Onsite services": true
        },
        {
          "Same-day delivery": true
        }
      ],
      "Accessibility": [
        {
          "Wheelchair accessible entrance": true
        },
        {
          "Wheelchair accessible parking lot": true
        },
        {
          "Wheelchair accessible restroom": true
        },
        {
          "Wheelchair accessible seating": true
        }
      ],
      "Amenities": [
        {
          "Gender-neutral restroom": true
        },
        {
          "Wi-Fi": true
        },
        {
          "Free Wi-Fi": true
        }
      ],
      "Crowd": [
        {
          "LGBTQ+ friendly": true
        },
        {
          "Transgender safespace": true
        }
      ],
      "Payments": [
        {
          "Cash-only": true
        },
        {
          "Credit cards": true
        },
        {
          "Debit cards": true
        }
      ],
      "Children": [
        {
          "Nursing room": true
        }
      ],
      "Parking": [
        {
          "Free parking lot": true
        }
      ]
    },
    "gasPrices": [],
    "url": "https://www.google.com/maps/search/?api=1&query=Bay%20Life%20Compounding%20Pharmacy&query_place_id=ChIJk7N-wTbwwogR9fL5nl0_i0E",
    "searchPageUrl": "https://www.google.com/maps/search/independent%20pharmacy%20St.%20Petersburg%20FL/@63.653579074253855,-160.01530488540766,9z?hl=en",
    "searchString": "independent pharmacy St. Petersburg FL",
    "language": "en",
    "rank": 6,
    "isAdvertisement": false,
    "imageUrl": "https://lh3.googleusercontent.com/p/AF1QipNz-Q3vEPfBVbtFHVCYbGWZ86KMG2hB0q1NhJbM=w408-h408-k-no",
    "kgmid": "/g/1tdfcx29",
    "classification": "independent",
    "is_independent": true,
    "is_compounding": true,
    "confidence": 0.98,
    "source": "perplexity",
    "method": "llm"
  },
  {
    "title": "Baydoun Pharmacy",
    "price": null,
    "categoryName": "Pharmacy",
    "address": "4749 34th St S, St. Petersburg, FL 33711",
    "neighborhood": null,
    "street": "4749 34th St S",
    "city": "St. Petersburg",
    "postalCode": "33711",
    "state": "Florida",
    "countryCode": "US",
    "website": "http://baydounpharmacy.com/",
    "phone": "(727) 329-8868",
    "phoneUnformatted": "+17273298868",
    "claimThisBusiness": false,
    "location": {
      "lat": 27.724729,
      "lng": -82.6801606
    },
    "totalScore": 4.6,
    "permanentlyClosed": false,
    "temporarilyClosed": false,
    "placeId": null,
    "categories": [
      "Pharmacy"
    ],
    "fid": "0x88c31d8f3625bf83:0x8e4a55891845e3f0",
    "cid": "10253101548968469488",
    "reviewsCount": 48,
    "imagesCount": 6,
    "imageCategories": [],
    "scrapedAt": "2025-06-22T04:23:52.556Z",
    "googleFoodUrl": null,
    "hotelAds": [],
    "openingHours": [
      {
        "day": "Monday",
        "hours": "9\u202fAM to 7\u202fPM"
      },
      {
        "day": "Tuesday",
        "hours": "9\u202fAM to 7\u202fPM"
      },
      {
        "day": "Wednesday",
        "hours": "9\u202fAM to 7\u202fPM"
      },
      {
        "day": "Thursday",
        "hours": "9\u202fAM to 7\u202fPM"
      },
      {
        "day": "Friday",
        "hours": "9\u202fAM to 7\u202fPM"
      },
      {
        "day": "Saturday",
        "hours": "9\u202fAM to 3\u202fPM"
      },
      {
        "day": "Sunday",
        "hours": "Closed"
      }
    ],
    "peopleAlsoSearch": [],
    "placesTags": [],
    "reviewsTags": [],
    "additionalInfo": {
      "Service options": [
        {
          "Delivery": true
        },
        {
          "In-store pickup": true
        }
      ],
      "Accessibility": [
        {
          "Wheelchair accessible entrance": true
        },
        {
          "Wheelchair accessible parking lot": true
        }
      ],
      "Planning": [
        {
          "Quick visit": true
        }
      ],
      "Payments": [
        {
          "Credit cards": true
        },
        {
          "Debit cards": true
        },
        {
          "NFC mobile payments": true
        },
        {
          "Credit cards": true
        }
      ]
    },
    "gasPrices": [],
    "url": "https://www.google.com/maps/search/?api=1&query=Baydoun%20Pharmacy&query_place_id=ChIJg78lNo8dw4gR8ONFGIlVSo4",
    "searchPageUrl": "https://www.google.com/maps/search/independent%20pharmacy%20St.%20Petersburg%20FL/@63.653579074253855,-160.01530488540766,9z?hl=en",
    "searchString": "independent pharmacy St. Petersburg FL",
    "language": "en",
    "rank": 7,
    "isAdvertisement": false,
    "imageUrl": "https://lh3.googleusercontent.com/gps-cs-s/AC9h4nq0hBjWoRpPwTmGGvTT1oXC1AS5chuywqfD_WOuQF1gXOdO44-_iz6_CgDM9TV-yKx2ztOb_R7Wb03iVFOaaLvZqOrKpYvD3QWvBKnVnqTxau5ChxqjrIVpiK12HaJQuF5z_QicEQ=w426-h240-k-no",
    "kgmid": "/g/1tgx7d65",
    "classification": "independent",
    "is_independent": true,
    "is_compounding": false,
    "confidence": 0.9,
    "source": "perplexity",
    "method": "llm"
  },
  {
    "title": "4th Street Pharmacy",
    "price": null,
    "categoryName": "Pharmacy",
    "address": "5415 4th St N, St. Petersburg, FL 33703",
    "neighborhood": null,
    "street": "5415 4th St N",
    "city": "St. Petersburg",
    "postalCode": "33703",
    "state": "Florida",
    "countryCode": "US",
    "phone": "(727) 329-8798",
    "phoneUnformatted": "+17273298798",
    "claimThisBusiness": true,
    "location": {
      "lat": 27.8215106,
      "lng": -82.638323
    },
    "totalScore": 5,
    "permanentlyClosed": false,
    "temporarilyClosed": true,
    "placeId": null,
    "categories": [
      "Pharmacy"
    ],
    "fid": "0x88c2e152bae6aaab:0x67e1b5f8df83a168",
    "cid": "7485464136172937576",
    "reviewsCount": 1,
    "imagesCount": 1,
    "imageCategories": [],
    "scrapedAt": "2025-06-22T04:23:52.556Z",
    "googleFoodUrl": null,
    "hotelAds": [],
    "openingHours": [],
    "peopleAlsoSearch": [],
    "placesTags": [],
    "reviewsTags": [],
    "gasPrices": [],
    "url": "https://www.google.com/maps/search/?api=1&query=4th%20Street%20Pharmacy&query_place_id=ChIJq6rmulLhwogRaKGD3_i14Wc",
    "searchPageUrl": "https://www.google.com/maps/search/independent%20pharmacy%20St.%20Petersburg%20FL/@63.653579074253855,-160.01530488540766,9z?hl=en",
    "searchString": "independent pharmacy St. Petersburg FL",
    "language": "en",
    "rank": 8,
    "isAdvertisement": false,
    "imageUrl": "https://streetviewpixels-pa.googleapis.com/v1/thumbnail?panoid=aBl9bMc4sCAp2iO82Id7mg&cb_client=search.gws-prod.gps&w=408&h=240&yaw=170.46344&pitch=0&thumbfov=100",
    "kgmid": "/g/11hy_ygwvp",
    "classification": "independent",
    "is_independent": true,
    "is_compounding": false,
    "confidence": 0.85,
    "source": "perplexity",
    "method": "llm"
  },
  {
    "title": "The Medicine Shoppe Pharmacy",
    "price": null,
    "categoryName": "Pharmacy",
    "address": "6401 Dr M.L.K. Jr St N, St. Petersburg, FL 33702",
    "neighborhood": "Fossil Park",
    "street": "6401 Dr M.L.K. Jr St N",
    "city": "St. Petersburg",
    "postalCode": "33702",
    "state": "Florida",
    "countryCode": "US",
    "website": "https://stpetersburg.medicineshoppe.com/",
    "phone": "(727) 527-5778",
    "phoneUnformatted": "+17275275778",
    "claimThisBusiness": false,
    "location": {
      "lat": 27.8315145,
      "lng": -82.646584
    },
    "totalScore": 4.5,
    "permanentlyClosed": false,
    "temporarilyClosed": false,
    "placeId": null,
    "categories": [
      "Pharmacy",
      "Drug store",
      "Medical supply store",
      "Vitamin & supplements store"
    ],
    "fid": "0x88c2e6a9b34128ff:0x168ff90be7b9617b",
    "cid": "1625791820031680891",
    "reviewsCount": 68,
    "imagesCount": 77,
    "imageCategories": [],
    "scrapedAt": "2025-06-22T04:23:52.752Z",
    "googleFoodUrl": null,
    "hotelAds": [],
    "openingHours": [
      {
        "day": "Monday",
        "hours": "10\u202fAM to 6\u202fPM"
      },
      {
        "day": "Tuesday",
        "hours": "10\u202fAM to 6\u202fPM"
      },
      {
        "day": "Wednesday",
        "hours": "10\u202fAM to 6\u202fPM"
      },
      {
        "day": "Thursday",
        "hours": "10\u202fAM to 6\u202fPM"
      },
      {
        "day": "Friday",
        "hours": "10\u202fAM to 6\u202fPM"
      },
      {
        "day": "Saturday",
        "hours": "Closed"
      },
      {
        "day": "Sunday",
        "hours": "Closed"
      }
    ],
    "peopleAlsoSearch": [],
    "placesTags": [],
    "reviewsTags": [],
    "additionalInfo": {
      "Service options": [
        {
          "Curbside pickup": true
        },
        {
          "Delivery": true
        },
        {
          "In-store pickup": true
        },
        {
          "In-store shopping": true
        },
        {
          "Same-day delivery": true
        }
      ],
      "Accessibility": [
        {
          "Wheelchair accessible entrance": true
        },
        {
          "Wheelchair accessible parking lot": true
        }
      ],
      "Planning": [
        {
          "Quick visit": true
        }
      ],
      "Payments": [
        {
          "Credit cards": true
        },
        {
          "Debit cards": true
        },
        {
          "NFC mobile payments": true
        },
        {
          "Credit cards": true
        }
      ]
    },
    "gasPrices": [],
    "url": "https://www.google.com/maps/search/?api=1&query=The%20Medicine%20Shoppe%20Pharmacy&query_place_id=ChIJ_yhBs6nmwogRe2G55wv5jxY",
    "searchPageUrl": "https://www.google.com/maps/search/independent%20pharmacy%20St.%20Petersburg%20FL/@70.60118977126913,-162.31690285675955,9z?hl=en",
    "searchString": "independent pharmacy St. Petersburg FL",
    "language": "en",
    "rank": 4,
    "isAdvertisement": false,
    "imageUrl": "https://lh3.googleusercontent.com/p/AF1QipOn8oc125QO9p_pz0CVZ1oToUexwG9NmAM5gtt-=w426-h240-k-no",
    "kgmid": "/g/1tksp492",
    "classification": "independent",
    "is_independent": true,
    "is_compounding": false,
    "confidence": 0.85,
    "source": "perplexity",
    "method": "llm"
  },
  {
    "title": "AHF Pharmacy - St. Petersburg",
    "price": null,
    "categoryName": "Pharmacy",
    "address": "3400 26th Ave S, St. Petersburg, FL 33711",
    "neighborhood": "Bayview",
    "street": "3400 26th Ave S",
    "city": "St. Petersburg",
    "postalCode": "33711",
    "state": "Florida",
    "countryCode": "US",
    "website": "https://ahfpharmacy.org/",
    "phone": "(727) 321-1135",
    "phoneUnformatted": "+17273211135",
    "claimThisBusiness": false,
    "location": {
      "lat": 27.7444145,
      "lng": -82.6796958
    },
    "totalScore": 5,
    "permanentlyClosed": false,
    "temporarilyClosed": false,
    "placeId": null,
    "categories": [
      "Pharmacy"
    ],
    "fid": "0x88c2e26f95b7b033:0x1e314eb5f5b74c18",
    "cid": "2175606638415137816",
    "reviewsCount": 15,
    "imagesCount": 4,
    "imageCategories": [],
    "scrapedAt": "2025-06-22T04:23:55.592Z",
    "googleFoodUrl": null,
    "hotelAds": [],
    "openingHours": [
      {
        "day": "Monday",
        "hours": "10\u202fAM to 7\u202fPM"
      },
      {
        "day": "Tuesday",
        "hours": "10\u202fAM to 7\u202fPM"
      },
      {
        "day": "Wednesday",
        "hours": "10\u202fAM to 7\u202fPM"
      },
      {
        "day": "Thursday",
        "hours": "10\u202fAM to 7\u202fPM"
      },
      {
        "day": "Friday",
        "hours": "10\u202fAM to 7\u202fPM"
      },
      {
        "day": "Saturday",
        "hours": "10\u202fAM to 7\u202fPM"
      },
      {
        "day": "Sunday",
        "hours": "Closed"
      }
    ],
    "peopleAlsoSearch": [],
    "placesTags": [],
    "reviewsTags": [],
    "additionalInfo": {
      "Service options": [
        {
          "Delivery": true
        },
        {
          "Onsite services": true
        }
      ],
      "Accessibility": [
        {
          "Wheelchair accessible entrance": true
        },
        {
          "Wheelchair accessible parking lot": true
        }
      ],
      "Payments": [
        {
          "Credit cards": true
        },
        {
          "Debit cards": true
        },
        {
          "NFC mobile payments": true
        },
        {
          "Credit cards": true
        }
      ]
    },
    "gasPrices": [],
    "url": "https://www.google.com/maps/search/?api=1&query=AHF%20Pharmacy%20-%20St.%20Petersburg&query_place_id=ChIJM7C3lW_iwogRGEy39bVOMR4",
    "searchPageUrl": "https://www.google.com/maps/search/independent%20pharmacy%20St.%20Petersburg%20FL/@25.06111148263476,-168.06795219901204,13z?hl=en",
    "searchString": "independent pharmacy St. Petersburg FL",
    "language": "en",
    "rank": 3,
    "isAdvertisement": false,
    "imageUrl": "https://lh3.googleusercontent.com/gps-cs-s/AC9h4nq-yI7t4PODFHX1iMmV-XDA57pTJByd2jEqv7HHmX-Rl1zqhoqDJgXjTpkG74F_XUtJk2b-mMFkMXuF53zf6l4dbGBcD8pB7Q7kpaSEgotm7YHfyKBT0t2lwGu223sNnsK7mtt9=w408-h471-k-no",
    "kgmid": "/g/11fy_4xsqr",
    "classification": "hospital",
    "is_independent": false,
    "is_compounding": false,
    "confidence": 0.85,
    "source": "perplexity",
    "method": "llm"
  }
]