[
  {
    "title": "Erie Pharmacy - Compounding Pharmacy",
    "price": null,
    "categoryName": "Pharmacy",
    "address": "3800 W 12th St Suite 3, Erie, PA 16505",
    "neighborhood": null,
    "street": "3800 W 12th St Suite 3",
    "city": "Erie",
    "postalCode": "16505",
    "state": "Pennsylvania",
    "countryCode": "US",
    "website": "https://www.eriepharmacy.com/",
    "phone": "(814) 402-7123",
    "phoneUnformatted": "+18144027123",
    "claimThisBusiness": false,
    "location": {
      "lat": 42.0919459,
      "lng": -80.1682412
    },
    "totalScore": 5,
    "permanentlyClosed": false,
    "temporarilyClosed": false,
    "placeId": null,
    "categories": [
      "Pharmacy"
    ],
    "fid": "0x88327feb7b6a39c1:0x16e1a3bab115d95f",
    "cid": "1648778960824555871",
    "reviewsCount": 44,
    "imagesCount": 6,
    "imageCategories": [],
    "scrapedAt": "2025-06-22T06:34:57.101Z",
    "googleFoodUrl": null,
    "hotelAds": [],
    "openingHours": [
      {
        "day": "Monday",
        "hours": "9\u202fAM to 6\u202fPM"
      },
      {
        "day": "Tuesday",
        "hours": "9\u202fAM to 6\u202fPM"
      },
      {
        "day": "Wednesday",
        "hours": "9\u202fAM to 6\u202fPM"
      },
      {
        "day": "Thursday",
        "hours": "9\u202fAM to 6\u202fPM"
      },
      {
        "day": "Friday",
        "hours": "9\u202fAM to 6\u202fPM"
      },
      {
        "day": "Saturday",
        "hours": "10\u202fAM to 2\u202fPM"
      },
      {
        "day": "Sunday",
        "hours": "Closed"
      }
    ],
    "peopleAlsoSearch": [],
    "placesTags": [],
    "reviewsTags": [],
    "additionalInfo": {
      "From the business": [
        {
          "Small business": true
        }
      ],
      "Service options": [
        {
          "Delivery": true
        },
        {
          "In-store pickup": true
        },
        {
          "In-store shopping": true
        },
        {
          "Same-day delivery": true
        }
      ],
      "Accessibility": [
        {
          "Wheelchair accessible entrance": true
        },
        {
          "Wheelchair accessible parking lot": true
        }
      ],
      "Planning": [
        {
          "Quick visit": true
        }
      ],
      "Payments": [
        {
          "Checks": true
        },
        {
          "Credit cards": true
        },
        {
          "Debit cards": true
        },
        {
          "NFC mobile payments": true
        },
        {
          "Credit cards": true
        }
      ]
    },
    "gasPrices": [],
    "url": "https://www.google.com/maps/search/?api=1&query=Erie%20Pharmacy%20-%20Compounding%20Pharmacy&query_place_id=ChIJwTlqe-t_MogRX9kVsbqj4RY",
    "searchPageUrl": "https://www.google.com/maps/search/independent%20pharmacy%20Erie%20PA/@69.21166763186608,-141.6025211145925,9z?hl=en",
    "searchString": "independent pharmacy Erie PA",
    "language": "en",
    "rank": 1,
    "isAdvertisement": false,
    "imageUrl": "https://lh3.googleusercontent.com/p/AF1QipODklXjuEJhUXItsVoXqkWMjkiXLxV3RjQ3400Q=w408-h306-k-no",
    "kgmid": "/g/11hfhq4_c7",
    "classification": "independent",
    "is_independent": true,
    "is_compounding": true,
    "confidence": 0.95,
    "source": "perplexity",
    "method": "llm"
  },
  {
    "title": "Bayside Pharmacy",
    "price": null,
    "categoryName": "Pharmacy",
    "address": "300 State St #102, Erie, PA 16507",
    "neighborhood": null,
    "street": "300 State St #102",
    "city": "Erie",
    "postalCode": "16507",
    "state": "Pennsylvania",
    "countryCode": "US",
    "website": "https://www.upmc.com/locations/hospitals/hamot/services/bayside-pharmacy?utm_source=google&utm_campaign=business-profile&utm_content=baysidepharmacy-erie-website",
    "phone": "(814) 351-0026",
    "phoneUnformatted": "+18143510026",
    "claimThisBusiness": false,
    "location": {
      "lat": 42.1317836,
      "lng": -80.0872711
    },
    "totalScore": 4,
    "permanentlyClosed": false,
    "temporarilyClosed": false,
    "placeId": null,
    "categories": [
      "Pharmacy"
    ],
    "fid": "0x882d7ff003c613a3:0xe8df7660f7fa6387",
    "cid": "16780260895455077255",
    "reviewsCount": 33,
    "imagesCount": 7,
    "imageCategories": [],
    "scrapedAt": "2025-06-22T06:34:57.103Z",
    "googleFoodUrl": null,
    "hotelAds": [],
    "openingHours": [
      {
        "day": "Monday",
        "hours": "8:30\u202fAM to 5\u202fPM"
      },
      {
        "day": "Tuesday",
        "hours": "8:30\u202fAM to 5\u202fPM"
      },
      {
        "day": "Wednesday",
        "hours": "8:30\u202fAM to 5\u202fPM"
      },
      {
        "day": "Thursday",
        "hours": "8:30\u202fAM to 5\u202fPM"
      },
      {
        "day": "Friday",
        "hours": "8:30\u202fAM to 5\u202fPM"
      },
      {
        "day": "Saturday",
        "hours": "9\u202fAM to 1\u202fPM"
      },
      {
        "day": "Sunday",
        "hours": "Closed"
      }
    ],
    "peopleAlsoSearch": [],
    "placesTags": [],
    "reviewsTags": [],
    "additionalInfo": {
      "Service options": [
        {
          "Delivery": true
        },
        {
          "In-store pickup": true
        },
        {
          "Same-day delivery": true
        }
      ],
      "Accessibility": [
        {
          "Wheelchair accessible entrance": true
        },
        {
          "Wheelchair accessible parking lot": true
        }
      ],
      "Payments": [
        {
          "Credit cards": true
        },
        {
          "Debit cards": true
        },
        {
          "NFC mobile payments": true
        }
      ]
    },
    "gasPrices": [],
    "url": "https://www.google.com/maps/search/?api=1&query=Bayside%20Pharmacy&query_place_id=ChIJoxPGA_B_LYgRh2P692B23-g",
    "searchPageUrl": "https://www.google.com/maps/search/independent%20pharmacy%20Erie%20PA/@69.21166763186608,-141.6025211145925,9z?hl=en",
    "searchString": "independent pharmacy Erie PA",
    "language": "en",
    "rank": 2,
    "isAdvertisement": false,
    "imageUrl": "https://lh3.googleusercontent.com/gps-cs-s/AC9h4nqtxtyWRuTAnotr3eh_3VpAmknGWd2cbPM-dxqb45rUUsb6p99he8dTs3TdbX5KhDptsK7Heu142djDQxWv84Q_mTL64fxsdKL9N1-dG3g4ha-nlGSfQECrMX7B6Ctiz2A7syxpQg=w408-h408-k-no",
    "kgmid": "/g/1tgm3hmt",
    "classification": "hospital",
    "is_independent": false,
    "is_compounding": false,
    "confidence": 0.98,
    "source": "perplexity",
    "method": "llm"
  },
  {
    "title": "Pharmacy Innovations Erie",
    "price": null,
    "categoryName": "Pharmacy",
    "address": "2936 W 17th St, Erie, PA 16505",
    "neighborhood": null,
    "street": "2936 W 17th St",
    "city": "Erie",
    "postalCode": "16505",
    "state": "Pennsylvania",
    "countryCode": "US",
    "website": "http://www.pharmacyinnovations.net/",
    "phone": "(814) 838-2102",
    "phoneUnformatted": "+18148382102",
    "claimThisBusiness": false,
    "location": {
      "lat": 42.095693,
      "lng": -80.144685
    },
    "totalScore": 4.1,
    "permanentlyClosed": false,
    "temporarilyClosed": false,
    "placeId": "ChIJycNpHvx-MogRbNSk1oe1Rn4",
    "categories": [
      "Pharmacy"
    ],
    "fid": "0x88327efc1e69c3c9:0x7e46b587d6a4d46c",
    "cid": "9099159692175004780",
    "reviewsCount": 31,
    "imagesCount": 11,
    "imageCategories": [],
    "scrapedAt": "2025-06-22T06:34:57.103Z",
    "googleFoodUrl": null,
    "hotelAds": [],
    "openingHours": [
      {
        "day": "Monday",
        "hours": "8:30\u202fAM to 6:30\u202fPM"
      },
      {
        "day": "Tuesday",
        "hours": "8:30\u202fAM to 6:30\u202fPM"
      },
      {
        "day": "Wednesday",
        "hours": "8:30\u202fAM to 6:30\u202fPM"
      },
      {
        "day": "Thursday",
        "hours": "8:30\u202fAM to 6:30\u202fPM"
      },
      {
        "day": "Friday",
        "hours": "8:30\u202fAM to 6:30\u202fPM"
      },
      {
        "day": "Saturday",
        "hours": "9\u202fAM to 1\u202fPM"
      },
      {
        "day": "Sunday",
        "hours": "Closed"
      }
    ],
    "peopleAlsoSearch": [],
    "placesTags": [],
    "reviewsTags": [],
    "additionalInfo": {
      "Accessibility": [
        {
          "Wheelchair accessible entrance": true
        },
        {
          "Wheelchair accessible parking lot": true
        }
      ],
      "Payments": [
        {
          "Credit cards": true
        },
        {
          "Debit cards": true
        },
        {
          "NFC mobile payments": true
        },
        {
          "Credit cards": true
        }
      ]
    },
    "gasPrices": [],
    "url": "https://www.google.com/maps/search/?api=1&query=Pharmacy%20Innovations%20Erie&query_place_id=ChIJycNpHvx-MogRbNSk1oe1Rn4",
    "searchPageUrl": "https://www.google.com/maps/search/independent%20pharmacy%20Erie%20PA/@69.21166763186608,-141.6025211145925,9z?hl=en",
    "searchString": "independent pharmacy Erie PA",
    "language": "en",
    "rank": 3,
    "isAdvertisement": false,
    "imageUrl": "https://lh3.googleusercontent.com/p/AF1QipNO--Bnjs2Rtn3BO8hDIf5ID__2eeBRBXIK6pPF=w408-h544-k-no",
    "kgmid": "/g/1tlbpt3t",
    "classification": "hospital",
    "is_independent": false,
    "confidence": 1.0,
    "source": "rule-based"
  },
  {
    "title": "Colonial Family Pharmacy",
    "price": null,
    "categoryName": "Pharmacy",
    "address": "3822 Colonial Ave, Erie, PA 16506",
    "neighborhood": null,
    "street": "3822 Colonial Ave",
    "city": "Erie",
    "postalCode": "16506",
    "state": "Pennsylvania",
    "countryCode": "US",
    "website": "http://www.colonialfamilypharmacy.com/",
    "phone": "(814) 835-0000",
    "phoneUnformatted": "+18148350000",
    "claimThisBusiness": false,
    "location": {
      "lat": 42.0682425,
      "lng": -80.157229
    },
    "totalScore": 4.9,
    "permanentlyClosed": false,
    "temporarilyClosed": false,
    "placeId": null,
    "categories": [
      "Pharmacy"
    ],
    "fid": "0x88327e9323f828e3:0x16a5875ebc2da770",
    "cid": "1631859280945457008",
    "reviewsCount": 30,
    "imagesCount": 5,
    "imageCategories": [],
    "scrapedAt": "2025-06-22T06:34:57.103Z",
    "googleFoodUrl": null,
    "hotelAds": [],
    "openingHours": [
      {
        "day": "Monday",
        "hours": "8\u202fAM to 6\u202fPM"
      },
      {
        "day": "Tuesday",
        "hours": "8\u202fAM to 6\u202fPM"
      },
      {
        "day": "Wednesday",
        "hours": "8\u202fAM to 6\u202fPM"
      },
      {
        "day": "Thursday",
        "hours": "8\u202fAM to 6\u202fPM"
      },
      {
        "day": "Friday",
        "hours": "8\u202fAM to 6\u202fPM"
      },
      {
        "day": "Saturday",
        "hours": "8\u202fAM to 1\u202fPM"
      },
      {
        "day": "Sunday",
        "hours": "Closed"
      }
    ],
    "peopleAlsoSearch": [],
    "placesTags": [],
    "reviewsTags": [],
    "additionalInfo": {
      "From the business": [
        {
          "Small business": true
        }
      ],
      "Service options": [
        {
          "Delivery": true
        },
        {
          "Drive-through": true
        },
        {
          "In-store pickup": true
        },
        {
          "Same-day delivery": true
        }
      ],
      "Accessibility": [
        {
          "Wheelchair accessible entrance": true
        },
        {
          "Wheelchair accessible parking lot": true
        }
      ],
      "Planning": [
        {
          "Quick visit": true
        }
      ],
      "Payments": [
        {
          "Credit cards": true
        },
        {
          "Debit cards": true
        },
        {
          "NFC mobile payments": true
        },
        {
          "Credit cards": true
        }
      ]
    },
    "gasPrices": [],
    "url": "https://www.google.com/maps/search/?api=1&query=Colonial%20Family%20Pharmacy&query_place_id=ChIJ4yj4I5N-MogRcKctvF6HpRY",
    "searchPageUrl": "https://www.google.com/maps/search/independent%20pharmacy%20Erie%20PA/@69.21166763186608,-141.6025211145925,9z?hl=en",
    "searchString": "independent pharmacy Erie PA",
    "language": "en",
    "rank": 4,
    "isAdvertisement": false,
    "imageUrl": "https://lh3.googleusercontent.com/p/AF1QipPElZGzSHvB2P4M76ZJR7xjgfpMcgw-Qw-aGwaK=w408-h244-k-no",
    "kgmid": "/g/1tg4xh8x",
    "classification": "independent",
    "is_independent": true,
    "is_compounding": false,
    "confidence": 0.9,
    "source": "perplexity",
    "method": "llm"
  },
  {
    "title": "Colonial Family Pharmacy",
    "price": null,
    "categoryName": "Pharmacy",
    "address": "5702 Peach St, Erie, PA 16509",
    "neighborhood": null,
    "street": "5702 Peach St",
    "city": "Erie",
    "postalCode": "16509",
    "state": "Pennsylvania",
    "countryCode": "US",
    "website": "https://lecomhealth.com/community-hospital/specialties/colonial-family-pharmacy/",
    "phone": "(814) 868-7809",
    "phoneUnformatted": "+18148687809",
    "claimThisBusiness": false,
    "location": {
      "lat": 42.0704199,
      "lng": -80.0936108
    },
    "totalScore": 4.8,
    "permanentlyClosed": false,
    "temporarilyClosed": false,
    "placeId": null,
    "categories": [
      "Pharmacy"
    ],
    "fid": "0x8832814d16a7addb:0x64c00e2b202dbcc7",
    "cid": "7259818177707490503",
    "reviewsCount": 11,
    "imagesCount": 1,
    "imageCategories": [],
    "scrapedAt": "2025-06-22T06:34:57.104Z",
    "googleFoodUrl": null,
    "hotelAds": [],
    "openingHours": [
      {
        "day": "Monday",
        "hours": "8\u202fAM to 6\u202fPM"
      },
      {
        "day": "Tuesday",
        "hours": "8\u202fAM to 6\u202fPM"
      },
      {
        "day": "Wednesday",
        "hours": "8\u202fAM to 6\u202fPM"
      },
      {
        "day": "Thursday",
        "hours": "8\u202fAM to 6\u202fPM"
      },
      {
        "day": "Friday",
        "hours": "8\u202fAM to 6\u202fPM"
      },
      {
        "day": "Saturday",
        "hours": "9\u202fAM to 2\u202fPM"
      },
      {
        "day": "Sunday",
        "hours": "Closed"
      }
    ],
    "peopleAlsoSearch": [],
    "placesTags": [],
    "reviewsTags": [],
    "additionalInfo": {
      "Service options": [
        {
          "In-store pickup": true
        }
      ],
      "Accessibility": [
        {
          "Wheelchair accessible entrance": true
        },
        {
          "Wheelchair accessible parking lot": true
        }
      ],
      "Payments": [
        {
          "Credit cards": true
        }
      ]
    },
    "gasPrices": [],
    "url": "https://www.google.com/maps/search/?api=1&query=Colonial%20Family%20Pharmacy&query_place_id=ChIJ262nFk2BMogRx7wtICsOwGQ",
    "searchPageUrl": "https://www.google.com/maps/search/independent%20pharmacy%20Erie%20PA/@69.21166763186608,-141.6025211145925,9z?hl=en",
    "searchString": "independent pharmacy Erie PA",
    "language": "en",
    "rank": 5,
    "isAdvertisement": false,
    "imageUrl": "https://streetviewpixels-pa.googleapis.com/v1/thumbnail?panoid=UMQEq4vekKTep_dTBY_KkA&cb_client=search.gws-prod.gps&w=408&h=240&yaw=298.00208&pitch=0&thumbfov=100",
    "kgmid": "/g/11hzch_zy4",
    "classification": "hospital",
    "is_independent": false,
    "is_compounding": false,
    "confidence": 0.95,
    "source": "perplexity",
    "method": "llm"
  },
  {
    "title": "Medicap\u00ae Pharmacy",
    "price": null,
    "categoryName": "Pharmacy",
    "address": "1896 E Lake Rd, Erie, PA 16511",
    "neighborhood": null,
    "street": "1896 E Lake Rd",
    "city": "Erie",
    "postalCode": "16511",
    "state": "Pennsylvania",
    "countryCode": "US",
    "website": "http://www.medicap.com/",
    "phone": "(814) 456-4108",
    "phoneUnformatted": "+18144564108",
    "claimThisBusiness": true,
    "location": {
      "lat": 42.1455387,
      "lng": -80.0437089
    },
    "totalScore": 4.7,
    "permanentlyClosed": false,
    "temporarilyClosed": false,
    "placeId": null,
    "categories": [
      "Pharmacy"
    ],
    "fid": "0x882d7e4f9879a277:0x70ce7154a6c91e31",
    "cid": "8128558985839713841",
    "reviewsCount": 11,
    "imagesCount": 26,
    "imageCategories": [],
    "scrapedAt": "2025-06-22T06:34:57.104Z",
    "googleFoodUrl": null,
    "hotelAds": [],
    "openingHours": [
      {
        "day": "Monday",
        "hours": "9\u202fAM to 6\u202fPM"
      },
      {
        "day": "Tuesday",
        "hours": "9\u202fAM to 6\u202fPM"
      },
      {
        "day": "Wednesday",
        "hours": "9\u202fAM to 6\u202fPM"
      },
      {
        "day": "Thursday",
        "hours": "9\u202fAM to 6\u202fPM"
      },
      {
        "day": "Friday",
        "hours": "9\u202fAM to 6\u202fPM"
      },
      {
        "day": "Saturday",
        "hours": "9\u202fAM to 1\u202fPM"
      },
      {
        "day": "Sunday",
        "hours": "Closed"
      }
    ],
    "peopleAlsoSearch": [],
    "placesTags": [],
    "reviewsTags": [],
    "additionalInfo": {
      "Service options": [
        {
          "Delivery": true
        },
        {
          "Drive-through": true
        },
        {
          "In-store pickup": true
        },
        {
          "Same-day delivery": true
        }
      ],
      "Accessibility": [
        {
          "Wheelchair accessible entrance": true
        },
        {
          "Wheelchair accessible parking lot": true
        }
      ],
      "Planning": [
        {
          "Quick visit": true
        }
      ],
      "Payments": [
        {
          "Credit cards": true
        },
        {
          "Debit cards": true
        },
        {
          "NFC mobile payments": true
        },
        {
          "Credit cards": true
        }
      ]
    },
    "gasPrices": [],
    "url": "https://www.google.com/maps/search/?api=1&query=Medicap%C2%AE%20Pharmacy&query_place_id=ChIJd6J5mE9-LYgRMR7JplRxznA",
    "searchPageUrl": "https://www.google.com/maps/search/independent%20pharmacy%20Erie%20PA/@69.21166763186608,-141.6025211145925,9z?hl=en",
    "searchString": "independent pharmacy Erie PA",
    "language": "en",
    "rank": 6,
    "isAdvertisement": false,
    "imageUrl": "https://lh3.googleusercontent.com/gps-cs-s/AC9h4npj7adYJwhEWGUEU8x7AvucZzl0u1kPlBsm_UUw2F-sxZsON-vvqyptN039FuVDpVtxRTQDThi44xsO9vqjYB-vTKXi0APTBE-7JOeN8j1U1Q4HD21Vz0sTrxa_QqoCqjEb6dRQ=w426-h240-k-no",
    "kgmid": "/g/1tf08958",
    "classification": "chain",
    "is_independent": false,
    "is_compounding": false,
    "confidence": 0.95,
    "source": "perplexity",
    "method": "llm"
  },
  {
    "title": "Tops Pharmacy",
    "price": "$$",
    "categoryName": "Pharmacy",
    "address": "712 W 38th St, Erie, PA 16508",
    "neighborhood": null,
    "street": "712 W 38th St",
    "city": "Erie",
    "postalCode": "16508",
    "state": "Pennsylvania",
    "countryCode": "US",
    "website": "http://www.topsmarkets.com/StoreLocator/Store_Detail_S.las?L=665&S=",
    "phone": "(814) 864-0653",
    "phoneUnformatted": "+18148640653",
    "claimThisBusiness": true,
    "location": {
      "lat": 42.0973643,
      "lng": -80.084201
    },
    "totalScore": 4.9,
    "permanentlyClosed": false,
    "temporarilyClosed": false,
    "placeId": null,
    "categories": [
      "Pharmacy"
    ],
    "fid": "0x8832806e7f1d13fb:0x857dc8d091e2488c",
    "cid": "9619065177259526284",
    "reviewsCount": 23,
    "imagesCount": 3,
    "imageCategories": [],
    "scrapedAt": "2025-06-22T06:35:01.637Z",
    "googleFoodUrl": null,
    "hotelAds": [],
    "openingHours": [
      {
        "day": "Monday",
        "hours": "8:30\u202fAM to 8\u202fPM"
      },
      {
        "day": "Tuesday",
        "hours": "8:30\u202fAM to 8\u202fPM"
      },
      {
        "day": "Wednesday",
        "hours": "8:30\u202fAM to 8\u202fPM"
      },
      {
        "day": "Thursday",
        "hours": "8:30\u202fAM to 8\u202fPM"
      },
      {
        "day": "Friday",
        "hours": "8:30\u202fAM to 8\u202fPM"
      },
      {
        "day": "Saturday",
        "hours": "9\u202fAM to 5\u202fPM"
      },
      {
        "day": "Sunday",
        "hours": "9\u202fAM to 3\u202fPM"
      }
    ],
    "peopleAlsoSearch": [],
    "placesTags": [],
    "reviewsTags": [],
    "additionalInfo": {
      "Service options": [
        {
          "In-store pickup": true
        }
      ],
      "Accessibility": [
        {
          "Wheelchair accessible entrance": true
        },
        {
          "Wheelchair accessible parking lot": true
        }
      ],
      "Planning": [
        {
          "Quick visit": true
        }
      ],
      "Payments": [
        {
          "Credit cards": true
        }
      ]
    },
    "gasPrices": [],
    "url": "https://www.google.com/maps/search/?api=1&query=Tops%20Pharmacy&query_place_id=ChIJ-xMdf26AMogRjEjikdDIfYU",
    "searchPageUrl": "https://www.google.com/maps/search/independent%20pharmacy%20Erie%20PA/@60.874534795447715,-145.05491807162034,9z?hl=en",
    "searchString": "independent pharmacy Erie PA",
    "language": "en",
    "rank": 6,
    "isAdvertisement": false,
    "imageUrl": "https://lh3.googleusercontent.com/gps-cs-s/AC9h4nqjH9G9NOXxF4WM7rLenfXfwmxx2eZzmrmsVjiu0loJkJP_xWyGdzT_PsUXNcoSU-1zt_I-dAalbUMtJjUSMqkzRhtCjqYW6-2WkDIU0o6OHYfmeHkGZaQMEpbvidFrDJLdbk5W=w408-h256-k-no",
    "kgmid": "/g/11bbw_wrtf",
    "classification": "chain",
    "is_independent": false,
    "is_compounding": false,
    "confidence": 0.95,
    "source": "perplexity",
    "method": "llm"
  },
  {
    "title": "The Pharmacy",
    "price": null,
    "categoryName": "Pharmacy",
    "address": "Yorktown Center Dr, Erie, PA 16505, United States",
    "neighborhood": null,
    "street": "Yorktown Center Dr",
    "city": "Erie",
    "postalCode": "16505",
    "state": "Pennsylvania",
    "countryCode": "US",
    "claimThisBusiness": true,
    "location": {
      "lat": 42.100889,
      "lng": -80.1349311
    },
    "permanentlyClosed": false,
    "temporarilyClosed": false,
    "placeId": null,
    "categories": [
      "Pharmacy"
    ],
    "fid": "0x88327fa464c0ffcb:0xed07a531a0926074",
    "cid": "17079801744391823476",
    "reviewsCount": 0,
    "imagesCount": 2,
    "imageCategories": [],
    "scrapedAt": "2025-06-22T06:35:07.996Z",
    "googleFoodUrl": null,
    "hotelAds": [],
    "openingHours": [],
    "peopleAlsoSearch": [],
    "placesTags": [],
    "reviewsTags": [],
    "additionalInfo": {
      "Accessibility": [
        {
          "Wheelchair-accessible car park": true
        },
        {
          "Wheelchair-accessible entrance": true
        }
      ],
      "Payments": [
        {
          "Credit cards": true
        }
      ]
    },
    "gasPrices": [],
    "url": "https://www.google.com/maps/search/?api=1&query=The%20Pharmacy&query_place_id=ChIJy__AZKR_MogRdGCSoDGlB-0",
    "searchPageUrl": "https://www.google.com/maps/search/independent%20pharmacy%20Erie%20PA/@68.51690656216455,-146.20571705729628,9z?hl=en",
    "searchString": "independent pharmacy Erie PA",
    "language": "en",
    "rank": 2,
    "isAdvertisement": false,
    "imageUrl": "https://lh3.googleusercontent.com/gps-cs-s/AC9h4nrt4tN38AW-L1jp-LabiKRuKHAehMapBkAaCfTgJwsqz6VmO9GyzsO9luq0jE3f49aONV1QoM8kPqcZfzGDj47em3hQfUkXE6_lJ_vseDTERYCb_0gqn2jwBJ0KnoToewcUpuTa=w408-h272-k-no",
    "kgmid": "/g/11hcdwb2dn",
    "classification": "independent",
    "is_independent": true,
    "is_compounding": false,
    "confidence": 0.6,
    "source": "perplexity",
    "method": "llm"
  },
  {
    "title": "Busbee Lisa A",
    "price": null,
    "categoryName": "Pharmacy",
    "address": "135 E 38th St Boulevard, Erie, PA 16504, United States",
    "neighborhood": null,
    "street": "135 E 38th St Boulevard",
    "city": "Erie",
    "postalCode": "16504",
    "state": "Pennsylvania",
    "countryCode": "US",
    "phone": "+1 814-860-2284",
    "phoneUnformatted": "+18148602284",
    "claimThisBusiness": true,
    "location": {
      "lat": 42.1020279,
      "lng": -80.0630454
    },
    "permanentlyClosed": false,
    "temporarilyClosed": false,
    "placeId": null,
    "categories": [
      "Pharmacy"
    ],
    "fid": "0x883280377e595d7f:0x6b259701b61ce61b",
    "cid": "7720743169802692123",
    "reviewsCount": 0,
    "imagesCount": null,
    "imageCategories": [],
    "scrapedAt": "2025-06-22T06:35:07.996Z",
    "googleFoodUrl": null,
    "hotelAds": [],
    "openingHours": [],
    "peopleAlsoSearch": [],
    "placesTags": [],
    "reviewsTags": [],
    "gasPrices": [],
    "url": "https://www.google.com/maps/search/?api=1&query=Busbee%20Lisa%20A&query_place_id=ChIJf11ZfjeAMogRG-YctgGXJWs",
    "searchPageUrl": "https://www.google.com/maps/search/independent%20pharmacy%20Erie%20PA/@68.51690656216455,-146.20571705729628,9z?hl=en",
    "searchString": "independent pharmacy Erie PA",
    "language": "en",
    "rank": 4,
    "isAdvertisement": false,
    "kgmid": "/g/1tcwxcfv",
    "classification": "independent",
    "is_independent": true,
    "is_compounding": false,
    "confidence": 0.85,
    "source": "perplexity",
    "method": "llm"
  },
  {
    "title": "CVS Pharmacy",
    "price": null,
    "categoryName": "Pharmacy",
    "address": "3800 Pine Ave, Erie, PA 16504, United States",
    "neighborhood": null,
    "street": "3800 Pine Ave",
    "city": "Erie",
    "postalCode": "16504",
    "state": "Pennsylvania",
    "countryCode": "US",
    "website": "https://www.cvs.com/store-locator/erie-pa-pharmacies/3800-pine-ave-erie-pa-16504/storeid=3168?WT.mc_id=LS_GOOGLE_RX_3168",
    "phone": "+1 814-825-1564",
    "phoneUnformatted": "+18148251564",
    "claimThisBusiness": false,
    "location": {
      "lat": 42.1079664,
      "lng": -80.0496066
    },
    "totalScore": 3.6,
    "permanentlyClosed": false,
    "temporarilyClosed": false,
    "placeId": "ChIJfw5bkc2BMogRrbR_KDF0GO0",
    "categories": [
      "Pharmacy"
    ],
    "fid": "0x883281cd915b0e7f:0xed187431287fb4ad",
    "cid": "17084532940911654061",
    "reviewsCount": 54,
    "imagesCount": 15,
    "imageCategories": [],
    "scrapedAt": "2025-06-22T06:35:07.996Z",
    "googleFoodUrl": null,
    "hotelAds": [],
    "openingHours": [
      {
        "day": "Monday",
        "hours": "12\u202fAM to 1:30\u202fPM, 2\u202fPM to 12\u202fAM"
      },
      {
        "day": "Tuesday",
        "hours": "12\u202fAM to 1:30\u202fPM, 2\u202fPM to 12\u202fAM"
      },
      {
        "day": "Wednesday",
        "hours": "12\u202fAM to 1:30\u202fPM, 2\u202fPM to 12\u202fAM"
      },
      {
        "day": "Thursday",
        "hours": "12\u202fAM to 1:30\u202fPM, 2\u202fPM to 12\u202fAM"
      },
      {
        "day": "Friday",
        "hours": "12\u202fAM to 1:30\u202fPM, 2\u202fPM to 12\u202fAM"
      },
      {
        "day": "Saturday",
        "hours": "12\u202fAM to 1:30\u202fPM, 2\u202fPM to 12\u202fAM"
      },
      {
        "day": "Sunday",
        "hours": "12\u202fAM to 1:30\u202fPM, 2\u202fPM to 12\u202fAM"
      }
    ],
    "peopleAlsoSearch": [],
    "placesTags": [],
    "reviewsTags": [],
    "additionalInfo": {
      "Service options": [
        {
          "Delivery": true
        },
        {
          "Drive-through": true
        },
        {
          "In-store pick-up": true
        },
        {
          "In-store shopping": true
        },
        {
          "On-site services": true
        }
      ],
      "Accessibility": [
        {
          "Wheelchair-accessible car park": true
        },
        {
          "Wheelchair-accessible entrance": true
        }
      ],
      "Offerings": [
        {
          "Medication disposal": true
        },
        {
          "Naloxone": true
        },
        {
          "Passport photos": true
        }
      ],
      "Crowd": [
        {
          "LGBTQ+ friendly": true
        },
        {
          "Transgender safe space": true
        }
      ],
      "Planning": [
        {
          "Quick visit": true
        }
      ],
      "Payments": [
        {
          "Credit cards": true
        },
        {
          "Debit cards": true
        },
        {
          "NFC mobile payments": true
        },
        {
          "SNAP/EBT": true
        },
        {
          "Credit cards": true
        }
      ]
    },
    "gasPrices": [],
    "url": "https://www.google.com/maps/search/?api=1&query=CVS%20Pharmacy&query_place_id=ChIJfw5bkc2BMogRrbR_KDF0GO0",
    "searchPageUrl": "https://www.google.com/maps/search/independent%20pharmacy%20Erie%20PA/@68.51690656216455,-146.20571705729628,9z?hl=en",
    "searchString": "independent pharmacy Erie PA",
    "language": "en",
    "rank": 6,
    "isAdvertisement": false,
    "imageUrl": "https://lh3.googleusercontent.com/p/AF1QipPwN48jg6EH-nCi4fVouImqDJGeXsadw64FUi_x=w408-h272-k-no",
    "kgmid": "/g/11c463lxn_",
    "classification": "chain",
    "is_independent": false,
    "confidence": 1.0,
    "source": "rule-based"
  },
  {
    "title": "Rite Aid Pharmacy",
    "price": null,
    "categoryName": "Pharmacy",
    "address": "925 W Erie Plaza Dr, Erie, PA 16505, United States",
    "neighborhood": null,
    "street": "925 W Erie Plaza Dr",
    "city": "Erie",
    "postalCode": "16505",
    "state": "Pennsylvania",
    "countryCode": "US",
    "website": "https://www.riteaid.com/locations/pa/erie/925-west-erie-plaza.html",
    "phone": "+1 814-454-7800",
    "phoneUnformatted": "+18144547800",
    "claimThisBusiness": false,
    "location": {
      "lat": 42.1073565,
      "lng": -80.1329338
    },
    "totalScore": 3,
    "permanentlyClosed": false,
    "temporarilyClosed": true,
    "placeId": "ChIJVVWlFZh_MogRYTVhkAKBlTI",
    "categories": [
      "Pharmacy"
    ],
    "fid": "0x88327f9815a55555:0x3295810290613561",
    "cid": "3644961321438492001",
    "reviewsCount": 3,
    "imagesCount": 7,
    "imageCategories": [],
    "scrapedAt": "2025-06-22T06:35:07.996Z",
    "googleFoodUrl": null,
    "hotelAds": [],
    "openingHours": [],
    "additionalOpeningHours": {
      "Drive-through": [
        {
          "day": "Monday",
          "hours": "9\u202fam\u20138\u202fpm"
        },
        {
          "day": "Tuesday",
          "hours": "9\u202fam\u20138\u202fpm"
        },
        {
          "day": "Wednesday",
          "hours": "9\u202fam\u20138\u202fpm"
        },
        {
          "day": "Thursday",
          "hours": "9\u202fam\u20138\u202fpm"
        },
        {
          "day": "Friday",
          "hours": "9\u202fam\u20138\u202fpm"
        },
        {
          "day": "Saturday",
          "hours": "9\u202fam\u20135\u202fpm"
        },
        {
          "day": "Sunday",
          "hours": "9\u202fam\u20135\u202fpm"
        }
      ]
    },
    "peopleAlsoSearch": [],
    "placesTags": [],
    "reviewsTags": [],
    "additionalInfo": {
      "Service options": [
        {
          "Delivery": true
        },
        {
          "Drive-through": true
        },
        {
          "In-store pick-up": true
        }
      ],
      "Accessibility": [
        {
          "Wheelchair-accessible car park": true
        },
        {
          "Wheelchair-accessible entrance": true
        }
      ],
      "Planning": [
        {
          "Quick visit": true
        }
      ],
      "Payments": [
        {
          "Cheques": true
        },
        {
          "Credit cards": true
        },
        {
          "Debit cards": true
        },
        {
          "NFC mobile payments": true
        },
        {
          "Credit cards": true
        }
      ]
    },
    "gasPrices": [],
    "url": "https://www.google.com/maps/search/?api=1&query=Rite%20Aid%20Pharmacy&query_place_id=ChIJVVWlFZh_MogRYTVhkAKBlTI",
    "searchPageUrl": "https://www.google.com/maps/search/independent%20pharmacy%20Erie%20PA/@68.51690656216455,-146.20571705729628,9z?hl=en",
    "searchString": "independent pharmacy Erie PA",
    "language": "en",
    "rank": 10,
    "isAdvertisement": false,
    "imageUrl": "https://lh3.googleusercontent.com/p/AF1QipNAHSB4xv3l2rTXKucxcc1rLifcZaJpRSvPGFmN=w408-h406-k-no",
    "kgmid": "/g/11pc1jv1sp",
    "classification": "chain",
    "is_independent": false,
    "confidence": 1.0,
    "source": "rule-based"
  },
  {
    "title": "Bardo Jamie A",
    "price": null,
    "categoryName": "Pharmacy",
    "address": "135 E 38th St Boulevard, Erie, PA 16504",
    "neighborhood": null,
    "street": "135 E 38th St Boulevard",
    "city": "Erie",
    "postalCode": "16504",
    "state": "Pennsylvania",
    "countryCode": "US",
    "phone": "(814) 860-2068",
    "phoneUnformatted": "+18148602068",
    "claimThisBusiness": true,
    "location": {
      "lat": 42.1020279,
      "lng": -80.0630454
    },
    "permanentlyClosed": false,
    "temporarilyClosed": false,
    "placeId": null,
    "categories": [
      "Pharmacy"
    ],
    "fid": "0x883280377e595d7f:0x94ab01fde390e1b7",
    "cid": "10712658328587133367",
    "reviewsCount": 0,
    "imagesCount": null,
    "imageCategories": [],
    "scrapedAt": "2025-06-22T06:35:18.955Z",
    "googleFoodUrl": null,
    "hotelAds": [],
    "openingHours": [],
    "peopleAlsoSearch": [],
    "placesTags": [],
    "reviewsTags": [],
    "additionalInfo": {
      "Accessibility": [
        {
          "Wheelchair accessible entrance": true
        },
        {
          "Wheelchair accessible parking lot": true
        }
      ]
    },
    "gasPrices": [],
    "url": "https://www.google.com/maps/search/?api=1&query=Bardo%20Jamie%20A&query_place_id=ChIJf11ZfjeAMogRt-GQ4_0Bq5Q",
    "searchPageUrl": "https://www.google.com/maps/search/independent%20pharmacy%20Erie%20PA/@60.17977372574618,-146.20571705729628,9z?hl=en",
    "searchString": "independent pharmacy Erie PA",
    "language": "en",
    "rank": 3,
    "isAdvertisement": false,
    "kgmid": "/g/1th5_fxj",
    "classification": "independent",
    "is_independent": true,
    "is_compounding": false,
    "confidence": 0.85,
    "source": "perplexity",
    "method": "llm"
  },
  {
    "title": "CVS Pharmacy",
    "price": null,
    "categoryName": "Pharmacy",
    "address": "1535 W 26th St, Erie, PA 16508",
    "neighborhood": null,
    "street": "1535 W 26th St",
    "city": "Erie",
    "postalCode": "16508",
    "state": "Pennsylvania",
    "countryCode": "US",
    "website": "https://www.cvs.com/store-locator/erie-pa-pharmacies/1535-west-26th-street-erie-pa-16508/storeid=7684?WT.mc_id=LS_GOOGLE_RX_7684",
    "phone": "(814) 461-1215",
    "phoneUnformatted": "+18144611215",
    "claimThisBusiness": false,
    "location": {
      "lat": 42.0996985,
      "lng": -80.105745
    },
    "totalScore": 3.8,
    "permanentlyClosed": false,
    "temporarilyClosed": false,
    "placeId": "ChIJ0x3Mb9x_MogRaQsn4LKTdZs",
    "categories": [
      "Pharmacy"
    ],
    "fid": "0x88327fdc6fcc1dd3:0x9b7593b2e0270b69",
    "cid": "11202022044628093801",
    "reviewsCount": 16,
    "imagesCount": 8,
    "imageCategories": [],
    "scrapedAt": "2025-06-22T06:35:18.955Z",
    "googleFoodUrl": null,
    "hotelAds": [],
    "openingHours": [
      {
        "day": "Monday",
        "hours": "8:30\u202fAM to 1:30\u202fPM, 2 to 8\u202fPM"
      },
      {
        "day": "Tuesday",
        "hours": "8:30\u202fAM to 1:30\u202fPM, 2 to 8\u202fPM"
      },
      {
        "day": "Wednesday",
        "hours": "8:30\u202fAM to 1:30\u202fPM, 2 to 8\u202fPM"
      },
      {
        "day": "Thursday",
        "hours": "8:30\u202fAM to 1:30\u202fPM, 2 to 8\u202fPM"
      },
      {
        "day": "Friday",
        "hours": "8:30\u202fAM to 1:30\u202fPM, 2 to 8\u202fPM"
      },
      {
        "day": "Saturday",
        "hours": "9\u202fAM to 1:30\u202fPM, 2 to 6\u202fPM"
      },
      {
        "day": "Sunday",
        "hours": "10\u202fAM to 1:30\u202fPM, 2 to 6\u202fPM"
      }
    ],
    "peopleAlsoSearch": [],
    "placesTags": [],
    "reviewsTags": [],
    "additionalInfo": {
      "Service options": [
        {
          "Delivery": true
        },
        {
          "Drive-through": true
        },
        {
          "In-store shopping": true
        },
        {
          "Onsite services": true
        }
      ],
      "Accessibility": [
        {
          "Wheelchair accessible entrance": true
        },
        {
          "Wheelchair accessible parking lot": true
        }
      ],
      "Offerings": [
        {
          "Naloxone": true
        },
        {
          "Passport photos": true
        }
      ],
      "Crowd": [
        {
          "LGBTQ+ friendly": true
        },
        {
          "Transgender safespace": true
        }
      ],
      "Planning": [
        {
          "Quick visit": true
        }
      ],
      "Payments": [
        {
          "Credit cards": true
        },
        {
          "Debit cards": true
        },
        {
          "NFC mobile payments": true
        },
        {
          "SNAP/EBT": true
        },
        {
          "Credit cards": true
        }
      ]
    },
    "gasPrices": [],
    "url": "https://www.google.com/maps/search/?api=1&query=CVS%20Pharmacy&query_place_id=ChIJ0x3Mb9x_MogRaQsn4LKTdZs",
    "searchPageUrl": "https://www.google.com/maps/search/independent%20pharmacy%20Erie%20PA/@60.17977372574618,-146.20571705729628,9z?hl=en",
    "searchString": "independent pharmacy Erie PA",
    "language": "en",
    "rank": 10,
    "isAdvertisement": false,
    "imageUrl": "https://lh3.googleusercontent.com/p/AF1QipPM3mE-gY1dzywv229Gv5GRbhXb1QuvrGR5Og7S=w408-h272-k-no",
    "kgmid": "/g/11c467h_57",
    "classification": "chain",
    "is_independent": false,
    "confidence": 1.0,
    "source": "rule-based"
  },
  {
    "title": "Beattie's Healthmart Pharmacy",
    "price": null,
    "categoryName": "Pharmacy",
    "address": "3140 Village Vista Dr #100, Erie, CO 80516",
    "neighborhood": null,
    "street": "3140 Village Vista Dr #100",
    "city": "Erie",
    "postalCode": "80516",
    "state": "Colorado",
    "countryCode": "US",
    "website": "https://www.beattiespharmacy.com/",
    "phone": "(720) 890-5095",
    "phoneUnformatted": "+17208905095",
    "claimThisBusiness": true,
    "location": {
      "lat": 40.001131,
      "lng": -105.0203387
    },
    "totalScore": 4.5,
    "permanentlyClosed": true,
    "temporarilyClosed": false,
    "placeId": null,
    "categories": [
      "Pharmacy"
    ],
    "fid": "0x876c0a90b5bf0c75:0xaec053a95586cdf6",
    "cid": "12592156544877383158",
    "reviewsCount": 58,
    "imagesCount": 2,
    "imageCategories": [],
    "scrapedAt": "2025-06-22T06:36:01.397Z",
    "googleFoodUrl": null,
    "hotelAds": [],
    "openingHours": [],
    "peopleAlsoSearch": [],
    "placesTags": [],
    "reviewsTags": [],
    "additionalInfo": {
      "Offerings": [
        {
          "Medication disposal": true
        }
      ],
      "Payments": [
        {
          "Debit cards": true
        },
        {
          "NFC mobile payments": true
        },
        {
          "Credit cards": true
        }
      ]
    },
    "gasPrices": [],
    "url": "https://www.google.com/maps/search/?api=1&query=Beattie's%20Healthmart%20Pharmacy&query_place_id=ChIJdQy_tZAKbIcR9s2GValTwK4",
    "searchPageUrl": "https://www.google.com/maps/search/independent%20pharmacy%20Erie%20PA/@36.81849750000001,-105.48342742835163,8z?hl=en",
    "searchString": "independent pharmacy Erie PA",
    "language": "en",
    "rank": 11,
    "isAdvertisement": false,
    "imageUrl": "https://lh3.googleusercontent.com/gps-cs-s/AC9h4noM84uI4J9JA2K2jq34Mt5urOqdYrWC6snWRVrpzoUvdJOsYBR--HlonCn3Y0E9y3lzAOKUF9d9zspe7TCwk2ZI7PpjPRbTsEdYDkTyS1YIaf5IBeRvlgPXtP8smT_NOjTMTQw=w408-h367-k-no",
    "kgmid": "/g/1tf_tbsw",
    "classification": "independent",
    "is_independent": true,
    "is_compounding": false,
    "confidence": 0.9,
    "source": "perplexity",
    "method": "llm"
  },
  {
    "title": "Parker Pharmacy",
    "price": null,
    "categoryName": "Pharmacy",
    "address": "1388 Hertel Ave, Buffalo, NY 14216",
    "neighborhood": "North Park",
    "street": "1388 Hertel Ave",
    "city": "Buffalo",
    "postalCode": "14216",
    "state": "New York",
    "countryCode": "US",
    "website": "http://www.parkerpharmacy.com/",
    "phone": "(716) 725-0887",
    "phoneUnformatted": "+17167250887",
    "claimThisBusiness": false,
    "location": {
      "lat": 42.9479594,
      "lng": -78.8566968
    },
    "totalScore": 4.8,
    "permanentlyClosed": false,
    "temporarilyClosed": false,
    "placeId": null,
    "categories": [
      "Pharmacy",
      "Cosmetics store",
      "Gift shop",
      "Vitamin & supplements store",
      "Wellness program"
    ],
    "fid": "0x89d36d48c1bdd3e7:0xb7ab4c3a7811a2a4",
    "cid": "13234755743964570276",
    "reviewsCount": 30,
    "imagesCount": 68,
    "imageCategories": [],
    "scrapedAt": "2025-06-22T06:36:04.379Z",
    "googleFoodUrl": null,
    "hotelAds": [],
    "openingHours": [
      {
        "day": "Monday",
        "hours": "9:30\u202fAM to 6\u202fPM"
      },
      {
        "day": "Tuesday",
        "hours": "9:30\u202fAM to 6\u202fPM"
      },
      {
        "day": "Wednesday",
        "hours": "9:30\u202fAM to 6\u202fPM"
      },
      {
        "day": "Thursday",
        "hours": "9:30\u202fAM to 6\u202fPM"
      },
      {
        "day": "Friday",
        "hours": "9:30\u202fAM to 6\u202fPM"
      },
      {
        "day": "Saturday",
        "hours": "10\u202fAM to 4\u202fPM"
      },
      {
        "day": "Sunday",
        "hours": "Closed"
      }
    ],
    "peopleAlsoSearch": [],
    "placesTags": [],
    "reviewsTags": [],
    "additionalInfo": {
      "From the business": [
        {
          "Identifies as women-owned": true
        },
        {
          "Small business": true
        }
      ],
      "Service options": [
        {
          "In-store pickup": true
        },
        {
          "Onsite services": true
        }
      ],
      "Accessibility": [
        {
          "Wheelchair accessible entrance": true
        },
        {
          "Wheelchair accessible parking lot": true
        },
        {
          "Wheelchair accessible restroom": true
        },
        {
          "Wheelchair accessible seating": true
        }
      ],
      "Amenities": [
        {
          "Gender-neutral restroom": true
        }
      ],
      "Crowd": [
        {
          "LGBTQ+ friendly": true
        },
        {
          "Transgender safespace": true
        }
      ],
      "Planning": [
        {
          "Quick visit": true
        }
      ],
      "Payments": [
        {
          "Credit cards": true
        },
        {
          "Debit cards": true
        },
        {
          "Credit cards": true
        }
      ],
      "Parking": [
        {
          "On-site parking": true
        },
        {
          "Paid street parking": true
        }
      ]
    },
    "gasPrices": [],
    "url": "https://www.google.com/maps/search/?api=1&query=Parker%20Pharmacy&query_place_id=ChIJ59O9wUht04kRpKIReDpMq7c",
    "searchPageUrl": "https://www.google.com/maps/search/independent%20pharmacy%20Erie%20PA/@42.54640259466427,-76.98739394329682,8z?hl=en",
    "searchString": "independent pharmacy Erie PA",
    "language": "en",
    "rank": 5,
    "isAdvertisement": false,
    "imageUrl": "https://lh3.googleusercontent.com/p/AF1QipP4B0n_gWyoamkpXvOaMUXRv7u0RbAKXKITOHHA=w426-h240-k-no",
    "kgmid": "/g/1hc2n4drt",
    "classification": "independent",
    "is_independent": true,
    "is_compounding": false,
    "confidence": 0.85,
    "source": "perplexity",
    "method": "llm"
  },
  {
    "title": "Buffalo Pharmacies, Inc.",
    "price": null,
    "categoryName": "Pharmacy",
    "address": "1479 Kensington Ave, Buffalo, NY 14215",
    "neighborhood": "Kensington",
    "street": "1479 Kensington Ave",
    "city": "Buffalo",
    "postalCode": "14215",
    "state": "New York",
    "countryCode": "US",
    "website": "http://www.buffalopharmacies.com/",
    "phone": "(716) 832-7744",
    "phoneUnformatted": "+17168327744",
    "claimThisBusiness": true,
    "location": {
      "lat": 42.9425307,
      "lng": -78.8017924
    },
    "totalScore": 3.3,
    "permanentlyClosed": false,
    "temporarilyClosed": false,
    "placeId": null,
    "categories": [
      "Pharmacy",
      "Medical supply store"
    ],
    "fid": "0x89d372d060982925:0xf87efa4c8a9b8f94",
    "cid": "17906024375121579924",
    "reviewsCount": 67,
    "imagesCount": 3,
    "imageCategories": [],
    "scrapedAt": "2025-06-22T06:36:04.380Z",
    "googleFoodUrl": null,
    "hotelAds": [],
    "openingHours": [
      {
        "day": "Monday",
        "hours": "9\u202fAM to 6\u202fPM"
      },
      {
        "day": "Tuesday",
        "hours": "9\u202fAM to 6\u202fPM"
      },
      {
        "day": "Wednesday",
        "hours": "9\u202fAM to 6\u202fPM"
      },
      {
        "day": "Thursday",
        "hours": "9\u202fAM to 6\u202fPM"
      },
      {
        "day": "Friday",
        "hours": "9\u202fAM to 6\u202fPM"
      },
      {
        "day": "Saturday",
        "hours": "9\u202fAM to 2\u202fPM"
      },
      {
        "day": "Sunday",
        "hours": "Closed"
      }
    ],
    "peopleAlsoSearch": [],
    "placesTags": [],
    "reviewsTags": [],
    "additionalInfo": {
      "Service options": [
        {
          "Delivery": true
        },
        {
          "In-store pickup": true
        },
        {
          "Same-day delivery": true
        }
      ],
      "Accessibility": [
        {
          "Wheelchair accessible entrance": true
        },
        {
          "Wheelchair accessible parking lot": true
        }
      ],
      "Planning": [
        {
          "Quick visit": true
        }
      ],
      "Payments": [
        {
          "Credit cards": true
        },
        {
          "Debit cards": true
        },
        {
          "Credit cards": true
        }
      ]
    },
    "gasPrices": [],
    "url": "https://www.google.com/maps/search/?api=1&query=Buffalo%20Pharmacies%2C%20Inc.&query_place_id=ChIJJSmYYNBy04kRlI-bikz6fvg",
    "searchPageUrl": "https://www.google.com/maps/search/independent%20pharmacy%20Erie%20PA/@42.54640259466427,-76.98739394329682,8z?hl=en",
    "searchString": "independent pharmacy Erie PA",
    "language": "en",
    "rank": 8,
    "isAdvertisement": false,
    "imageUrl": "https://lh3.googleusercontent.com/gps-cs-s/AC9h4nr-hzp_WhXE0_0uc-RwnO4L9rq4Yko4x3UAzlrFuzFZgGdy9hRZpXzSs1E2ktegCYJTg1J7dWb7GVkJt87RQbkxl2DzCyRxuODyU07Z295HJyqno3ukoiUHRaLXuFmgHrv9EIGUvg=w408-h544-k-no",
    "kgmid": "/g/1tm89dzg",
    "classification": "independent",
    "is_independent": true,
    "is_compounding": false,
    "confidence": 0.85,
    "source": "perplexity",
    "method": "llm"
  },
  {
    "title": "Pine Pharmacy",
    "price": null,
    "categoryName": "Pharmacy",
    "address": "5110 Main St, Williamsville, NY 14221",
    "neighborhood": null,
    "street": "5110 Main St",
    "city": "Williamsville",
    "postalCode": "14221",
    "state": "New York",
    "countryCode": "US",
    "website": "http://www.pinepharmacy.com/",
    "phone": "(716) 332-2288",
    "phoneUnformatted": "+17163322288",
    "claimThisBusiness": false,
    "location": {
      "lat": 42.9606786,
      "lng": -78.7622029
    },
    "totalScore": 4.2,
    "permanentlyClosed": false,
    "temporarilyClosed": false,
    "placeId": null,
    "categories": [
      "Pharmacy",
      "Vitamin & supplements store"
    ],
    "fid": "0x89d3737034e00e9f:0xdb0c786ac069dcfb",
    "cid": "15784123193916775675",
    "reviewsCount": 38,
    "imagesCount": 6,
    "imageCategories": [],
    "scrapedAt": "2025-06-22T06:36:04.380Z",
    "googleFoodUrl": null,
    "hotelAds": [],
    "openingHours": [
      {
        "day": "Monday",
        "hours": "9\u202fAM to 6\u202fPM"
      },
      {
        "day": "Tuesday",
        "hours": "9\u202fAM to 6\u202fPM"
      },
      {
        "day": "Wednesday",
        "hours": "9\u202fAM to 6\u202fPM"
      },
      {
        "day": "Thursday",
        "hours": "9\u202fAM to 6\u202fPM"
      },
      {
        "day": "Friday",
        "hours": "9\u202fAM to 6\u202fPM"
      },
      {
        "day": "Saturday",
        "hours": "10\u202fAM to 3\u202fPM"
      },
      {
        "day": "Sunday",
        "hours": "Closed"
      }
    ],
    "peopleAlsoSearch": [],
    "placesTags": [],
    "reviewsTags": [],
    "additionalInfo": {
      "From the business": [
        {
          "Small business": true
        }
      ],
      "Service options": [
        {
          "In-store pickup": true
        }
      ],
      "Accessibility": [
        {
          "Wheelchair accessible entrance": true
        },
        {
          "Wheelchair accessible parking lot": true
        }
      ],
      "Payments": [
        {
          "Credit cards": true
        },
        {
          "Debit cards": true
        },
        {
          "NFC mobile payments": true
        },
        {
          "Credit cards": true
        }
      ]
    },
    "gasPrices": [],
    "url": "https://www.google.com/maps/search/?api=1&query=Pine%20Pharmacy&query_place_id=ChIJnw7gNHBz04kR-9xpwGp4DNs",
    "searchPageUrl": "https://www.google.com/maps/search/independent%20pharmacy%20Erie%20PA/@42.54640259466427,-76.98739394329682,8z?hl=en",
    "searchString": "independent pharmacy Erie PA",
    "language": "en",
    "rank": 12,
    "isAdvertisement": false,
    "imageUrl": "https://lh3.googleusercontent.com/gps-cs-s/AC9h4nqGHVs4EXMrSCuVXAhhSYgKXt4qh0PuMJfBjdwsBTPlN66yaErmevzP7dqWYtiqbwSUCNLe-620xAhsCV-UL8qVIPuIWjMEI3w3kR_fXN11YUOHi0H4epRW591DaR_ke1rMJzuV=w408-h306-k-no",
    "kgmid": "/g/1tjs5y51",
    "classification": "independent",
    "is_independent": true,
    "is_compounding": false,
    "confidence": 0.85,
    "source": "perplexity",
    "method": "llm"
  },
  {
    "title": "CVS Pharmacy",
    "price": null,
    "categoryName": "Pharmacy",
    "address": "410 E 12th St, Erie, PA 16503",
    "neighborhood": null,
    "street": "410 E 12th St",
    "city": "Erie",
    "postalCode": "16503",
    "state": "Pennsylvania",
    "countryCode": "US",
    "website": "https://www.cvs.com/store-locator/erie-pa-pharmacies/410-east-12th-street-erie-pa-16503/storeid=4082?WT.mc_id=LS_GOOGLE_RX_4082",
    "phone": "(814) 456-7071",
    "phoneUnformatted": "+18144567071",
    "claimThisBusiness": false,
    "location": {
      "lat": 42.1272445,
      "lng": -80.0724129
    },
    "totalScore": 4.4,
    "permanentlyClosed": false,
    "temporarilyClosed": false,
    "placeId": "ChIJswFiRdx_LYgRwt0hD6ljavY",
    "categories": [
      "Pharmacy"
    ],
    "fid": "0x882d7fdc456201b3:0xf66a63a90f21ddc2",
    "cid": "17756114058616102338",
    "reviewsCount": 29,
    "imagesCount": 9,
    "imageCategories": [],
    "scrapedAt": "2025-06-22T06:36:04.380Z",
    "googleFoodUrl": null,
    "hotelAds": [],
    "openingHours": [
      {
        "day": "Monday",
        "hours": "8\u202fAM to 1:30\u202fPM, 2 to 9\u202fPM"
      },
      {
        "day": "Tuesday",
        "hours": "8\u202fAM to 1:30\u202fPM, 2 to 9\u202fPM"
      },
      {
        "day": "Wednesday",
        "hours": "8\u202fAM to 1:30\u202fPM, 2 to 9\u202fPM"
      },
      {
        "day": "Thursday",
        "hours": "8\u202fAM to 1:30\u202fPM, 2 to 9\u202fPM"
      },
      {
        "day": "Friday",
        "hours": "8\u202fAM to 1:30\u202fPM, 2 to 9\u202fPM"
      },
      {
        "day": "Saturday",
        "hours": "10\u202fAM to 1:30\u202fPM, 2 to 6\u202fPM"
      },
      {
        "day": "Sunday",
        "hours": "11\u202fAM to 1:30\u202fPM, 2 to 6\u202fPM"
      }
    ],
    "peopleAlsoSearch": [],
    "placesTags": [],
    "reviewsTags": [],
    "additionalInfo": {
      "Service options": [
        {
          "Delivery": true
        },
        {
          "Drive-through": true
        },
        {
          "In-store pickup": true
        },
        {
          "In-store shopping": true
        },
        {
          "Onsite services": true
        }
      ],
      "Accessibility": [
        {
          "Wheelchair accessible entrance": true
        },
        {
          "Wheelchair accessible parking lot": true
        }
      ],
      "Offerings": [
        {
          "Medication disposal": true
        },
        {
          "Naloxone": true
        }
      ],
      "Crowd": [
        {
          "LGBTQ+ friendly": true
        },
        {
          "Transgender safespace": true
        }
      ],
      "Planning": [
        {
          "Quick visit": true
        }
      ],
      "Payments": [
        {
          "Credit cards": true
        },
        {
          "Debit cards": true
        },
        {
          "NFC mobile payments": true
        },
        {
          "SNAP/EBT": true
        },
        {
          "Credit cards": true
        }
      ]
    },
    "gasPrices": [],
    "url": "https://www.google.com/maps/search/?api=1&query=CVS%20Pharmacy&query_place_id=ChIJswFiRdx_LYgRwt0hD6ljavY",
    "searchPageUrl": "https://www.google.com/maps/search/independent%20pharmacy%20Erie%20PA/@42.54640259466427,-76.98739394329682,8z?hl=en",
    "searchString": "independent pharmacy Erie PA",
    "language": "en",
    "rank": 13,
    "isAdvertisement": false,
    "imageUrl": "https://lh3.googleusercontent.com/p/AF1QipMjYLDXvKIJeTtztr0T7aZzPdmyInakTSC6G_Qs=w408-h272-k-no",
    "kgmid": "/g/11c475c1r9",
    "classification": "chain",
    "is_independent": false,
    "confidence": 1.0,
    "source": "rule-based"
  },
  {
    "title": "Black Rock Pharmacy Wellness Center",
    "price": null,
    "categoryName": "Pharmacy",
    "address": "431 Tonawanda St, Buffalo, NY 14207",
    "neighborhood": "Black Rock",
    "street": "431 Tonawanda St",
    "city": "Buffalo",
    "postalCode": "14207",
    "state": "New York",
    "countryCode": "US",
    "website": "https://www.blackrockpharmacy.com/",
    "phone": "(716) 876-3070",
    "phoneUnformatted": "+17168763070",
    "claimThisBusiness": false,
    "location": {
      "lat": 42.9410115,
      "lng": -78.8983242
    },
    "totalScore": 4.2,
    "permanentlyClosed": false,
    "temporarilyClosed": false,
    "placeId": null,
    "categories": [
      "Pharmacy"
    ],
    "fid": "0x89d31333a5d76d43:0xd40b06ea550ca06a",
    "cid": "15279313764303544426",
    "reviewsCount": 39,
    "imagesCount": 5,
    "imageCategories": [],
    "scrapedAt": "2025-06-22T06:36:04.380Z",
    "googleFoodUrl": null,
    "hotelAds": [],
    "openingHours": [
      {
        "day": "Monday",
        "hours": "9\u202fAM to 6\u202fPM"
      },
      {
        "day": "Tuesday",
        "hours": "9\u202fAM to 6\u202fPM"
      },
      {
        "day": "Wednesday",
        "hours": "9\u202fAM to 6\u202fPM"
      },
      {
        "day": "Thursday",
        "hours": "9\u202fAM to 6\u202fPM"
      },
      {
        "day": "Friday",
        "hours": "9\u202fAM to 6\u202fPM"
      },
      {
        "day": "Saturday",
        "hours": "9\u202fAM to 3\u202fPM"
      },
      {
        "day": "Sunday",
        "hours": "Closed"
      }
    ],
    "peopleAlsoSearch": [],
    "placesTags": [],
    "reviewsTags": [],
    "additionalInfo": {
      "From the business": [
        {
          "Small business": true
        }
      ],
      "Service options": [
        {
          "Delivery": true
        },
        {
          "In-store pickup": true
        },
        {
          "Same-day delivery": true
        }
      ],
      "Accessibility": [
        {
          "Wheelchair accessible entrance": true
        },
        {
          "Wheelchair accessible parking lot": true
        }
      ],
      "Planning": [
        {
          "Quick visit": true
        }
      ],
      "Payments": [
        {
          "Credit cards": true
        },
        {
          "Debit cards": true
        },
        {
          "NFC mobile payments": true
        },
        {
          "Credit cards": true
        }
      ]
    },
    "gasPrices": [],
    "url": "https://www.google.com/maps/search/?api=1&query=Black%20Rock%20Pharmacy%20Wellness%20Center&query_place_id=ChIJQ23XpTMT04kRaqAMVeoGC9Q",
    "searchPageUrl": "https://www.google.com/maps/search/independent%20pharmacy%20Erie%20PA/@42.54640259466427,-76.98739394329682,8z?hl=en",
    "searchString": "independent pharmacy Erie PA",
    "language": "en",
    "rank": 14,
    "isAdvertisement": false,
    "imageUrl": "https://lh3.googleusercontent.com/gps-cs-s/AC9h4noKVAXEyQz_qpImImnvLjemI8CJqHIO953o5-HitKXzs7VyupZyB5v-ZnjFlJdPh-6NR89bZ46ynS5OmuipoHTDYZcbpPSyT1LxCXAXrtZ80lTlVDKKibThW-0HzhxlWTgfibZAYg=w408-h544-k-no",
    "kgmid": "/g/1tc_m3lf",
    "classification": "independent",
    "is_independent": true,
    "is_compounding": false,
    "confidence": 0.9,
    "source": "perplexity",
    "method": "llm"
  },
  {
    "title": "Nickel City Pharmacy",
    "price": null,
    "categoryName": "Pharmacy",
    "address": "1791 South Park Ave, Buffalo, NY 14220",
    "neighborhood": "Triangle",
    "street": "1791 South Park Ave",
    "city": "Buffalo",
    "postalCode": "14220",
    "state": "New York",
    "countryCode": "US",
    "website": "https://www.nickelcitypharmacy.com/",
    "phone": "(716) 823-8300",
    "phoneUnformatted": "+17168238300",
    "claimThisBusiness": false,
    "location": {
      "lat": 42.8500228,
      "lng": -78.8242644
    },
    "totalScore": 4.6,
    "permanentlyClosed": false,
    "temporarilyClosed": false,
    "placeId": null,
    "categories": [
      "Pharmacy"
    ],
    "fid": "0x89d30e0fd4685435:0x5f7f621ff866258e",
    "cid": "6881326645096359310",
    "reviewsCount": 15,
    "imagesCount": 1,
    "imageCategories": [],
    "scrapedAt": "2025-06-22T06:36:04.380Z",
    "googleFoodUrl": null,
    "hotelAds": [],
    "openingHours": [
      {
        "day": "Monday",
        "hours": "9\u202fAM to 6\u202fPM"
      },
      {
        "day": "Tuesday",
        "hours": "9\u202fAM to 6\u202fPM"
      },
      {
        "day": "Wednesday",
        "hours": "9\u202fAM to 6\u202fPM"
      },
      {
        "day": "Thursday",
        "hours": "9\u202fAM to 6\u202fPM"
      },
      {
        "day": "Friday",
        "hours": "9\u202fAM to 6\u202fPM"
      },
      {
        "day": "Saturday",
        "hours": "10\u202fAM to 3\u202fPM"
      },
      {
        "day": "Sunday",
        "hours": "Closed"
      }
    ],
    "peopleAlsoSearch": [],
    "placesTags": [],
    "reviewsTags": [],
    "additionalInfo": {
      "From the business": [
        {
          "Small business": true
        }
      ],
      "Service options": [
        {
          "Delivery": true
        },
        {
          "Drive-through": true
        },
        {
          "In-store pickup": true
        },
        {
          "Same-day delivery": true
        }
      ],
      "Accessibility": [
        {
          "Wheelchair accessible entrance": true
        },
        {
          "Wheelchair accessible parking lot": true
        }
      ],
      "Planning": [
        {
          "Quick visit": true
        }
      ],
      "Payments": [
        {
          "Credit cards": true
        },
        {
          "Debit cards": true
        },
        {
          "NFC mobile payments": true
        },
        {
          "Credit cards": true
        }
      ]
    },
    "gasPrices": [],
    "url": "https://www.google.com/maps/search/?api=1&query=Nickel%20City%20Pharmacy&query_place_id=ChIJNVRo1A8O04kRjiVm-B9if18",
    "searchPageUrl": "https://www.google.com/maps/search/independent%20pharmacy%20Erie%20PA/@42.54640259466427,-76.98739394329682,8z?hl=en",
    "searchString": "independent pharmacy Erie PA",
    "language": "en",
    "rank": 16,
    "isAdvertisement": false,
    "imageUrl": "https://streetviewpixels-pa.googleapis.com/v1/thumbnail?panoid=1JJ7IX4uT4LgE6tmHs1FMg&cb_client=search.gws-prod.gps&w=408&h=240&yaw=242.27513&pitch=0&thumbfov=100",
    "kgmid": "/g/1td7v4ty",
    "classification": "independent",
    "is_independent": true,
    "is_compounding": false,
    "confidence": 0.92,
    "source": "perplexity",
    "method": "llm"
  }
]