[
  {
    "title": "Westgate Family Pharmacy",
    "price": null,
    "categoryName": "Pharmacy",
    "address": "3147 Central Ave, Toledo, OH 43606",
    "neighborhood": "Old Orchard",
    "street": "3147 Central Ave",
    "city": "Toledo",
    "postalCode": "43606",
    "state": "Ohio",
    "countryCode": "US",
    "website": "https://westgatefamilypharmacy.com/",
    "phone": "(419) 531-0000",
    "phoneUnformatted": "+14195310000",
    "claimThisBusiness": false,
    "location": {
      "lat": 41.677046,
      "lng": -83.6205389
    },
    "totalScore": 5,
    "permanentlyClosed": false,
    "temporarilyClosed": false,
    "placeId": null,
    "categories": [
      "Pharmacy"
    ],
    "fid": "0x883c7f3b93f2643d:0x519ae42d3be929f",
    "cid": "367516446650962591",
    "reviewsCount": 29,
    "imagesCount": 16,
    "imageCategories": [],
    "scrapedAt": "2025-06-22T06:23:41.444Z",
    "googleFoodUrl": null,
    "hotelAds": [],
    "openingHours": [
      {
        "day": "Monday",
        "hours": "10\u202fAM to 7\u202fPM"
      },
      {
        "day": "Tuesday",
        "hours": "10\u202fAM to 7\u202fPM"
      },
      {
        "day": "Wednesday",
        "hours": "10\u202fAM to 7\u202fPM"
      },
      {
        "day": "Thursday",
        "hours": "10\u202fAM to 7\u202fPM"
      },
      {
        "day": "Friday",
        "hours": "10\u202fAM to 7\u202fPM"
      },
      {
        "day": "Saturday",
        "hours": "10\u202fAM to 3\u202fPM"
      },
      {
        "day": "Sunday",
        "hours": "Closed"
      }
    ],
    "peopleAlsoSearch": [],
    "placesTags": [],
    "reviewsTags": [],
    "additionalInfo": {
      "From the business": [
        {
          "Small business": true
        }
      ],
      "Service options": [
        {
          "Delivery": true
        },
        {
          "In-store pickup": true
        },
        {
          "In-store shopping": true
        },
        {
          "Same-day delivery": true
        }
      ],
      "Accessibility": [
        {
          "Wheelchair accessible entrance": true
        },
        {
          "Wheelchair accessible parking lot": true
        }
      ],
      "Planning": [
        {
          "Quick visit": true
        }
      ],
      "Payments": [
        {
          "Credit cards": true
        },
        {
          "Debit cards": true
        },
        {
          "NFC mobile payments": true
        },
        {
          "Credit cards": true
        }
      ]
    },
    "gasPrices": [],
    "url": "https://www.google.com/maps/search/?api=1&query=Westgate%20Family%20Pharmacy&query_place_id=ChIJPWTykzt_PIgRn5K-00KuGQU",
    "searchPageUrl": "https://www.google.com/maps/search/independent%20pharmacy%20Toledo%20OH/@0.6011372586755248,-176.61788845,13z?hl=en",
    "searchString": "independent pharmacy Toledo OH",
    "language": "en",
    "rank": 1,
    "isAdvertisement": false,
    "imageUrl": "https://lh3.googleusercontent.com/gps-cs-s/AC9h4nplYonLnSjRN9LPtBVNr_mtU8fa4gDX8wYQlAh0kpEzcNY0FdcHSjzRvVJAbJcG2MHO1RHbEIRPeS4EAujsUoHi5z-qdUOSBks8qpLbf33T8Kq6HCgnevg4osVlg2RQ8qgTJXLf=w408-h302-k-no",
    "kgmid": "/g/1hd_fs_sx",
    "classification": "independent",
    "is_independent": true,
    "is_compounding": false,
    "confidence": 0.9,
    "source": "perplexity",
    "method": "llm"
  },
  {
    "title": "HealthyRX Pharmacy",
    "price": null,
    "categoryName": "Pharmacy",
    "address": "3188 S Byrne Rd, Toledo, OH 43614",
    "neighborhood": "Beverly",
    "street": "3188 S Byrne Rd",
    "city": "Toledo",
    "postalCode": "43614",
    "state": "Ohio",
    "countryCode": "US",
    "website": "http://healthyrxtoledo.com/",
    "phone": "(419) 777-4566",
    "phoneUnformatted": "+14197774566",
    "claimThisBusiness": false,
    "location": {
      "lat": 41.5898026,
      "lng": -83.6158426
    },
    "totalScore": 5,
    "permanentlyClosed": false,
    "temporarilyClosed": false,
    "placeId": null,
    "categories": [
      "Pharmacy"
    ],
    "fid": "0x883c796512600e95:0x731b0b6630150e2",
    "cid": "518389729515884770",
    "reviewsCount": 41,
    "imagesCount": 6,
    "imageCategories": [],
    "scrapedAt": "2025-06-22T06:23:41.445Z",
    "googleFoodUrl": null,
    "hotelAds": [],
    "openingHours": [
      {
        "day": "Monday",
        "hours": "9\u202fAM to 6\u202fPM"
      },
      {
        "day": "Tuesday",
        "hours": "9\u202fAM to 6\u202fPM"
      },
      {
        "day": "Wednesday",
        "hours": "9\u202fAM to 6\u202fPM"
      },
      {
        "day": "Thursday",
        "hours": "9\u202fAM to 6\u202fPM"
      },
      {
        "day": "Friday",
        "hours": "9\u202fAM to 6\u202fPM"
      },
      {
        "day": "Saturday",
        "hours": "9\u202fAM to 2\u202fPM"
      },
      {
        "day": "Sunday",
        "hours": "Closed"
      }
    ],
    "peopleAlsoSearch": [],
    "placesTags": [],
    "reviewsTags": [],
    "additionalInfo": {
      "From the business": [
        {
          "Small business": true
        }
      ],
      "Service options": [
        {
          "Delivery": true
        },
        {
          "In-store pickup": true
        },
        {
          "In-store shopping": true
        },
        {
          "Same-day delivery": true
        }
      ],
      "Accessibility": [
        {
          "Wheelchair accessible entrance": true
        },
        {
          "Wheelchair accessible parking lot": true
        }
      ],
      "Payments": [
        {
          "Credit cards": true
        },
        {
          "Debit cards": true
        },
        {
          "NFC mobile payments": true
        },
        {
          "Credit cards": true
        }
      ]
    },
    "gasPrices": [],
    "url": "https://www.google.com/maps/search/?api=1&query=HealthyRX%20Pharmacy&query_place_id=ChIJlQ5gEmV5PIgR4lABY7awMQc",
    "searchPageUrl": "https://www.google.com/maps/search/independent%20pharmacy%20Toledo%20OH/@0.6011372586755248,-176.61788845,13z?hl=en",
    "searchString": "independent pharmacy Toledo OH",
    "language": "en",
    "rank": 2,
    "isAdvertisement": false,
    "imageUrl": "https://lh3.googleusercontent.com/p/AF1QipMrRby8ddcj4yebQx8FA3s78e5h0uSzj71gSpU=w408-h306-k-no",
    "kgmid": "/g/11gvwvxqd0",
    "classification": "independent",
    "is_independent": true,
    "is_compounding": false,
    "confidence": 0.85,
    "source": "perplexity",
    "method": "llm"
  },
  {
    "title": "Aring's Compound Corner Pharmacy",
    "price": null,
    "categoryName": "Pharmacy",
    "address": "6725 Central Ave suite BB, Toledo, OH 43617",
    "neighborhood": null,
    "street": "6725 Central Ave suite BB",
    "city": "Toledo",
    "postalCode": "43617",
    "state": "Ohio",
    "countryCode": "US",
    "phone": "(419) 841-3833",
    "phoneUnformatted": "+14198413833",
    "claimThisBusiness": false,
    "location": {
      "lat": 41.6736664,
      "lng": -83.7039623
    },
    "totalScore": 4.8,
    "permanentlyClosed": false,
    "temporarilyClosed": false,
    "placeId": null,
    "categories": [
      "Pharmacy"
    ],
    "fid": "0x883c7c73e0bf64ff:0x9e8dcf02e0edf260",
    "cid": "11425015440979391072",
    "reviewsCount": 28,
    "imagesCount": 7,
    "imageCategories": [],
    "scrapedAt": "2025-06-22T06:23:41.445Z",
    "googleFoodUrl": null,
    "hotelAds": [],
    "openingHours": [
      {
        "day": "Monday",
        "hours": "9:30\u202fAM to 5:30\u202fPM"
      },
      {
        "day": "Tuesday",
        "hours": "9:30\u202fAM to 5:30\u202fPM"
      },
      {
        "day": "Wednesday",
        "hours": "9:30\u202fAM to 5:30\u202fPM"
      },
      {
        "day": "Thursday",
        "hours": "12 to 8\u202fPM"
      },
      {
        "day": "Friday",
        "hours": "9:30\u202fAM to 5:30\u202fPM"
      },
      {
        "day": "Saturday",
        "hours": "Closed"
      },
      {
        "day": "Sunday",
        "hours": "Closed"
      }
    ],
    "peopleAlsoSearch": [],
    "placesTags": [],
    "reviewsTags": [],
    "additionalInfo": {
      "Service options": [
        {
          "Delivery": true
        },
        {
          "In-store pickup": true
        },
        {
          "In-store shopping": true
        },
        {
          "Same-day delivery": false
        }
      ],
      "Accessibility": [
        {
          "Wheelchair accessible entrance": true
        },
        {
          "Wheelchair accessible parking lot": true
        }
      ],
      "Planning": [
        {
          "Quick visit": true
        }
      ],
      "Payments": [
        {
          "Credit cards": true
        },
        {
          "Debit cards": true
        },
        {
          "Credit cards": true
        }
      ]
    },
    "gasPrices": [],
    "url": "https://www.google.com/maps/search/?api=1&query=Aring's%20Compound%20Corner%20Pharmacy&query_place_id=ChIJ_2S_4HN8PIgRYPLt4ALPjZ4",
    "searchPageUrl": "https://www.google.com/maps/search/independent%20pharmacy%20Toledo%20OH/@0.6011372586755248,-176.61788845,13z?hl=en",
    "searchString": "independent pharmacy Toledo OH",
    "language": "en",
    "rank": 3,
    "isAdvertisement": false,
    "imageUrl": "https://lh3.googleusercontent.com/gps-cs-s/AC9h4nrNThh0qyNo8hQfX9w-fP54KqJSfTKCrBQSHM4hO0BxbaLZyKQXCrKZqkF7wQJWTteuKUgkvo_ZsH2QFlvxx8C2Gecobs46GF44LgzYl3-hDE1hwN4mFIWQtMKNbADxFUJ8f4DQ=w426-h240-k-no",
    "kgmid": "/g/1tflykk3",
    "classification": "independent",
    "is_independent": true,
    "is_compounding": true,
    "confidence": 0.95,
    "source": "perplexity",
    "method": "llm"
  },
  {
    "title": "Promed Discount Pharmacy",
    "price": null,
    "categoryName": "Pharmacy",
    "address": "4747 Suder Ave #105, Toledo, OH 43611",
    "neighborhood": null,
    "street": "4747 Suder Ave #105",
    "city": "Toledo",
    "postalCode": "43611",
    "state": "Ohio",
    "countryCode": "US",
    "phone": "(419) 764-5312",
    "phoneUnformatted": "+14197645312",
    "claimThisBusiness": false,
    "location": {
      "lat": 41.7065145,
      "lng": -83.5001058
    },
    "totalScore": 5,
    "permanentlyClosed": false,
    "temporarilyClosed": false,
    "placeId": null,
    "categories": [
      "Pharmacy"
    ],
    "fid": "0x883b830d63d65d05:0x97e697c81c609f5f",
    "cid": "10945602830095916895",
    "reviewsCount": 11,
    "imagesCount": 6,
    "imageCategories": [],
    "scrapedAt": "2025-06-22T06:23:41.446Z",
    "googleFoodUrl": null,
    "hotelAds": [],
    "openingHours": [
      {
        "day": "Monday",
        "hours": "9\u202fAM to 6\u202fPM"
      },
      {
        "day": "Tuesday",
        "hours": "9\u202fAM to 6\u202fPM"
      },
      {
        "day": "Wednesday",
        "hours": "9\u202fAM to 6\u202fPM"
      },
      {
        "day": "Thursday",
        "hours": "9\u202fAM to 6\u202fPM"
      },
      {
        "day": "Friday",
        "hours": "9\u202fAM to 6\u202fPM"
      },
      {
        "day": "Saturday",
        "hours": "9\u202fAM to 3\u202fPM"
      },
      {
        "day": "Sunday",
        "hours": "Closed"
      }
    ],
    "peopleAlsoSearch": [],
    "placesTags": [],
    "reviewsTags": [],
    "additionalInfo": {
      "Service options": [
        {
          "Curbside pickup": true
        },
        {
          "Delivery": true
        },
        {
          "In-store pickup": true
        },
        {
          "Same-day delivery": true
        }
      ],
      "Accessibility": [
        {
          "Wheelchair accessible entrance": true
        },
        {
          "Wheelchair accessible parking lot": true
        }
      ],
      "Planning": [
        {
          "Quick visit": true
        }
      ],
      "Payments": [
        {
          "Credit cards": true
        }
      ]
    },
    "gasPrices": [],
    "url": "https://www.google.com/maps/search/?api=1&query=Promed%20Discount%20Pharmacy&query_place_id=ChIJBV3WYw2DO4gRX59gHMiX5pc",
    "searchPageUrl": "https://www.google.com/maps/search/independent%20pharmacy%20Toledo%20OH/@0.6011372586755248,-176.61788845,13z?hl=en",
    "searchString": "independent pharmacy Toledo OH",
    "language": "en",
    "rank": 4,
    "isAdvertisement": false,
    "imageUrl": "https://lh3.googleusercontent.com/p/AF1QipPwRZjXSqAyDyIaNbXOR9JO2FnnNRieCGYWWeHY=w408-h544-k-no",
    "kgmid": "/g/11x2jvbxtq",
    "classification": "independent",
    "is_independent": true,
    "is_compounding": false,
    "confidence": 0.85,
    "source": "perplexity",
    "method": "llm"
  },
  {
    "title": "Sylvania Family Pharmacy",
    "price": null,
    "categoryName": "Pharmacy",
    "address": "2114 N Holland Sylvania Rd, Toledo, OH 43615",
    "neighborhood": "Reynolds Corners",
    "street": "2114 N Holland Sylvania Rd",
    "city": "Toledo",
    "postalCode": "43615",
    "state": "Ohio",
    "countryCode": "US",
    "website": "https://www.sylvaniafamilypharmacy.com/",
    "phone": "(419) 720-8000",
    "phoneUnformatted": "+14197208000",
    "claimThisBusiness": false,
    "location": {
      "lat": 41.6605713,
      "lng": -83.6822131
    },
    "totalScore": 4.6,
    "permanentlyClosed": false,
    "temporarilyClosed": false,
    "placeId": null,
    "categories": [
      "Pharmacy"
    ],
    "fid": "0x883c7b1a1f37f88d:0x120f48e32c2b65c4",
    "cid": "1301338957869180356",
    "reviewsCount": 18,
    "imagesCount": 12,
    "imageCategories": [],
    "scrapedAt": "2025-06-22T06:23:41.446Z",
    "googleFoodUrl": null,
    "hotelAds": [],
    "openingHours": [
      {
        "day": "Monday",
        "hours": "9:30\u202fAM to 6\u202fPM"
      },
      {
        "day": "Tuesday",
        "hours": "9:30\u202fAM to 6\u202fPM"
      },
      {
        "day": "Wednesday",
        "hours": "9:30\u202fAM to 6\u202fPM"
      },
      {
        "day": "Thursday",
        "hours": "9:30\u202fAM to 6\u202fPM"
      },
      {
        "day": "Friday",
        "hours": "9:30\u202fAM to 6\u202fPM"
      },
      {
        "day": "Saturday",
        "hours": "10\u202fAM to 3\u202fPM"
      },
      {
        "day": "Sunday",
        "hours": "Closed"
      }
    ],
    "additionalOpeningHours": {
      "Delivery": [
        {
          "day": "Monday",
          "hours": "9:30\u202fAM\u20136\u202fPM"
        },
        {
          "day": "Tuesday",
          "hours": "9:30\u202fAM\u20136\u202fPM"
        },
        {
          "day": "Wednesday",
          "hours": "9:30\u202fAM\u20136\u202fPM"
        },
        {
          "day": "Thursday",
          "hours": "9:30\u202fAM\u20136\u202fPM"
        },
        {
          "day": "Friday",
          "hours": "9:30\u202fAM\u20136\u202fPM"
        },
        {
          "day": "Saturday",
          "hours": "10\u202fAM\u20133\u202fPM"
        },
        {
          "day": "Sunday",
          "hours": "Closed"
        }
      ]
    },
    "peopleAlsoSearch": [],
    "placesTags": [],
    "reviewsTags": [],
    "additionalInfo": {
      "From the business": [
        {
          "Small business": true
        }
      ],
      "Service options": [
        {
          "Curbside pickup": true
        },
        {
          "Delivery": true
        },
        {
          "In-store pickup": true
        },
        {
          "In-store shopping": true
        },
        {
          "Same-day delivery": true
        }
      ],
      "Accessibility": [
        {
          "Wheelchair accessible entrance": true
        },
        {
          "Wheelchair accessible parking lot": true
        }
      ],
      "Planning": [
        {
          "Quick visit": true
        }
      ],
      "Payments": [
        {
          "Credit cards": true
        },
        {
          "Debit cards": true
        },
        {
          "Credit cards": true
        }
      ]
    },
    "gasPrices": [],
    "url": "https://www.google.com/maps/search/?api=1&query=Sylvania%20Family%20Pharmacy&query_place_id=ChIJjfg3Hxp7PIgRxGUrLONIDxI",
    "searchPageUrl": "https://www.google.com/maps/search/independent%20pharmacy%20Toledo%20OH/@0.6011372586755248,-176.61788845,13z?hl=en",
    "searchString": "independent pharmacy Toledo OH",
    "language": "en",
    "rank": 5,
    "isAdvertisement": false,
    "imageUrl": "https://lh3.googleusercontent.com/p/AF1QipPkgXiN3v8H7pfN7d5itRE-YaZ-l4qvMfCo-l_p=w408-h544-k-no",
    "kgmid": "/g/11sz4bv4qd",
    "classification": "independent",
    "is_independent": true,
    "is_compounding": false,
    "confidence": 0.9,
    "source": "perplexity",
    "method": "llm"
  },
  {
    "title": "Community Discount Pharmacy",
    "price": null,
    "categoryName": "Pharmacy",
    "address": "2121 S Reynolds Rd, Toledo, OH 43614",
    "neighborhood": "Southwyck",
    "street": "2121 S Reynolds Rd",
    "city": "Toledo",
    "postalCode": "43614",
    "state": "Ohio",
    "countryCode": "US",
    "website": "http://communitydiscountpharmacy.com/",
    "phone": "(567) 315-8210",
    "phoneUnformatted": "+15673158210",
    "claimThisBusiness": false,
    "location": {
      "lat": 41.6013743,
      "lng": -83.6638906
    },
    "totalScore": 5,
    "permanentlyClosed": false,
    "temporarilyClosed": false,
    "placeId": null,
    "categories": [
      "Pharmacy"
    ],
    "fid": "0x883c79f9bc594853:0xed6464993aca8dc8",
    "cid": "17105907893939113416",
    "reviewsCount": 7,
    "imagesCount": 2,
    "imageCategories": [],
    "scrapedAt": "2025-06-22T06:23:41.446Z",
    "googleFoodUrl": null,
    "hotelAds": [],
    "openingHours": [
      {
        "day": "Monday",
        "hours": "9\u202fAM to 6\u202fPM"
      },
      {
        "day": "Tuesday",
        "hours": "9\u202fAM to 6\u202fPM"
      },
      {
        "day": "Wednesday",
        "hours": "9\u202fAM to 6\u202fPM"
      },
      {
        "day": "Thursday",
        "hours": "9\u202fAM to 6\u202fPM"
      },
      {
        "day": "Friday",
        "hours": "9\u202fAM to 6\u202fPM"
      },
      {
        "day": "Saturday",
        "hours": "9\u202fAM to 3\u202fPM"
      },
      {
        "day": "Sunday",
        "hours": "Closed"
      }
    ],
    "peopleAlsoSearch": [],
    "placesTags": [],
    "reviewsTags": [],
    "additionalInfo": {
      "Service options": [
        {
          "Curbside pickup": true
        },
        {
          "Delivery": true
        },
        {
          "In-store shopping": true
        },
        {
          "Onsite services": true
        },
        {
          "Same-day delivery": true
        }
      ],
      "Accessibility": [
        {
          "Wheelchair accessible entrance": true
        },
        {
          "Wheelchair accessible parking lot": true
        }
      ],
      "Planning": [
        {
          "Quick visit": true
        }
      ],
      "Payments": [
        {
          "Credit cards": true
        }
      ]
    },
    "gasPrices": [],
    "url": "https://www.google.com/maps/search/?api=1&query=Community%20Discount%20Pharmacy&query_place_id=ChIJU0hZvPl5PIgRyI3KOplkZO0",
    "searchPageUrl": "https://www.google.com/maps/search/independent%20pharmacy%20Toledo%20OH/@0.6011372586755248,-176.61788845,13z?hl=en",
    "searchString": "independent pharmacy Toledo OH",
    "language": "en",
    "rank": 6,
    "isAdvertisement": false,
    "imageUrl": "https://lh3.googleusercontent.com/p/AF1QipNvfufn5mH8ylIeTDaQpxA-Wnp7uk3P3Rur1oaK=w408-h882-k-no",
    "kgmid": "/g/11w_pjcngr",
    "classification": "independent",
    "is_independent": true,
    "is_compounding": false,
    "confidence": 0.9,
    "source": "perplexity",
    "method": "llm"
  },
  {
    "title": "Franklin Park Pharmacy",
    "price": null,
    "categoryName": "Pharmacy",
    "address": "4020 Secor Rd, Toledo, OH 43623",
    "neighborhood": "DeVeaux",
    "street": "4020 Secor Rd",
    "city": "Toledo",
    "postalCode": "43623",
    "state": "Ohio",
    "countryCode": "US",
    "website": "http://www.franklinparkpharmacy.com/",
    "phone": "(567) 315-8780",
    "phoneUnformatted": "+15673158780",
    "claimThisBusiness": false,
    "location": {
      "lat": 41.6925066,
      "lng": -83.622838
    },
    "totalScore": 5,
    "permanentlyClosed": false,
    "temporarilyClosed": false,
    "placeId": null,
    "categories": [
      "Pharmacy",
      "Medical supply store",
      "Vitamin & supplements store"
    ],
    "fid": "0x883c7facef95ef07:0x453d43801c11993",
    "cid": "311826136231385491",
    "reviewsCount": 38,
    "imagesCount": 10,
    "imageCategories": [],
    "scrapedAt": "2025-06-22T06:23:41.446Z",
    "googleFoodUrl": null,
    "hotelAds": [],
    "openingHours": [
      {
        "day": "Monday",
        "hours": "9:30\u202fAM to 5:30\u202fPM"
      },
      {
        "day": "Tuesday",
        "hours": "9:30\u202fAM to 5:30\u202fPM"
      },
      {
        "day": "Wednesday",
        "hours": "9:30\u202fAM to 5:30\u202fPM"
      },
      {
        "day": "Thursday",
        "hours": "9:30\u202fAM to 5:30\u202fPM"
      },
      {
        "day": "Friday",
        "hours": "9:30\u202fAM to 5:30\u202fPM"
      },
      {
        "day": "Saturday",
        "hours": "9:30\u202fAM to 1:30\u202fPM"
      },
      {
        "day": "Sunday",
        "hours": "Closed"
      }
    ],
    "peopleAlsoSearch": [],
    "placesTags": [],
    "reviewsTags": [],
    "additionalInfo": {
      "From the business": [
        {
          "Small business": true
        }
      ],
      "Service options": [
        {
          "Delivery": true
        },
        {
          "In-store pickup": true
        },
        {
          "In-store shopping": true
        },
        {
          "Onsite services": true
        },
        {
          "Same-day delivery": true
        }
      ],
      "Accessibility": [
        {
          "Wheelchair accessible entrance": true
        },
        {
          "Wheelchair accessible parking lot": true
        }
      ],
      "Planning": [
        {
          "Quick visit": true
        }
      ],
      "Payments": [
        {
          "Credit cards": true
        },
        {
          "Debit cards": true
        },
        {
          "NFC mobile payments": true
        },
        {
          "Credit cards": true
        }
      ]
    },
    "gasPrices": [],
    "url": "https://www.google.com/maps/search/?api=1&query=Franklin%20Park%20Pharmacy&query_place_id=ChIJB--V76x_PIgRkxnBATjUUwQ",
    "searchPageUrl": "https://www.google.com/maps/search/independent%20pharmacy%20Toledo%20OH/@0.6011372586755248,-176.61788845,13z?hl=en",
    "searchString": "independent pharmacy Toledo OH",
    "language": "en",
    "rank": 7,
    "isAdvertisement": false,
    "imageUrl": "https://lh3.googleusercontent.com/p/AF1QipOWXGecUe5TM0jKOPR1ebHgXqTmkwq7SaVIQumh=w408-h306-k-no",
    "kgmid": "/g/11flc0qr4n",
    "classification": "independent",
    "is_independent": true,
    "is_compounding": false,
    "confidence": 0.9,
    "source": "perplexity",
    "method": "llm"
  },
  {
    "title": "Toledo Family Pharmacy",
    "price": null,
    "categoryName": "Pharmacy",
    "address": "1601 W Sylvania Ave, Toledo, OH 43612",
    "neighborhood": "Five Points",
    "street": "1601 W Sylvania Ave",
    "city": "Toledo",
    "postalCode": "43612",
    "state": "Ohio",
    "countryCode": "US",
    "website": "https://toledofamilypharmacy.com/",
    "phone": "(419) 470-0700",
    "phoneUnformatted": "+14194700700",
    "claimThisBusiness": false,
    "location": {
      "lat": 41.6921344,
      "lng": -83.5825534
    },
    "totalScore": 4.6,
    "permanentlyClosed": false,
    "temporarilyClosed": false,
    "placeId": null,
    "categories": [
      "Pharmacy"
    ],
    "fid": "0x883b80851eeefb7b:0xdd1e7a072e63daee",
    "cid": "15933306702945049326",
    "reviewsCount": 54,
    "imagesCount": 20,
    "imageCategories": [],
    "scrapedAt": "2025-06-22T06:23:41.446Z",
    "googleFoodUrl": null,
    "hotelAds": [],
    "openingHours": [
      {
        "day": "Monday",
        "hours": "9:30\u202fAM to 6\u202fPM"
      },
      {
        "day": "Tuesday",
        "hours": "9:30\u202fAM to 6\u202fPM"
      },
      {
        "day": "Wednesday",
        "hours": "9:30\u202fAM to 6\u202fPM"
      },
      {
        "day": "Thursday",
        "hours": "9:30\u202fAM to 6\u202fPM"
      },
      {
        "day": "Friday",
        "hours": "9:30\u202fAM to 6\u202fPM"
      },
      {
        "day": "Saturday",
        "hours": "10\u202fAM to 3\u202fPM"
      },
      {
        "day": "Sunday",
        "hours": "Closed"
      }
    ],
    "peopleAlsoSearch": [],
    "placesTags": [],
    "reviewsTags": [],
    "additionalInfo": {
      "From the business": [
        {
          "Small business": true
        }
      ],
      "Service options": [
        {
          "Delivery": true
        },
        {
          "Drive-through": true
        },
        {
          "In-store pickup": true
        },
        {
          "Same-day delivery": true
        }
      ],
      "Accessibility": [
        {
          "Wheelchair accessible entrance": true
        },
        {
          "Wheelchair accessible parking lot": true
        }
      ],
      "Payments": [
        {
          "Credit cards": true
        },
        {
          "Debit cards": true
        },
        {
          "NFC mobile payments": true
        },
        {
          "Credit cards": true
        }
      ]
    },
    "gasPrices": [],
    "url": "https://www.google.com/maps/search/?api=1&query=Toledo%20Family%20Pharmacy&query_place_id=ChIJe_vuHoWAO4gR7tpjLgd6Ht0",
    "searchPageUrl": "https://www.google.com/maps/search/independent%20pharmacy%20Toledo%20OH/@0.6011372586755248,-176.61788845,13z?hl=en",
    "searchString": "independent pharmacy Toledo OH",
    "language": "en",
    "rank": 8,
    "isAdvertisement": false,
    "imageUrl": "https://lh3.googleusercontent.com/gps-cs-s/AC9h4npyblKen1G-A9Z_3P4rSIXgbNNN2QY-Dzj2r33QHz-31c3BFXJZe_eqbwfUrnGNONGaeJs4smTOhRoA4aeiNyABBT3XHSEsFZJLbwnLJ4VvzVRgdwHF5FW89X35-c_dweC1LKLK=w408-h272-k-no",
    "kgmid": "/g/1hc7nn5tl",
    "classification": "independent",
    "is_independent": true,
    "is_compounding": false,
    "confidence": 0.9,
    "source": "perplexity",
    "method": "llm"
  },
  {
    "title": "GoodNeighbors Family Pharmacy",
    "price": null,
    "categoryName": "Pharmacy",
    "address": "625 E Manhattan Blvd, Toledo, OH 43608",
    "neighborhood": "Lagrange",
    "street": "625 E Manhattan Blvd",
    "city": "Toledo",
    "postalCode": "43608",
    "state": "Ohio",
    "countryCode": "US",
    "website": "http://www.gnfpharmacy.com/",
    "phone": "(419) 496-4455",
    "phoneUnformatted": "+14194964455",
    "claimThisBusiness": false,
    "location": {
      "lat": 41.6870307,
      "lng": -83.5309027
    },
    "totalScore": 5,
    "permanentlyClosed": false,
    "temporarilyClosed": false,
    "placeId": null,
    "categories": [
      "Pharmacy"
    ],
    "fid": "0x883b81d31c1e2cd1:0xf490e6f340eef9ea",
    "cid": "17622839274341595626",
    "reviewsCount": 80,
    "imagesCount": 18,
    "imageCategories": [],
    "scrapedAt": "2025-06-22T06:23:41.446Z",
    "googleFoodUrl": null,
    "hotelAds": [],
    "openingHours": [
      {
        "day": "Monday",
        "hours": "9\u202fAM to 6\u202fPM"
      },
      {
        "day": "Tuesday",
        "hours": "9:30\u202fAM to 6\u202fPM"
      },
      {
        "day": "Wednesday",
        "hours": "9:30\u202fAM to 6\u202fPM"
      },
      {
        "day": "Thursday",
        "hours": "9:30\u202fAM to 6\u202fPM"
      },
      {
        "day": "Friday",
        "hours": "9:30\u202fAM to 6\u202fPM"
      },
      {
        "day": "Saturday",
        "hours": "11\u202fAM to 4\u202fPM"
      },
      {
        "day": "Sunday",
        "hours": "Closed"
      }
    ],
    "peopleAlsoSearch": [],
    "placesTags": [],
    "reviewsTags": [],
    "additionalInfo": {
      "From the business": [
        {
          "Small business": true
        }
      ],
      "Service options": [
        {
          "Curbside pickup": true
        },
        {
          "Delivery": true
        },
        {
          "Drive-through": true
        },
        {
          "In-store pickup": true
        },
        {
          "Arabic": true
        }
      ],
      "Accessibility": [
        {
          "Wheelchair accessible entrance": true
        },
        {
          "Wheelchair accessible parking lot": true
        },
        {
          "Wheelchair accessible restroom": true
        },
        {
          "Wheelchair accessible seating": true
        }
      ],
      "Planning": [
        {
          "Quick visit": true
        }
      ],
      "Payments": [
        {
          "Credit cards": true
        },
        {
          "Debit cards": true
        },
        {
          "NFC mobile payments": true
        },
        {
          "Credit cards": true
        }
      ]
    },
    "gasPrices": [],
    "url": "https://www.google.com/maps/search/?api=1&query=GoodNeighbors%20Family%20Pharmacy&query_place_id=ChIJ0SweHNOBO4gR6vnuQPPmkPQ",
    "searchPageUrl": "https://www.google.com/maps/search/independent%20pharmacy%20Toledo%20OH/@0.6011372586755248,-176.61788845,13z?hl=en",
    "searchString": "independent pharmacy Toledo OH",
    "language": "en",
    "rank": 9,
    "isAdvertisement": false,
    "imageUrl": "https://lh3.googleusercontent.com/p/AF1QipNa5mxhL3P_uEIL5PdpbGY8Aw6k_56YumXX0Z-8=w408-h306-k-no",
    "kgmid": "/g/11vf520bcx",
    "classification": "independent",
    "is_independent": true,
    "is_compounding": false,
    "confidence": 0.9,
    "source": "perplexity",
    "method": "llm"
  },
  {
    "title": "James Pharmacy",
    "price": null,
    "categoryName": "Pharmacy",
    "address": "623 Lagrange St, Toledo, OH 43604",
    "neighborhood": "Vistula Historic District",
    "street": "623 Lagrange St",
    "city": "Toledo",
    "postalCode": "43604",
    "state": "Ohio",
    "countryCode": "US",
    "website": "https://www.jamespharmacyoh.com/",
    "phone": "(419) 243-9161",
    "phoneUnformatted": "+14192439161",
    "claimThisBusiness": false,
    "location": {
      "lat": 41.6594584,
      "lng": -83.5281976
    },
    "totalScore": 3.9,
    "permanentlyClosed": false,
    "temporarilyClosed": false,
    "placeId": null,
    "categories": [
      "Pharmacy"
    ],
    "fid": "0x883b814aa02ea60b:0x2f9cf41c1bee0a15",
    "cid": "3430885417714321941",
    "reviewsCount": 54,
    "imagesCount": 2,
    "imageCategories": [],
    "scrapedAt": "2025-06-22T06:23:41.446Z",
    "googleFoodUrl": null,
    "hotelAds": [],
    "openingHours": [
      {
        "day": "Monday",
        "hours": "9\u202fAM to 6\u202fPM"
      },
      {
        "day": "Tuesday",
        "hours": "9\u202fAM to 6\u202fPM"
      },
      {
        "day": "Wednesday",
        "hours": "9\u202fAM to 6\u202fPM"
      },
      {
        "day": "Thursday",
        "hours": "9\u202fAM to 6\u202fPM"
      },
      {
        "day": "Friday",
        "hours": "9\u202fAM to 6\u202fPM"
      },
      {
        "day": "Saturday",
        "hours": "Closed"
      },
      {
        "day": "Sunday",
        "hours": "Closed"
      }
    ],
    "peopleAlsoSearch": [],
    "placesTags": [],
    "reviewsTags": [],
    "additionalInfo": {
      "From the business": [
        {
          "Small business": true
        }
      ],
      "Service options": [
        {
          "Delivery": true
        },
        {
          "Same-day delivery": true
        }
      ],
      "Accessibility": [
        {
          "Wheelchair accessible parking lot": true
        }
      ],
      "Payments": [
        {
          "Debit cards": true
        },
        {
          "NFC mobile payments": true
        },
        {
          "Credit cards": true
        }
      ]
    },
    "gasPrices": [],
    "url": "https://www.google.com/maps/search/?api=1&query=James%20Pharmacy&query_place_id=ChIJC6YuoEqBO4gRFQruGxz0nC8",
    "searchPageUrl": "https://www.google.com/maps/search/independent%20pharmacy%20Toledo%20OH/@0.6011372586755248,-176.61788845,13z?hl=en",
    "searchString": "independent pharmacy Toledo OH",
    "language": "en",
    "rank": 10,
    "isAdvertisement": false,
    "imageUrl": "https://lh3.googleusercontent.com/p/AF1QipP3LqtJtPoTFmTXdhdnDPyNHiwANMkcTRVDb6dO=w720-h240-k-no",
    "kgmid": "/g/1tqtyk2f",
    "classification": "independent",
    "is_independent": true,
    "is_compounding": false,
    "confidence": 0.9,
    "source": "perplexity",
    "method": "llm"
  },
  {
    "title": "Sylvania Family Pharmacy",
    "price": null,
    "categoryName": "Pharmacy",
    "address": "5412 Monroe St, Toledo, OH 43623",
    "neighborhood": null,
    "street": "5412 Monroe St",
    "city": "Toledo",
    "postalCode": "43623",
    "state": "Ohio",
    "countryCode": "US",
    "website": "https://www.sylvaniafamilypharmacy.com/",
    "phone": "(419) 517-0006",
    "phoneUnformatted": "+14195170006",
    "claimThisBusiness": false,
    "location": {
      "lat": 41.7055032,
      "lng": -83.6616477
    },
    "totalScore": 5,
    "permanentlyClosed": false,
    "temporarilyClosed": false,
    "placeId": null,
    "categories": [
      "Pharmacy"
    ],
    "fid": "0x883c7f99cb2ef56d:0xed5fa2884e2663a2",
    "cid": "17104568616086823842",
    "reviewsCount": 6,
    "imagesCount": 8,
    "imageCategories": [],
    "scrapedAt": "2025-06-22T06:23:41.447Z",
    "googleFoodUrl": null,
    "hotelAds": [],
    "openingHours": [
      {
        "day": "Monday",
        "hours": "9:30\u202fAM to 6\u202fPM"
      },
      {
        "day": "Tuesday",
        "hours": "9:30\u202fAM to 6\u202fPM"
      },
      {
        "day": "Wednesday",
        "hours": "9:30\u202fAM to 6\u202fPM"
      },
      {
        "day": "Thursday",
        "hours": "9:30\u202fAM to 6\u202fPM"
      },
      {
        "day": "Friday",
        "hours": "9:30\u202fAM to 6\u202fPM"
      },
      {
        "day": "Saturday",
        "hours": "10\u202fAM to 3\u202fPM"
      },
      {
        "day": "Sunday",
        "hours": "Closed"
      }
    ],
    "peopleAlsoSearch": [],
    "placesTags": [],
    "reviewsTags": [],
    "additionalInfo": {
      "Service options": [
        {
          "Delivery": true
        }
      ],
      "Accessibility": [
        {
          "Wheelchair accessible entrance": true
        },
        {
          "Wheelchair accessible parking lot": true
        }
      ],
      "Planning": [
        {
          "Quick visit": true
        }
      ],
      "Payments": [
        {
          "Credit cards": true
        }
      ]
    },
    "gasPrices": [],
    "url": "https://www.google.com/maps/search/?api=1&query=Sylvania%20Family%20Pharmacy&query_place_id=ChIJbfUuy5l_PIgRomMmToiiX-0",
    "searchPageUrl": "https://www.google.com/maps/search/independent%20pharmacy%20Toledo%20OH/@0.6011372586755248,-176.61788845,13z?hl=en",
    "searchString": "independent pharmacy Toledo OH",
    "language": "en",
    "rank": 11,
    "isAdvertisement": false,
    "imageUrl": "https://lh3.googleusercontent.com/p/AF1QipN--eY9IjHUAkmiGZSq_iBxUiHAXb-gYqT2XVwD=w408-h306-k-no",
    "kgmid": "/g/11wj767q7b",
    "classification": "independent",
    "is_independent": true,
    "is_compounding": false,
    "confidence": 0.9,
    "source": "perplexity",
    "method": "llm"
  },
  {
    "title": "Monroe Pharmacy",
    "price": null,
    "categoryName": "Pharmacy",
    "address": "4122 Monroe St, Toledo, OH 43606",
    "neighborhood": "DeVeaux",
    "street": "4122 Monroe St",
    "city": "Toledo",
    "postalCode": "43606",
    "state": "Ohio",
    "countryCode": "US",
    "website": "https://www.mygnp.com/pharmacies/monroe-pharmacy-toledo-oh-43606/?utm_source=google&utm_medium=local&utm_campaign=localmaps&utm_content=3608392",
    "phone": "(419) 473-1531",
    "phoneUnformatted": "+14194731531",
    "claimThisBusiness": false,
    "location": {
      "lat": 41.6805495,
      "lng": -83.6034587
    },
    "totalScore": 4.1,
    "permanentlyClosed": false,
    "temporarilyClosed": false,
    "placeId": null,
    "categories": [
      "Pharmacy",
      "Drug store"
    ],
    "fid": "0x883c7f42cf9f625b:0xce6292caac30f049",
    "cid": "14871610318700736585",
    "reviewsCount": 76,
    "imagesCount": 5,
    "imageCategories": [],
    "scrapedAt": "2025-06-22T06:23:41.447Z",
    "googleFoodUrl": null,
    "hotelAds": [],
    "openingHours": [
      {
        "day": "Monday",
        "hours": "9\u202fAM to 7\u202fPM"
      },
      {
        "day": "Tuesday",
        "hours": "9\u202fAM to 7\u202fPM"
      },
      {
        "day": "Wednesday",
        "hours": "9\u202fAM to 7\u202fPM"
      },
      {
        "day": "Thursday",
        "hours": "9\u202fAM to 7\u202fPM"
      },
      {
        "day": "Friday",
        "hours": "9\u202fAM to 7\u202fPM"
      },
      {
        "day": "Saturday",
        "hours": "9\u202fAM to 5\u202fPM"
      },
      {
        "day": "Sunday",
        "hours": "9\u202fAM to 2\u202fPM"
      }
    ],
    "peopleAlsoSearch": [],
    "placesTags": [],
    "reviewsTags": [],
    "additionalInfo": {
      "Service options": [
        {
          "Curbside pickup": true
        },
        {
          "Delivery": true
        },
        {
          "In-store pickup": true
        },
        {
          "In-store shopping": true
        },
        {
          "Onsite services": true
        },
        {
          "Same-day delivery": true
        }
      ],
      "Accessibility": [
        {
          "Wheelchair accessible entrance": true
        },
        {
          "Wheelchair accessible parking lot": true
        }
      ],
      "Planning": [
        {
          "Quick visit": true
        }
      ],
      "Payments": [
        {
          "Checks": true
        },
        {
          "Credit cards": true
        },
        {
          "Debit cards": true
        },
        {
          "NFC mobile payments": true
        },
        {
          "Credit cards": true
        }
      ]
    },
    "gasPrices": [],
    "url": "https://www.google.com/maps/search/?api=1&query=Monroe%20Pharmacy&query_place_id=ChIJW2Kfz0J_PIgRSfAwrMqSYs4",
    "searchPageUrl": "https://www.google.com/maps/search/independent%20pharmacy%20Toledo%20OH/@0.6011372586755248,-176.61788845,13z?hl=en",
    "searchString": "independent pharmacy Toledo OH",
    "language": "en",
    "rank": 12,
    "isAdvertisement": false,
    "imageUrl": "https://lh3.googleusercontent.com/gps-cs-s/AC9h4npqAAfOQCviaRqAV1t2Bx5PYIIBpM9crb2_fn-t074DYjwP8ZjDrl8XgaScHr2j4l9r_MMfQqCGgnmh8ETnYx68VsNuF6oZ5qrhKuZNSO6SoFj_1x8iIm5VftNrUDg_9U2b7cG6AQ=w408-h544-k-no",
    "kgmid": "/g/1vxf_vgh",
    "classification": "independent",
    "is_independent": true,
    "is_compounding": false,
    "confidence": 0.85,
    "source": "perplexity",
    "method": "llm"
  },
  {
    "title": "Junction Family Pharmacy",
    "price": null,
    "categoryName": "Pharmacy",
    "address": "1339 Dorr St A, Toledo, OH 43607",
    "neighborhood": "ONYX",
    "street": "1339 Dorr St A",
    "city": "Toledo",
    "postalCode": "43607",
    "state": "Ohio",
    "countryCode": "US",
    "website": "https://junctionrx.info/",
    "phone": "(419) 757-8500",
    "phoneUnformatted": "+14197578500",
    "claimThisBusiness": false,
    "location": {
      "lat": 41.6526821,
      "lng": -83.5763342
    },
    "totalScore": 4.6,
    "permanentlyClosed": false,
    "temporarilyClosed": false,
    "placeId": null,
    "categories": [
      "Pharmacy"
    ],
    "fid": "0x883b87525f893de7:0x4e50d156f29bed5d",
    "cid": "5643240504462929245",
    "reviewsCount": 9,
    "imagesCount": 4,
    "imageCategories": [],
    "scrapedAt": "2025-06-22T06:23:41.447Z",
    "googleFoodUrl": null,
    "hotelAds": [],
    "openingHours": [
      {
        "day": "Monday",
        "hours": "9:30\u202fAM to 6\u202fPM"
      },
      {
        "day": "Tuesday",
        "hours": "9:30\u202fAM to 6\u202fPM"
      },
      {
        "day": "Wednesday",
        "hours": "9:30\u202fAM to 6\u202fPM"
      },
      {
        "day": "Thursday",
        "hours": "9:30\u202fAM to 6\u202fPM"
      },
      {
        "day": "Friday",
        "hours": "9:30\u202fAM to 6\u202fPM"
      },
      {
        "day": "Saturday",
        "hours": "10\u202fAM to 2\u202fPM"
      },
      {
        "day": "Sunday",
        "hours": "Closed"
      }
    ],
    "peopleAlsoSearch": [],
    "placesTags": [],
    "reviewsTags": [],
    "additionalInfo": {
      "Service options": [
        {
          "Delivery": true
        },
        {
          "Same-day delivery": true
        }
      ],
      "Accessibility": [
        {
          "Wheelchair accessible entrance": true
        },
        {
          "Wheelchair accessible parking lot": true
        }
      ],
      "Planning": [
        {
          "Quick visit": true
        }
      ],
      "Payments": [
        {
          "Credit cards": true
        }
      ]
    },
    "gasPrices": [],
    "url": "https://www.google.com/maps/search/?api=1&query=Junction%20Family%20Pharmacy&query_place_id=ChIJ5z2JX1KHO4gRXe2b8lbRUE4",
    "searchPageUrl": "https://www.google.com/maps/search/independent%20pharmacy%20Toledo%20OH/@0.6011372586755248,-176.61788845,13z?hl=en",
    "searchString": "independent pharmacy Toledo OH",
    "language": "en",
    "rank": 13,
    "isAdvertisement": false,
    "imageUrl": "https://lh3.googleusercontent.com/p/AF1QipNzmCmT3Zpl1Aa-bWPoDn_hgfq6r5GqmFUmxYpF=w408-h306-k-no",
    "kgmid": "/g/11x2jx8q4m",
    "classification": "independent",
    "is_independent": true,
    "is_compounding": false,
    "confidence": 0.9,
    "source": "perplexity",
    "method": "llm"
  },
  {
    "title": "Alexis Family Pharmacy",
    "price": null,
    "categoryName": "Pharmacy",
    "address": "3265 W Alexis Rd C, Toledo, OH 43613",
    "neighborhood": "Whitmer-Trilby",
    "street": "3265 W Alexis Rd C",
    "city": "Toledo",
    "postalCode": "43613",
    "state": "Ohio",
    "countryCode": "US",
    "website": "https://www.alexisfamilypharmacy.com/",
    "phone": "(567) 225-3650",
    "phoneUnformatted": "+15672253650",
    "claimThisBusiness": false,
    "location": {
      "lat": 41.7205192,
      "lng": -83.6234601
    },
    "totalScore": 5,
    "permanentlyClosed": false,
    "temporarilyClosed": false,
    "placeId": null,
    "categories": [
      "Pharmacy"
    ],
    "fid": "0x883c7ff1e80442e1:0x98e6548b00cf594b",
    "cid": "11017586494399273291",
    "reviewsCount": 14,
    "imagesCount": 9,
    "imageCategories": [],
    "scrapedAt": "2025-06-22T06:23:41.447Z",
    "googleFoodUrl": null,
    "hotelAds": [],
    "openingHours": [
      {
        "day": "Monday",
        "hours": "9\u202fAM to 6\u202fPM"
      },
      {
        "day": "Tuesday",
        "hours": "9\u202fAM to 6\u202fPM"
      },
      {
        "day": "Wednesday",
        "hours": "9\u202fAM to 6\u202fPM"
      },
      {
        "day": "Thursday",
        "hours": "9\u202fAM to 6\u202fPM"
      },
      {
        "day": "Friday",
        "hours": "9\u202fAM to 6\u202fPM"
      },
      {
        "day": "Saturday",
        "hours": "9\u202fAM to 1\u202fPM"
      },
      {
        "day": "Sunday",
        "hours": "Closed"
      }
    ],
    "peopleAlsoSearch": [],
    "placesTags": [],
    "reviewsTags": [],
    "additionalInfo": {
      "Service options": [
        {
          "Delivery": true
        },
        {
          "Same-day delivery": true
        }
      ],
      "Accessibility": [
        {
          "Wheelchair accessible entrance": true
        },
        {
          "Wheelchair accessible parking lot": true
        }
      ],
      "Payments": [
        {
          "Credit cards": true
        }
      ]
    },
    "gasPrices": [],
    "url": "https://www.google.com/maps/search/?api=1&query=Alexis%20Family%20Pharmacy&query_place_id=ChIJ4UIE6PF_PIgRS1nPAItU5pg",
    "searchPageUrl": "https://www.google.com/maps/search/independent%20pharmacy%20Toledo%20OH/@0.6011372586755248,-176.61788845,13z?hl=en",
    "searchString": "independent pharmacy Toledo OH",
    "language": "en",
    "rank": 14,
    "isAdvertisement": false,
    "imageUrl": "https://lh3.googleusercontent.com/p/AF1QipN8Pr9G1dJmHSa9YvMjVppkeKuw_VZ5jnh-DWT-=w408-h325-k-no",
    "kgmid": "/g/11ln4q6_3s",
    "classification": "independent",
    "is_independent": true,
    "is_compounding": false,
    "confidence": 0.9,
    "source": "perplexity",
    "method": "llm"
  },
  {
    "title": "Kahler Pharmacy",
    "price": null,
    "categoryName": "Pharmacy",
    "address": "1941 Airport Hwy, Toledo, OH 43609",
    "neighborhood": "Southside",
    "street": "1941 Airport Hwy",
    "city": "Toledo",
    "postalCode": "43609",
    "state": "Ohio",
    "countryCode": "US",
    "website": "https://www.kahlerpharmacy.com/",
    "phone": "(419) 382-2911",
    "phoneUnformatted": "+14193822911",
    "claimThisBusiness": false,
    "location": {
      "lat": 41.6328244,
      "lng": -83.5914148
    },
    "totalScore": 4.5,
    "permanentlyClosed": false,
    "temporarilyClosed": false,
    "placeId": null,
    "categories": [
      "Pharmacy",
      "Drug store"
    ],
    "fid": "0x883b8762bbbdf923:0xbc4dfdff80035915",
    "cid": "13568780526143363349",
    "reviewsCount": 44,
    "imagesCount": 2,
    "imageCategories": [],
    "scrapedAt": "2025-06-22T06:23:41.447Z",
    "googleFoodUrl": null,
    "hotelAds": [],
    "openingHours": [
      {
        "day": "Monday",
        "hours": "9\u202fAM to 6\u202fPM"
      },
      {
        "day": "Tuesday",
        "hours": "9\u202fAM to 6\u202fPM"
      },
      {
        "day": "Wednesday",
        "hours": "9\u202fAM to 6\u202fPM"
      },
      {
        "day": "Thursday",
        "hours": "9\u202fAM to 6\u202fPM"
      },
      {
        "day": "Friday",
        "hours": "9\u202fAM to 6\u202fPM"
      },
      {
        "day": "Saturday",
        "hours": "9\u202fAM to 1\u202fPM"
      },
      {
        "day": "Sunday",
        "hours": "9\u202fAM to 1\u202fPM"
      }
    ],
    "peopleAlsoSearch": [],
    "placesTags": [],
    "reviewsTags": [],
    "additionalInfo": {
      "Service options": [
        {
          "Curbside pickup": true
        },
        {
          "Delivery": true
        },
        {
          "In-store pickup": true
        },
        {
          "In-store shopping": true
        },
        {
          "Onsite services": true
        }
      ],
      "Accessibility": [
        {
          "Wheelchair accessible entrance": true
        },
        {
          "Wheelchair accessible parking lot": true
        }
      ],
      "Planning": [
        {
          "Quick visit": true
        }
      ],
      "Payments": [
        {
          "Credit cards": true
        },
        {
          "Debit cards": true
        },
        {
          "NFC mobile payments": true
        },
        {
          "Credit cards": true
        }
      ]
    },
    "gasPrices": [],
    "url": "https://www.google.com/maps/search/?api=1&query=Kahler%20Pharmacy&query_place_id=ChIJI_m9u2KHO4gRFVkDgP_9Tbw",
    "searchPageUrl": "https://www.google.com/maps/search/independent%20pharmacy%20Toledo%20OH/@0.6011372586755248,-176.61788845,13z?hl=en",
    "searchString": "independent pharmacy Toledo OH",
    "language": "en",
    "rank": 15,
    "isAdvertisement": false,
    "imageUrl": "https://lh3.googleusercontent.com/gps-cs-s/AC9h4npDBguUuSD1KggZlu-5xM_v3_vbKsMke46Fexlspn42ZgMX_MPW0ay6C7zjLBGlpN9Sub2yiYPCs-z7nv8aucundgoabqVezdKE83A_6tz3OO9t8z2n8kWvHKAsFmMVcUQ3C0cr=w408-h544-k-no",
    "kgmid": "/g/1v9gw44f",
    "classification": "independent",
    "is_independent": true,
    "is_compounding": false,
    "confidence": 0.9,
    "source": "perplexity",
    "method": "llm"
  },
  {
    "title": "Erie Drug",
    "price": null,
    "categoryName": "Pharmacy",
    "address": "4502 Lewis Ave, Toledo, OH 43612",
    "neighborhood": "Five Points",
    "street": "4502 Lewis Ave",
    "city": "Toledo",
    "postalCode": "43612",
    "state": "Ohio",
    "countryCode": "US",
    "website": "https://www.eriedrugs.com/?utm_source=google&utm_medium=local&utm_campaign=localmaps&utm_content=3606514",
    "phone": "(419) 476-4322",
    "phoneUnformatted": "+14194764322",
    "claimThisBusiness": false,
    "location": {
      "lat": 41.6999949,
      "lng": -83.5657775
    },
    "totalScore": 4.9,
    "permanentlyClosed": false,
    "temporarilyClosed": false,
    "placeId": null,
    "categories": [
      "Pharmacy",
      "Drug store"
    ],
    "fid": "0x883b80f5ff8c760d:0xa9e150c8aa5ffd78",
    "cid": "12241154084951817592",
    "reviewsCount": 49,
    "imagesCount": 1,
    "imageCategories": [],
    "scrapedAt": "2025-06-22T06:23:41.447Z",
    "googleFoodUrl": null,
    "hotelAds": [],
    "openingHours": [
      {
        "day": "Monday",
        "hours": "9\u202fAM to 7\u202fPM"
      },
      {
        "day": "Tuesday",
        "hours": "9\u202fAM to 7\u202fPM"
      },
      {
        "day": "Wednesday",
        "hours": "9\u202fAM to 7\u202fPM"
      },
      {
        "day": "Thursday",
        "hours": "9\u202fAM to 7\u202fPM"
      },
      {
        "day": "Friday",
        "hours": "9\u202fAM to 7\u202fPM"
      },
      {
        "day": "Saturday",
        "hours": "9\u202fAM to 2\u202fPM"
      },
      {
        "day": "Sunday",
        "hours": "10\u202fAM to 2\u202fPM"
      }
    ],
    "peopleAlsoSearch": [],
    "placesTags": [],
    "reviewsTags": [],
    "additionalInfo": {
      "From the business": [
        {
          "Small business": true
        }
      ],
      "Service options": [
        {
          "Delivery": true
        },
        {
          "In-store pickup": true
        },
        {
          "In-store shopping": true
        },
        {
          "Onsite services": true
        }
      ],
      "Accessibility": [
        {
          "Wheelchair accessible entrance": true
        },
        {
          "Wheelchair accessible parking lot": true
        }
      ],
      "Planning": [
        {
          "Quick visit": true
        }
      ],
      "Payments": [
        {
          "NFC mobile payments": true
        },
        {
          "Credit cards": true
        }
      ]
    },
    "gasPrices": [],
    "url": "https://www.google.com/maps/search/?api=1&query=Erie%20Drug&query_place_id=ChIJDXaM__WAO4gReP1fqshQ4ak",
    "searchPageUrl": "https://www.google.com/maps/search/independent%20pharmacy%20Toledo%20OH/@0.6011372586755248,-176.61788845,13z?hl=en",
    "searchString": "independent pharmacy Toledo OH",
    "language": "en",
    "rank": 16,
    "isAdvertisement": false,
    "imageUrl": "https://streetviewpixels-pa.googleapis.com/v1/thumbnail?panoid=FmM82_CA0zB2gtvuBBbxGQ&cb_client=search.gws-prod.gps&w=408&h=240&yaw=344.34296&pitch=0&thumbfov=100",
    "kgmid": "/g/1tfbn_mw",
    "classification": "independent",
    "is_independent": true,
    "is_compounding": false,
    "confidence": 0.9,
    "source": "perplexity",
    "method": "llm"
  },
  {
    "title": "Toledo Family Pharmacy",
    "price": null,
    "categoryName": "Pharmacy",
    "address": "529 Dorr St, Toledo, OH 43604",
    "neighborhood": "ONYX",
    "street": "529 Dorr St",
    "city": "Toledo",
    "postalCode": "43604",
    "state": "Ohio",
    "countryCode": "US",
    "website": "https://toledofamilypharmacy.com/",
    "phone": "(419) 272-6667",
    "phoneUnformatted": "+14192726667",
    "claimThisBusiness": false,
    "location": {
      "lat": 41.6514175,
      "lng": -83.5562535
    },
    "totalScore": 3,
    "permanentlyClosed": false,
    "temporarilyClosed": false,
    "placeId": null,
    "categories": [
      "Pharmacy"
    ],
    "fid": "0x883b8799aa9b7061:0x32fdeeb21aa764b0",
    "cid": "3674355319722960048",
    "reviewsCount": 1,
    "imagesCount": 6,
    "imageCategories": [],
    "scrapedAt": "2025-06-22T06:23:41.447Z",
    "googleFoodUrl": null,
    "hotelAds": [],
    "openingHours": [
      {
        "day": "Monday",
        "hours": "9:30\u202fAM to 6\u202fPM"
      },
      {
        "day": "Tuesday",
        "hours": "9:30\u202fAM to 6\u202fPM"
      },
      {
        "day": "Wednesday",
        "hours": "9:30\u202fAM to 6\u202fPM"
      },
      {
        "day": "Thursday",
        "hours": "9:30\u202fAM to 6\u202fPM"
      },
      {
        "day": "Friday",
        "hours": "9:30\u202fAM to 6\u202fPM"
      },
      {
        "day": "Saturday",
        "hours": "10\u202fAM to 3\u202fPM"
      },
      {
        "day": "Sunday",
        "hours": "Closed"
      }
    ],
    "peopleAlsoSearch": [],
    "placesTags": [],
    "reviewsTags": [],
    "additionalInfo": {
      "Service options": [
        {
          "Delivery": true
        },
        {
          "In-store shopping": true
        },
        {
          "Onsite services": true
        },
        {
          "Same-day delivery": true
        }
      ],
      "Accessibility": [
        {
          "Wheelchair accessible entrance": true
        },
        {
          "Wheelchair accessible parking lot": true
        }
      ],
      "Payments": [
        {
          "Credit cards": true
        }
      ]
    },
    "gasPrices": [],
    "url": "https://www.google.com/maps/search/?api=1&query=Toledo%20Family%20Pharmacy&query_place_id=ChIJYXCbqpmHO4gRsGSnGrLu_TI",
    "searchPageUrl": "https://www.google.com/maps/search/independent%20pharmacy%20Toledo%20OH/@0.6011372586755248,-176.61788845,13z?hl=en",
    "searchString": "independent pharmacy Toledo OH",
    "language": "en",
    "rank": 17,
    "isAdvertisement": false,
    "imageUrl": "https://lh3.googleusercontent.com/p/AF1QipPsaGS5n9SWMyGqHmo2DIP_fCdlEDRNFiSOR3VV=w408-h510-k-no",
    "kgmid": "/g/11wxqvt51h",
    "classification": "independent",
    "is_independent": true,
    "is_compounding": false,
    "confidence": 0.9,
    "source": "perplexity",
    "method": "llm"
  },
  {
    "title": "Great Lakes LTC Pharmacy",
    "price": null,
    "categoryName": "Pharmacy",
    "address": "4260 Monroe St, Toledo, OH 43606",
    "neighborhood": "DeVeaux",
    "street": "4260 Monroe St",
    "city": "Toledo",
    "postalCode": "43606",
    "state": "Ohio",
    "countryCode": "US",
    "phone": "(419) 890-4748",
    "phoneUnformatted": "+14198904748",
    "claimThisBusiness": false,
    "location": {
      "lat": 41.6831827,
      "lng": -83.6087513
    },
    "totalScore": 5,
    "permanentlyClosed": false,
    "temporarilyClosed": false,
    "placeId": null,
    "categories": [
      "Pharmacy"
    ],
    "fid": "0x883c7fce3c2f392d:0xc4b701d126b32c0b",
    "cid": "14174800349980994571",
    "reviewsCount": 7,
    "imagesCount": 8,
    "imageCategories": [],
    "scrapedAt": "2025-06-22T06:23:41.447Z",
    "googleFoodUrl": null,
    "hotelAds": [],
    "openingHours": [
      {
        "day": "Monday",
        "hours": "9:30\u202fAM to 6\u202fPM"
      },
      {
        "day": "Tuesday",
        "hours": "9:30\u202fAM to 6\u202fPM"
      },
      {
        "day": "Wednesday",
        "hours": "9:30\u202fAM to 6\u202fPM"
      },
      {
        "day": "Thursday",
        "hours": "9:30\u202fAM to 6\u202fPM"
      },
      {
        "day": "Friday",
        "hours": "9:30\u202fAM to 6\u202fPM"
      },
      {
        "day": "Saturday",
        "hours": "Closed"
      },
      {
        "day": "Sunday",
        "hours": "Closed"
      }
    ],
    "peopleAlsoSearch": [],
    "placesTags": [],
    "reviewsTags": [],
    "additionalInfo": {
      "From the business": [
        {
          "Small business": true
        }
      ],
      "Accessibility": [
        {
          "Wheelchair accessible entrance": true
        },
        {
          "Wheelchair accessible parking lot": true
        },
        {
          "Wheelchair accessible restroom": true
        },
        {
          "Wheelchair accessible seating": true
        }
      ],
      "Payments": [
        {
          "Credit cards": true
        },
        {
          "Debit cards": true
        },
        {
          "NFC mobile payments": true
        },
        {
          "Credit cards": true
        }
      ],
      "Parking": [
        {
          "Free parking lot": true
        }
      ]
    },
    "gasPrices": [],
    "url": "https://www.google.com/maps/search/?api=1&query=Great%20Lakes%20LTC%20Pharmacy&query_place_id=ChIJLTkvPM5_PIgRCyyzJtEBt8Q",
    "searchPageUrl": "https://www.google.com/maps/search/independent%20pharmacy%20Toledo%20OH/@0.6011372586755248,-176.61788845,13z?hl=en",
    "searchString": "independent pharmacy Toledo OH",
    "language": "en",
    "rank": 18,
    "isAdvertisement": false,
    "imageUrl": "https://lh3.googleusercontent.com/p/AF1QipMbORKldT_GpCKSJk301TSd_1cxnszth60AI2li=w408-h306-k-no",
    "kgmid": "/g/11sddd6qqt",
    "classification": "independent",
    "is_independent": true,
    "is_compounding": false,
    "confidence": 0.85,
    "source": "perplexity",
    "method": "llm"
  },
  {
    "title": "Toledo Family Pharmacy",
    "price": null,
    "categoryName": "Pharmacy",
    "address": "324 Main St, Toledo, OH 43605",
    "neighborhood": "East Toledo",
    "street": "324 Main St",
    "city": "Toledo",
    "postalCode": "43605",
    "state": "Ohio",
    "countryCode": "US",
    "website": "http://www.toledofamilypharmacy.com/",
    "phone": "(419) 930-5830",
    "phoneUnformatted": "+14199305830",
    "claimThisBusiness": false,
    "location": {
      "lat": 41.6460399,
      "lng": -83.521123
    },
    "totalScore": 4.6,
    "permanentlyClosed": false,
    "temporarilyClosed": false,
    "placeId": null,
    "categories": [
      "Pharmacy"
    ],
    "fid": "0x883b86ba4ff4ac41:0x143b24e152b564a7",
    "cid": "1457799454558348455",
    "reviewsCount": 36,
    "imagesCount": 25,
    "imageCategories": [],
    "scrapedAt": "2025-06-22T06:23:41.447Z",
    "googleFoodUrl": null,
    "hotelAds": [],
    "openingHours": [
      {
        "day": "Monday",
        "hours": "9:30\u202fAM to 6\u202fPM"
      },
      {
        "day": "Tuesday",
        "hours": "9:30\u202fAM to 6\u202fPM"
      },
      {
        "day": "Wednesday",
        "hours": "9:30\u202fAM to 6\u202fPM"
      },
      {
        "day": "Thursday",
        "hours": "9:30\u202fAM to 6\u202fPM"
      },
      {
        "day": "Friday",
        "hours": "9:30\u202fAM to 6\u202fPM"
      },
      {
        "day": "Saturday",
        "hours": "10\u202fAM to 3\u202fPM"
      },
      {
        "day": "Sunday",
        "hours": "Closed"
      }
    ],
    "peopleAlsoSearch": [],
    "placesTags": [],
    "reviewsTags": [],
    "additionalInfo": {
      "From the business": [
        {
          "Small business": true
        }
      ],
      "Service options": [
        {
          "Delivery": true
        },
        {
          "Drive-through": true
        }
      ],
      "Accessibility": [
        {
          "Wheelchair accessible entrance": true
        },
        {
          "Wheelchair accessible parking lot": true
        }
      ],
      "Payments": [
        {
          "Credit cards": true
        }
      ]
    },
    "gasPrices": [],
    "url": "https://www.google.com/maps/search/?api=1&query=Toledo%20Family%20Pharmacy&query_place_id=ChIJQaz0T7qGO4gRp2S1UuEkOxQ",
    "searchPageUrl": "https://www.google.com/maps/search/independent%20pharmacy%20Toledo%20OH/@0.6011372586755248,-176.61788845,13z?hl=en",
    "searchString": "independent pharmacy Toledo OH",
    "language": "en",
    "rank": 19,
    "isAdvertisement": false,
    "imageUrl": "https://lh3.googleusercontent.com/gps-cs-s/AC9h4no6tL2f4XAbh1YWXsBmaPT7aLCXSfzXiBe3g0gUyWvvBgB0TLEhAe2HYbhF4TUHR9zcttzF08Jia4vXCZ8yhW06KIBzALyLImEYQX6GasVdD_opcAv7pwjVy0MyS_bcwCfqjM0j=w408-h272-k-no",
    "kgmid": "/g/11c5sv8qjt",
    "classification": "independent",
    "is_independent": true,
    "is_compounding": false,
    "confidence": 0.9,
    "source": "perplexity",
    "method": "llm"
  },
  {
    "title": "CVS Pharmacy",
    "price": null,
    "categoryName": "Pharmacy",
    "address": "2104 S Byrne Rd, Toledo, OH 43614",
    "neighborhood": "Glendale-Heatherdowns",
    "street": "2104 S Byrne Rd",
    "city": "Toledo",
    "postalCode": "43614",
    "state": "Ohio",
    "countryCode": "US",
    "website": "https://www.cvs.com/store-locator/toledo-oh-pharmacies/2104-s-byrne-rd-toledo-oh-43614/storeid=11155?WT.mc_id=LS_GOOGLE_RX_11155",
    "phone": "(419) 389-9112",
    "phoneUnformatted": "+14193899112",
    "claimThisBusiness": false,
    "location": {
      "lat": 41.6016579,
      "lng": -83.6262381
    },
    "totalScore": 3.4,
    "permanentlyClosed": false,
    "temporarilyClosed": false,
    "placeId": null,
    "categories": [
      "Pharmacy"
    ],
    "fid": "0x883c7837a38ca75b:0xef022b42769a46d0",
    "cid": "17222375489475856080",
    "reviewsCount": 55,
    "imagesCount": 7,
    "imageCategories": [],
    "scrapedAt": "2025-06-22T06:23:41.447Z",
    "googleFoodUrl": null,
    "hotelAds": [],
    "openingHours": [
      {
        "day": "Monday",
        "hours": "8\u202fAM to 1:30\u202fPM, 2 to 9\u202fPM"
      },
      {
        "day": "Tuesday",
        "hours": "8\u202fAM to 1:30\u202fPM, 2 to 9\u202fPM"
      },
      {
        "day": "Wednesday",
        "hours": "8\u202fAM to 1:30\u202fPM, 2 to 9\u202fPM"
      },
      {
        "day": "Thursday",
        "hours": "8\u202fAM to 1:30\u202fPM, 2 to 9\u202fPM"
      },
      {
        "day": "Friday",
        "hours": "8\u202fAM to 1:30\u202fPM, 2 to 9\u202fPM"
      },
      {
        "day": "Saturday",
        "hours": "8\u202fAM to 1:30\u202fPM, 2 to 7\u202fPM"
      },
      {
        "day": "Sunday",
        "hours": "10\u202fAM to 1:30\u202fPM, 2 to 7\u202fPM"
      }
    ],
    "peopleAlsoSearch": [],
    "placesTags": [],
    "reviewsTags": [],
    "additionalInfo": {
      "Service options": [
        {
          "Delivery": true
        },
        {
          "Drive-through": true
        },
        {
          "In-store shopping": true
        },
        {
          "Onsite services": true
        }
      ],
      "Accessibility": [
        {
          "Wheelchair accessible entrance": true
        },
        {
          "Wheelchair accessible parking lot": true
        }
      ],
      "Offerings": [
        {
          "Medication disposal": true
        },
        {
          "Naloxone": true
        }
      ],
      "Crowd": [
        {
          "LGBTQ+ friendly": true
        },
        {
          "Transgender safespace": true
        }
      ],
      "Planning": [
        {
          "Quick visit": true
        }
      ],
      "Payments": [
        {
          "Credit cards": true
        },
        {
          "Debit cards": true
        },
        {
          "NFC mobile payments": true
        },
        {
          "SNAP/EBT": true
        },
        {
          "Credit cards": true
        }
      ]
    },
    "gasPrices": [],
    "url": "https://www.google.com/maps/search/?api=1&query=CVS%20Pharmacy&query_place_id=ChIJW6eMozd4PIgR0EaadkIrAu8",
    "searchPageUrl": "https://www.google.com/maps/search/independent%20pharmacy%20Toledo%20OH/@0.6011372586755248,-176.61788845,13z?hl=en",
    "searchString": "independent pharmacy Toledo OH",
    "language": "en",
    "rank": 20,
    "isAdvertisement": false,
    "imageUrl": "https://lh3.googleusercontent.com/p/AF1QipPaKExE_fsuEBbVvS1KyDK6Z4Bingvuual5k45i=w408-h272-k-no",
    "kgmid": "/g/11f_4d03l3",
    "classification": "chain",
    "is_independent": false,
    "is_compounding": false,
    "confidence": 0.99,
    "source": "perplexity",
    "method": "llm"
  }
]