[
  {
    "title": "AJ Pharmacy/Compounding",
    "price": null,
    "categoryName": "Pharmacy",
    "address": "1017 Smith St Ste 1, Providence, RI 02908",
    "neighborhood": "Elmhurst",
    "street": "1017 Smith St Ste 1",
    "city": "Providence",
    "postalCode": "02908",
    "state": "Rhode Island",
    "countryCode": "US",
    "website": "https://www.ajpharmacyri.com/",
    "phone": "(401) 366-2800",
    "phoneUnformatted": "+14013662800",
    "claimThisBusiness": false,
    "location": {
      "lat": 41.8430858,
      "lng": -71.4457791
    },
    "totalScore": 4.4,
    "permanentlyClosed": false,
    "temporarilyClosed": false,
    "placeId": null,
    "categories": [
      "Pharmacy"
    ],
    "fid": "0x89e445c980241b51:0xf61ac3ba490f23e8",
    "cid": "17733701687581811688",
    "reviewsCount": 48,
    "imagesCount": 5,
    "imageCategories": [],
    "scrapedAt": "2025-06-22T09:31:22.552Z",
    "googleFoodUrl": null,
    "hotelAds": [],
    "openingHours": [
      {
        "day": "Monday",
        "hours": "9\u202fAM to 7\u202fPM"
      },
      {
        "day": "Tuesday",
        "hours": "9\u202fAM to 7\u202fPM"
      },
      {
        "day": "Wednesday",
        "hours": "9\u202fAM to 7\u202fPM"
      },
      {
        "day": "Thursday",
        "hours": "9\u202fAM to 7\u202fPM"
      },
      {
        "day": "Friday",
        "hours": "9\u202fAM to 7\u202fPM"
      },
      {
        "day": "Saturday",
        "hours": "10\u202fAM to 6\u202fPM"
      },
      {
        "day": "Sunday",
        "hours": "Closed"
      }
    ],
    "peopleAlsoSearch": [],
    "placesTags": [],
    "reviewsTags": [],
    "additionalInfo": {
      "From the business": [
        {
          "Identifies as women-owned": true
        },
        {
          "Small business": true
        }
      ],
      "Service options": [
        {
          "Curbside pickup": true
        },
        {
          "Delivery": true
        },
        {
          "In-store pickup": true
        },
        {
          "In-store shopping": true
        },
        {
          "Same-day delivery": true
        },
        {
          "Spanish": true
        }
      ],
      "Accessibility": [
        {
          "Wheelchair accessible entrance": true
        },
        {
          "Wheelchair accessible parking lot": true
        }
      ],
      "Planning": [
        {
          "Quick visit": true
        }
      ],
      "Payments": [
        {
          "Credit cards": true
        },
        {
          "Debit cards": true
        },
        {
          "NFC mobile payments": true
        },
        {
          "SNAP/EBT": true
        },
        {
          "Credit cards": true
        }
      ]
    },
    "gasPrices": [],
    "url": "https://www.google.com/maps/search/?api=1&query=AJ%20Pharmacy%2FCompounding&query_place_id=ChIJURskgMlF5IkR6CMPSbrDGvY",
    "searchPageUrl": "https://www.google.com/maps/search/independent%20pharmacy%20East%20Providence%20RI/@21.814956946324113,-159.09939422942756,12z?hl=en",
    "searchString": "independent pharmacy East Providence RI",
    "language": "en",
    "rank": 1,
    "isAdvertisement": false,
    "imageUrl": "https://lh3.googleusercontent.com/gps-cs-s/AC9h4noad574KV0PCkK3NZoMbX-YBkczcTKbTyBpu0-NqmetrbzjnUA_d9lh63MjTr2LWoX6PEj1aaQwI8WP2G3p3I2nl_8oi4rWiVvAmOagtMFRoYbGMeKuhS9NASccoicv7SzPmcpn=w408-h544-k-no",
    "kgmid": "/g/11jp_68myn",
    "classification": "independent",
    "is_independent": true,
    "is_compounding": true,
    "confidence": 0.95,
    "source": "perplexity",
    "method": "llm"
  },
  {
    "title": "Benzer Pharmacy",
    "price": null,
    "categoryName": "Pharmacy",
    "address": "265 Waterman St, Providence, RI 02906",
    "neighborhood": "Wayland",
    "street": "265 Waterman St",
    "city": "Providence",
    "postalCode": "02906",
    "state": "Rhode Island",
    "countryCode": "US",
    "phone": "(401) 340-1800",
    "phoneUnformatted": "+14013401800",
    "claimThisBusiness": false,
    "location": {
      "lat": 41.8278727,
      "lng": -71.3853858
    },
    "totalScore": 3.7,
    "permanentlyClosed": false,
    "temporarilyClosed": false,
    "placeId": null,
    "categories": [
      "Pharmacy"
    ],
    "fid": "0x89e445fef87e3c13:0x99ca071bb40275ac",
    "cid": "11081677648664098220",
    "reviewsCount": 6,
    "imagesCount": 1,
    "imageCategories": [],
    "scrapedAt": "2025-06-22T09:31:22.554Z",
    "googleFoodUrl": null,
    "hotelAds": [],
    "openingHours": [
      {
        "day": "Monday",
        "hours": "9\u202fAM to 5:30\u202fPM"
      },
      {
        "day": "Tuesday",
        "hours": "9\u202fAM to 5:30\u202fPM"
      },
      {
        "day": "Wednesday",
        "hours": "9\u202fAM to 5:30\u202fPM"
      },
      {
        "day": "Thursday",
        "hours": "9\u202fAM to 5:30\u202fPM"
      },
      {
        "day": "Friday",
        "hours": "9\u202fAM to 5:30\u202fPM"
      },
      {
        "day": "Saturday",
        "hours": "Closed"
      },
      {
        "day": "Sunday",
        "hours": "Closed"
      }
    ],
    "peopleAlsoSearch": [],
    "placesTags": [],
    "reviewsTags": [],
    "additionalInfo": {
      "Accessibility": [
        {
          "Wheelchair accessible parking lot": true
        }
      ],
      "Payments": [
        {
          "Credit cards": true
        },
        {
          "Debit cards": true
        },
        {
          "NFC mobile payments": true
        },
        {
          "Credit cards": true
        }
      ]
    },
    "gasPrices": [],
    "url": "https://www.google.com/maps/search/?api=1&query=Benzer%20Pharmacy&query_place_id=ChIJEzx--P5F5IkRrHUCtBsHypk",
    "searchPageUrl": "https://www.google.com/maps/search/independent%20pharmacy%20East%20Providence%20RI/@21.814956946324113,-159.09939422942756,12z?hl=en",
    "searchString": "independent pharmacy East Providence RI",
    "language": "en",
    "rank": 2,
    "isAdvertisement": false,
    "imageUrl": "https://streetviewpixels-pa.googleapis.com/v1/thumbnail?panoid=TqdPgV8bqucPCFcQ0DZufw&cb_client=search.gws-prod.gps&w=408&h=240&yaw=207.80066&pitch=0&thumbfov=100",
    "kgmid": "/g/11h1vfxgc9",
    "classification": "chain",
    "is_independent": false,
    "is_compounding": false,
    "confidence": 0.95,
    "source": "perplexity",
    "method": "llm"
  },
  {
    "title": "CVS Pharmacy",
    "price": null,
    "categoryName": "Pharmacy",
    "address": "640 Warren Ave, East Providence, RI 02914",
    "neighborhood": null,
    "street": "640 Warren Ave",
    "city": "East Providence",
    "postalCode": "02914",
    "state": "Rhode Island",
    "countryCode": "US",
    "website": "https://www.cvs.com/store-locator/east-providence-ri-pharmacies/640-warren-avenue-east-providence-ri-02914/storeid=2347?WT.mc_id=LS_GOOGLE_RX_2347",
    "phone": "(401) 438-2272",
    "phoneUnformatted": "+14014382272",
    "claimThisBusiness": false,
    "location": {
      "lat": 41.8111711,
      "lng": -71.3574772
    },
    "totalScore": 3.9,
    "permanentlyClosed": false,
    "temporarilyClosed": false,
    "placeId": null,
    "categories": [
      "Pharmacy"
    ],
    "fid": "0x89e45aeab90e6f63:0xe08dbd1afa1db7f4",
    "cid": "16180796959775111156",
    "reviewsCount": 31,
    "imagesCount": 8,
    "imageCategories": [],
    "scrapedAt": "2025-06-22T09:31:22.554Z",
    "googleFoodUrl": null,
    "hotelAds": [],
    "openingHours": [
      {
        "day": "Monday",
        "hours": "12\u202fAM to 1:30\u202fPM, 2\u202fPM to 12\u202fAM"
      },
      {
        "day": "Tuesday",
        "hours": "12\u202fAM to 1:30\u202fPM, 2\u202fPM to 12\u202fAM"
      },
      {
        "day": "Wednesday",
        "hours": "12\u202fAM to 1:30\u202fPM, 2\u202fPM to 12\u202fAM"
      },
      {
        "day": "Thursday",
        "hours": "12\u202fAM to 1:30\u202fPM, 2\u202fPM to 12\u202fAM"
      },
      {
        "day": "Friday",
        "hours": "12\u202fAM to 1:30\u202fPM, 2\u202fPM to 12\u202fAM"
      },
      {
        "day": "Saturday",
        "hours": "12\u202fAM to 1:30\u202fPM, 2\u202fPM to 12\u202fAM"
      },
      {
        "day": "Sunday",
        "hours": "12\u202fAM to 1:30\u202fPM, 2\u202fPM to 12\u202fAM"
      }
    ],
    "peopleAlsoSearch": [],
    "placesTags": [],
    "reviewsTags": [],
    "additionalInfo": {
      "Service options": [
        {
          "Delivery": true
        },
        {
          "Drive-through": true
        },
        {
          "In-store pickup": true
        },
        {
          "In-store shopping": true
        }
      ],
      "Accessibility": [
        {
          "Wheelchair accessible entrance": true
        },
        {
          "Wheelchair accessible parking lot": true
        }
      ],
      "Offerings": [
        {
          "Medication disposal": true
        },
        {
          "Naloxone": true
        },
        {
          "Passport photos": true
        }
      ],
      "Crowd": [
        {
          "LGBTQ+ friendly": true
        },
        {
          "Transgender safespace": true
        }
      ],
      "Planning": [
        {
          "Quick visit": true
        }
      ],
      "Payments": [
        {
          "Credit cards": true
        },
        {
          "Debit cards": true
        },
        {
          "NFC mobile payments": true
        },
        {
          "SNAP/EBT": true
        },
        {
          "Credit cards": true
        }
      ]
    },
    "gasPrices": [],
    "url": "https://www.google.com/maps/search/?api=1&query=CVS%20Pharmacy&query_place_id=ChIJY28Ouepa5IkR9Lcd-hq9jeA",
    "searchPageUrl": "https://www.google.com/maps/search/independent%20pharmacy%20East%20Providence%20RI/@21.814956946324113,-159.09939422942756,12z?hl=en",
    "searchString": "independent pharmacy East Providence RI",
    "language": "en",
    "rank": 3,
    "isAdvertisement": false,
    "imageUrl": "https://lh3.googleusercontent.com/p/AF1QipOJ_JogXt4W1NNpMs3ARjy3AGZPlkNpIkA28yhb=w408-h272-k-no",
    "kgmid": "/g/11c463h3y0",
    "classification": "chain",
    "is_independent": false,
    "is_compounding": false,
    "confidence": 0.99,
    "source": "perplexity",
    "method": "llm"
  },
  {
    "title": "VCare Pharmacy of RI",
    "price": null,
    "categoryName": "Pharmacy",
    "address": "265 Waterman St, Providence, RI 02906",
    "neighborhood": "Wayland",
    "street": "265 Waterman St",
    "city": "Providence",
    "postalCode": "02906",
    "state": "Rhode Island",
    "countryCode": "US",
    "website": "https://myvcarepharmacy.com/ri/",
    "phone": "(401) 340-1800",
    "phoneUnformatted": "+14013401800",
    "claimThisBusiness": false,
    "location": {
      "lat": 41.8278802,
      "lng": -71.3854117
    },
    "totalScore": 4.9,
    "permanentlyClosed": false,
    "temporarilyClosed": false,
    "placeId": null,
    "categories": [
      "Pharmacy"
    ],
    "fid": "0x89e4452c8733b5df:0xf75abffc1bc0a6d5",
    "cid": "17823769564790433493",
    "reviewsCount": 7,
    "imagesCount": 3,
    "imageCategories": [],
    "scrapedAt": "2025-06-22T09:31:22.554Z",
    "googleFoodUrl": null,
    "hotelAds": [],
    "openingHours": [
      {
        "day": "Monday",
        "hours": "9\u202fAM to 5:30\u202fPM"
      },
      {
        "day": "Tuesday",
        "hours": "9\u202fAM to 5:30\u202fPM"
      },
      {
        "day": "Wednesday",
        "hours": "9\u202fAM to 5:30\u202fPM"
      },
      {
        "day": "Thursday",
        "hours": "9\u202fAM to 5:30\u202fPM"
      },
      {
        "day": "Friday",
        "hours": "9\u202fAM to 5:30\u202fPM"
      },
      {
        "day": "Saturday",
        "hours": "Closed"
      },
      {
        "day": "Sunday",
        "hours": "Closed"
      }
    ],
    "peopleAlsoSearch": [],
    "placesTags": [],
    "reviewsTags": [],
    "additionalInfo": {
      "From the business": [
        {
          "Small business": true
        }
      ],
      "Service options": [
        {
          "Delivery": true
        }
      ],
      "Accessibility": [
        {
          "Wheelchair accessible parking lot": true
        }
      ],
      "Payments": [
        {
          "Credit cards": true
        }
      ]
    },
    "gasPrices": [],
    "url": "https://www.google.com/maps/search/?api=1&query=VCare%20Pharmacy%20of%20RI&query_place_id=ChIJ37UzhyxF5IkR1abAG_y_Wvc",
    "searchPageUrl": "https://www.google.com/maps/search/independent%20pharmacy%20East%20Providence%20RI/@21.814956946324113,-159.09939422942756,12z?hl=en",
    "searchString": "independent pharmacy East Providence RI",
    "language": "en",
    "rank": 4,
    "isAdvertisement": false,
    "imageUrl": "https://lh3.googleusercontent.com/gps-cs-s/AC9h4noLdc9-E74Bt6DAzc2Fi8vb9_ARKB8sxxgENKDFokgg4GLJSQbA9Qtph3jdq8UICk-99CQ65G8fS79fXAtb9336m88auwlg-Tp1LQUmNsctqyU9PcyWIywaj8KYhmQBS4hiX3D0cA=w408-h306-k-no",
    "kgmid": "/g/11jn_sf11_",
    "classification": "independent",
    "is_independent": true,
    "is_compounding": false,
    "confidence": 0.9,
    "source": "perplexity",
    "method": "llm"
  },
  {
    "title": "Stop & Shop Pharmacy",
    "price": "$$",
    "categoryName": "Pharmacy",
    "address": "1925 Pawtucket Ave, East Providence, RI 02914",
    "neighborhood": null,
    "street": "1925 Pawtucket Ave",
    "city": "East Providence",
    "postalCode": "02914",
    "state": "Rhode Island",
    "countryCode": "US",
    "website": "https://pharmacy.stopandshop.com/ri/east-providence/1925-pawtucket-avenue?y_source=1_MTEyMTM3MjEtNzE1LWxvY2F0aW9uLndlYnNpdGU%3D",
    "phone": "(401) 431-0476",
    "phoneUnformatted": "+14014310476",
    "claimThisBusiness": false,
    "location": {
      "lat": 41.8228422,
      "lng": -71.3569396
    },
    "totalScore": 4.5,
    "permanentlyClosed": false,
    "temporarilyClosed": false,
    "placeId": null,
    "categories": [
      "Pharmacy"
    ],
    "fid": "0x89e45ae7a16af7e5:0x94fc4657204fc837",
    "cid": "10735532951762618423",
    "reviewsCount": 13,
    "imagesCount": 4,
    "imageCategories": [],
    "scrapedAt": "2025-06-22T09:31:22.554Z",
    "googleFoodUrl": null,
    "hotelAds": [],
    "openingHours": [
      {
        "day": "Monday",
        "hours": "9\u202fAM to 7\u202fPM"
      },
      {
        "day": "Tuesday",
        "hours": "9\u202fAM to 7\u202fPM"
      },
      {
        "day": "Wednesday",
        "hours": "9\u202fAM to 7\u202fPM"
      },
      {
        "day": "Thursday",
        "hours": "9\u202fAM to 7\u202fPM"
      },
      {
        "day": "Friday",
        "hours": "9\u202fAM to 7\u202fPM"
      },
      {
        "day": "Saturday",
        "hours": "9\u202fAM to 5\u202fPM"
      },
      {
        "day": "Sunday",
        "hours": "9\u202fAM to 5\u202fPM"
      }
    ],
    "peopleAlsoSearch": [],
    "placesTags": [],
    "reviewsTags": [],
    "additionalInfo": {
      "Service options": [
        {
          "Delivery": true
        },
        {
          "In-store pickup": true
        },
        {
          "Onsite services": true
        }
      ],
      "Accessibility": [
        {
          "Wheelchair accessible entrance": true
        },
        {
          "Wheelchair accessible parking lot": true
        }
      ],
      "Planning": [
        {
          "Quick visit": true
        }
      ],
      "Payments": [
        {
          "Credit cards": true
        }
      ]
    },
    "gasPrices": [],
    "url": "https://www.google.com/maps/search/?api=1&query=Stop%20%26%20Shop%20Pharmacy&query_place_id=ChIJ5fdqoeda5IkRN8hPIFdG_JQ",
    "searchPageUrl": "https://www.google.com/maps/search/independent%20pharmacy%20East%20Providence%20RI/@21.814956946324113,-159.09939422942756,12z?hl=en",
    "searchString": "independent pharmacy East Providence RI",
    "language": "en",
    "rank": 5,
    "isAdvertisement": false,
    "imageUrl": "https://lh3.googleusercontent.com/gps-cs-s/AC9h4nrhvWxQYbPCLWlOH9h8vgism2GJr987oTKyR3bWxApM0UMJZgl0FzaVOjSXgUiwy-cxatYgxl2KcfDRPI4WEvZ0hRff1Py7ciZo8ANPoEfRpNCKU511qnzMDpTKN-DCHFCEXnKO=w408-h306-k-no",
    "kgmid": "/g/11b66j1sv_",
    "classification": "chain",
    "is_independent": false,
    "is_compounding": false,
    "confidence": 0.98,
    "source": "perplexity",
    "method": "llm"
  },
  {
    "title": "AJpharmacyII & RI Wellness Medical Center",
    "price": null,
    "categoryName": "Pharmacy",
    "address": "468 Smithfield Rd, North Providence, RI 02904",
    "neighborhood": null,
    "street": "468 Smithfield Rd",
    "city": "North Providence",
    "postalCode": "02904",
    "state": "Rhode Island",
    "countryCode": "US",
    "website": "http://www.ajpharmacyri.com/",
    "phone": "(401) 441-5988",
    "phoneUnformatted": "+14014415988",
    "claimThisBusiness": false,
    "location": {
      "lat": 41.8609651,
      "lng": -71.4634743
    },
    "totalScore": 4,
    "permanentlyClosed": false,
    "temporarilyClosed": false,
    "placeId": null,
    "categories": [
      "Pharmacy"
    ],
    "fid": "0x89e445253aad1ff5:0x4cbc024b930c0bf4",
    "cid": "5529296966116969460",
    "reviewsCount": 3,
    "imagesCount": 3,
    "imageCategories": [],
    "scrapedAt": "2025-06-22T09:31:22.555Z",
    "googleFoodUrl": null,
    "hotelAds": [],
    "openingHours": [
      {
        "day": "Monday",
        "hours": "9\u202fAM to 6\u202fPM"
      },
      {
        "day": "Tuesday",
        "hours": "9\u202fAM to 6\u202fPM"
      },
      {
        "day": "Wednesday",
        "hours": "9\u202fAM to 6\u202fPM"
      },
      {
        "day": "Thursday",
        "hours": "9\u202fAM to 6\u202fPM"
      },
      {
        "day": "Friday",
        "hours": "9\u202fAM to 6\u202fPM"
      },
      {
        "day": "Saturday",
        "hours": "Closed"
      },
      {
        "day": "Sunday",
        "hours": "Closed"
      }
    ],
    "peopleAlsoSearch": [],
    "placesTags": [],
    "reviewsTags": [],
    "additionalInfo": {
      "From the business": [
        {
          "Small business": true
        }
      ],
      "Service options": [
        {
          "In-store pickup": true
        }
      ],
      "Accessibility": [
        {
          "Wheelchair accessible entrance": true
        },
        {
          "Wheelchair accessible parking lot": true
        }
      ],
      "Planning": [
        {
          "Quick visit": true
        }
      ],
      "Payments": [
        {
          "Credit cards": true
        },
        {
          "SNAP/EBT": true
        }
      ]
    },
    "gasPrices": [],
    "url": "https://www.google.com/maps/search/?api=1&query=AJpharmacyII%20%26%20RI%20Wellness%20Medical%20Center&query_place_id=ChIJ9R-tOiVF5IkR9AsMk0sCvEw",
    "searchPageUrl": "https://www.google.com/maps/search/independent%20pharmacy%20East%20Providence%20RI/@21.814956946324113,-159.09939422942756,12z?hl=en",
    "searchString": "independent pharmacy East Providence RI",
    "language": "en",
    "rank": 6,
    "isAdvertisement": false,
    "imageUrl": "https://lh3.googleusercontent.com/p/AF1QipPpdLmJWCfbgtnlXGxMc3SlAqhGK6w7XI1y_on4=w414-h240-k-no",
    "kgmid": "/g/11t7m5476j",
    "classification": "independent",
    "is_independent": true,
    "is_compounding": false,
    "confidence": 0.85,
    "source": "perplexity",
    "method": "llm"
  },
  {
    "title": "Asthenis Pharmacy",
    "price": null,
    "categoryName": "Pharmacy",
    "address": "206 Cranston St, Providence, RI 02907",
    "neighborhood": "West End",
    "street": "206 Cranston St",
    "city": "Providence",
    "postalCode": "02907",
    "state": "Rhode Island",
    "countryCode": "US",
    "website": "http://www.asthenis.org/",
    "phone": "(401) 473-3958",
    "phoneUnformatted": "+14014733958",
    "claimThisBusiness": false,
    "location": {
      "lat": 41.8139417,
      "lng": -71.42657
    },
    "totalScore": 4.8,
    "permanentlyClosed": false,
    "temporarilyClosed": false,
    "placeId": null,
    "categories": [
      "Pharmacy"
    ],
    "fid": "0x89e445770c02902d:0xcd638d1b66a32d76",
    "cid": "14799827949295185270",
    "reviewsCount": 25,
    "imagesCount": 14,
    "imageCategories": [],
    "scrapedAt": "2025-06-22T09:31:22.555Z",
    "googleFoodUrl": null,
    "hotelAds": [],
    "openingHours": [
      {
        "day": "Monday",
        "hours": "9:30\u202fAM to 12:30\u202fPM, 1 to 5\u202fPM"
      },
      {
        "day": "Tuesday",
        "hours": "9:30\u202fAM to 12:30\u202fPM, 1 to 5\u202fPM"
      },
      {
        "day": "Wednesday",
        "hours": "9:30\u202fAM to 12:30\u202fPM, 1 to 5\u202fPM"
      },
      {
        "day": "Thursday",
        "hours": "9:30\u202fAM to 12:30\u202fPM, 1 to 5\u202fPM"
      },
      {
        "day": "Friday",
        "hours": "9:30\u202fAM to 12:30\u202fPM, 1 to 5\u202fPM"
      },
      {
        "day": "Saturday",
        "hours": "10\u202fAM to 12\u202fPM"
      },
      {
        "day": "Sunday",
        "hours": "Closed"
      }
    ],
    "additionalOpeningHours": {
      "Lunch": [
        {
          "day": "Monday",
          "hours": "12:30\u20131\u202fPM"
        },
        {
          "day": "Tuesday",
          "hours": "12:30\u20131\u202fPM"
        },
        {
          "day": "Wednesday",
          "hours": "12:30\u20131\u202fPM"
        },
        {
          "day": "Thursday",
          "hours": "12:30\u20131\u202fPM"
        },
        {
          "day": "Friday",
          "hours": "12:30\u20131\u202fPM"
        },
        {
          "day": "Saturday",
          "hours": "Closed"
        },
        {
          "day": "Sunday",
          "hours": "Closed"
        }
      ]
    },
    "peopleAlsoSearch": [],
    "placesTags": [],
    "reviewsTags": [],
    "additionalInfo": {
      "From the business": [
        {
          "Small business": true
        }
      ],
      "Service options": [
        {
          "Delivery": true
        },
        {
          "Same-day delivery": true
        }
      ],
      "Accessibility": [
        {
          "Wheelchair accessible entrance": true
        },
        {
          "Wheelchair accessible parking lot": true
        }
      ],
      "Planning": [
        {
          "Quick visit": true
        }
      ],
      "Payments": [
        {
          "Credit cards": true
        },
        {
          "Debit cards": true
        },
        {
          "NFC mobile payments": true
        },
        {
          "Credit cards": true
        }
      ]
    },
    "gasPrices": [],
    "url": "https://www.google.com/maps/search/?api=1&query=Asthenis%20Pharmacy&query_place_id=ChIJLZACDHdF5IkRdi2jZhuNY80",
    "searchPageUrl": "https://www.google.com/maps/search/independent%20pharmacy%20East%20Providence%20RI/@21.814956946324113,-159.09939422942756,12z?hl=en",
    "searchString": "independent pharmacy East Providence RI",
    "language": "en",
    "rank": 7,
    "isAdvertisement": false,
    "imageUrl": "https://lh3.googleusercontent.com/p/AF1QipPX-IMdw61GFBVEJ3nMt3jZlLitSZ7-suFowAEH=w408-h408-k-no",
    "kgmid": "/g/11h5q8fs_w",
    "classification": "independent",
    "is_independent": true,
    "is_compounding": false,
    "confidence": 0.85,
    "source": "perplexity",
    "method": "llm"
  },
  {
    "title": "VidaScrip Pharmacy",
    "price": null,
    "categoryName": "Pharmacy",
    "address": "500 Broad St, Providence, RI 02907",
    "neighborhood": "Upper South Providence",
    "street": "500 Broad St",
    "city": "Providence",
    "postalCode": "02907",
    "state": "Rhode Island",
    "countryCode": "US",
    "phone": "(401) 868-9070",
    "phoneUnformatted": "+14018689070",
    "claimThisBusiness": true,
    "location": {
      "lat": 41.8104114,
      "lng": -71.4209875
    },
    "permanentlyClosed": false,
    "temporarilyClosed": false,
    "placeId": null,
    "categories": [
      "Pharmacy"
    ],
    "fid": "0x89e4457a8a9a5be1:0xa47c2ce15925aa8b",
    "cid": "11852397665707207307",
    "reviewsCount": 0,
    "imagesCount": 1,
    "imageCategories": [],
    "scrapedAt": "2025-06-22T09:31:22.555Z",
    "googleFoodUrl": null,
    "hotelAds": [],
    "openingHours": [
      {
        "day": "Monday",
        "hours": "8:30\u202fAM to 8\u202fPM"
      },
      {
        "day": "Tuesday",
        "hours": "8:30\u202fAM to 8\u202fPM"
      },
      {
        "day": "Wednesday",
        "hours": "8:30\u202fAM to 8\u202fPM"
      },
      {
        "day": "Thursday",
        "hours": "8:30\u202fAM to 8\u202fPM"
      },
      {
        "day": "Friday",
        "hours": "8:30\u202fAM to 8\u202fPM"
      },
      {
        "day": "Saturday",
        "hours": "9\u202fAM to 3\u202fPM"
      },
      {
        "day": "Sunday",
        "hours": "9\u202fAM to 3\u202fPM"
      }
    ],
    "peopleAlsoSearch": [],
    "placesTags": [],
    "reviewsTags": [],
    "additionalInfo": {
      "Accessibility": [
        {
          "Wheelchair accessible parking lot": true
        }
      ],
      "Payments": [
        {
          "Credit cards": true
        }
      ]
    },
    "gasPrices": [],
    "url": "https://www.google.com/maps/search/?api=1&query=VidaScrip%20Pharmacy&query_place_id=ChIJ4VuainpF5IkRi6olWeEsfKQ",
    "searchPageUrl": "https://www.google.com/maps/search/independent%20pharmacy%20East%20Providence%20RI/@21.814956946324113,-159.09939422942756,12z?hl=en",
    "searchString": "independent pharmacy East Providence RI",
    "language": "en",
    "rank": 8,
    "isAdvertisement": false,
    "imageUrl": "https://streetviewpixels-pa.googleapis.com/v1/thumbnail?panoid=A5QO62UiwAcGwf6bd-45Gw&cb_client=search.gws-prod.gps&w=408&h=240&yaw=80.38345&pitch=0&thumbfov=100",
    "kgmid": "/g/1tfn3rtv",
    "classification": "independent",
    "is_independent": true,
    "is_compounding": false,
    "confidence": 0.8,
    "source": "perplexity",
    "method": "llm"
  },
  {
    "title": "Walgreens Pharmacy",
    "description": "Department of the Walgreens chain providing prescription medications & other health-related items.",
    "price": null,
    "categoryName": "Pharmacy",
    "address": "655 Warren Ave, East Providence, RI 02914",
    "neighborhood": null,
    "street": "655 Warren Ave",
    "city": "East Providence",
    "postalCode": "02914",
    "state": "Rhode Island",
    "countryCode": "US",
    "website": "https://www.walgreens.com/locator/walgreens-655+warren+ave-east+providence-ri-02914/id=19849",
    "phone": "(401) 434-5700",
    "phoneUnformatted": "+14014345700",
    "claimThisBusiness": false,
    "location": {
      "lat": 41.8105998,
      "lng": -71.3585928
    },
    "totalScore": 3.9,
    "permanentlyClosed": false,
    "temporarilyClosed": false,
    "placeId": null,
    "categories": [
      "Pharmacy"
    ],
    "fid": "0x89e45ba1b97fdf09:0xcb0c8d902321937b",
    "cid": "14631224939624108923",
    "reviewsCount": 48,
    "imagesCount": 4,
    "imageCategories": [],
    "scrapedAt": "2025-06-22T09:31:22.555Z",
    "googleFoodUrl": null,
    "hotelAds": [],
    "openingHours": [
      {
        "day": "Monday",
        "hours": "8\u202fAM to 10\u202fPM"
      },
      {
        "day": "Tuesday",
        "hours": "8\u202fAM to 10\u202fPM"
      },
      {
        "day": "Wednesday",
        "hours": "8\u202fAM to 10\u202fPM"
      },
      {
        "day": "Thursday",
        "hours": "8\u202fAM to 10\u202fPM"
      },
      {
        "day": "Friday",
        "hours": "8\u202fAM to 10\u202fPM"
      },
      {
        "day": "Saturday",
        "hours": "8\u202fAM to 10\u202fPM"
      },
      {
        "day": "Sunday",
        "hours": "8\u202fAM to 10\u202fPM"
      }
    ],
    "additionalOpeningHours": {
      "Drive through": [
        {
          "day": "Monday",
          "hours": "8\u202fAM\u201310\u202fPM"
        },
        {
          "day": "Tuesday",
          "hours": "8\u202fAM\u201310\u202fPM"
        },
        {
          "day": "Wednesday",
          "hours": "8\u202fAM\u201310\u202fPM"
        },
        {
          "day": "Thursday",
          "hours": "8\u202fAM\u201310\u202fPM"
        },
        {
          "day": "Friday",
          "hours": "8\u202fAM\u201310\u202fPM"
        },
        {
          "day": "Saturday",
          "hours": "8\u202fAM\u201310\u202fPM"
        },
        {
          "day": "Sunday",
          "hours": "8\u202fAM\u201310\u202fPM"
        }
      ]
    },
    "peopleAlsoSearch": [],
    "placesTags": [],
    "reviewsTags": [],
    "additionalInfo": {
      "Service options": [
        {
          "Curbside pickup": true
        },
        {
          "Drive-through": true
        },
        {
          "In-store pickup": true
        },
        {
          "Onsite services": true
        }
      ],
      "Accessibility": [
        {
          "Wheelchair accessible entrance": true
        },
        {
          "Wheelchair accessible parking lot": true
        }
      ],
      "Offerings": [
        {
          "Naloxone": true
        },
        {
          "Passport photos": true
        }
      ],
      "Planning": [
        {
          "Quick visit": true
        }
      ],
      "Payments": [
        {
          "Credit cards": true
        },
        {
          "NFC mobile payments": true
        }
      ]
    },
    "gasPrices": [],
    "url": "https://www.google.com/maps/search/?api=1&query=Walgreens%20Pharmacy&query_place_id=ChIJCd9_uaFb5IkRe5MhI5CNDMs",
    "searchPageUrl": "https://www.google.com/maps/search/independent%20pharmacy%20East%20Providence%20RI/@21.814956946324113,-159.09939422942756,12z?hl=en",
    "searchString": "independent pharmacy East Providence RI",
    "language": "en",
    "rank": 9,
    "isAdvertisement": false,
    "imageUrl": "https://lh3.googleusercontent.com/gps-cs-s/AC9h4nqCMO_9trJAU_W1bThT-KUiScfkr6kM6ZpZiBxa1E-QrpxgXl5SRJWnTHE3bVGlcgXMGqmt7cdbb5DNehyM3h8y4tzP9hCuerYJcgSxR7Jynk-M5ioeF_QZFhSvvRdHKpBo-LlL=w408-h307-k-no",
    "kgmid": "/g/11fm3mts_z",
    "classification": "chain",
    "is_independent": false,
    "is_compounding": false,
    "confidence": 1.0,
    "source": "perplexity",
    "method": "llm"
  },
  {
    "title": "Anthony's Pharmacy Atwood LLC",
    "price": null,
    "categoryName": "Pharmacy",
    "address": "1524 Atwood Ave, Johnston, RI 02919, United States",
    "neighborhood": null,
    "street": "1524 Atwood Ave",
    "city": "Johnston",
    "postalCode": "02919",
    "state": "Rhode Island",
    "countryCode": "US",
    "website": "http://anthonyspharmacy.net/",
    "phone": "+1 401-900-1788",
    "phoneUnformatted": "+14019001788",
    "claimThisBusiness": false,
    "location": {
      "lat": 41.8273987,
      "lng": -71.5016612
    },
    "totalScore": 4.8,
    "permanentlyClosed": false,
    "temporarilyClosed": false,
    "placeId": null,
    "categories": [
      "Pharmacy"
    ],
    "fid": "0x89e4459402042fab:0xd3e48d230d7d3b2a",
    "cid": "15268483818382506794",
    "reviewsCount": 129,
    "imagesCount": 4,
    "imageCategories": [],
    "scrapedAt": "2025-06-22T09:31:35.532Z",
    "googleFoodUrl": null,
    "hotelAds": [],
    "openingHours": [
      {
        "day": "Monday",
        "hours": "9\u202fAM to 6:30\u202fPM"
      },
      {
        "day": "Tuesday",
        "hours": "9\u202fAM to 6:30\u202fPM"
      },
      {
        "day": "Wednesday",
        "hours": "9\u202fAM to 6:30\u202fPM"
      },
      {
        "day": "Thursday",
        "hours": "9\u202fAM to 6:30\u202fPM"
      },
      {
        "day": "Friday",
        "hours": "9\u202fAM to 6:30\u202fPM"
      },
      {
        "day": "Saturday",
        "hours": "9\u202fAM to 3\u202fPM"
      },
      {
        "day": "Sunday",
        "hours": "Closed"
      }
    ],
    "additionalOpeningHours": {
      "Delivery": [
        {
          "day": "Monday",
          "hours": "9\u202fam\u20135\u202fpm"
        },
        {
          "day": "Tuesday",
          "hours": "9\u202fam\u20135\u202fpm"
        },
        {
          "day": "Wednesday",
          "hours": "9\u202fam\u20135\u202fpm"
        },
        {
          "day": "Thursday",
          "hours": "9\u202fam\u20135\u202fpm"
        },
        {
          "day": "Friday",
          "hours": "9\u202fam\u20135\u202fpm"
        },
        {
          "day": "Saturday",
          "hours": "9\u202fam\u20133\u202fpm"
        },
        {
          "day": "Sunday",
          "hours": "Closed"
        }
      ]
    },
    "peopleAlsoSearch": [],
    "placesTags": [],
    "reviewsTags": [],
    "additionalInfo": {
      "From the business": [
        {
          "Small Business": true
        }
      ],
      "Service options": [
        {
          "Delivery": true
        }
      ],
      "Accessibility": [
        {
          "Wheelchair-accessible car park": true
        },
        {
          "Wheelchair-accessible entrance": true
        }
      ],
      "Planning": [
        {
          "Quick visit": true
        }
      ],
      "Payments": [
        {
          "Credit cards": true
        }
      ]
    },
    "gasPrices": [],
    "url": "https://www.google.com/maps/search/?api=1&query=Anthony's%20Pharmacy%20Atwood%20LLC&query_place_id=ChIJqy8EApRF5IkRKjt9DSON5NM",
    "searchPageUrl": "https://www.google.com/maps/search/independent%20pharmacy%20East%20Providence%20RI/@55.60268578706954,-156.08076678160276,12z?hl=en",
    "searchString": "independent pharmacy East Providence RI",
    "language": "en",
    "rank": 6,
    "isAdvertisement": false,
    "imageUrl": "https://lh3.googleusercontent.com/gps-cs-s/AC9h4npaUvs2cj45oz-Z4dquqno9_dPsK8tAIt2vuJYfkejEhwkwcY-bDhqelyxoLbcOmyR_KmlH5B-BwNLjMgzqjI4bLFD32TiSVnvEleBGfvIv5UChayv8Rt-3dPcGCCOkAP8Rc5w=w408-h725-k-no",
    "kgmid": "/g/1tx_7ckl",
    "classification": "independent",
    "is_independent": true,
    "is_compounding": false,
    "confidence": 0.9,
    "source": "perplexity",
    "method": "llm"
  },
  {
    "title": "CVS",
    "description": "Drugstore chain selling a variety of beauty & health products, plus some grocery & household items.",
    "price": null,
    "categoryName": "Drug store",
    "address": "640 Warren Ave, East Providence, RI 02914",
    "neighborhood": null,
    "street": "640 Warren Ave",
    "city": "East Providence",
    "postalCode": "02914",
    "state": "Rhode Island",
    "countryCode": "US",
    "website": "https://www.cvs.com/store-locator/east-providence-ri-pharmacies/640-warren-avenue-east-providence-ri-02914/storeid=2347?WT.mc_id=LS_GOOGLE_FS_2347",
    "phone": "(401) 438-2272",
    "phoneUnformatted": "+14014382272",
    "claimThisBusiness": false,
    "location": {
      "lat": 41.8112722,
      "lng": -71.3574501
    },
    "locatedIn": "CVS Pharmacy",
    "totalScore": 2.8,
    "permanentlyClosed": false,
    "temporarilyClosed": false,
    "placeId": null,
    "categories": [
      "Drug store",
      "Beauty supply store",
      "Convenience store",
      "Cosmetics store",
      "Greeting card shop",
      "Perfume store",
      "Stationery store",
      "Vitamin & supplements store"
    ],
    "fid": "0x89e45aeab0b0f903:0xdb8625aaedc8f60b",
    "cid": "15818372157249484299",
    "reviewsCount": 90,
    "imagesCount": 8,
    "imageCategories": [],
    "scrapedAt": "2025-06-22T09:31:40.458Z",
    "googleFoodUrl": null,
    "hotelAds": [],
    "openingHours": [
      {
        "day": "Monday",
        "hours": "Open 24 hours"
      },
      {
        "day": "Tuesday",
        "hours": "Open 24 hours"
      },
      {
        "day": "Wednesday",
        "hours": "Open 24 hours"
      },
      {
        "day": "Thursday",
        "hours": "Open 24 hours"
      },
      {
        "day": "Friday",
        "hours": "Open 24 hours"
      },
      {
        "day": "Saturday",
        "hours": "Open 24 hours"
      },
      {
        "day": "Sunday",
        "hours": "Open 24 hours"
      }
    ],
    "additionalOpeningHours": {
      "CVS Pharmacy": [
        {
          "day": "Monday",
          "hours": "12\u202fAM\u20131:30\u202fPM"
        },
        {
          "day": "Tuesday",
          "hours": "12\u202fAM\u20131:30\u202fPM"
        },
        {
          "day": "Wednesday",
          "hours": "12\u202fAM\u20131:30\u202fPM"
        },
        {
          "day": "Thursday",
          "hours": "12\u202fAM\u20131:30\u202fPM"
        },
        {
          "day": "Friday",
          "hours": "12\u202fAM\u20131:30\u202fPM"
        },
        {
          "day": "Saturday",
          "hours": "12\u202fAM\u20131:30\u202fPM"
        },
        {
          "day": "Sunday",
          "hours": "12\u202fAM\u20131:30\u202fPM"
        }
      ],
      "CVS Photo": [
        {
          "day": "Monday",
          "hours": "Open 24 hours"
        },
        {
          "day": "Tuesday",
          "hours": "Open 24 hours"
        },
        {
          "day": "Wednesday",
          "hours": "Open 24 hours"
        },
        {
          "day": "Thursday",
          "hours": "Open 24 hours"
        },
        {
          "day": "Friday",
          "hours": "Open 24 hours"
        },
        {
          "day": "Saturday",
          "hours": "Open 24 hours"
        },
        {
          "day": "Sunday",
          "hours": "Open 24 hours"
        }
      ]
    },
    "peopleAlsoSearch": [],
    "placesTags": [],
    "reviewsTags": [],
    "additionalInfo": {
      "Service options": [
        {
          "Delivery": true
        },
        {
          "Drive-through": true
        },
        {
          "In-store pickup": true
        },
        {
          "In-store shopping": true
        },
        {
          "Onsite services": true
        },
        {
          "Same-day delivery": false
        }
      ],
      "Accessibility": [
        {
          "Wheelchair accessible entrance": true
        },
        {
          "Wheelchair accessible parking lot": true
        }
      ],
      "Offerings": [
        {
          "Passport photos": true
        }
      ],
      "Crowd": [
        {
          "LGBTQ+ friendly": true
        },
        {
          "Transgender safespace": true
        }
      ],
      "Planning": [
        {
          "Quick visit": true
        }
      ],
      "Payments": [
        {
          "Credit cards": true
        },
        {
          "Debit cards": true
        },
        {
          "Credit cards": true
        }
      ]
    },
    "gasPrices": [],
    "url": "https://www.google.com/maps/search/?api=1&query=CVS&query_place_id=ChIJA_mwsOpa5IkRC_bI7aolhts",
    "searchPageUrl": "https://www.google.com/maps/search/independent%20pharmacy%20East%20Providence%20RI/@64.76955200934916,-167.87036651474492,13z?hl=en",
    "searchString": "independent pharmacy East Providence RI",
    "language": "en",
    "rank": 3,
    "isAdvertisement": false,
    "imageUrl": "https://lh3.googleusercontent.com/p/AF1QipMVpzPkP8tonxoRTu0nLRyXgNpWXuTlRvNPrpH5=w408-h272-k-no",
    "kgmid": "/g/1tkp0t66",
    "classification": "chain",
    "is_independent": false,
    "is_compounding": false,
    "confidence": 1.0,
    "source": "perplexity",
    "method": "llm"
  },
  {
    "title": "Walgreens",
    "description": "Drugstore chain with health & beauty aids, prescriptions & photo services, plus mini-mart basics.",
    "price": null,
    "categoryName": "Drug store",
    "address": "655 Warren Ave, East Providence, RI 02914",
    "neighborhood": null,
    "street": "655 Warren Ave",
    "city": "East Providence",
    "postalCode": "02914",
    "state": "Rhode Island",
    "countryCode": "US",
    "website": "https://www.walgreens.com/locator/walgreens-655+warren+ave-east+providence-ri-02914/id=19849",
    "phone": "(401) 434-5700",
    "phoneUnformatted": "+14014345700",
    "claimThisBusiness": false,
    "location": {
      "lat": 41.8105998,
      "lng": -71.3585928
    },
    "locatedIn": "Walgreens Pharmacy",
    "totalScore": 2.8,
    "permanentlyClosed": false,
    "temporarilyClosed": false,
    "placeId": null,
    "categories": [
      "Drug store",
      "Beauty supply store",
      "Convenience store",
      "Cosmetics store",
      "Greeting card shop",
      "Perfume store",
      "Stationery store"
    ],
    "fid": "0x89e45bc01dee7605:0x456ebd84e2b215c0",
    "cid": "5003144614491854272",
    "reviewsCount": 22,
    "imagesCount": 4,
    "imageCategories": [],
    "scrapedAt": "2025-06-22T09:31:40.458Z",
    "googleFoodUrl": null,
    "hotelAds": [],
    "openingHours": [
      {
        "day": "Monday",
        "hours": "Open 24 hours"
      },
      {
        "day": "Tuesday",
        "hours": "Open 24 hours"
      },
      {
        "day": "Wednesday",
        "hours": "Open 24 hours"
      },
      {
        "day": "Thursday",
        "hours": "Open 24 hours"
      },
      {
        "day": "Friday",
        "hours": "Open 24 hours"
      },
      {
        "day": "Saturday",
        "hours": "Open 24 hours"
      },
      {
        "day": "Sunday",
        "hours": "Open 24 hours"
      }
    ],
    "additionalOpeningHours": {
      "Walgreens Pharmacy": [
        {
          "day": "Monday",
          "hours": "8\u202fAM\u201310\u202fPM"
        },
        {
          "day": "Tuesday",
          "hours": "8\u202fAM\u201310\u202fPM"
        },
        {
          "day": "Wednesday",
          "hours": "8\u202fAM\u201310\u202fPM"
        },
        {
          "day": "Thursday",
          "hours": "8\u202fAM\u201310\u202fPM"
        },
        {
          "day": "Friday",
          "hours": "8\u202fAM\u201310\u202fPM"
        },
        {
          "day": "Saturday",
          "hours": "8\u202fAM\u201310\u202fPM"
        },
        {
          "day": "Sunday",
          "hours": "8\u202fAM\u201310\u202fPM"
        }
      ],
      "Walgreens Photo": [
        {
          "day": "Monday",
          "hours": "Open 24 hours"
        },
        {
          "day": "Tuesday",
          "hours": "Open 24 hours"
        },
        {
          "day": "Wednesday",
          "hours": "Open 24 hours"
        },
        {
          "day": "Thursday",
          "hours": "Open 24 hours"
        },
        {
          "day": "Friday",
          "hours": "Open 24 hours"
        },
        {
          "day": "Saturday",
          "hours": "Open 24 hours"
        },
        {
          "day": "Sunday",
          "hours": "Open 24 hours"
        }
      ],
      "Pickup": [
        {
          "day": "Monday",
          "hours": "Open 24 hours"
        },
        {
          "day": "Tuesday",
          "hours": "Open 24 hours"
        },
        {
          "day": "Wednesday",
          "hours": "Open 24 hours"
        },
        {
          "day": "Thursday",
          "hours": "Open 24 hours"
        },
        {
          "day": "Friday",
          "hours": "Open 24 hours"
        },
        {
          "day": "Saturday",
          "hours": "Open 24 hours"
        },
        {
          "day": "Sunday",
          "hours": "Open 24 hours"
        }
      ]
    },
    "peopleAlsoSearch": [],
    "placesTags": [],
    "reviewsTags": [],
    "additionalInfo": {
      "Service options": [
        {
          "Curbside pickup": true
        },
        {
          "Delivery": true
        },
        {
          "Drive-through": true
        },
        {
          "In-store pickup": true
        }
      ],
      "Accessibility": [
        {
          "Wheelchair accessible entrance": true
        },
        {
          "Wheelchair accessible parking lot": true
        }
      ],
      "Offerings": [
        {
          "Passport photos": true
        }
      ],
      "Planning": [
        {
          "Quick visit": true
        }
      ],
      "Payments": [
        {
          "Credit cards": true
        },
        {
          "Debit cards": true
        },
        {
          "NFC mobile payments": true
        },
        {
          "SNAP/EBT": true
        },
        {
          "Credit cards": true
        }
      ]
    },
    "gasPrices": [],
    "url": "https://www.google.com/maps/search/?api=1&query=Walgreens&query_place_id=ChIJBXbuHcBb5IkRwBWy4oS9bkU",
    "searchPageUrl": "https://www.google.com/maps/search/independent%20pharmacy%20East%20Providence%20RI/@64.76955200934916,-167.87036651474492,13z?hl=en",
    "searchString": "independent pharmacy East Providence RI",
    "language": "en",
    "rank": 4,
    "isAdvertisement": false,
    "imageUrl": "https://lh3.googleusercontent.com/p/AF1QipNXEsPygWtwiApaRifDGRbReRucSDLOu97UvN-A=w408-h304-k-no",
    "kgmid": "/g/11l_b_2pzh",
    "classification": "chain",
    "is_independent": false,
    "is_compounding": false,
    "confidence": 1.0,
    "source": "perplexity",
    "method": "llm"
  },
  {
    "title": "Prescription Pharmacy Services",
    "price": null,
    "categoryName": "Pharmacy",
    "address": "1210 Pontiac Ave 2nd Floor, Cranston, RI 02920",
    "neighborhood": null,
    "street": "1210 Pontiac Ave 2nd Floor",
    "city": "Cranston",
    "postalCode": "02920",
    "state": "Rhode Island",
    "countryCode": "US",
    "website": "http://pps-rx.com/",
    "phone": "(401) 228-3388",
    "phoneUnformatted": "+14012283388",
    "claimThisBusiness": false,
    "location": {
      "lat": 41.7508863,
      "lng": -71.4505761
    },
    "permanentlyClosed": false,
    "temporarilyClosed": false,
    "placeId": null,
    "categories": [
      "Pharmacy"
    ],
    "fid": "0x89e445aa57face05:0xe42d460118abbbd3",
    "cid": "16441874785122368467",
    "reviewsCount": 0,
    "imagesCount": 5,
    "imageCategories": [],
    "scrapedAt": "2025-06-22T09:31:46.604Z",
    "googleFoodUrl": null,
    "hotelAds": [],
    "openingHours": [
      {
        "day": "Monday",
        "hours": "9\u202fAM to 5\u202fPM"
      },
      {
        "day": "Tuesday",
        "hours": "9\u202fAM to 5\u202fPM"
      },
      {
        "day": "Wednesday",
        "hours": "9\u202fAM to 5\u202fPM"
      },
      {
        "day": "Thursday",
        "hours": "9\u202fAM to 5\u202fPM"
      },
      {
        "day": "Friday",
        "hours": "9\u202fAM to 5\u202fPM"
      },
      {
        "day": "Saturday",
        "hours": "Closed"
      },
      {
        "day": "Sunday",
        "hours": "Closed"
      }
    ],
    "peopleAlsoSearch": [],
    "placesTags": [],
    "reviewsTags": [],
    "additionalInfo": {
      "From the business": [
        {
          "Small business": true
        }
      ],
      "Accessibility": [
        {
          "Wheelchair accessible entrance": true
        },
        {
          "Wheelchair accessible parking lot": true
        }
      ],
      "Payments": [
        {
          "Credit cards": true
        }
      ]
    },
    "gasPrices": [],
    "url": "https://www.google.com/maps/search/?api=1&query=Prescription%20Pharmacy%20Services&query_place_id=ChIJBc76V6pF5IkR07urGAFGLeQ",
    "searchPageUrl": "https://www.google.com/maps/search/independent%20pharmacy%20East%20Providence%20RI/@62.95881800455232,-161.1661038710836,9z?hl=en",
    "searchString": "independent pharmacy East Providence RI",
    "language": "en",
    "rank": 10,
    "isAdvertisement": false,
    "imageUrl": "https://lh3.googleusercontent.com/p/AF1QipMQ0Pjoti1RfMqk00hIv4JfcdP0fsTnQDJqf3Bo=w408-h306-k-no",
    "kgmid": "/g/11h2hbmtv3",
    "classification": "independent",
    "is_independent": true,
    "is_compounding": false,
    "confidence": 0.85,
    "source": "perplexity",
    "method": "llm"
  },
  {
    "title": "Blackstone Valley Community Health Pharmacy",
    "price": null,
    "categoryName": "Pharmacy",
    "address": "39 East Ave, Pawtucket, RI 02860",
    "neighborhood": null,
    "street": "39 East Ave",
    "city": "Pawtucket",
    "postalCode": "02860",
    "state": "Rhode Island",
    "countryCode": "US",
    "website": "https://www.bvchc.org/our-services/blackstone-valley-community-health-pharmacy",
    "phone": "(401) 642-2093",
    "phoneUnformatted": "+14016422093",
    "claimThisBusiness": false,
    "location": {
      "lat": 41.8766796,
      "lng": -71.3850774
    },
    "totalScore": 3.3,
    "permanentlyClosed": false,
    "temporarilyClosed": false,
    "placeId": null,
    "categories": [
      "Pharmacy"
    ],
    "fid": "0x89e44354920ee60f:0x6d3ab19458186431",
    "cid": "7870798549474632753",
    "reviewsCount": 4,
    "imagesCount": 1,
    "imageCategories": [],
    "scrapedAt": "2025-06-22T09:31:46.604Z",
    "googleFoodUrl": null,
    "hotelAds": [],
    "openingHours": [
      {
        "day": "Monday",
        "hours": "8\u202fAM to 5\u202fPM"
      },
      {
        "day": "Tuesday",
        "hours": "8\u202fAM to 5\u202fPM"
      },
      {
        "day": "Wednesday",
        "hours": "8\u202fAM to 5\u202fPM"
      },
      {
        "day": "Thursday",
        "hours": "8\u202fAM to 5\u202fPM"
      },
      {
        "day": "Friday",
        "hours": "8\u202fAM to 5\u202fPM"
      },
      {
        "day": "Saturday",
        "hours": "Closed"
      },
      {
        "day": "Sunday",
        "hours": "Closed"
      }
    ],
    "peopleAlsoSearch": [],
    "placesTags": [],
    "reviewsTags": [],
    "additionalInfo": {
      "Service options": [
        {
          "Heat pump installation recognized by the US Dept. of Energy": true
        },
        {
          "Delivery": true
        }
      ],
      "Accessibility": [
        {
          "Wheelchair accessible entrance": true
        },
        {
          "Wheelchair accessible parking lot": true
        }
      ],
      "Payments": [
        {
          "Credit cards": true
        }
      ]
    },
    "gasPrices": [],
    "url": "https://www.google.com/maps/search/?api=1&query=Blackstone%20Valley%20Community%20Health%20Pharmacy&query_place_id=ChIJD-YOklRD5IkRMWQYWJSxOm0",
    "searchPageUrl": "https://www.google.com/maps/search/independent%20pharmacy%20East%20Providence%20RI/@62.95881800455232,-161.1661038710836,9z?hl=en",
    "searchString": "independent pharmacy East Providence RI",
    "language": "en",
    "rank": 11,
    "isAdvertisement": false,
    "imageUrl": "https://streetviewpixels-pa.googleapis.com/v1/thumbnail?panoid=krnG5aNqmOwliLCGzR671Q&cb_client=search.gws-prod.gps&w=408&h=240&yaw=267.0134&pitch=0&thumbfov=100",
    "kgmid": "/g/11bwhb8qlj",
    "classification": "independent",
    "is_independent": true,
    "is_compounding": false,
    "confidence": 0.9,
    "source": "perplexity",
    "method": "llm"
  },
  {
    "title": "Brown University Health Pharmacy at Rhode Island Hospital",
    "price": null,
    "categoryName": "Pharmacy",
    "address": "593 Eddy Street 1st Floor Davol Building 1st Floor, Davol Building, Providence, RI 02903",
    "neighborhood": "Upper South Providence",
    "street": "593 Eddy Street 1st Floor Davol Building 1st Floor, Davol Building",
    "city": "Providence",
    "postalCode": "02903",
    "state": "RI",
    "countryCode": "US",
    "website": "https://www.brownhealth.org/centers-services/pharmacy",
    "phone": "(401) 444-4909",
    "phoneUnformatted": "+14014444909",
    "claimThisBusiness": false,
    "location": {
      "lat": 41.8107889,
      "lng": -71.4090636
    },
    "totalScore": 4.8,
    "permanentlyClosed": false,
    "temporarilyClosed": false,
    "placeId": null,
    "categories": [
      "Pharmacy"
    ],
    "fid": "0x89e44569c748c7bb:0x3e7ab09611513416",
    "cid": "4502104936092349462",
    "reviewsCount": 26,
    "imagesCount": 2,
    "imageCategories": [],
    "scrapedAt": "2025-06-22T09:31:53.951Z",
    "googleFoodUrl": null,
    "hotelAds": [],
    "openingHours": [
      {
        "day": "Monday",
        "hours": "7\u202fAM to 11:30\u202fPM"
      },
      {
        "day": "Tuesday",
        "hours": "7\u202fAM to 11:30\u202fPM"
      },
      {
        "day": "Wednesday",
        "hours": "7\u202fAM to 11:30\u202fPM"
      },
      {
        "day": "Thursday",
        "hours": "7\u202fAM to 11:30\u202fPM"
      },
      {
        "day": "Friday",
        "hours": "7\u202fAM to 11:30\u202fPM"
      },
      {
        "day": "Saturday",
        "hours": "8\u202fAM to 4:30\u202fPM"
      },
      {
        "day": "Sunday",
        "hours": "8\u202fAM to 4:30\u202fPM"
      }
    ],
    "peopleAlsoSearch": [],
    "placesTags": [],
    "reviewsTags": [],
    "additionalInfo": {
      "Service options": [
        {
          "Delivery": true
        },
        {
          "English": true
        }
      ],
      "Accessibility": [
        {
          "Wheelchair accessible entrance": true
        },
        {
          "Wheelchair accessible parking lot": true
        }
      ],
      "Payments": [
        {
          "Credit cards": true
        },
        {
          "Debit cards": true
        },
        {
          "NFC mobile payments": true
        },
        {
          "Credit cards": true
        }
      ]
    },
    "gasPrices": [],
    "url": "https://www.google.com/maps/search/?api=1&query=Brown%20University%20Health%20Pharmacy%20at%20Rhode%20Island%20Hospital&query_place_id=ChIJu8dIx2lF5IkRFjRREZawej4",
    "searchPageUrl": "https://www.google.com/maps/search/independent%20pharmacy%20East%20Providence%20RI/@25.956363585943656,-171.93667884715254,13z?hl=en",
    "searchString": "independent pharmacy East Providence RI",
    "language": "en",
    "rank": 12,
    "isAdvertisement": false,
    "imageUrl": "https://lh3.googleusercontent.com/p/AF1QipMClVT5-GhIwaPXcZ3pqH3EOkwPky7z1MnUyJ7u=w426-h240-k-no",
    "kgmid": "/g/1w0j0m9w",
    "classification": "independent",
    "is_independent": true,
    "is_compounding": false,
    "confidence": 0.9,
    "source": "perplexity",
    "method": "llm"
  },
  {
    "title": "Brown University Health Pharmacy at Corliss Street",
    "price": null,
    "categoryName": "Pharmacy",
    "address": "180 Corliss St Suite A, Providence, RI 02904",
    "neighborhood": "Mount Hope",
    "street": "180 Corliss St Suite A",
    "city": "Providence",
    "postalCode": "02904",
    "state": "Rhode Island",
    "countryCode": "US",
    "website": "https://www.brownhealth.org/centers-services/pharmacy",
    "phone": "(401) 606-8030",
    "phoneUnformatted": "+14016068030",
    "claimThisBusiness": false,
    "location": {
      "lat": 41.8431913,
      "lng": -71.4127612
    },
    "totalScore": 4.6,
    "permanentlyClosed": false,
    "temporarilyClosed": false,
    "placeId": null,
    "categories": [
      "Pharmacy"
    ],
    "fid": "0x89e4456710c50b43:0x86839505861746d2",
    "cid": "9692754673988486866",
    "reviewsCount": 11,
    "imagesCount": 6,
    "imageCategories": [],
    "scrapedAt": "2025-06-22T09:31:53.951Z",
    "googleFoodUrl": null,
    "hotelAds": [],
    "openingHours": [
      {
        "day": "Monday",
        "hours": "7\u202fAM to 7\u202fPM"
      },
      {
        "day": "Tuesday",
        "hours": "7\u202fAM to 7\u202fPM"
      },
      {
        "day": "Wednesday",
        "hours": "7\u202fAM to 7\u202fPM"
      },
      {
        "day": "Thursday",
        "hours": "7\u202fAM to 7\u202fPM"
      },
      {
        "day": "Friday",
        "hours": "7\u202fAM to 7\u202fPM"
      },
      {
        "day": "Saturday",
        "hours": "8\u202fAM to 4\u202fPM"
      },
      {
        "day": "Sunday",
        "hours": "Closed"
      }
    ],
    "peopleAlsoSearch": [],
    "placesTags": [],
    "reviewsTags": [],
    "additionalInfo": {
      "Service options": [
        {
          "Delivery": true
        },
        {
          "In-store pickup": true
        },
        {
          "In-store shopping": true
        },
        {
          "Onsite services": true
        }
      ],
      "Accessibility": [
        {
          "Wheelchair accessible entrance": true
        },
        {
          "Wheelchair accessible parking lot": true
        }
      ],
      "Payments": [
        {
          "Credit cards": true
        },
        {
          "Debit cards": true
        },
        {
          "NFC mobile payments": true
        },
        {
          "Credit cards": true
        }
      ]
    },
    "gasPrices": [],
    "url": "https://www.google.com/maps/search/?api=1&query=Brown%20University%20Health%20Pharmacy%20at%20Corliss%20Street&query_place_id=ChIJQwvFEGdF5IkR0kYXhgWVg4Y",
    "searchPageUrl": "https://www.google.com/maps/search/independent%20pharmacy%20East%20Providence%20RI/@25.956363585943656,-171.93667884715254,13z?hl=en",
    "searchString": "independent pharmacy East Providence RI",
    "language": "en",
    "rank": 13,
    "isAdvertisement": false,
    "imageUrl": "https://lh3.googleusercontent.com/p/AF1QipNbwmmECd_5rdD3eE3JunaDpTQL_bxnauEslZSG=w408-h271-k-no",
    "kgmid": "/g/11r29998lg",
    "classification": "independent",
    "is_independent": true,
    "is_compounding": false,
    "confidence": 0.9,
    "source": "perplexity",
    "method": "llm"
  },
  {
    "title": "Park Ave Pharmacy",
    "price": null,
    "categoryName": "Pharmacy",
    "address": "1375 Park Ave, Cranston, RI 02920, United States",
    "neighborhood": null,
    "street": "1375 Park Ave",
    "city": "Cranston",
    "postalCode": "02920",
    "state": "Rhode Island",
    "countryCode": "US",
    "website": "http://www.parkavepharma.com/",
    "phone": "+1 401-228-1544",
    "phoneUnformatted": "+14012281544",
    "claimThisBusiness": false,
    "location": {
      "lat": 41.784246,
      "lng": -71.4595881
    },
    "totalScore": 4.9,
    "permanentlyClosed": false,
    "temporarilyClosed": false,
    "placeId": null,
    "categories": [
      "Pharmacy"
    ],
    "fid": "0x89e44fe487c88c3f:0x73b0c4c7ad1c8bd",
    "cid": "521023704509040829",
    "reviewsCount": 52,
    "imagesCount": 16,
    "imageCategories": [],
    "scrapedAt": "2025-06-22T09:32:02.454Z",
    "googleFoodUrl": null,
    "hotelAds": [],
    "openingHours": [
      {
        "day": "Monday",
        "hours": "9\u202fAM to 7\u202fPM"
      },
      {
        "day": "Tuesday",
        "hours": "9\u202fAM to 7\u202fPM"
      },
      {
        "day": "Wednesday",
        "hours": "9\u202fAM to 7\u202fPM"
      },
      {
        "day": "Thursday",
        "hours": "9\u202fAM to 7\u202fPM"
      },
      {
        "day": "Friday",
        "hours": "9\u202fAM to 7\u202fPM"
      },
      {
        "day": "Saturday",
        "hours": "9\u202fAM to 3\u202fPM"
      },
      {
        "day": "Sunday",
        "hours": "Closed"
      }
    ],
    "additionalOpeningHours": {
      "Pickup": [
        {
          "day": "Monday",
          "hours": "9\u202fam\u20137\u202fpm"
        },
        {
          "day": "Tuesday",
          "hours": "9\u202fam\u20137\u202fpm"
        },
        {
          "day": "Wednesday",
          "hours": "9\u202fam\u20137\u202fpm"
        },
        {
          "day": "Thursday",
          "hours": "9\u202fam\u20137\u202fpm"
        },
        {
          "day": "Friday",
          "hours": "9\u202fam\u20137\u202fpm"
        },
        {
          "day": "Saturday",
          "hours": "9\u202fam\u20132\u202fpm"
        },
        {
          "day": "Sunday",
          "hours": "Closed"
        }
      ]
    },
    "peopleAlsoSearch": [],
    "placesTags": [],
    "reviewsTags": [],
    "additionalInfo": {
      "From the business": [
        {
          "Identifies as Asian-owned": true
        },
        {
          "Small Business": true
        }
      ],
      "Service options": [
        {
          "Kerbside pickup": true
        },
        {
          "Delivery": true
        },
        {
          "In-store pick-up": true
        },
        {
          "In-store shopping": true
        },
        {
          "Same-day delivery": true
        }
      ],
      "Accessibility": [
        {
          "Wheelchair-accessible car park": true
        },
        {
          "Wheelchair-accessible entrance": true
        },
        {
          "Wheelchair-accessible seating": true
        },
        {
          "Wheelchair-accessible toilet": true
        }
      ],
      "Amenities": [
        {
          "Gender-neutral toilets": true
        },
        {
          "Wi-Fi": true
        },
        {
          "Free Wi-Fi": true
        }
      ],
      "Crowd": [
        {
          "LGBTQ+ friendly": true
        },
        {
          "Transgender safe space": true
        }
      ],
      "Planning": [
        {
          "Quick visit": true
        }
      ],
      "Payments": [
        {
          "Cheques": true
        },
        {
          "Credit cards": true
        },
        {
          "Debit cards": true
        },
        {
          "NFC mobile payments": true
        },
        {
          "Credit cards": true
        }
      ]
    },
    "gasPrices": [],
    "url": "https://www.google.com/maps/search/?api=1&query=Park%20Ave%20Pharmacy&query_place_id=ChIJP4zIh-RP5IkRvcjRekwMOwc",
    "searchPageUrl": "https://www.google.com/maps/search/independent%20pharmacy%20East%20Providence%20RI/@42.54640259466427,-80.15361988608069,8z?hl=en",
    "searchString": "independent pharmacy East Providence RI",
    "language": "en",
    "rank": 13,
    "isAdvertisement": false,
    "imageUrl": "https://lh3.googleusercontent.com/p/AF1QipNjhVwqWoLslYwL4KmMPNJxnGp7otfwsyDPwVCo=w426-h240-k-no",
    "kgmid": "/g/11tjlg2ht0",
    "classification": "independent",
    "is_independent": true,
    "is_compounding": false,
    "confidence": 0.9,
    "source": "perplexity",
    "method": "llm"
  },
  {
    "title": "CVS Pharmacy",
    "price": null,
    "categoryName": "Pharmacy",
    "address": "583 Taunton Ave, East Providence, RI 02914, United States",
    "neighborhood": null,
    "street": "583 Taunton Ave",
    "city": "East Providence",
    "postalCode": "02914",
    "state": "Rhode Island",
    "countryCode": "US",
    "website": "https://www.cvs.com/store-locator/east-providence-ri-pharmacies/583-taunton-avenue-east-providence-ri-02914/storeid=269?WT.mc_id=LS_GOOGLE_RX_269",
    "phone": "+1 401-434-2993",
    "phoneUnformatted": "+14014342993",
    "claimThisBusiness": false,
    "location": {
      "lat": 41.8204153,
      "lng": -71.3580361
    },
    "totalScore": 4,
    "permanentlyClosed": false,
    "temporarilyClosed": false,
    "placeId": null,
    "categories": [
      "Pharmacy"
    ],
    "fid": "0x89e45ae7e36396cf:0xb4b2548c895e6588",
    "cid": "13020562435258344840",
    "reviewsCount": 6,
    "imagesCount": 7,
    "imageCategories": [],
    "scrapedAt": "2025-06-22T09:32:02.454Z",
    "googleFoodUrl": null,
    "hotelAds": [],
    "openingHours": [
      {
        "day": "Monday",
        "hours": "9\u202fAM to 1:30\u202fPM, 2 to 7\u202fPM"
      },
      {
        "day": "Tuesday",
        "hours": "9\u202fAM to 1:30\u202fPM, 2 to 7\u202fPM"
      },
      {
        "day": "Wednesday",
        "hours": "9\u202fAM to 1:30\u202fPM, 2 to 7\u202fPM"
      },
      {
        "day": "Thursday",
        "hours": "9\u202fAM to 1:30\u202fPM, 2 to 7\u202fPM"
      },
      {
        "day": "Friday",
        "hours": "9\u202fAM to 1:30\u202fPM, 2 to 7\u202fPM"
      },
      {
        "day": "Saturday",
        "hours": "10\u202fAM to 1:30\u202fPM, 2 to 6\u202fPM"
      },
      {
        "day": "Sunday",
        "hours": "11\u202fAM to 1:30\u202fPM, 2 to 5\u202fPM"
      }
    ],
    "peopleAlsoSearch": [],
    "placesTags": [],
    "reviewsTags": [],
    "additionalInfo": {
      "Service options": [
        {
          "Delivery": true
        },
        {
          "In-store pick-up": true
        },
        {
          "In-store shopping": true
        },
        {
          "On-site services": true
        }
      ],
      "Accessibility": [
        {
          "Wheelchair-accessible car park": true
        },
        {
          "Wheelchair-accessible entrance": true
        }
      ],
      "Offerings": [
        {
          "Naloxone": true
        },
        {
          "Passport photos": true
        }
      ],
      "Crowd": [
        {
          "LGBTQ+ friendly": true
        },
        {
          "Transgender safe space": true
        }
      ],
      "Planning": [
        {
          "Quick visit": true
        }
      ],
      "Payments": [
        {
          "Credit cards": true
        },
        {
          "Debit cards": true
        },
        {
          "NFC mobile payments": true
        },
        {
          "SNAP/EBT": true
        },
        {
          "Credit cards": true
        }
      ]
    },
    "gasPrices": [],
    "url": "https://www.google.com/maps/search/?api=1&query=CVS%20Pharmacy&query_place_id=ChIJz5Zj4-da5IkRiGVeiYxUsrQ",
    "searchPageUrl": "https://www.google.com/maps/search/independent%20pharmacy%20East%20Providence%20RI/@42.54640259466427,-80.15361988608069,8z?hl=en",
    "searchString": "independent pharmacy East Providence RI",
    "language": "en",
    "rank": 14,
    "isAdvertisement": false,
    "imageUrl": "https://lh3.googleusercontent.com/p/AF1QipP8Vn57ZfzIS4aLiVonORLLQYnz2vU_XmzeYhBK=w408-h272-k-no",
    "kgmid": "/g/11c4675c5m",
    "classification": "chain",
    "is_independent": false,
    "is_compounding": false,
    "confidence": 1.0,
    "source": "perplexity",
    "method": "llm"
  },
  {
    "title": "JB Pharmacy & Compounding",
    "price": null,
    "categoryName": "Pharmacy",
    "address": "1165 Main Ave, Warwick, RI 02886, United States",
    "neighborhood": null,
    "street": "1165 Main Ave",
    "city": "Warwick",
    "postalCode": "02886",
    "state": "Rhode Island",
    "countryCode": "US",
    "website": "http://www.jbcompoundingpharmacy.com/",
    "phone": "+1 401-861-1194",
    "phoneUnformatted": "+14018611194",
    "claimThisBusiness": false,
    "location": {
      "lat": 41.7169372,
      "lng": -71.4617366
    },
    "totalScore": 3.8,
    "permanentlyClosed": false,
    "temporarilyClosed": false,
    "placeId": null,
    "categories": [
      "Pharmacy",
      "Health consultant",
      "Medical supply store",
      "Wellness program"
    ],
    "fid": "0x89e445b2e330afe9:0xca3c07a564aa068e",
    "cid": "14572530901203945102",
    "reviewsCount": 11,
    "imagesCount": 1,
    "imageCategories": [],
    "scrapedAt": "2025-06-22T09:32:02.454Z",
    "googleFoodUrl": null,
    "hotelAds": [],
    "openingHours": [
      {
        "day": "Monday",
        "hours": "9\u202fAM to 5\u202fPM"
      },
      {
        "day": "Tuesday",
        "hours": "9\u202fAM to 5\u202fPM"
      },
      {
        "day": "Wednesday",
        "hours": "9\u202fAM to 5\u202fPM"
      },
      {
        "day": "Thursday",
        "hours": "9\u202fAM to 5\u202fPM"
      },
      {
        "day": "Friday",
        "hours": "9\u202fAM to 5\u202fPM"
      },
      {
        "day": "Saturday",
        "hours": "9\u202fAM to 12\u202fPM"
      },
      {
        "day": "Sunday",
        "hours": "Closed"
      }
    ],
    "peopleAlsoSearch": [],
    "placesTags": [],
    "reviewsTags": [],
    "additionalInfo": {
      "From the business": [
        {
          "Small Business": true
        }
      ],
      "Service options": [
        {
          "Delivery": true
        },
        {
          "In-store pick-up": true
        }
      ],
      "Accessibility": [
        {
          "Wheelchair-accessible car park": true
        },
        {
          "Wheelchair-accessible entrance": true
        }
      ],
      "Planning": [
        {
          "Quick visit": true
        }
      ],
      "Payments": [
        {
          "Credit cards": true
        },
        {
          "Debit cards": true
        },
        {
          "NFC mobile payments": true
        },
        {
          "Credit cards": true
        }
      ]
    },
    "gasPrices": [],
    "url": "https://www.google.com/maps/search/?api=1&query=JB%20Pharmacy%20%26%20Compounding&query_place_id=ChIJ6a8w47JF5IkRjgaqZKUHPMo",
    "searchPageUrl": "https://www.google.com/maps/search/independent%20pharmacy%20East%20Providence%20RI/@42.54640259466427,-80.15361988608069,8z?hl=en",
    "searchString": "independent pharmacy East Providence RI",
    "language": "en",
    "rank": 15,
    "isAdvertisement": false,
    "imageUrl": "https://streetviewpixels-pa.googleapis.com/v1/thumbnail?panoid=-40ASkbZDkx08RLsC7RnlA&cb_client=search.gws-prod.gps&w=408&h=240&yaw=63.52382&pitch=0&thumbfov=100",
    "kgmid": "/g/1tg_h1xs",
    "classification": "independent",
    "is_independent": true,
    "is_compounding": true,
    "confidence": 0.95,
    "source": "perplexity",
    "method": "llm"
  },
  {
    "title": "Qol Meds",
    "price": null,
    "categoryName": "Pharmacy",
    "address": "101 Bacon St, Pawtucket, RI 02860, United States",
    "neighborhood": null,
    "street": "101 Bacon St",
    "city": "Pawtucket",
    "postalCode": "02860",
    "state": "Rhode Island",
    "countryCode": "US",
    "phone": "+1 401-722-0299",
    "phoneUnformatted": "+14017220299",
    "claimThisBusiness": true,
    "location": {
      "lat": 41.872079,
      "lng": -71.367219
    },
    "totalScore": 4,
    "permanentlyClosed": false,
    "temporarilyClosed": false,
    "placeId": null,
    "categories": [
      "Pharmacy"
    ],
    "fid": "0x89e45ca7031f4987:0x9e73824f9449c427",
    "cid": "11417612758616228903",
    "reviewsCount": 1,
    "imagesCount": 1,
    "imageCategories": [],
    "scrapedAt": "2025-06-22T09:32:02.454Z",
    "googleFoodUrl": null,
    "hotelAds": [],
    "openingHours": [
      {
        "day": "Monday",
        "hours": "8\u202fAM to 4:30\u202fPM"
      },
      {
        "day": "Tuesday",
        "hours": "8\u202fAM to 4:30\u202fPM"
      },
      {
        "day": "Wednesday",
        "hours": "8\u202fAM to 4:30\u202fPM"
      },
      {
        "day": "Thursday",
        "hours": "8\u202fAM to 4:30\u202fPM"
      },
      {
        "day": "Friday",
        "hours": "8\u202fAM to 4:30\u202fPM"
      },
      {
        "day": "Saturday",
        "hours": "Closed"
      },
      {
        "day": "Sunday",
        "hours": "Closed"
      }
    ],
    "peopleAlsoSearch": [],
    "placesTags": [],
    "reviewsTags": [],
    "additionalInfo": {
      "Accessibility": [
        {
          "Wheelchair-accessible car park": true
        }
      ]
    },
    "gasPrices": [],
    "url": "https://www.google.com/maps/search/?api=1&query=Qol%20Meds&query_place_id=ChIJh0kfA6dc5IkRJ8RJlE-Cc54",
    "searchPageUrl": "https://www.google.com/maps/search/independent%20pharmacy%20East%20Providence%20RI/@42.54640259466427,-80.15361988608069,8z?hl=en",
    "searchString": "independent pharmacy East Providence RI",
    "language": "en",
    "rank": 17,
    "isAdvertisement": false,
    "imageUrl": "https://streetviewpixels-pa.googleapis.com/v1/thumbnail?panoid=sWrIZCMjyTN2VALljbzA-Q&cb_client=search.gws-prod.gps&w=408&h=240&yaw=337.9208&pitch=0&thumbfov=100",
    "kgmid": "/g/1tgwby1m",
    "classification": "independent",
    "is_independent": true,
    "is_compounding": false,
    "confidence": 0.85,
    "source": "perplexity",
    "method": "llm"
  }
]