[
  {
    "title": "Powerhouse Pharmacy",
    "price": null,
    "categoryName": "Pharmacy",
    "address": "4740 W Mockingbird Ln #100B, Dallas, TX 75209",
    "neighborhood": null,
    "street": "4740 W Mockingbird Ln #100B",
    "city": "Dallas",
    "postalCode": "75209",
    "state": "Texas",
    "countryCode": "US",
    "website": "http://www.powerhousepharmacy.com/",
    "phone": "(214) 350-2900",
    "phoneUnformatted": "+12143502900",
    "claimThisBusiness": false,
    "location": {
      "lat": 32.8362466,
      "lng": -96.8278417
    },
    "totalScore": 4.4,
    "permanentlyClosed": false,
    "temporarilyClosed": false,
    "placeId": null,
    "categories": [
      "Pharmacy"
    ],
    "fid": "0x864e9c238ca08d37:0xd42262bf6bca0ebd",
    "cid": "15285888659535564477",
    "reviewsCount": 28,
    "imagesCount": 2,
    "imageCategories": [],
    "scrapedAt": "2025-06-22T06:42:15.959Z",
    "googleFoodUrl": null,
    "hotelAds": [],
    "openingHours": [
      {
        "day": "Monday",
        "hours": "9\u202fAM to 5:30\u202fPM"
      },
      {
        "day": "Tuesday",
        "hours": "9\u202fAM to 5:30\u202fPM"
      },
      {
        "day": "Wednesday",
        "hours": "9\u202fAM to 5:30\u202fPM"
      },
      {
        "day": "Thursday",
        "hours": "9\u202fAM to 5:30\u202fPM"
      },
      {
        "day": "Friday",
        "hours": "9\u202fAM to 5:30\u202fPM"
      },
      {
        "day": "Saturday",
        "hours": "Closed"
      },
      {
        "day": "Sunday",
        "hours": "Closed"
      }
    ],
    "peopleAlsoSearch": [],
    "placesTags": [],
    "reviewsTags": [],
    "additionalInfo": {
      "From the business": [
        {
          "Small business": true
        }
      ],
      "Service options": [
        {
          "Delivery": true
        },
        {
          "In-store pickup": true
        }
      ],
      "Accessibility": [
        {
          "Wheelchair accessible entrance": true
        },
        {
          "Wheelchair accessible parking lot": true
        }
      ],
      "Planning": [
        {
          "Quick visit": true
        }
      ],
      "Payments": [
        {
          "Credit cards": true
        }
      ]
    },
    "gasPrices": [],
    "url": "https://www.google.com/maps/search/?api=1&query=Powerhouse%20Pharmacy&query_place_id=ChIJN42gjCOcToYRvQ7Ka79iItQ",
    "searchPageUrl": "https://www.google.com/maps/search/independent%20pharmacy%20Dallas%20TX/@58.79025158634311,-139.3009231432406,9z?hl=en",
    "searchString": "independent pharmacy Dallas TX",
    "language": "en",
    "rank": 1,
    "isAdvertisement": false,
    "imageUrl": "https://lh3.googleusercontent.com/p/AF1QipMcUODeHRriOK5j7M7CdBObhfs3pXEfCOJ6Ofet=w408-h544-k-no",
    "kgmid": "/g/11f3j8tsmf",
    "classification": "independent",
    "is_independent": true,
    "is_compounding": false,
    "confidence": 0.85,
    "source": "perplexity",
    "method": "llm"
  },
  {
    "title": "Preston Road Apothecary Inc",
    "price": null,
    "categoryName": "Pharmacy",
    "address": "9301 N Central Expy #110, Dallas, TX 75231",
    "neighborhood": "North Dallas",
    "street": "9301 N Central Expy #110",
    "city": "Dallas",
    "postalCode": "75231",
    "state": "Texas",
    "countryCode": "US",
    "website": "https://www.mygnp.com/pharmacies/preston-road-apothecary-inc-dallas-tx-75231/?utm_source=google&utm_medium=local&utm_campaign=localmaps&utm_content=4541632",
    "phone": "(214) 361-6172",
    "phoneUnformatted": "+12143616172",
    "claimThisBusiness": false,
    "location": {
      "lat": 32.8750626,
      "lng": -96.7711485
    },
    "totalScore": 4,
    "permanentlyClosed": false,
    "temporarilyClosed": false,
    "placeId": null,
    "categories": [
      "Pharmacy",
      "Drug store"
    ],
    "fid": "0x864e9fc493ffc2f3:0x2662a00bc3092cf0",
    "cid": "2765949093536148720",
    "reviewsCount": 1,
    "imagesCount": 1,
    "imageCategories": [],
    "scrapedAt": "2025-06-22T06:42:15.960Z",
    "googleFoodUrl": null,
    "hotelAds": [],
    "openingHours": [
      {
        "day": "Monday",
        "hours": "8:30\u202fAM to 5:30\u202fPM"
      },
      {
        "day": "Tuesday",
        "hours": "8:30\u202fAM to 5:30\u202fPM"
      },
      {
        "day": "Wednesday",
        "hours": "8:30\u202fAM to 5:30\u202fPM"
      },
      {
        "day": "Thursday",
        "hours": "8:30\u202fAM to 5:30\u202fPM"
      },
      {
        "day": "Friday",
        "hours": "8:30\u202fAM to 5:30\u202fPM"
      },
      {
        "day": "Saturday",
        "hours": "Closed"
      },
      {
        "day": "Sunday",
        "hours": "Closed"
      }
    ],
    "peopleAlsoSearch": [],
    "placesTags": [],
    "reviewsTags": [],
    "additionalInfo": {
      "From the business": [
        {
          "Small business": true
        }
      ],
      "Service options": [
        {
          "Delivery": true
        },
        {
          "In-store pickup": true
        }
      ],
      "Accessibility": [
        {
          "Wheelchair accessible entrance": true
        },
        {
          "Wheelchair accessible parking lot": true
        }
      ],
      "Planning": [
        {
          "Quick visit": true
        }
      ],
      "Payments": [
        {
          "Credit cards": true
        },
        {
          "Debit cards": true
        },
        {
          "Credit cards": true
        }
      ]
    },
    "gasPrices": [],
    "url": "https://www.google.com/maps/search/?api=1&query=Preston%20Road%20Apothecary%20Inc&query_place_id=ChIJ88L_k8SfToYR8CwJwwugYiY",
    "searchPageUrl": "https://www.google.com/maps/search/independent%20pharmacy%20Dallas%20TX/@58.79025158634311,-139.3009231432406,9z?hl=en",
    "searchString": "independent pharmacy Dallas TX",
    "language": "en",
    "rank": 2,
    "isAdvertisement": false,
    "imageUrl": "https://streetviewpixels-pa.googleapis.com/v1/thumbnail?panoid=Bqj75UZy4MkcETkurT2RuA&cb_client=search.gws-prod.gps&w=408&h=240&yaw=274.43826&pitch=0&thumbfov=100",
    "kgmid": "/g/11lgm58kj3",
    "classification": "independent",
    "is_independent": true,
    "is_compounding": false,
    "confidence": 0.9,
    "source": "perplexity",
    "method": "llm"
  },
  {
    "title": "Preston Road Pharmacy",
    "price": null,
    "categoryName": "Pharmacy",
    "address": "6901 Preston Rd, Dallas, TX 75205",
    "neighborhood": "Park Cities",
    "street": "6901 Preston Rd",
    "city": "Dallas",
    "postalCode": "75205",
    "state": "Texas",
    "countryCode": "US",
    "website": "http://www.prestonroadpharmacy.com/",
    "phone": "(214) 521-9991",
    "phoneUnformatted": "+12145219991",
    "claimThisBusiness": false,
    "location": {
      "lat": 32.8493907,
      "lng": -96.8044798
    },
    "totalScore": 3.7,
    "permanentlyClosed": false,
    "temporarilyClosed": false,
    "placeId": null,
    "categories": [
      "Pharmacy",
      "Gift shop"
    ],
    "fid": "0x864e9e580b2b67fb:0x1f872c425f46cb00",
    "cid": "2271833200609643264",
    "reviewsCount": 60,
    "imagesCount": 3,
    "imageCategories": [],
    "scrapedAt": "2025-06-22T06:42:15.960Z",
    "googleFoodUrl": null,
    "hotelAds": [],
    "openingHours": [
      {
        "day": "Monday",
        "hours": "8\u202fAM to 7\u202fPM"
      },
      {
        "day": "Tuesday",
        "hours": "8\u202fAM to 7\u202fPM"
      },
      {
        "day": "Wednesday",
        "hours": "8\u202fAM to 7\u202fPM"
      },
      {
        "day": "Thursday",
        "hours": "8\u202fAM to 7\u202fPM"
      },
      {
        "day": "Friday",
        "hours": "8\u202fAM to 7\u202fPM"
      },
      {
        "day": "Saturday",
        "hours": "9\u202fAM to 4\u202fPM"
      },
      {
        "day": "Sunday",
        "hours": "Closed"
      }
    ],
    "peopleAlsoSearch": [],
    "placesTags": [],
    "reviewsTags": [],
    "additionalInfo": {
      "From the business": [
        {
          "Small business": true
        }
      ],
      "Service options": [
        {
          "Delivery": true
        },
        {
          "In-store pickup": true
        },
        {
          "Onsite services": true
        },
        {
          "Same-day delivery": true
        }
      ],
      "Accessibility": [
        {
          "Wheelchair accessible entrance": true
        },
        {
          "Wheelchair accessible parking lot": true
        }
      ],
      "Planning": [
        {
          "Quick visit": true
        }
      ],
      "Payments": [
        {
          "Credit cards": true
        },
        {
          "Debit cards": true
        },
        {
          "NFC mobile payments": true
        },
        {
          "Credit cards": true
        }
      ]
    },
    "gasPrices": [],
    "url": "https://www.google.com/maps/search/?api=1&query=Preston%20Road%20Pharmacy&query_place_id=ChIJ-2crC1ieToYRAMtGX0Ishx8",
    "searchPageUrl": "https://www.google.com/maps/search/independent%20pharmacy%20Dallas%20TX/@58.79025158634311,-139.3009231432406,9z?hl=en",
    "searchString": "independent pharmacy Dallas TX",
    "language": "en",
    "rank": 3,
    "isAdvertisement": false,
    "imageUrl": "https://streetviewpixels-pa.googleapis.com/v1/thumbnail?panoid=tDpV15NM3sDMrLYT9JK4gw&cb_client=search.gws-prod.gps&w=408&h=240&yaw=277.54315&pitch=0&thumbfov=100",
    "kgmid": "/g/1tdg_q4j",
    "classification": "independent",
    "is_independent": true,
    "is_compounding": false,
    "confidence": 0.9,
    "source": "perplexity",
    "method": "llm"
  },
  {
    "title": "KK's Pharmacy",
    "price": null,
    "categoryName": "Pharmacy",
    "address": "2480 W Illinois Ave, Dallas, TX 75233",
    "neighborhood": "Oak Cliff",
    "street": "2480 W Illinois Ave",
    "city": "Dallas",
    "postalCode": "75233",
    "state": "Texas",
    "countryCode": "US",
    "website": "https://www.mygnp.com/pharmacies/kks-pharmacy-51-dallas-tx-75233/?utm_source=google&utm_medium=local&utm_campaign=localmaps&utm_content=5904493",
    "phone": "(214) 337-7770",
    "phoneUnformatted": "+12143377770",
    "claimThisBusiness": false,
    "location": {
      "lat": 32.7195469,
      "lng": -96.8587179
    },
    "totalScore": 4.8,
    "permanentlyClosed": false,
    "temporarilyClosed": false,
    "placeId": null,
    "categories": [
      "Pharmacy",
      "Drug store"
    ],
    "fid": "0x864e9a72fbabd165:0x2fad13e8e67d244",
    "cid": "214713998860866116",
    "reviewsCount": 24,
    "imagesCount": 6,
    "imageCategories": [],
    "scrapedAt": "2025-06-22T06:42:15.960Z",
    "googleFoodUrl": null,
    "hotelAds": [],
    "openingHours": [
      {
        "day": "Monday",
        "hours": "9\u202fAM to 7\u202fPM"
      },
      {
        "day": "Tuesday",
        "hours": "9\u202fAM to 7\u202fPM"
      },
      {
        "day": "Wednesday",
        "hours": "9\u202fAM to 7\u202fPM"
      },
      {
        "day": "Thursday",
        "hours": "9\u202fAM to 7\u202fPM"
      },
      {
        "day": "Friday",
        "hours": "9\u202fAM to 7\u202fPM"
      },
      {
        "day": "Saturday",
        "hours": "9\u202fAM to 2\u202fPM"
      },
      {
        "day": "Sunday",
        "hours": "Closed"
      }
    ],
    "peopleAlsoSearch": [],
    "placesTags": [],
    "reviewsTags": [],
    "additionalInfo": {
      "Service options": [
        {
          "Curbside pickup": true
        },
        {
          "Delivery": true
        },
        {
          "In-store pickup": true
        },
        {
          "In-store shopping": true
        },
        {
          "Same-day delivery": true
        }
      ],
      "Accessibility": [
        {
          "Wheelchair accessible entrance": true
        },
        {
          "Wheelchair accessible parking lot": true
        }
      ],
      "Planning": [
        {
          "Quick visit": true
        }
      ],
      "Payments": [
        {
          "Credit cards": true
        },
        {
          "Debit cards": true
        },
        {
          "NFC mobile payments": true
        },
        {
          "Credit cards": true
        }
      ]
    },
    "gasPrices": [],
    "url": "https://www.google.com/maps/search/?api=1&query=KK's%20Pharmacy&query_place_id=ChIJZdGr-3KaToYRRNJnjj7R-gI",
    "searchPageUrl": "https://www.google.com/maps/search/independent%20pharmacy%20Dallas%20TX/@58.79025158634311,-139.3009231432406,9z?hl=en",
    "searchString": "independent pharmacy Dallas TX",
    "language": "en",
    "rank": 4,
    "isAdvertisement": false,
    "imageUrl": "https://lh3.googleusercontent.com/p/AF1QipOIfk6UqcJg9-gtLNYHxvoP2i1WeIxJBgahjWsx=w408-h306-k-no",
    "kgmid": "/g/1260wp3bf",
    "classification": "independent",
    "is_independent": true,
    "is_compounding": false,
    "confidence": 0.9,
    "source": "perplexity",
    "method": "llm"
  },
  {
    "title": "M & M Pharmacy",
    "price": null,
    "categoryName": "Pharmacy",
    "address": "8150 Brookriver Dr #107, Dallas, TX 75247",
    "neighborhood": null,
    "street": "8150 Brookriver Dr #107",
    "city": "Dallas",
    "postalCode": "75247",
    "state": "Texas",
    "countryCode": "US",
    "phone": "(469) 547-2419",
    "phoneUnformatted": "+14695472419",
    "claimThisBusiness": false,
    "location": {
      "lat": 32.8234256,
      "lng": -96.8677505
    },
    "totalScore": 3.7,
    "permanentlyClosed": false,
    "temporarilyClosed": false,
    "placeId": null,
    "categories": [
      "Pharmacy",
      "Drug store"
    ],
    "fid": "0x864e9c5d53449f9d:0xdd2a9c75160d957a",
    "cid": "15936722258099017082",
    "reviewsCount": 54,
    "imagesCount": 7,
    "imageCategories": [],
    "scrapedAt": "2025-06-22T06:42:15.961Z",
    "googleFoodUrl": null,
    "hotelAds": [],
    "openingHours": [],
    "peopleAlsoSearch": [],
    "placesTags": [],
    "reviewsTags": [],
    "additionalInfo": {
      "Service options": [
        {
          "Delivery": true
        },
        {
          "In-store pickup": true
        },
        {
          "In-store shopping": true
        },
        {
          "Same-day delivery": true
        }
      ],
      "Accessibility": [
        {
          "Wheelchair accessible entrance": true
        },
        {
          "Wheelchair accessible parking lot": true
        }
      ],
      "Planning": [
        {
          "Quick visit": true
        }
      ],
      "Payments": [
        {
          "Credit cards": true
        },
        {
          "Debit cards": true
        },
        {
          "Credit cards": true
        }
      ]
    },
    "gasPrices": [],
    "url": "https://www.google.com/maps/search/?api=1&query=M%20%26%20M%20Pharmacy&query_place_id=ChIJnZ9EU12cToYRepUNFnWcKt0",
    "searchPageUrl": "https://www.google.com/maps/search/independent%20pharmacy%20Dallas%20TX/@58.79025158634311,-139.3009231432406,9z?hl=en",
    "searchString": "independent pharmacy Dallas TX",
    "language": "en",
    "rank": 5,
    "isAdvertisement": false,
    "imageUrl": "https://lh3.googleusercontent.com/p/AF1QipOU3GpAwptfFets7TBNCPUIgV_HBo24JW4x1-ns=w408-h306-k-no",
    "kgmid": "/g/11bbt9861w",
    "classification": "independent",
    "is_independent": true,
    "is_compounding": false,
    "confidence": 0.85,
    "source": "perplexity",
    "method": "llm"
  },
  {
    "title": "Devonshire Pharmacy",
    "price": null,
    "categoryName": "Pharmacy",
    "address": "5445 La Sierra Dr Suite 105, Dallas, TX 75231",
    "neighborhood": "Vickery Meadow",
    "street": "5445 La Sierra Dr Suite 105",
    "city": "Dallas",
    "postalCode": "75231",
    "state": "Texas",
    "countryCode": "US",
    "website": "https://devonshirepharmacy.com/",
    "phone": "(469) 267-7762",
    "phoneUnformatted": "+14692677762",
    "claimThisBusiness": true,
    "location": {
      "lat": 32.8846302,
      "lng": -96.7677183
    },
    "totalScore": 4,
    "permanentlyClosed": false,
    "temporarilyClosed": false,
    "placeId": null,
    "categories": [
      "Pharmacy"
    ],
    "fid": "0x864e9fe8826aaaab:0x13e2b5cee345a480",
    "cid": "1432907531638121600",
    "reviewsCount": 8,
    "imagesCount": 4,
    "imageCategories": [],
    "scrapedAt": "2025-06-22T06:42:15.961Z",
    "googleFoodUrl": null,
    "hotelAds": [],
    "openingHours": [
      {
        "day": "Monday",
        "hours": "8\u202fAM to 6\u202fPM"
      },
      {
        "day": "Tuesday",
        "hours": "8\u202fAM to 6\u202fPM"
      },
      {
        "day": "Wednesday",
        "hours": "8\u202fAM to 6\u202fPM"
      },
      {
        "day": "Thursday",
        "hours": "8\u202fAM to 6\u202fPM"
      },
      {
        "day": "Friday",
        "hours": "8\u202fAM to 6\u202fPM"
      },
      {
        "day": "Saturday",
        "hours": "Closed"
      },
      {
        "day": "Sunday",
        "hours": "Closed"
      }
    ],
    "peopleAlsoSearch": [],
    "placesTags": [],
    "reviewsTags": [],
    "additionalInfo": {
      "Service options": [
        {
          "Delivery": true
        }
      ],
      "Accessibility": [
        {
          "Wheelchair accessible entrance": true
        },
        {
          "Wheelchair accessible parking lot": true
        }
      ],
      "Payments": [
        {
          "Credit cards": true
        },
        {
          "Debit cards": true
        },
        {
          "Credit cards": true
        }
      ]
    },
    "gasPrices": [],
    "url": "https://www.google.com/maps/search/?api=1&query=Devonshire%20Pharmacy&query_place_id=ChIJq6pqguifToYRgKRF48614hM",
    "searchPageUrl": "https://www.google.com/maps/search/independent%20pharmacy%20Dallas%20TX/@58.79025158634311,-139.3009231432406,9z?hl=en",
    "searchString": "independent pharmacy Dallas TX",
    "language": "en",
    "rank": 6,
    "isAdvertisement": false,
    "imageUrl": "https://lh3.googleusercontent.com/gps-cs-s/AC9h4npS6lTDDwTY__aDZvZWU8LulLTFK7xbJ3mVO8-evftJSinhkkUl3vaXOvd1tv3Amef3xcXaTZo2akdQIqvw1EJmXFEWnbyST_raqQUpnOxhiia9syuXh2VPuCKd3PUo_oeXH08W=w408-h544-k-no",
    "kgmid": "/g/11g0k0xscl",
    "classification": "independent",
    "is_independent": true,
    "is_compounding": false,
    "confidence": 0.9,
    "source": "perplexity",
    "method": "llm"
  },
  {
    "title": "Meridian Pharmacy",
    "price": null,
    "categoryName": "Pharmacy",
    "address": "1120 E Pleasant Run Rd Suite 405, DeSoto, TX 75115",
    "neighborhood": null,
    "street": "1120 E Pleasant Run Rd Suite 405",
    "city": "DeSoto",
    "postalCode": "75115",
    "state": "Texas",
    "countryCode": "US",
    "website": "https://www.mygnp.com/pharmacies/meridian-pharmacy-dallas-tx-75218/?utm_source=google&utm_medium=local&utm_campaign=localmaps&utm_content=4535677",
    "phone": "(214) 333-1600",
    "phoneUnformatted": "+12143331600",
    "claimThisBusiness": false,
    "location": {
      "lat": 32.6038614,
      "lng": -96.8289195
    },
    "totalScore": 3.7,
    "permanentlyClosed": false,
    "temporarilyClosed": false,
    "placeId": null,
    "categories": [
      "Pharmacy",
      "Drug store"
    ],
    "fid": "0x864ea17234010901:0x6b3ad50c4bdfa399",
    "cid": "7726722359496778649",
    "reviewsCount": 3,
    "imagesCount": 7,
    "imageCategories": [],
    "scrapedAt": "2025-06-22T06:42:15.961Z",
    "googleFoodUrl": null,
    "hotelAds": [],
    "openingHours": [
      {
        "day": "Monday",
        "hours": "9\u202fAM to 5\u202fPM"
      },
      {
        "day": "Tuesday",
        "hours": "9\u202fAM to 5\u202fPM"
      },
      {
        "day": "Wednesday",
        "hours": "9\u202fAM to 5\u202fPM"
      },
      {
        "day": "Thursday",
        "hours": "9\u202fAM to 5\u202fPM"
      },
      {
        "day": "Friday",
        "hours": "9\u202fAM to 5\u202fPM"
      },
      {
        "day": "Saturday",
        "hours": "Closed"
      },
      {
        "day": "Sunday",
        "hours": "Closed"
      }
    ],
    "peopleAlsoSearch": [],
    "placesTags": [],
    "reviewsTags": [],
    "additionalInfo": {
      "Service options": [
        {
          "Delivery": true
        },
        {
          "In-store pickup": true
        },
        {
          "In-store shopping": true
        }
      ],
      "Accessibility": [
        {
          "Wheelchair accessible entrance": true
        },
        {
          "Wheelchair accessible parking lot": true
        }
      ],
      "Planning": [
        {
          "Quick visit": true
        }
      ],
      "Payments": [
        {
          "Credit cards": true
        }
      ]
    },
    "gasPrices": [],
    "url": "https://www.google.com/maps/search/?api=1&query=Meridian%20Pharmacy&query_place_id=ChIJAQkBNHKhToYRmaPfSwzVOms",
    "searchPageUrl": "https://www.google.com/maps/search/independent%20pharmacy%20Dallas%20TX/@58.79025158634311,-139.3009231432406,9z?hl=en",
    "searchString": "independent pharmacy Dallas TX",
    "language": "en",
    "rank": 7,
    "isAdvertisement": false,
    "imageUrl": "https://lh3.googleusercontent.com/p/AF1QipMBs7yZU7RV_ipC6e-Cg9KIALvWTVCF6dK-V9u_=w408-h306-k-no",
    "kgmid": "/g/11gh2sp1yb",
    "classification": "independent",
    "is_independent": true,
    "is_compounding": false,
    "confidence": 0.9,
    "source": "perplexity",
    "method": "llm"
  },
  {
    "title": "Cedra Pharmacy",
    "price": null,
    "categoryName": "Pharmacy",
    "address": "9669 N Central Expy #190, Dallas, TX 75231",
    "neighborhood": "North Dallas",
    "street": "9669 N Central Expy #190",
    "city": "Dallas",
    "postalCode": "75231",
    "state": "Texas",
    "countryCode": "US",
    "website": "http://cedrapharmacy.com/",
    "phone": "(214) 983-1000",
    "phoneUnformatted": "+12149831000",
    "claimThisBusiness": false,
    "location": {
      "lat": 32.8796836,
      "lng": -96.7715793
    },
    "totalScore": 4.7,
    "permanentlyClosed": false,
    "temporarilyClosed": false,
    "placeId": null,
    "categories": [
      "Pharmacy"
    ],
    "fid": "0x864e9fc2050f2597:0xe774f694671c08c",
    "cid": "1042389152331579532",
    "reviewsCount": 61,
    "imagesCount": 13,
    "imageCategories": [],
    "scrapedAt": "2025-06-22T06:42:15.961Z",
    "googleFoodUrl": null,
    "hotelAds": [],
    "openingHours": [
      {
        "day": "Monday",
        "hours": "9\u202fAM to 6\u202fPM"
      },
      {
        "day": "Tuesday",
        "hours": "9\u202fAM to 6\u202fPM"
      },
      {
        "day": "Wednesday",
        "hours": "9\u202fAM to 6\u202fPM"
      },
      {
        "day": "Thursday",
        "hours": "9\u202fAM to 6\u202fPM"
      },
      {
        "day": "Friday",
        "hours": "9\u202fAM to 6\u202fPM"
      },
      {
        "day": "Saturday",
        "hours": "9\u202fAM to 2\u202fPM"
      },
      {
        "day": "Sunday",
        "hours": "Closed"
      }
    ],
    "peopleAlsoSearch": [],
    "placesTags": [],
    "reviewsTags": [],
    "additionalInfo": {
      "Service options": [
        {
          "Curbside pickup": true
        },
        {
          "Delivery": true
        },
        {
          "In-store pickup": true
        },
        {
          "In-store shopping": true
        },
        {
          "Same-day delivery": true
        },
        {
          "Filipino": true
        }
      ],
      "Accessibility": [
        {
          "Wheelchair accessible entrance": true
        },
        {
          "Wheelchair accessible parking lot": true
        }
      ],
      "Payments": [
        {
          "Checks": true
        },
        {
          "Credit cards": true
        },
        {
          "Debit cards": true
        },
        {
          "NFC mobile payments": true
        },
        {
          "Credit cards": true
        }
      ],
      "Parking": [
        {
          "Free parking lot": true
        }
      ]
    },
    "gasPrices": [],
    "url": "https://www.google.com/maps/search/?api=1&query=Cedra%20Pharmacy&query_place_id=ChIJlyUPBcKfToYRjMBxRmlPdw4",
    "searchPageUrl": "https://www.google.com/maps/search/independent%20pharmacy%20Dallas%20TX/@58.79025158634311,-139.3009231432406,9z?hl=en",
    "searchString": "independent pharmacy Dallas TX",
    "language": "en",
    "rank": 8,
    "isAdvertisement": false,
    "imageUrl": "https://lh3.googleusercontent.com/gps-cs-s/AC9h4nrYUHB5I0lrVQSdR8jSG4qHUIkFz-og8G9TWy9LaX1triqb2MUqii_RgDgPT1yymi51SN8TJwCeu2X8V13Tf-SKfYaDoppKfSEF-r-dFLLKzp-5mldSCxsbjmndE6sacl1B9vDt=w408-h272-k-no",
    "kgmid": "/g/11c2j7yfwn",
    "classification": "independent",
    "is_independent": true,
    "is_compounding": false,
    "confidence": 0.9,
    "source": "perplexity",
    "method": "llm"
  },
  {
    "title": "Uptown Rx Pharmacy & Nutrition",
    "price": null,
    "categoryName": "Pharmacy",
    "address": "3408 Oak Lawn Ave, Dallas, TX 75219",
    "neighborhood": "Oak Lawn",
    "street": "3408 Oak Lawn Ave",
    "city": "Dallas",
    "postalCode": "75219",
    "state": "Texas",
    "countryCode": "US",
    "website": "https://www.uptownrxpharmacy.com/",
    "phone": "(214) 935-9092",
    "phoneUnformatted": "+12149359092",
    "claimThisBusiness": false,
    "location": {
      "lat": 32.8111186,
      "lng": -96.8062018
    },
    "totalScore": 4.9,
    "permanentlyClosed": false,
    "temporarilyClosed": false,
    "placeId": null,
    "categories": [
      "Pharmacy",
      "Health and beauty shop",
      "Health consultant",
      "Herbal medicine store",
      "Vitamin & supplements store"
    ],
    "fid": "0x864e9f2db5cca6a1:0x58afb0d0b029c3b0",
    "cid": "6390520806617236400",
    "reviewsCount": 63,
    "imagesCount": 48,
    "imageCategories": [],
    "scrapedAt": "2025-06-22T06:42:15.961Z",
    "googleFoodUrl": null,
    "hotelAds": [],
    "openingHours": [
      {
        "day": "Monday",
        "hours": "9\u202fAM to 6\u202fPM"
      },
      {
        "day": "Tuesday",
        "hours": "9\u202fAM to 6\u202fPM"
      },
      {
        "day": "Wednesday",
        "hours": "9\u202fAM to 6\u202fPM"
      },
      {
        "day": "Thursday",
        "hours": "9\u202fAM to 6\u202fPM"
      },
      {
        "day": "Friday",
        "hours": "9\u202fAM to 6\u202fPM"
      },
      {
        "day": "Saturday",
        "hours": "Closed"
      },
      {
        "day": "Sunday",
        "hours": "Closed"
      }
    ],
    "peopleAlsoSearch": [],
    "placesTags": [],
    "reviewsTags": [],
    "additionalInfo": {
      "From the business": [
        {
          "Small business": true
        }
      ],
      "Service options": [
        {
          "Curbside pickup": true
        },
        {
          "Delivery": true
        },
        {
          "In-store pickup": true
        },
        {
          "In-store shopping": true
        },
        {
          "Onsite services": true
        },
        {
          "Same-day delivery": true
        }
      ],
      "Accessibility": [
        {
          "Wheelchair accessible entrance": true
        },
        {
          "Wheelchair accessible parking lot": true
        }
      ],
      "Planning": [
        {
          "Quick visit": true
        }
      ],
      "Payments": [
        {
          "Credit cards": true
        },
        {
          "Debit cards": true
        },
        {
          "NFC mobile payments": true
        },
        {
          "Credit cards": true
        }
      ]
    },
    "gasPrices": [],
    "url": "https://www.google.com/maps/search/?api=1&query=Uptown%20Rx%20Pharmacy%20%26%20Nutrition&query_place_id=ChIJoabMtS2fToYRsMMpsNCwr1g",
    "searchPageUrl": "https://www.google.com/maps/search/independent%20pharmacy%20Dallas%20TX/@58.79025158634311,-139.3009231432406,9z?hl=en",
    "searchString": "independent pharmacy Dallas TX",
    "language": "en",
    "rank": 9,
    "isAdvertisement": false,
    "imageUrl": "https://lh3.googleusercontent.com/p/AF1QipMBFlVqg9CQkFqqqOnUiVMOLnnpBLofjFmTgUVz=w408-h240-k-no",
    "kgmid": "/g/11f7922n5p",
    "classification": "independent",
    "is_independent": true,
    "is_compounding": false,
    "confidence": 0.9,
    "source": "perplexity",
    "method": "llm"
  },
  {
    "title": "RED BIRD PHARMACY",
    "price": null,
    "categoryName": "Pharmacy",
    "address": "1251 E Red Bird Ln #120, Dallas, TX 75241",
    "neighborhood": null,
    "street": "1251 E Red Bird Ln #120",
    "city": "Dallas",
    "postalCode": "75241",
    "state": "Texas",
    "countryCode": "US",
    "phone": "(972) 982-2970",
    "phoneUnformatted": "+19729822970",
    "claimThisBusiness": false,
    "location": {
      "lat": 32.6752919,
      "lng": -96.8045285
    },
    "totalScore": 4.7,
    "permanentlyClosed": false,
    "temporarilyClosed": false,
    "placeId": null,
    "categories": [
      "Pharmacy"
    ],
    "fid": "0x864e971b67955555:0x816683542520e68c",
    "cid": "9324284475940595340",
    "reviewsCount": 27,
    "imagesCount": 1,
    "imageCategories": [],
    "scrapedAt": "2025-06-22T06:42:15.962Z",
    "googleFoodUrl": null,
    "hotelAds": [],
    "openingHours": [
      {
        "day": "Monday",
        "hours": "9\u202fAM to 5\u202fPM"
      },
      {
        "day": "Tuesday",
        "hours": "9\u202fAM to 5\u202fPM"
      },
      {
        "day": "Wednesday",
        "hours": "9\u202fAM to 5\u202fPM"
      },
      {
        "day": "Thursday",
        "hours": "9\u202fAM to 5\u202fPM"
      },
      {
        "day": "Friday",
        "hours": "9\u202fAM to 5\u202fPM"
      },
      {
        "day": "Saturday",
        "hours": "Closed"
      },
      {
        "day": "Sunday",
        "hours": "Closed"
      }
    ],
    "peopleAlsoSearch": [],
    "placesTags": [],
    "reviewsTags": [],
    "additionalInfo": {
      "From the business": [
        {
          "Small business": true
        }
      ],
      "Service options": [
        {
          "Delivery": true
        },
        {
          "In-store shopping": true
        }
      ],
      "Accessibility": [
        {
          "Wheelchair accessible entrance": true
        },
        {
          "Wheelchair accessible parking lot": true
        },
        {
          "Wheelchair accessible seating": true
        },
        {
          "Wheelchair accessible restroom": false
        }
      ],
      "Crowd": [
        {
          "LGBTQ+ friendly": true
        },
        {
          "Transgender safespace": true
        }
      ],
      "Planning": [
        {
          "Quick visit": true
        }
      ],
      "Payments": [
        {
          "Credit cards": true
        },
        {
          "Debit cards": true
        },
        {
          "NFC mobile payments": true
        },
        {
          "Credit cards": true
        }
      ]
    },
    "gasPrices": [],
    "url": "https://www.google.com/maps/search/?api=1&query=RED%20BIRD%20PHARMACY&query_place_id=ChIJVVWVZxuXToYRjOYgJVSDZoE",
    "searchPageUrl": "https://www.google.com/maps/search/independent%20pharmacy%20Dallas%20TX/@58.79025158634311,-139.3009231432406,9z?hl=en",
    "searchString": "independent pharmacy Dallas TX",
    "language": "en",
    "rank": 10,
    "isAdvertisement": false,
    "imageUrl": "https://streetviewpixels-pa.googleapis.com/v1/thumbnail?panoid=bmZ1GxS_1ihUcjL7H0dxIA&cb_client=search.gws-prod.gps&w=408&h=240&yaw=107.14587&pitch=0&thumbfov=100",
    "kgmid": "/g/11fx9bms1j",
    "classification": "independent",
    "is_independent": true,
    "is_compounding": false,
    "confidence": 0.85,
    "source": "perplexity",
    "method": "llm"
  },
  {
    "title": "Buckner Neighborhood Pharmacy",
    "price": null,
    "categoryName": "Pharmacy",
    "address": "3535 N Buckner Blvd #106, Dallas, TX 75228",
    "neighborhood": null,
    "street": "3535 N Buckner Blvd #106",
    "city": "Dallas",
    "postalCode": "75228",
    "state": "Texas",
    "countryCode": "US",
    "website": "https://bucknerpharmacy.com/",
    "phone": "(214) 321-3000",
    "phoneUnformatted": "+12143213000",
    "claimThisBusiness": true,
    "location": {
      "lat": 32.8031287,
      "lng": -96.6831582
    },
    "totalScore": 4.8,
    "permanentlyClosed": false,
    "temporarilyClosed": false,
    "placeId": null,
    "categories": [
      "Pharmacy"
    ],
    "fid": "0x864ea3e71a62a8c7:0xb63ddc38871db270",
    "cid": "13131894223825384048",
    "reviewsCount": 34,
    "imagesCount": 6,
    "imageCategories": [],
    "scrapedAt": "2025-06-22T06:42:15.962Z",
    "googleFoodUrl": null,
    "hotelAds": [],
    "openingHours": [
      {
        "day": "Monday",
        "hours": "9\u202fAM to 6\u202fPM"
      },
      {
        "day": "Tuesday",
        "hours": "9\u202fAM to 6\u202fPM"
      },
      {
        "day": "Wednesday",
        "hours": "9\u202fAM to 6\u202fPM"
      },
      {
        "day": "Thursday",
        "hours": "9\u202fAM to 6\u202fPM"
      },
      {
        "day": "Friday",
        "hours": "9\u202fAM to 6\u202fPM"
      },
      {
        "day": "Saturday",
        "hours": "Closed"
      },
      {
        "day": "Sunday",
        "hours": "Closed"
      }
    ],
    "peopleAlsoSearch": [],
    "placesTags": [],
    "reviewsTags": [],
    "additionalInfo": {
      "Service options": [
        {
          "Delivery": true
        }
      ],
      "Accessibility": [
        {
          "Wheelchair accessible entrance": true
        },
        {
          "Wheelchair accessible parking lot": true
        }
      ],
      "Amenities": [
        {
          "Wi-Fi": true
        },
        {
          "Free Wi-Fi": true
        }
      ],
      "Planning": [
        {
          "Quick visit": true
        }
      ],
      "Payments": [
        {
          "Credit cards": true
        },
        {
          "Debit cards": true
        },
        {
          "NFC mobile payments": true
        },
        {
          "Credit cards": true
        }
      ]
    },
    "gasPrices": [],
    "url": "https://www.google.com/maps/search/?api=1&query=Buckner%20Neighborhood%20Pharmacy&query_place_id=ChIJx6hiGuejToYRcLIdhzjcPbY",
    "searchPageUrl": "https://www.google.com/maps/search/independent%20pharmacy%20Dallas%20TX/@58.79025158634311,-139.3009231432406,9z?hl=en",
    "searchString": "independent pharmacy Dallas TX",
    "language": "en",
    "rank": 11,
    "isAdvertisement": false,
    "imageUrl": "https://lh3.googleusercontent.com/gps-cs-s/AC9h4nrOXIu1-UvRCE_t2bb-UU-lC6EwC362evJh29FgwwXwhjnALan4COxSUrmV9Ovo3IsTfjcb4VdNqzQNyTlkZMq2gKsiCq9eLuSQdrL52COMVPkoti9hCmBdsmFsIJk9mjz1ltm-9A=w408-h544-k-no",
    "kgmid": "/g/11c56hff36",
    "classification": "independent",
    "is_independent": true,
    "is_compounding": false,
    "confidence": 0.9,
    "source": "perplexity",
    "method": "llm"
  },
  {
    "title": "Preston Village Pharmacy",
    "price": null,
    "categoryName": "Pharmacy",
    "address": "12606 Greenville Ave, Dallas, TX 75243",
    "neighborhood": "Lake Highlands",
    "street": "12606 Greenville Ave",
    "city": "Dallas",
    "postalCode": "75243",
    "state": "Texas",
    "countryCode": "US",
    "phone": "(972) 866-0017",
    "phoneUnformatted": "+19728660017",
    "claimThisBusiness": false,
    "location": {
      "lat": 32.9183761,
      "lng": -96.7416386
    },
    "totalScore": 4.4,
    "permanentlyClosed": false,
    "temporarilyClosed": false,
    "placeId": null,
    "categories": [
      "Pharmacy"
    ],
    "fid": "0x864c1ff33c0cdf67:0x5526f0e3656a08b2",
    "cid": "6135856401788569778",
    "reviewsCount": 12,
    "imagesCount": 1,
    "imageCategories": [],
    "scrapedAt": "2025-06-22T06:42:15.962Z",
    "googleFoodUrl": null,
    "hotelAds": [],
    "openingHours": [
      {
        "day": "Monday",
        "hours": "8\u202fAM to 5\u202fPM"
      },
      {
        "day": "Tuesday",
        "hours": "8\u202fAM to 5\u202fPM"
      },
      {
        "day": "Wednesday",
        "hours": "8\u202fAM to 5\u202fPM"
      },
      {
        "day": "Thursday",
        "hours": "8\u202fAM to 7\u202fPM"
      },
      {
        "day": "Friday",
        "hours": "8\u202fAM to 5\u202fPM"
      },
      {
        "day": "Saturday",
        "hours": "Closed"
      },
      {
        "day": "Sunday",
        "hours": "Closed"
      }
    ],
    "peopleAlsoSearch": [],
    "placesTags": [],
    "reviewsTags": [],
    "additionalInfo": {
      "From the business": [
        {
          "Small business": true
        }
      ],
      "Accessibility": [
        {
          "Wheelchair accessible entrance": true
        },
        {
          "Wheelchair accessible parking lot": true
        }
      ],
      "Offerings": [
        {
          "Medication disposal": true
        }
      ],
      "Payments": [
        {
          "Credit cards": true
        },
        {
          "Debit cards": true
        },
        {
          "NFC mobile payments": true
        },
        {
          "Credit cards": true
        }
      ]
    },
    "gasPrices": [],
    "url": "https://www.google.com/maps/search/?api=1&query=Preston%20Village%20Pharmacy&query_place_id=ChIJZ98MPPMfTIYRsghqZePwJlU",
    "searchPageUrl": "https://www.google.com/maps/search/independent%20pharmacy%20Dallas%20TX/@58.79025158634311,-139.3009231432406,9z?hl=en",
    "searchString": "independent pharmacy Dallas TX",
    "language": "en",
    "rank": 12,
    "isAdvertisement": false,
    "imageUrl": "https://streetviewpixels-pa.googleapis.com/v1/thumbnail?panoid=Rz0h6ZRlvdRhvO-WA5q2jw&cb_client=search.gws-prod.gps&w=408&h=240&yaw=106.18073&pitch=0&thumbfov=100",
    "kgmid": "/g/1tdqbzrz",
    "classification": "independent",
    "is_independent": true,
    "is_compounding": false,
    "confidence": 0.85,
    "source": "perplexity",
    "method": "llm"
  },
  {
    "title": "Oak Lawn Pharmacy",
    "price": null,
    "categoryName": "Pharmacy",
    "address": "4003 Lemmon Ave, Dallas, TX 75219",
    "neighborhood": "Oak Lawn",
    "street": "4003 Lemmon Ave",
    "city": "Dallas",
    "postalCode": "75219",
    "state": "Texas",
    "countryCode": "US",
    "website": "http://www.oaklawnpharmacy.com/?utm_source=localsearch&utm_medium=organic&utm_campaign=googlemybusiness",
    "phone": "(214) 954-7389",
    "phoneUnformatted": "+12149547389",
    "claimThisBusiness": false,
    "location": {
      "lat": 32.8135951,
      "lng": -96.8084072
    },
    "totalScore": 4.8,
    "permanentlyClosed": false,
    "temporarilyClosed": false,
    "placeId": null,
    "categories": [
      "Pharmacy",
      "Drug store",
      "Pharmaceutical company",
      "Pharmaceutical products wholesaler",
      "Specialized clinic"
    ],
    "fid": "0x864e993296718c19:0xf236dcd40ced7edc",
    "cid": "17453380209229004508",
    "reviewsCount": 85,
    "imagesCount": 20,
    "imageCategories": [],
    "scrapedAt": "2025-06-22T06:42:15.962Z",
    "googleFoodUrl": null,
    "hotelAds": [],
    "openingHours": [
      {
        "day": "Monday",
        "hours": "9\u202fAM to 7\u202fPM"
      },
      {
        "day": "Tuesday",
        "hours": "9\u202fAM to 7\u202fPM"
      },
      {
        "day": "Wednesday",
        "hours": "9\u202fAM to 7\u202fPM"
      },
      {
        "day": "Thursday",
        "hours": "9\u202fAM to 7\u202fPM"
      },
      {
        "day": "Friday",
        "hours": "9\u202fAM to 7\u202fPM"
      },
      {
        "day": "Saturday",
        "hours": "Closed"
      },
      {
        "day": "Sunday",
        "hours": "Closed"
      }
    ],
    "peopleAlsoSearch": [],
    "placesTags": [],
    "reviewsTags": [],
    "additionalInfo": {
      "From the business": [
        {
          "Identifies as Latino-owned": true
        },
        {
          "Identifies as LGBTQ+ owned": true
        },
        {
          "Identifies as women-owned": true
        },
        {
          "Small business": true
        }
      ],
      "Service options": [
        {
          "Curbside pickup": true
        },
        {
          "Delivery": true
        },
        {
          "In-store pickup": true
        },
        {
          "In-store shopping": true
        },
        {
          "Same-day delivery": true
        },
        {
          "Arabic": true
        }
      ],
      "Accessibility": [
        {
          "Wheelchair accessible entrance": true
        },
        {
          "Wheelchair accessible parking lot": true
        },
        {
          "Wheelchair accessible restroom": true
        },
        {
          "Wheelchair accessible seating": true
        }
      ],
      "Amenities": [
        {
          "Wi-Fi": true
        },
        {
          "Free Wi-Fi": true
        }
      ],
      "Crowd": [
        {
          "LGBTQ+ friendly": true
        },
        {
          "Transgender safespace": true
        }
      ],
      "Recycling": [
        {
          "Electronics": true
        }
      ],
      "Payments": [
        {
          "Checks": true
        },
        {
          "Credit cards": true
        },
        {
          "Debit cards": true
        },
        {
          "NFC mobile payments": true
        },
        {
          "Credit cards": true
        }
      ]
    },
    "gasPrices": [],
    "url": "https://www.google.com/maps/search/?api=1&query=Oak%20Lawn%20Pharmacy&query_place_id=ChIJGYxxljKZToYR3H7tDNTcNvI",
    "searchPageUrl": "https://www.google.com/maps/search/independent%20pharmacy%20Dallas%20TX/@58.79025158634311,-139.3009231432406,9z?hl=en",
    "searchString": "independent pharmacy Dallas TX",
    "language": "en",
    "rank": 13,
    "isAdvertisement": false,
    "imageUrl": "https://lh3.googleusercontent.com/p/AF1QipO6hmjlct5Eaxjm5J6DBi-Gjtp9V2kiPGc75KJh=w408-h272-k-no",
    "kgmid": "/g/1tcvv84x",
    "classification": "independent",
    "is_independent": true,
    "is_compounding": false,
    "confidence": 0.9,
    "source": "perplexity",
    "method": "llm"
  },
  {
    "title": "Recept Pharmacy",
    "price": null,
    "categoryName": "Pharmacy",
    "address": "2225 Vatican Ln, Dallas, TX 75224",
    "neighborhood": "Oak Cliff",
    "street": "2225 Vatican Ln",
    "city": "Dallas",
    "postalCode": "75224",
    "state": "Texas",
    "countryCode": "US",
    "phone": "(214) 330-6000",
    "phoneUnformatted": "+12143306000",
    "claimThisBusiness": true,
    "location": {
      "lat": 32.6940301,
      "lng": -96.8557089
    },
    "totalScore": 1,
    "permanentlyClosed": false,
    "temporarilyClosed": false,
    "placeId": null,
    "categories": [
      "Pharmacy"
    ],
    "fid": "0x864e90be0e4d927f:0x12355d49eadc06a8",
    "cid": "1312057438502651560",
    "reviewsCount": 1,
    "imagesCount": 1,
    "imageCategories": [],
    "scrapedAt": "2025-06-22T06:42:15.962Z",
    "googleFoodUrl": null,
    "hotelAds": [],
    "openingHours": [],
    "peopleAlsoSearch": [],
    "placesTags": [],
    "reviewsTags": [],
    "additionalInfo": {
      "Accessibility": [
        {
          "Wheelchair accessible entrance": true
        },
        {
          "Wheelchair accessible parking lot": true
        }
      ],
      "Payments": [
        {
          "Credit cards": true
        }
      ]
    },
    "gasPrices": [],
    "url": "https://www.google.com/maps/search/?api=1&query=Recept%20Pharmacy&query_place_id=ChIJf5JNDr6QToYRqAbc6kldNRI",
    "searchPageUrl": "https://www.google.com/maps/search/independent%20pharmacy%20Dallas%20TX/@58.79025158634311,-139.3009231432406,9z?hl=en",
    "searchString": "independent pharmacy Dallas TX",
    "language": "en",
    "rank": 14,
    "isAdvertisement": false,
    "imageUrl": "https://streetviewpixels-pa.googleapis.com/v1/thumbnail?panoid=VhvIynQPIRhBedYZzGe-Vw&cb_client=search.gws-prod.gps&w=408&h=240&yaw=274.25247&pitch=0&thumbfov=100",
    "kgmid": "/g/1tmpfbj4",
    "classification": "independent",
    "is_independent": true,
    "is_compounding": false,
    "confidence": 0.85,
    "source": "perplexity",
    "method": "llm"
  },
  {
    "title": "ReNue Hampton Pharmacy",
    "price": null,
    "categoryName": "Pharmacy",
    "address": "2701 S Hampton Rd, Dallas, TX 75224",
    "neighborhood": "Oak Cliff",
    "street": "2701 S Hampton Rd",
    "city": "Dallas",
    "postalCode": "75224",
    "state": "Texas",
    "countryCode": "US",
    "website": "https://renuerx.com/?utm_source=gmb&utm_id=hampton",
    "phone": "(972) 707-8248",
    "phoneUnformatted": "+19727078248",
    "claimThisBusiness": false,
    "location": {
      "lat": 32.7182163,
      "lng": -96.8576495
    },
    "totalScore": 4.9,
    "permanentlyClosed": false,
    "temporarilyClosed": false,
    "placeId": null,
    "categories": [
      "Pharmacy",
      "Drug store",
      "Health and beauty shop",
      "Vitamin & supplements store"
    ],
    "fid": "0x864e9a734f7c03b7:0xa7c9fdc236195873",
    "cid": "12090473685225920627",
    "reviewsCount": 394,
    "imagesCount": 5,
    "imageCategories": [],
    "scrapedAt": "2025-06-22T06:42:15.962Z",
    "googleFoodUrl": null,
    "hotelAds": [],
    "openingHours": [
      {
        "day": "Monday",
        "hours": "8:30\u202fAM to 5\u202fPM"
      },
      {
        "day": "Tuesday",
        "hours": "8:30\u202fAM to 5\u202fPM"
      },
      {
        "day": "Wednesday",
        "hours": "8:30\u202fAM to 5\u202fPM"
      },
      {
        "day": "Thursday",
        "hours": "8:30\u202fAM to 5\u202fPM"
      },
      {
        "day": "Friday",
        "hours": "8:30\u202fAM to 5\u202fPM"
      },
      {
        "day": "Saturday",
        "hours": "8\u202fAM to 2\u202fPM"
      },
      {
        "day": "Sunday",
        "hours": "Closed"
      }
    ],
    "peopleAlsoSearch": [],
    "placesTags": [],
    "reviewsTags": [],
    "additionalInfo": {
      "From the business": [
        {
          "Small business": true
        }
      ],
      "Service options": [
        {
          "Curbside pickup": true
        },
        {
          "Delivery": true
        },
        {
          "In-store pickup": true
        },
        {
          "In-store shopping": true
        },
        {
          "Onsite services": true
        },
        {
          "Same-day delivery": true
        },
        {
          "English": true
        }
      ],
      "Accessibility": [
        {
          "Wheelchair accessible entrance": true
        },
        {
          "Wheelchair accessible parking lot": true
        }
      ],
      "Planning": [
        {
          "Quick visit": true
        }
      ],
      "Payments": [
        {
          "Checks": true
        },
        {
          "Credit cards": true
        },
        {
          "Debit cards": true
        },
        {
          "Credit cards": true
        }
      ],
      "Parking": [
        {
          "Free parking lot": true
        }
      ]
    },
    "gasPrices": [],
    "url": "https://www.google.com/maps/search/?api=1&query=ReNue%20Hampton%20Pharmacy&query_place_id=ChIJtwN8T3OaToYRc1gZNsL9yac",
    "searchPageUrl": "https://www.google.com/maps/search/independent%20pharmacy%20Dallas%20TX/@58.79025158634311,-139.3009231432406,9z?hl=en",
    "searchString": "independent pharmacy Dallas TX",
    "language": "en",
    "rank": 15,
    "isAdvertisement": false,
    "imageUrl": "https://lh3.googleusercontent.com/gps-cs-s/AC9h4nr2rM9z196je14PNZTPhksu-jWyPCpTqFGwCnMe258LppudFxrR_F8RdFa3YLR8oe3qFs5_SObLXzokbRdxGfVzSkJG38dluiG8QZCwcIquYWzsrLl2khDMAQT6JI2qgLA3ttcUBg=w408-h267-k-no",
    "kgmid": "/g/1thn5y2v",
    "classification": "independent",
    "is_independent": true,
    "is_compounding": false,
    "confidence": 0.9,
    "source": "perplexity",
    "method": "llm"
  },
  {
    "title": "Abrams Royal Pharmacy, Inc.",
    "price": null,
    "categoryName": "Pharmacy",
    "address": "8220 Abrams Rd, Dallas, TX 75231",
    "neighborhood": "Lake Highlands",
    "street": "8220 Abrams Rd",
    "city": "Dallas",
    "postalCode": "75231",
    "state": "Texas",
    "countryCode": "US",
    "website": "http://www.arp-rx.com/",
    "phone": "(214) 349-8000",
    "phoneUnformatted": "+12143498000",
    "claimThisBusiness": false,
    "location": {
      "lat": 32.8919286,
      "lng": -96.7409475
    },
    "totalScore": 4.6,
    "permanentlyClosed": false,
    "temporarilyClosed": false,
    "placeId": null,
    "categories": [
      "Pharmacy",
      "Nutritionist",
      "Vitamin & supplements store",
      "Weight loss service",
      "Wellness program"
    ],
    "fid": "0x864ea00678e6a0cb:0xc086bbf0d2bc9da3",
    "cid": "13872982345163513251",
    "reviewsCount": 73,
    "imagesCount": 11,
    "imageCategories": [],
    "scrapedAt": "2025-06-22T06:42:15.963Z",
    "googleFoodUrl": null,
    "hotelAds": [],
    "openingHours": [
      {
        "day": "Monday",
        "hours": "9\u202fAM to 6\u202fPM"
      },
      {
        "day": "Tuesday",
        "hours": "9\u202fAM to 6\u202fPM"
      },
      {
        "day": "Wednesday",
        "hours": "9\u202fAM to 6\u202fPM"
      },
      {
        "day": "Thursday",
        "hours": "9\u202fAM to 6\u202fPM"
      },
      {
        "day": "Friday",
        "hours": "9\u202fAM to 6\u202fPM"
      },
      {
        "day": "Saturday",
        "hours": "9\u202fAM to 3\u202fPM"
      },
      {
        "day": "Sunday",
        "hours": "Closed"
      }
    ],
    "additionalOpeningHours": {
      "Drive through": [
        {
          "day": "Monday",
          "hours": "9\u202fAM\u20136\u202fPM"
        },
        {
          "day": "Tuesday",
          "hours": "9\u202fAM\u20136\u202fPM"
        },
        {
          "day": "Wednesday",
          "hours": "9\u202fAM\u20136\u202fPM"
        },
        {
          "day": "Thursday",
          "hours": "9\u202fAM\u20136\u202fPM"
        },
        {
          "day": "Friday",
          "hours": "9\u202fAM\u20136\u202fPM"
        },
        {
          "day": "Saturday",
          "hours": "9\u202fAM\u20133\u202fPM"
        },
        {
          "day": "Sunday",
          "hours": "Closed"
        }
      ]
    },
    "peopleAlsoSearch": [],
    "placesTags": [],
    "reviewsTags": [],
    "additionalInfo": {
      "From the business": [
        {
          "Identifies as women-owned": true
        },
        {
          "Small business": true
        }
      ],
      "Service options": [
        {
          "Delivery": true
        },
        {
          "Drive-through": true
        },
        {
          "In-store pickup": true
        },
        {
          "In-store shopping": true
        },
        {
          "Same-day delivery": false
        }
      ],
      "Accessibility": [
        {
          "Wheelchair accessible entrance": true
        },
        {
          "Wheelchair accessible parking lot": true
        }
      ],
      "Crowd": [
        {
          "LGBTQ+ friendly": true
        }
      ],
      "Planning": [
        {
          "Quick visit": true
        }
      ],
      "Payments": [
        {
          "Credit cards": true
        },
        {
          "Debit cards": true
        },
        {
          "Credit cards": true
        }
      ]
    },
    "gasPrices": [],
    "url": "https://www.google.com/maps/search/?api=1&query=Abrams%20Royal%20Pharmacy%2C%20Inc.&query_place_id=ChIJy6DmeAagToYRo5280vC7hsA",
    "searchPageUrl": "https://www.google.com/maps/search/independent%20pharmacy%20Dallas%20TX/@58.79025158634311,-139.3009231432406,9z?hl=en",
    "searchString": "independent pharmacy Dallas TX",
    "language": "en",
    "rank": 16,
    "isAdvertisement": false,
    "imageUrl": "https://lh3.googleusercontent.com/p/AF1QipORoaXpUoMZg73Xb3iPtJw03-TaB3bWXx5VyOsI=w408-h408-k-no",
    "kgmid": "/g/1thy06fn",
    "classification": "independent",
    "is_independent": true,
    "is_compounding": false,
    "confidence": 0.85,
    "source": "perplexity",
    "method": "llm"
  },
  {
    "title": "Wellrx Pharmacy",
    "price": null,
    "categoryName": "Pharmacy",
    "address": "2930 Buckner Blvd, Dallas, TX 75227",
    "neighborhood": "Riverway Estates/Bruton Terrace",
    "street": "2930 Buckner Blvd",
    "city": "Dallas",
    "postalCode": "75227",
    "state": "Texas",
    "countryCode": "US",
    "phone": "(469) 709-8231",
    "phoneUnformatted": "+14697098231",
    "claimThisBusiness": false,
    "location": {
      "lat": 32.7622004,
      "lng": -96.682253
    },
    "totalScore": 4.8,
    "permanentlyClosed": false,
    "temporarilyClosed": false,
    "placeId": null,
    "categories": [
      "Pharmacy"
    ],
    "fid": "0x864ea37459c8143b:0x461ceb9aecac3a8",
    "cid": "315760745789440936",
    "reviewsCount": 20,
    "imagesCount": 2,
    "imageCategories": [],
    "scrapedAt": "2025-06-22T06:42:15.963Z",
    "googleFoodUrl": null,
    "hotelAds": [],
    "openingHours": [
      {
        "day": "Monday",
        "hours": "9\u202fAM to 5\u202fPM"
      },
      {
        "day": "Tuesday",
        "hours": "9\u202fAM to 5\u202fPM"
      },
      {
        "day": "Wednesday",
        "hours": "9\u202fAM to 5\u202fPM"
      },
      {
        "day": "Thursday",
        "hours": "9\u202fAM to 5\u202fPM"
      },
      {
        "day": "Friday",
        "hours": "9\u202fAM to 5\u202fPM"
      },
      {
        "day": "Saturday",
        "hours": "10\u202fAM to 2\u202fPM"
      },
      {
        "day": "Sunday",
        "hours": "Closed"
      }
    ],
    "peopleAlsoSearch": [],
    "placesTags": [],
    "reviewsTags": [],
    "additionalInfo": {
      "From the business": [
        {
          "Small business": true
        }
      ],
      "Service options": [
        {
          "Delivery": true
        },
        {
          "In-store pickup": true
        },
        {
          "In-store shopping": true
        }
      ],
      "Accessibility": [
        {
          "Wheelchair accessible entrance": true
        },
        {
          "Wheelchair accessible parking lot": true
        }
      ],
      "Amenities": [
        {
          "Wi-Fi": true
        },
        {
          "Free Wi-Fi": true
        }
      ],
      "Payments": [
        {
          "Checks": true
        },
        {
          "Credit cards": true
        },
        {
          "Debit cards": true
        },
        {
          "NFC mobile payments": true
        },
        {
          "Credit cards": true
        }
      ]
    },
    "gasPrices": [],
    "url": "https://www.google.com/maps/search/?api=1&query=Wellrx%20Pharmacy&query_place_id=ChIJOxTIWXSjToYRqMPKrrnOYQQ",
    "searchPageUrl": "https://www.google.com/maps/search/independent%20pharmacy%20Dallas%20TX/@58.79025158634311,-139.3009231432406,9z?hl=en",
    "searchString": "independent pharmacy Dallas TX",
    "language": "en",
    "rank": 17,
    "isAdvertisement": false,
    "imageUrl": "https://lh3.googleusercontent.com/gps-cs-s/AC9h4nrRmizheUicci6v37JHMnG5fDNl6ISUB7EhBbNCqQ4Rxm8m5jW-AE5DsTJxjkNU3QAL1-qPxmX2RBbb4zl4_MzEORLwQzvABewq5gGJi3042xZFp9P5YITthmwlwp8grjHzlRMo=w408-h432-k-no",
    "kgmid": "/g/11nmfllsgw",
    "classification": "independent",
    "is_independent": true,
    "is_compounding": false,
    "confidence": 0.85,
    "source": "perplexity",
    "method": "llm"
  },
  {
    "title": "Acorn Pharmacy",
    "price": null,
    "categoryName": "Pharmacy",
    "address": "5315 Ross Ave, Dallas, TX 75206",
    "neighborhood": "Lower Greenville",
    "street": "5315 Ross Ave",
    "city": "Dallas",
    "postalCode": "75206",
    "state": "Texas",
    "countryCode": "US",
    "phone": "(214) 887-0744",
    "phoneUnformatted": "+12148870744",
    "claimThisBusiness": false,
    "location": {
      "lat": 32.8105623,
      "lng": -96.7722231
    },
    "totalScore": 3.2,
    "permanentlyClosed": false,
    "temporarilyClosed": false,
    "placeId": null,
    "categories": [
      "Pharmacy"
    ],
    "fid": "0x864e9f35ea6f3887:0xe20956323e030f73",
    "cid": "16287644301150850931",
    "reviewsCount": 20,
    "imagesCount": 4,
    "imageCategories": [],
    "scrapedAt": "2025-06-22T06:42:15.963Z",
    "googleFoodUrl": null,
    "hotelAds": [],
    "openingHours": [
      {
        "day": "Monday",
        "hours": "8:30\u202fAM to 6\u202fPM"
      },
      {
        "day": "Tuesday",
        "hours": "8:30\u202fAM to 6\u202fPM"
      },
      {
        "day": "Wednesday",
        "hours": "8:30\u202fAM to 6\u202fPM"
      },
      {
        "day": "Thursday",
        "hours": "8:30\u202fAM to 6\u202fPM"
      },
      {
        "day": "Friday",
        "hours": "8:30\u202fAM to 6\u202fPM"
      },
      {
        "day": "Saturday",
        "hours": "9\u202fAM to 3\u202fPM"
      },
      {
        "day": "Sunday",
        "hours": "Closed"
      }
    ],
    "peopleAlsoSearch": [],
    "placesTags": [],
    "reviewsTags": [],
    "additionalInfo": {
      "From the business": [
        {
          "Small business": true
        }
      ],
      "Service options": [
        {
          "In-store shopping": true
        },
        {
          "Same-day delivery": false
        },
        {
          "Spanish": true
        }
      ],
      "Accessibility": [
        {
          "Wheelchair accessible entrance": true
        },
        {
          "Wheelchair accessible parking lot": true
        }
      ],
      "Payments": [
        {
          "Credit cards": true
        },
        {
          "Debit cards": true
        },
        {
          "NFC mobile payments": true
        },
        {
          "Credit cards": true
        }
      ]
    },
    "gasPrices": [],
    "url": "https://www.google.com/maps/search/?api=1&query=Acorn%20Pharmacy&query_place_id=ChIJhzhv6jWfToYRcw8DPjJWCeI",
    "searchPageUrl": "https://www.google.com/maps/search/independent%20pharmacy%20Dallas%20TX/@58.79025158634311,-139.3009231432406,9z?hl=en",
    "searchString": "independent pharmacy Dallas TX",
    "language": "en",
    "rank": 18,
    "isAdvertisement": false,
    "imageUrl": "https://lh3.googleusercontent.com/gps-cs-s/AC9h4nrPDTxBE2LoznwFWlZ2NhSseGT56g08U2aFERleBzSNCo5VsLxjgp4B-IsgzWefNJsFOdmWFdXsePFCXY-DFcHt8MzcAQjUNRpA9vHF8ZTHSmtlPIAsk9SpW79pCkCER3sPJ-Om=w408-h544-k-no",
    "kgmid": "/g/113k1cpnk",
    "classification": "independent",
    "is_independent": true,
    "is_compounding": false,
    "confidence": 0.85,
    "source": "perplexity",
    "method": "llm"
  },
  {
    "title": "Maplewood Pharmacy",
    "price": null,
    "categoryName": "Pharmacy",
    "address": "1230 River Bend Dr #101, Dallas, TX 75247",
    "neighborhood": null,
    "street": "1230 River Bend Dr #101",
    "city": "Dallas",
    "postalCode": "75247",
    "state": "Texas",
    "countryCode": "US",
    "website": "https://themaplewoodpharmacy.com/",
    "phone": "(844) 627-9663",
    "phoneUnformatted": "+18446279663",
    "claimThisBusiness": false,
    "location": {
      "lat": 32.816629,
      "lng": -96.863025
    },
    "totalScore": 4.7,
    "permanentlyClosed": false,
    "temporarilyClosed": false,
    "placeId": null,
    "categories": [
      "Pharmacy"
    ],
    "fid": "0x864e9c1fcafab595:0x5bde59685211e166",
    "cid": "6619826806869582182",
    "reviewsCount": 14,
    "imagesCount": 4,
    "imageCategories": [],
    "scrapedAt": "2025-06-22T06:42:15.963Z",
    "googleFoodUrl": null,
    "hotelAds": [],
    "openingHours": [
      {
        "day": "Monday",
        "hours": "9:30\u202fAM to 4\u202fPM"
      },
      {
        "day": "Tuesday",
        "hours": "9:30\u202fAM to 4\u202fPM"
      },
      {
        "day": "Wednesday",
        "hours": "9:30\u202fAM to 4\u202fPM"
      },
      {
        "day": "Thursday",
        "hours": "9:30\u202fAM to 4\u202fPM"
      },
      {
        "day": "Friday",
        "hours": "9:30\u202fAM to 4\u202fPM"
      },
      {
        "day": "Saturday",
        "hours": "Closed"
      },
      {
        "day": "Sunday",
        "hours": "Closed"
      }
    ],
    "peopleAlsoSearch": [],
    "placesTags": [],
    "reviewsTags": [],
    "additionalInfo": {
      "From the business": [
        {
          "Small business": true
        }
      ],
      "Service options": [
        {
          "Curbside pickup": true
        },
        {
          "Delivery": true
        },
        {
          "Spanish": true
        }
      ],
      "Accessibility": [
        {
          "Wheelchair accessible entrance": true
        },
        {
          "Wheelchair accessible parking lot": true
        }
      ],
      "Payments": [
        {
          "Checks": true
        },
        {
          "Credit cards": true
        },
        {
          "Debit cards": true
        },
        {
          "NFC mobile payments": true
        },
        {
          "Credit cards": true
        }
      ]
    },
    "gasPrices": [],
    "url": "https://www.google.com/maps/search/?api=1&query=Maplewood%20Pharmacy&query_place_id=ChIJlbX6yh-cToYRZuERUmhZ3ls",
    "searchPageUrl": "https://www.google.com/maps/search/independent%20pharmacy%20Dallas%20TX/@58.79025158634311,-139.3009231432406,9z?hl=en",
    "searchString": "independent pharmacy Dallas TX",
    "language": "en",
    "rank": 19,
    "isAdvertisement": false,
    "imageUrl": "https://lh3.googleusercontent.com/p/AF1QipPQ9kukPoQzYmaxCKPslxoDtmP8YwFJaLnby_Bx=w408-h306-k-no",
    "kgmid": "/g/11c5xl6lvy",
    "classification": "independent",
    "is_independent": true,
    "is_compounding": false,
    "confidence": 0.9,
    "source": "perplexity",
    "method": "llm"
  },
  {
    "title": "ReNue Plaza Pharmacy",
    "price": null,
    "categoryName": "Pharmacy",
    "address": "600 N Pearl St H201, Dallas, TX 75201",
    "neighborhood": "City Center District",
    "street": "600 N Pearl St H201",
    "city": "Dallas",
    "postalCode": "75201",
    "state": "Texas",
    "countryCode": "US",
    "website": "https://renuerx.com/?utm_source=gmb&utm_id=plaza",
    "phone": "(214) 855-0606",
    "phoneUnformatted": "+12148550606",
    "claimThisBusiness": false,
    "location": {
      "lat": 32.786568,
      "lng": -96.795093
    },
    "totalScore": 4.8,
    "permanentlyClosed": false,
    "temporarilyClosed": false,
    "placeId": null,
    "categories": [
      "Pharmacy",
      "Drug store",
      "Health and beauty shop",
      "Vitamin & supplements store"
    ],
    "fid": "0x864e99214eb25179:0xf957ec29c3b6b903",
    "cid": "17967088902539229443",
    "reviewsCount": 92,
    "imagesCount": 1,
    "imageCategories": [],
    "scrapedAt": "2025-06-22T06:42:15.963Z",
    "googleFoodUrl": null,
    "hotelAds": [],
    "openingHours": [
      {
        "day": "Monday",
        "hours": "8\u202fAM to 5\u202fPM"
      },
      {
        "day": "Tuesday",
        "hours": "8\u202fAM to 5\u202fPM"
      },
      {
        "day": "Wednesday",
        "hours": "8\u202fAM to 5\u202fPM"
      },
      {
        "day": "Thursday",
        "hours": "8\u202fAM to 5\u202fPM"
      },
      {
        "day": "Friday",
        "hours": "8\u202fAM to 4:30\u202fPM"
      },
      {
        "day": "Saturday",
        "hours": "Closed"
      },
      {
        "day": "Sunday",
        "hours": "Closed"
      }
    ],
    "peopleAlsoSearch": [],
    "placesTags": [],
    "reviewsTags": [],
    "additionalInfo": {
      "From the business": [
        {
          "Small business": true
        }
      ],
      "Service options": [
        {
          "Curbside pickup": true
        },
        {
          "Delivery": true
        },
        {
          "In-store pickup": true
        },
        {
          "In-store shopping": true
        },
        {
          "Same-day delivery": true
        },
        {
          "English": true
        }
      ],
      "Accessibility": [
        {
          "Wheelchair accessible entrance": true
        },
        {
          "Wheelchair accessible parking lot": true
        }
      ],
      "Planning": [
        {
          "Quick visit": true
        }
      ],
      "Payments": [
        {
          "Checks": true
        },
        {
          "Credit cards": true
        },
        {
          "Debit cards": true
        },
        {
          "Credit cards": true
        }
      ],
      "Parking": [
        {
          "Paid parking garage": true
        }
      ]
    },
    "gasPrices": [],
    "url": "https://www.google.com/maps/search/?api=1&query=ReNue%20Plaza%20Pharmacy&query_place_id=ChIJeVGyTiGZToYRA7m2wynsV_k",
    "searchPageUrl": "https://www.google.com/maps/search/independent%20pharmacy%20Dallas%20TX/@58.79025158634311,-139.3009231432406,9z?hl=en",
    "searchString": "independent pharmacy Dallas TX",
    "language": "en",
    "rank": 20,
    "isAdvertisement": false,
    "imageUrl": "https://streetviewpixels-pa.googleapis.com/v1/thumbnail?panoid=-otyOkPqwZrQeuri_FsNYA&cb_client=search.gws-prod.gps&w=408&h=240&yaw=319.125&pitch=0&thumbfov=100",
    "kgmid": "/g/1tf168td",
    "classification": "independent",
    "is_independent": true,
    "is_compounding": false,
    "confidence": 0.85,
    "source": "perplexity",
    "method": "llm"
  }
]