[
  {
    "title": "Kessler's Food and Grocery",
    "price": null,
    "categoryName": "Pharmacy",
    "address": "615 6th Ave SE, Aberdeen, SD 57401",
    "neighborhood": null,
    "street": "615 6th Ave SE",
    "city": "Aberdeen",
    "postalCode": "57401",
    "state": "South Dakota",
    "countryCode": "US",
    "website": "http://www.kesslersgrocery.com/",
    "phone": "(605) 225-1692",
    "phoneUnformatted": "+16052251692",
    "claimThisBusiness": false,
    "location": {
      "lat": 45.4600225,
      "lng": -98.4785324
    },
    "locatedIn": "Kessler's Floral",
    "totalScore": 4.4,
    "permanentlyClosed": false,
    "temporarilyClosed": false,
    "placeId": null,
    "categories": [
      "Pharmacy",
      "Deli",
      "Donut shop",
      "Florist",
      "Liquor store",
      "Grocery store",
      "Supermarket",
      "Sushi takeaway"
    ],
    "fid": "0x52d244e64e177281:0xddd2d9ae87e8d52a",
    "cid": "15984077371119031594",
    "reviewsCount": 1430,
    "imagesCount": 105,
    "imageCategories": [],
    "scrapedAt": "2025-06-22T09:46:23.268Z",
    "googleFoodUrl": null,
    "hotelAds": [],
    "openingHours": [
      {
        "day": "Monday",
        "hours": "5\u202fAM to 11\u202fPM"
      },
      {
        "day": "Tuesday",
        "hours": "5\u202fAM to 11\u202fPM"
      },
      {
        "day": "Wednesday",
        "hours": "5\u202fAM to 11\u202fPM"
      },
      {
        "day": "Thursday",
        "hours": "5\u202fAM to 11\u202fPM"
      },
      {
        "day": "Friday",
        "hours": "5\u202fAM to 11\u202fPM"
      },
      {
        "day": "Saturday",
        "hours": "5\u202fAM to 11\u202fPM"
      },
      {
        "day": "Sunday",
        "hours": "5\u202fAM to 11\u202fPM"
      }
    ],
    "additionalOpeningHours": {
      "Kessler's Floral": [
        {
          "day": "Monday",
          "hours": "5\u202fAM\u201311\u202fPM"
        },
        {
          "day": "Tuesday",
          "hours": "5\u202fAM\u201311\u202fPM"
        },
        {
          "day": "Wednesday",
          "hours": "5\u202fAM\u201311\u202fPM"
        },
        {
          "day": "Thursday",
          "hours": "5\u202fAM\u201311\u202fPM"
        },
        {
          "day": "Friday",
          "hours": "5\u202fAM\u201311\u202fPM"
        },
        {
          "day": "Saturday",
          "hours": "5\u202fAM\u201311\u202fPM"
        },
        {
          "day": "Sunday",
          "hours": "5\u202fAM\u201311\u202fPM"
        }
      ],
      "Kessler's Pharmacy": [
        {
          "day": "Monday",
          "hours": "8:30\u202fAM\u20137\u202fPM"
        },
        {
          "day": "Tuesday",
          "hours": "8:30\u202fAM\u20137\u202fPM"
        },
        {
          "day": "Wednesday",
          "hours": "8:30\u202fAM\u20137\u202fPM"
        },
        {
          "day": "Thursday",
          "hours": "8:30\u202fAM\u20137\u202fPM"
        },
        {
          "day": "Friday",
          "hours": "8:30\u202fAM\u20137\u202fPM"
        },
        {
          "day": "Saturday",
          "hours": "9\u202fAM\u20134\u202fPM"
        },
        {
          "day": "Sunday",
          "hours": "10\u202fAM\u20134\u202fPM"
        }
      ]
    },
    "peopleAlsoSearch": [],
    "placesTags": [],
    "reviewsTags": [],
    "additionalInfo": {
      "Service options": [
        {
          "Curbside pickup": true
        },
        {
          "No-contact delivery": true
        },
        {
          "Delivery": true
        },
        {
          "In-store pickup": true
        },
        {
          "In-store shopping": true
        },
        {
          "Onsite services": true
        },
        {
          "Same-day delivery": true
        }
      ],
      "Highlights": [
        {
          "Great produce": true
        }
      ],
      "Accessibility": [
        {
          "Wheelchair accessible entrance": true
        },
        {
          "Wheelchair accessible parking lot": true
        },
        {
          "Wheelchair accessible restroom": true
        }
      ],
      "Offerings": [
        {
          "Bakery": true
        },
        {
          "Food": true
        },
        {
          "Organic products": true
        },
        {
          "Pharmacy": true
        },
        {
          "Prepared foods": true
        },
        {
          "Salad bar": true
        }
      ],
      "Amenities": [
        {
          "Restroom": true
        },
        {
          "Wi-Fi": true
        },
        {
          "Free Wi-Fi": true
        }
      ],
      "Planning": [
        {
          "Quick visit": true
        }
      ],
      "Payments": [
        {
          "Checks": true
        },
        {
          "Credit cards": true
        },
        {
          "Debit cards": true
        },
        {
          "NFC mobile payments": true
        },
        {
          "SNAP/EBT": true
        },
        {
          "Credit cards": true
        }
      ],
      "Parking": [
        {
          "Free parking lot": true
        },
        {
          "Free street parking": true
        },
        {
          "On-site parking": true
        }
      ]
    },
    "gasPrices": [],
    "url": "https://www.google.com/maps/search/?api=1&query=Kessler's%20Food%20and%20Grocery&query_place_id=ChIJgXIXTuZE0lIRKtXoh67Z0t0",
    "searchPageUrl": "https://www.google.com/maps/search/independent%20pharmacy%20Aberdeen%20SD/@36.81849750000001,-102.31720148556776,8z?hl=en",
    "searchString": "independent pharmacy Aberdeen SD",
    "language": "en",
    "rank": 5,
    "isAdvertisement": false,
    "imageUrl": "https://lh3.googleusercontent.com/gps-cs-s/AC9h4nqe6FnDb_che6kZjal7zNWj60JSoXKNLsNvp0HFQF0UDyKSqPZFzOP7gVp1QyU2kGbiRSddx1NcqHXmRXzcUHDEAlq0Wfr5pPI0z3GO0a6zOF3gD-SEMon6ctD6cmBS4Ca00LKC=w426-h240-k-no",
    "kgmid": "/g/1v5_928v",
    "classification": "independent",
    "is_independent": true,
    "is_compounding": false,
    "confidence": 0.9,
    "source": "perplexity",
    "method": "llm"
  },
  {
    "title": "Avera Pharmacy \u2014 State St, Aberdeen",
    "price": null,
    "categoryName": "Pharmacy",
    "address": "105 S State St Suite 101, Aberdeen, SD 57401",
    "neighborhood": null,
    "street": "105 S State St Suite 101",
    "city": "Aberdeen",
    "postalCode": "57401",
    "state": "South Dakota",
    "countryCode": "US",
    "website": "https://www.avera.org/locations/profile/avera-pharmacy-state-street-aberdeen/?y_source=1_MzMyNzk2NDUtNzE1LWxvY2F0aW9uLndlYnNpdGU%3D",
    "phone": "(605) 225-1945",
    "phoneUnformatted": "+16052251945",
    "claimThisBusiness": false,
    "location": {
      "lat": 45.4637381,
      "lng": -98.4786603
    },
    "totalScore": 4.4,
    "permanentlyClosed": false,
    "temporarilyClosed": false,
    "placeId": null,
    "categories": [
      "Pharmacy"
    ],
    "fid": "0x52d244e56ef06353:0xd664faeb62399a73",
    "cid": "15448748510659844723",
    "reviewsCount": 20,
    "imagesCount": 3,
    "imageCategories": [],
    "scrapedAt": "2025-06-22T09:46:23.252Z",
    "googleFoodUrl": null,
    "hotelAds": [],
    "openingHours": [
      {
        "day": "Monday",
        "hours": "8:30\u202fAM to 7\u202fPM"
      },
      {
        "day": "Tuesday",
        "hours": "8:30\u202fAM to 7\u202fPM"
      },
      {
        "day": "Wednesday",
        "hours": "8:30\u202fAM to 7\u202fPM"
      },
      {
        "day": "Thursday",
        "hours": "8:30\u202fAM to 7\u202fPM"
      },
      {
        "day": "Friday",
        "hours": "8:30\u202fAM to 7\u202fPM"
      },
      {
        "day": "Saturday",
        "hours": "9\u202fAM to 1\u202fPM"
      },
      {
        "day": "Sunday",
        "hours": "Closed"
      }
    ],
    "peopleAlsoSearch": [],
    "placesTags": [],
    "reviewsTags": [],
    "additionalInfo": {
      "Service options": [
        {
          "In-store pickup": true
        }
      ],
      "Accessibility": [
        {
          "Wheelchair accessible entrance": true
        },
        {
          "Wheelchair accessible parking lot": true
        }
      ],
      "Amenities": [
        {
          "Wi-Fi": true
        },
        {
          "Free Wi-Fi": true
        }
      ],
      "Payments": [
        {
          "Credit cards": true
        }
      ]
    },
    "gasPrices": [],
    "url": "https://www.google.com/maps/search/?api=1&query=Avera%20Pharmacy%20%E2%80%94%20State%20St%2C%20Aberdeen&query_place_id=ChIJU2PwbuVE0lIRc5o5Yuv6ZNY",
    "searchPageUrl": "https://www.google.com/maps/search/independent%20pharmacy%20Aberdeen%20SD/@56.705968377238506,-133.54692821486086,9z?hl=en",
    "searchString": "independent pharmacy Aberdeen SD",
    "language": "en",
    "rank": 1,
    "isAdvertisement": false,
    "imageUrl": "https://lh3.googleusercontent.com/p/AF1QipOTcpB8hKHNNvVXOB5u-q0gMMBxJhtLjWDwiDLp=w408-h306-k-no",
    "kgmid": "/g/1tfgp1dj",
    "classification": "independent",
    "is_independent": true,
    "is_compounding": false,
    "confidence": 0.9,
    "source": "perplexity",
    "method": "llm"
  },
  {
    "title": "Avera Pharmacy \u2014 Aberdeen \u2014 6th Ave SE",
    "price": null,
    "categoryName": "Pharmacy",
    "address": "2105 6th Ave SE Suite 24, Aberdeen, SD 57401",
    "neighborhood": null,
    "street": "2105 6th Ave SE Suite 24",
    "city": "Aberdeen",
    "postalCode": "57401",
    "state": "South Dakota",
    "countryCode": "US",
    "website": "https://www.avera.org/locations/profile/avera-pharmacy-aberdeen-6th-avenue/?y_source=1_ODgyMDg1MDMtNzE1LWxvY2F0aW9uLndlYnNpdGU%3D",
    "phone": "(605) 225-6344",
    "phoneUnformatted": "+16052256344",
    "claimThisBusiness": false,
    "location": {
      "lat": 45.4596634,
      "lng": -98.4579811
    },
    "totalScore": 4.4,
    "permanentlyClosed": false,
    "temporarilyClosed": false,
    "placeId": null,
    "categories": [
      "Pharmacy"
    ],
    "fid": "0x52d244971ab2631f:0xb72f61fdb87205a2",
    "cid": "13199876775195313570",
    "reviewsCount": 7,
    "imagesCount": 2,
    "imageCategories": [],
    "scrapedAt": "2025-06-22T09:46:23.254Z",
    "googleFoodUrl": null,
    "hotelAds": [],
    "openingHours": [
      {
        "day": "Monday",
        "hours": "8:30\u202fAM to 6\u202fPM"
      },
      {
        "day": "Tuesday",
        "hours": "8:30\u202fAM to 6\u202fPM"
      },
      {
        "day": "Wednesday",
        "hours": "8:30\u202fAM to 6\u202fPM"
      },
      {
        "day": "Thursday",
        "hours": "8:30\u202fAM to 6\u202fPM"
      },
      {
        "day": "Friday",
        "hours": "8:30\u202fAM to 6\u202fPM"
      },
      {
        "day": "Saturday",
        "hours": "9\u202fAM to 1\u202fPM"
      },
      {
        "day": "Sunday",
        "hours": "Closed"
      }
    ],
    "peopleAlsoSearch": [],
    "placesTags": [],
    "reviewsTags": [],
    "additionalInfo": {
      "Service options": [
        {
          "Delivery": true
        },
        {
          "Onsite services": true
        }
      ],
      "Accessibility": [
        {
          "Wheelchair accessible entrance": true
        },
        {
          "Wheelchair accessible parking lot": true
        }
      ],
      "Planning": [
        {
          "Quick visit": true
        }
      ],
      "Payments": [
        {
          "Credit cards": true
        },
        {
          "Debit cards": true
        },
        {
          "NFC mobile payments": true
        },
        {
          "Credit cards": true
        }
      ]
    },
    "gasPrices": [],
    "url": "https://www.google.com/maps/search/?api=1&query=Avera%20Pharmacy%20%E2%80%94%20Aberdeen%20%E2%80%94%206th%20Ave%20SE&query_place_id=ChIJH2OyGpdE0lIRogVyuP1hL7c",
    "searchPageUrl": "https://www.google.com/maps/search/independent%20pharmacy%20Aberdeen%20SD/@56.705968377238506,-133.54692821486086,9z?hl=en",
    "searchString": "independent pharmacy Aberdeen SD",
    "language": "en",
    "rank": 2,
    "isAdvertisement": false,
    "imageUrl": "https://lh3.googleusercontent.com/p/AF1QipOPy5crA5-QDHfuqDEik0Qop6tLmjyofHsQeDRp=w408-h306-k-no",
    "kgmid": "/g/1jgltnl7q",
    "classification": "independent",
    "is_independent": true,
    "is_compounding": false,
    "confidence": 0.9,
    "source": "perplexity",
    "method": "llm"
  },
  {
    "title": "Lewis Family Drug - 6th Ave, Aberdeen",
    "price": null,
    "categoryName": "Pharmacy",
    "address": "119 6th Ave SW, Aberdeen, SD 57401",
    "neighborhood": null,
    "street": "119 6th Ave SW",
    "city": "Aberdeen",
    "postalCode": "57401",
    "state": "South Dakota",
    "countryCode": "US",
    "website": "https://www.lewisdrug.com/stores/lewis-family-drug-aberdeen",
    "phone": "(605) 262-0283",
    "phoneUnformatted": "+16052620283",
    "claimThisBusiness": false,
    "location": {
      "lat": 45.4588047,
      "lng": -98.490578
    },
    "totalScore": 4.8,
    "permanentlyClosed": false,
    "temporarilyClosed": false,
    "placeId": null,
    "categories": [
      "Pharmacy",
      "Drug store"
    ],
    "fid": "0x52d245a7438e271b:0x48d6b9546798829e",
    "cid": "5248586187913331358",
    "reviewsCount": 27,
    "imagesCount": 1,
    "imageCategories": [],
    "scrapedAt": "2025-06-22T09:46:23.254Z",
    "googleFoodUrl": null,
    "hotelAds": [],
    "openingHours": [
      {
        "day": "Monday",
        "hours": "9\u202fAM to 8\u202fPM"
      },
      {
        "day": "Tuesday",
        "hours": "9\u202fAM to 8\u202fPM"
      },
      {
        "day": "Wednesday",
        "hours": "9\u202fAM to 8\u202fPM"
      },
      {
        "day": "Thursday",
        "hours": "9\u202fAM to 8\u202fPM"
      },
      {
        "day": "Friday",
        "hours": "9\u202fAM to 8\u202fPM"
      },
      {
        "day": "Saturday",
        "hours": "9\u202fAM to 4\u202fPM"
      },
      {
        "day": "Sunday",
        "hours": "10\u202fAM to 4\u202fPM"
      }
    ],
    "peopleAlsoSearch": [],
    "placesTags": [],
    "reviewsTags": [],
    "additionalInfo": {
      "Service options": [
        {
          "Delivery": true
        },
        {
          "Drive-through": true
        },
        {
          "In-store pickup": true
        },
        {
          "In-store shopping": true
        }
      ],
      "Accessibility": [
        {
          "Wheelchair accessible entrance": true
        },
        {
          "Wheelchair accessible parking lot": true
        }
      ],
      "Planning": [
        {
          "Quick visit": true
        }
      ],
      "Payments": [
        {
          "Credit cards": true
        }
      ]
    },
    "gasPrices": [],
    "url": "https://www.google.com/maps/search/?api=1&query=Lewis%20Family%20Drug%20-%206th%20Ave%2C%20Aberdeen&query_place_id=ChIJGyeOQ6dF0lIRnoKYZ1S51kg",
    "searchPageUrl": "https://www.google.com/maps/search/independent%20pharmacy%20Aberdeen%20SD/@56.705968377238506,-133.54692821486086,9z?hl=en",
    "searchString": "independent pharmacy Aberdeen SD",
    "language": "en",
    "rank": 3,
    "isAdvertisement": false,
    "imageUrl": "https://streetviewpixels-pa.googleapis.com/v1/thumbnail?panoid=tbtSjalh8GAjW5I7Mo_BDQ&cb_client=search.gws-prod.gps&w=408&h=240&yaw=221.58241&pitch=0&thumbfov=100",
    "kgmid": "/g/11h6m4z7b5",
    "classification": "independent",
    "is_independent": true,
    "is_compounding": false,
    "confidence": 0.9,
    "source": "perplexity",
    "method": "llm"
  },
  {
    "title": "Kessler's Pharmacy",
    "price": null,
    "categoryName": "Pharmacy",
    "address": "621 6th Ave SE, Aberdeen, SD 57401",
    "neighborhood": null,
    "street": "621 6th Ave SE",
    "city": "Aberdeen",
    "postalCode": "57401",
    "state": "South Dakota",
    "countryCode": "US",
    "website": "https://www.kesslergrocery.com/",
    "phone": "(605) 225-6673",
    "phoneUnformatted": "+16052256673",
    "claimThisBusiness": false,
    "location": {
      "lat": 45.4592613,
      "lng": -98.4784051
    },
    "totalScore": 4.2,
    "permanentlyClosed": false,
    "temporarilyClosed": false,
    "placeId": null,
    "categories": [
      "Pharmacy"
    ],
    "fid": "0x52d244e6491dea15:0xbe0c5a1044d23600",
    "cid": "13694419592847439360",
    "reviewsCount": 17,
    "imagesCount": 1,
    "imageCategories": [],
    "scrapedAt": "2025-06-22T09:46:23.254Z",
    "googleFoodUrl": null,
    "hotelAds": [],
    "openingHours": [
      {
        "day": "Monday",
        "hours": "8:30\u202fAM to 7\u202fPM"
      },
      {
        "day": "Tuesday",
        "hours": "8:30\u202fAM to 7\u202fPM"
      },
      {
        "day": "Wednesday",
        "hours": "8:30\u202fAM to 7\u202fPM"
      },
      {
        "day": "Thursday",
        "hours": "8:30\u202fAM to 7\u202fPM"
      },
      {
        "day": "Friday",
        "hours": "8:30\u202fAM to 7\u202fPM"
      },
      {
        "day": "Saturday",
        "hours": "9\u202fAM to 4\u202fPM"
      },
      {
        "day": "Sunday",
        "hours": "10\u202fAM to 4\u202fPM"
      }
    ],
    "peopleAlsoSearch": [],
    "placesTags": [],
    "reviewsTags": [],
    "additionalInfo": {
      "From the business": [
        {
          "Small business": true
        }
      ],
      "Service options": [
        {
          "Delivery": true
        },
        {
          "Drive-through": true
        },
        {
          "In-store pickup": true
        }
      ],
      "Accessibility": [
        {
          "Wheelchair accessible entrance": true
        },
        {
          "Wheelchair accessible parking lot": true
        }
      ],
      "Amenities": [
        {
          "Wi-Fi": true
        },
        {
          "Free Wi-Fi": true
        }
      ],
      "Planning": [
        {
          "Quick visit": true
        }
      ],
      "Payments": [
        {
          "Credit cards": true
        },
        {
          "Debit cards": true
        },
        {
          "NFC mobile payments": true
        },
        {
          "Credit cards": true
        }
      ]
    },
    "gasPrices": [],
    "url": "https://www.google.com/maps/search/?api=1&query=Kessler's%20Pharmacy&query_place_id=ChIJFeodSeZE0lIRADbSRBBaDL4",
    "searchPageUrl": "https://www.google.com/maps/search/independent%20pharmacy%20Aberdeen%20SD/@56.705968377238506,-133.54692821486086,9z?hl=en",
    "searchString": "independent pharmacy Aberdeen SD",
    "language": "en",
    "rank": 4,
    "isAdvertisement": false,
    "imageUrl": "https://streetviewpixels-pa.googleapis.com/v1/thumbnail?panoid=mSgqgdsQteG4YJpygPeYTA&cb_client=search.gws-prod.gps&w=408&h=240&yaw=137.30232&pitch=0&thumbfov=100",
    "kgmid": "/g/11bxb9wl2f",
    "classification": "independent",
    "is_independent": true,
    "is_compounding": false,
    "confidence": 0.9,
    "source": "perplexity",
    "method": "llm"
  },
  {
    "title": "Aberdeen Pharmacy",
    "price": null,
    "categoryName": "Pharmacy",
    "address": "1812 Sumner Ave, Aberdeen, WA 98520",
    "neighborhood": null,
    "street": "1812 Sumner Ave",
    "city": "Aberdeen",
    "postalCode": "98520",
    "state": "Washington",
    "countryCode": "US",
    "website": "http://www.aberdeenwarx.com/",
    "phone": "(360) 533-1525",
    "phoneUnformatted": "+13605331525",
    "claimThisBusiness": false,
    "location": {
      "lat": 46.9762579,
      "lng": -123.8380211
    },
    "totalScore": 5,
    "permanentlyClosed": false,
    "temporarilyClosed": false,
    "placeId": null,
    "categories": [
      "Pharmacy"
    ],
    "fid": "0x5492398bf09db4c3:0xd6b18d122783f8e6",
    "cid": "15470301304106252518",
    "reviewsCount": 22,
    "imagesCount": 5,
    "imageCategories": [],
    "scrapedAt": "2025-06-22T09:46:23.254Z",
    "googleFoodUrl": null,
    "hotelAds": [],
    "openingHours": [
      {
        "day": "Monday",
        "hours": "9:30\u202fAM to 5:30\u202fPM"
      },
      {
        "day": "Tuesday",
        "hours": "9:30\u202fAM to 5:30\u202fPM"
      },
      {
        "day": "Wednesday",
        "hours": "9:30\u202fAM to 5:30\u202fPM"
      },
      {
        "day": "Thursday",
        "hours": "9:30\u202fAM to 5:30\u202fPM"
      },
      {
        "day": "Friday",
        "hours": "9:30\u202fAM to 5:30\u202fPM"
      },
      {
        "day": "Saturday",
        "hours": "Closed"
      },
      {
        "day": "Sunday",
        "hours": "Closed"
      }
    ],
    "peopleAlsoSearch": [],
    "placesTags": [],
    "reviewsTags": [],
    "additionalInfo": {
      "Service options": [
        {
          "Curbside pickup": true
        },
        {
          "In-store pickup": true
        }
      ],
      "Accessibility": [
        {
          "Wheelchair accessible entrance": true
        },
        {
          "Wheelchair accessible parking lot": true
        }
      ],
      "Planning": [
        {
          "Quick visit": true
        }
      ],
      "Payments": [
        {
          "Credit cards": true
        }
      ]
    },
    "gasPrices": [],
    "url": "https://www.google.com/maps/search/?api=1&query=Aberdeen%20Pharmacy&query_place_id=ChIJw7Sd8Is5klQR5viDJxKNsdY",
    "searchPageUrl": "https://www.google.com/maps/search/independent%20pharmacy%20Aberdeen%20SD/@56.705968377238506,-133.54692821486086,9z?hl=en",
    "searchString": "independent pharmacy Aberdeen SD",
    "language": "en",
    "rank": 5,
    "isAdvertisement": false,
    "imageUrl": "https://lh3.googleusercontent.com/p/AF1QipPRoE2Oi-Sv1ZzUpvpbPIAv7RKSIxWxRz4zaMkG=w408-h306-k-no",
    "kgmid": "/g/1tnl12zb",
    "classification": "independent",
    "is_independent": true,
    "is_compounding": false,
    "confidence": 0.9,
    "source": "perplexity",
    "method": "llm"
  },
  {
    "title": "Lewis Family Drug - 3rd Ave, Aberdeen",
    "price": null,
    "categoryName": "Pharmacy",
    "address": "3015 3rd Ave SE, Aberdeen, SD 57401",
    "neighborhood": null,
    "street": "3015 3rd Ave SE",
    "city": "Aberdeen",
    "postalCode": "57401",
    "state": "South Dakota",
    "countryCode": "US",
    "website": "https://www.lewisdrug.com/stores/32-lfd-aberdeen-lewis-family-drug",
    "phone": "(605) 262-0475",
    "phoneUnformatted": "+16052620475",
    "claimThisBusiness": false,
    "location": {
      "lat": 45.4631707,
      "lng": -98.4451756
    },
    "totalScore": 4.3,
    "permanentlyClosed": false,
    "temporarilyClosed": false,
    "placeId": null,
    "categories": [
      "Pharmacy"
    ],
    "fid": "0x52d2449e73400001:0x852dc0dd8c92e090",
    "cid": "9596538438775136400",
    "reviewsCount": 6,
    "imagesCount": 1,
    "imageCategories": [],
    "scrapedAt": "2025-06-22T09:46:23.254Z",
    "googleFoodUrl": null,
    "hotelAds": [],
    "openingHours": [
      {
        "day": "Monday",
        "hours": "9\u202fAM to 12:30\u202fPM, 1 to 6\u202fPM"
      },
      {
        "day": "Tuesday",
        "hours": "9\u202fAM to 12:30\u202fPM, 1 to 6\u202fPM"
      },
      {
        "day": "Wednesday",
        "hours": "1\u202fAM to 6\u202fPM"
      },
      {
        "day": "Thursday",
        "hours": "9\u202fAM to 12:30\u202fPM, 1 to 6\u202fPM"
      },
      {
        "day": "Friday",
        "hours": "9\u202fAM to 12:30\u202fPM, 1 to 6\u202fPM"
      },
      {
        "day": "Saturday",
        "hours": "Closed"
      },
      {
        "day": "Sunday",
        "hours": "Closed"
      }
    ],
    "peopleAlsoSearch": [],
    "placesTags": [],
    "reviewsTags": [],
    "additionalInfo": {
      "Service options": [
        {
          "In-store pickup": true
        }
      ],
      "Accessibility": [
        {
          "Wheelchair accessible entrance": true
        },
        {
          "Wheelchair accessible parking lot": true
        }
      ],
      "Planning": [
        {
          "Quick visit": true
        }
      ],
      "Payments": [
        {
          "Credit cards": true
        },
        {
          "Debit cards": true
        },
        {
          "NFC mobile payments": true
        },
        {
          "Credit cards": true
        }
      ]
    },
    "gasPrices": [],
    "url": "https://www.google.com/maps/search/?api=1&query=Lewis%20Family%20Drug%20-%203rd%20Ave%2C%20Aberdeen&query_place_id=ChIJAQBAc55E0lIRkOCSjN3ALYU",
    "searchPageUrl": "https://www.google.com/maps/search/independent%20pharmacy%20Aberdeen%20SD/@56.705968377238506,-133.54692821486086,9z?hl=en",
    "searchString": "independent pharmacy Aberdeen SD",
    "language": "en",
    "rank": 6,
    "isAdvertisement": false,
    "imageUrl": "https://streetviewpixels-pa.googleapis.com/v1/thumbnail?panoid=XT6QGe2ojrw_6RzzBjB_XQ&cb_client=search.gws-prod.gps&w=408&h=240&yaw=317.12585&pitch=0&thumbfov=100",
    "kgmid": "/g/11pz82w48p",
    "classification": "independent",
    "is_independent": true,
    "is_compounding": false,
    "confidence": 0.9,
    "source": "perplexity",
    "method": "llm"
  },
  {
    "title": "Walmart Pharmacy",
    "price": "$",
    "categoryName": "Pharmacy",
    "address": "3820 7th Ave SE, Aberdeen, SD 57401",
    "neighborhood": null,
    "street": "3820 7th Ave SE",
    "city": "Aberdeen",
    "postalCode": "57401",
    "state": "South Dakota",
    "countryCode": "US",
    "website": "https://www.walmart.com/store/1520-aberdeen-sd/pharmacy/?veh=seo_loc",
    "phone": "(605) 229-1519",
    "phoneUnformatted": "+16052291519",
    "claimThisBusiness": false,
    "location": {
      "lat": 45.4562052,
      "lng": -98.4362084
    },
    "totalScore": 3,
    "permanentlyClosed": false,
    "temporarilyClosed": false,
    "placeId": null,
    "categories": [
      "Pharmacy",
      "Herbal medicine store",
      "Medical supply store",
      "Parapharmacy",
      "Vitamin & supplements store"
    ],
    "fid": "0x52d244ea68125669:0xd7de0f6e85b2d24a",
    "cid": "15554887130348180042",
    "reviewsCount": 21,
    "imagesCount": 5,
    "imageCategories": [],
    "scrapedAt": "2025-06-22T09:46:23.254Z",
    "googleFoodUrl": null,
    "hotelAds": [],
    "openingHours": [
      {
        "day": "Monday",
        "hours": "9\u202fAM to 7\u202fPM"
      },
      {
        "day": "Tuesday",
        "hours": "9\u202fAM to 7\u202fPM"
      },
      {
        "day": "Wednesday",
        "hours": "9\u202fAM to 7\u202fPM"
      },
      {
        "day": "Thursday",
        "hours": "9\u202fAM to 7\u202fPM"
      },
      {
        "day": "Friday",
        "hours": "9\u202fAM to 7\u202fPM"
      },
      {
        "day": "Saturday",
        "hours": "9\u202fAM to 5\u202fPM"
      },
      {
        "day": "Sunday",
        "hours": "10\u202fAM to 5\u202fPM"
      }
    ],
    "peopleAlsoSearch": [],
    "placesTags": [],
    "reviewsTags": [],
    "additionalInfo": {
      "Service options": [
        {
          "Delivery": true
        },
        {
          "Drive-through": true
        },
        {
          "In-store pickup": true
        },
        {
          "In-store shopping": true
        }
      ],
      "Accessibility": [
        {
          "Wheelchair accessible entrance": true
        },
        {
          "Wheelchair accessible parking lot": true
        },
        {
          "Wheelchair accessible restroom": true
        }
      ],
      "Offerings": [
        {
          "Passport photos": true
        }
      ],
      "Amenities": [
        {
          "Wi-Fi": true
        },
        {
          "Free Wi-Fi": true
        }
      ],
      "Planning": [
        {
          "Quick visit": true
        }
      ],
      "Payments": [
        {
          "Credit cards": true
        },
        {
          "Debit cards": true
        },
        {
          "Credit cards": true
        }
      ]
    },
    "gasPrices": [],
    "url": "https://www.google.com/maps/search/?api=1&query=Walmart%20Pharmacy&query_place_id=ChIJaVYSaOpE0lIRStKyhW4P3tc",
    "searchPageUrl": "https://www.google.com/maps/search/independent%20pharmacy%20Aberdeen%20SD/@56.705968377238506,-133.54692821486086,9z?hl=en",
    "searchString": "independent pharmacy Aberdeen SD",
    "language": "en",
    "rank": 8,
    "isAdvertisement": false,
    "imageUrl": "https://lh3.googleusercontent.com/p/AF1QipOftfq90BmdMPTFMRV9le9XDQJdD8ZxzvBfduET=w408-h306-k-no",
    "kgmid": "/g/11r8mmkmz",
    "classification": "chain",
    "is_independent": false,
    "is_compounding": false,
    "confidence": 1.0,
    "source": "perplexity",
    "method": "llm"
  },
  {
    "title": "Pharmacy Drive Thru",
    "price": null,
    "categoryName": "Pharmacy",
    "address": "3820 7th Ave SE #1, Aberdeen, SD 57401",
    "neighborhood": null,
    "street": "3820 7th Ave SE #1",
    "city": "Aberdeen",
    "postalCode": "57401",
    "state": "South Dakota",
    "countryCode": "US",
    "phone": "(952) 237-0831",
    "phoneUnformatted": "+19522370831",
    "claimThisBusiness": true,
    "location": {
      "lat": 45.4564841,
      "lng": -98.4353464
    },
    "permanentlyClosed": false,
    "temporarilyClosed": false,
    "placeId": null,
    "categories": [
      "Pharmacy"
    ],
    "fid": "0x52d2435c25fb6b17:0x820a67d5abd1c8d1",
    "cid": "9370416142106085585",
    "reviewsCount": 0,
    "imagesCount": 1,
    "imageCategories": [],
    "scrapedAt": "2025-06-22T09:46:38.597Z",
    "googleFoodUrl": null,
    "hotelAds": [],
    "openingHours": [],
    "peopleAlsoSearch": [],
    "placesTags": [],
    "reviewsTags": [],
    "additionalInfo": {
      "Accessibility": [
        {
          "Wheelchair accessible parking lot": true
        }
      ],
      "Planning": [
        {
          "Quick visit": true
        }
      ],
      "Payments": [
        {
          "Credit cards": true
        }
      ]
    },
    "gasPrices": [],
    "url": "https://www.google.com/maps/search/?api=1&query=Pharmacy%20Drive%20Thru&query_place_id=ChIJF2v7JVxD0lIR0cjRq9VnCoI",
    "searchPageUrl": "https://www.google.com/maps/search/independent%20pharmacy%20Aberdeen%20SD/@22.87074910283459,-161.71582772408175,13z?hl=en",
    "searchString": "independent pharmacy Aberdeen SD",
    "language": "en",
    "rank": 6,
    "isAdvertisement": false,
    "imageUrl": "https://streetviewpixels-pa.googleapis.com/v1/thumbnail?panoid=uvU7eRsNTcVOvE-3OUG7CQ&cb_client=search.gws-prod.gps&w=408&h=240&yaw=122.06582&pitch=0&thumbfov=100",
    "kgmid": "/g/11cs2h89zf",
    "classification": "independent",
    "is_independent": true,
    "is_compounding": false,
    "confidence": 0.85,
    "source": "perplexity",
    "method": "llm"
  },
  {
    "title": "Lewis Distribution Center",
    "price": null,
    "categoryName": "Pharmacy",
    "address": "700 East 54th St N, Sioux Falls, SD 57104",
    "neighborhood": null,
    "street": "700 East 54th St N",
    "city": "Sioux Falls",
    "postalCode": "57104",
    "state": "South Dakota",
    "countryCode": "US",
    "phone": "(605) 367-2000",
    "phoneUnformatted": "+16053672000",
    "claimThisBusiness": false,
    "location": {
      "lat": 43.5955886,
      "lng": -96.7168121
    },
    "totalScore": 4.7,
    "permanentlyClosed": false,
    "temporarilyClosed": false,
    "placeId": null,
    "categories": [
      "Pharmacy"
    ],
    "fid": "0x878ec9fe4ec65fd3:0x56cdc88f33c4f957",
    "cid": "6254875974861912407",
    "reviewsCount": 12,
    "imagesCount": 4,
    "imageCategories": [],
    "scrapedAt": "2025-06-22T09:47:29.782Z",
    "googleFoodUrl": null,
    "hotelAds": [],
    "openingHours": [
      {
        "day": "Monday",
        "hours": "7\u202fAM to 4\u202fPM"
      },
      {
        "day": "Tuesday",
        "hours": "7\u202fAM to 4\u202fPM"
      },
      {
        "day": "Wednesday",
        "hours": "7\u202fAM to 4\u202fPM"
      },
      {
        "day": "Thursday",
        "hours": "7\u202fAM to 4\u202fPM"
      },
      {
        "day": "Friday",
        "hours": "7\u202fAM to 4\u202fPM"
      },
      {
        "day": "Saturday",
        "hours": "Closed"
      },
      {
        "day": "Sunday",
        "hours": "Closed"
      }
    ],
    "peopleAlsoSearch": [],
    "placesTags": [],
    "reviewsTags": [],
    "additionalInfo": {
      "Accessibility": [
        {
          "Wheelchair accessible parking lot": true
        }
      ]
    },
    "gasPrices": [],
    "url": "https://www.google.com/maps/search/?api=1&query=Lewis%20Distribution%20Center&query_place_id=ChIJ01_GTv7JjocRV_nEM4_IzVY",
    "searchPageUrl": "https://www.google.com/maps/search/independent%20pharmacy%20Aberdeen%20SD/@42.54640259466427,-95.98474960000003,8z?hl=en",
    "searchString": "independent pharmacy Aberdeen SD",
    "language": "en",
    "rank": 1,
    "isAdvertisement": false,
    "imageUrl": "https://lh3.googleusercontent.com/gps-cs-s/AC9h4npTbdmUAe5E4H-cqC4XjCZXhvFjU6pPsYlZKOUB8vPwLVy2LFVTCdPhY2tTeUS3Q7icwBfCrvwMpVi3jSE9Ad-9L9DV8aLk1_owcqI2WNPgF7aQldK-yK-NmeoyaO2tmgonuY1W=w408-h544-k-no",
    "kgmid": "/g/1tj532kj",
    "classification": "not_a_pharmacy",
    "is_independent": false,
    "is_compounding": false,
    "confidence": 0.9,
    "source": "perplexity",
    "method": "llm"
  },
  {
    "title": "Lewis Pharmacy Sanford",
    "price": null,
    "categoryName": "Pharmacy",
    "address": "1205 S Grange Ave MB 2, Sioux Falls, SD 57105",
    "neighborhood": null,
    "street": "1205 S Grange Ave MB 2",
    "city": "Sioux Falls",
    "postalCode": "57105",
    "state": "South Dakota",
    "countryCode": "US",
    "website": "https://www.lewisdrug.com/stores/lewis-clinic-pharmacy-at-sanford-grange-avenue",
    "phone": "(605) 367-2620",
    "phoneUnformatted": "+16053672620",
    "claimThisBusiness": false,
    "location": {
      "lat": 43.5344609,
      "lng": -96.7430329
    },
    "totalScore": 5,
    "permanentlyClosed": false,
    "temporarilyClosed": false,
    "placeId": null,
    "categories": [
      "Pharmacy",
      "Drug store"
    ],
    "fid": "0x878eb5f33eccf293:0x8a1b613fcec41611",
    "cid": "9951654728285034001",
    "reviewsCount": 8,
    "imagesCount": 5,
    "imageCategories": [],
    "scrapedAt": "2025-06-22T09:47:29.782Z",
    "googleFoodUrl": null,
    "hotelAds": [],
    "openingHours": [
      {
        "day": "Monday",
        "hours": "8\u202fAM to 5:30\u202fPM"
      },
      {
        "day": "Tuesday",
        "hours": "8\u202fAM to 5:30\u202fPM"
      },
      {
        "day": "Wednesday",
        "hours": "8\u202fAM to 5:30\u202fPM"
      },
      {
        "day": "Thursday",
        "hours": "8\u202fAM to 5:30\u202fPM"
      },
      {
        "day": "Friday",
        "hours": "8\u202fAM to 5:30\u202fPM"
      },
      {
        "day": "Saturday",
        "hours": "Closed"
      },
      {
        "day": "Sunday",
        "hours": "Closed"
      }
    ],
    "peopleAlsoSearch": [],
    "placesTags": [],
    "reviewsTags": [],
    "additionalInfo": {
      "Service options": [
        {
          "Curbside pickup": true
        },
        {
          "In-store pickup": true
        },
        {
          "In-store shopping": true
        }
      ],
      "Accessibility": [
        {
          "Wheelchair accessible entrance": true
        },
        {
          "Wheelchair accessible parking lot": true
        }
      ],
      "Amenities": [
        {
          "Wi-Fi": true
        },
        {
          "Free Wi-Fi": true
        }
      ],
      "Planning": [
        {
          "Quick visit": true
        }
      ],
      "Payments": [
        {
          "Checks": true
        },
        {
          "Credit cards": true
        },
        {
          "Debit cards": true
        }
      ]
    },
    "gasPrices": [],
    "url": "https://www.google.com/maps/search/?api=1&query=Lewis%20Pharmacy%20Sanford&query_place_id=ChIJk_LMPvO1jocRERbEzj9hG4o",
    "searchPageUrl": "https://www.google.com/maps/search/independent%20pharmacy%20Aberdeen%20SD/@42.54640259466427,-95.98474960000003,8z?hl=en",
    "searchString": "independent pharmacy Aberdeen SD",
    "language": "en",
    "rank": 2,
    "isAdvertisement": false,
    "imageUrl": "https://lh3.googleusercontent.com/p/AF1QipNvHlRqOc2X8wpiSE8d4AYDelR4EqQsqesI1RQ=w408-h270-k-no",
    "kgmid": "/g/1tkc2ly2",
    "classification": "chain",
    "is_independent": false,
    "is_compounding": false,
    "confidence": 0.95,
    "source": "perplexity",
    "method": "llm"
  },
  {
    "title": "Avera Long-Term Care Pharmacy",
    "price": null,
    "categoryName": "Pharmacy",
    "address": "4101 W Memory Cir Suite 120, Sioux Falls, SD 57107",
    "neighborhood": null,
    "street": "4101 W Memory Cir Suite 120",
    "city": "Sioux Falls",
    "postalCode": "57107",
    "state": "South Dakota",
    "countryCode": "US",
    "website": "https://www.avera.org/health-care-professionals/long-term-care-pharmacy-services/",
    "phone": "(605) 322-1450",
    "phoneUnformatted": "+16053221450",
    "claimThisBusiness": false,
    "location": {
      "lat": 43.6377215,
      "lng": -96.7828387
    },
    "totalScore": 5,
    "permanentlyClosed": false,
    "temporarilyClosed": false,
    "placeId": null,
    "categories": [
      "Pharmacy"
    ],
    "fid": "0x878eb4d02a29ac67:0x2922bcdeb8bfc910",
    "cid": "2964139169531545872",
    "reviewsCount": 3,
    "imagesCount": 1,
    "imageCategories": [],
    "scrapedAt": "2025-06-22T09:47:29.782Z",
    "googleFoodUrl": null,
    "hotelAds": [],
    "openingHours": [
      {
        "day": "Monday",
        "hours": "8\u202fAM to 5\u202fPM"
      },
      {
        "day": "Tuesday",
        "hours": "8\u202fAM to 5\u202fPM"
      },
      {
        "day": "Wednesday",
        "hours": "8\u202fAM to 5\u202fPM"
      },
      {
        "day": "Thursday",
        "hours": "8\u202fAM to 5\u202fPM"
      },
      {
        "day": "Friday",
        "hours": "8\u202fAM to 5\u202fPM"
      },
      {
        "day": "Saturday",
        "hours": "Closed"
      },
      {
        "day": "Sunday",
        "hours": "Closed"
      }
    ],
    "peopleAlsoSearch": [],
    "placesTags": [],
    "reviewsTags": [],
    "additionalInfo": {
      "Service options": [
        {
          "Delivery": true
        },
        {
          "Onsite services": true
        }
      ],
      "Accessibility": [
        {
          "Wheelchair accessible entrance": true
        },
        {
          "Wheelchair accessible parking lot": true
        }
      ]
    },
    "gasPrices": [],
    "url": "https://www.google.com/maps/search/?api=1&query=Avera%20Long-Term%20Care%20Pharmacy&query_place_id=ChIJZ6wpKtC0jocREMm_uN68Iik",
    "searchPageUrl": "https://www.google.com/maps/search/independent%20pharmacy%20Aberdeen%20SD/@42.54640259466427,-95.98474960000003,8z?hl=en",
    "searchString": "independent pharmacy Aberdeen SD",
    "language": "en",
    "rank": 3,
    "isAdvertisement": false,
    "imageUrl": "https://lh3.googleusercontent.com/p/AF1QipMUS1tQXur5LvFvUpFOQC1hTPL_70DymvTp53eh=w408-h306-k-no",
    "kgmid": "/g/11bvt538xb",
    "classification": "independent",
    "is_independent": true,
    "is_compounding": false,
    "confidence": 0.9,
    "source": "perplexity",
    "method": "llm"
  },
  {
    "title": "Lewis Pharmacy Sanford",
    "price": null,
    "categoryName": "Pharmacy",
    "address": "6110 S Minnesota Ave, Sioux Falls, SD 57108",
    "neighborhood": null,
    "street": "6110 S Minnesota Ave",
    "city": "Sioux Falls",
    "postalCode": "57108",
    "state": "South Dakota",
    "countryCode": "US",
    "website": "https://www.lewisdrug.com/locations/sioux-falls-mb2-lewis-pharmacy-sanford",
    "phone": "(605) 367-2000",
    "phoneUnformatted": "+16053672000",
    "claimThisBusiness": true,
    "location": {
      "lat": 43.4889267,
      "lng": -96.7264912
    },
    "totalScore": 3,
    "permanentlyClosed": false,
    "temporarilyClosed": false,
    "placeId": null,
    "categories": [
      "Pharmacy",
      "Drug store"
    ],
    "fid": "0x878eb6478fc2eca9:0xd508daaf37e2a092",
    "cid": "15350759775984066706",
    "reviewsCount": 2,
    "imagesCount": 1,
    "imageCategories": [],
    "scrapedAt": "2025-06-22T09:47:29.783Z",
    "googleFoodUrl": null,
    "hotelAds": [],
    "openingHours": [
      {
        "day": "Monday",
        "hours": "9\u202fAM to 6\u202fPM"
      },
      {
        "day": "Tuesday",
        "hours": "9\u202fAM to 6\u202fPM"
      },
      {
        "day": "Wednesday",
        "hours": "9\u202fAM to 6\u202fPM"
      },
      {
        "day": "Thursday",
        "hours": "9\u202fAM to 6\u202fPM"
      },
      {
        "day": "Friday",
        "hours": "9\u202fAM to 6\u202fPM"
      },
      {
        "day": "Saturday",
        "hours": "Closed"
      },
      {
        "day": "Sunday",
        "hours": "Closed"
      }
    ],
    "peopleAlsoSearch": [],
    "placesTags": [],
    "reviewsTags": [],
    "additionalInfo": {
      "Accessibility": [
        {
          "Wheelchair accessible entrance": true
        },
        {
          "Wheelchair accessible parking lot": true
        }
      ],
      "Payments": [
        {
          "Checks": true
        },
        {
          "Credit cards": true
        }
      ]
    },
    "gasPrices": [],
    "url": "https://www.google.com/maps/search/?api=1&query=Lewis%20Pharmacy%20Sanford&query_place_id=ChIJqezCj0e2jocRkqDiN6_aCNU",
    "searchPageUrl": "https://www.google.com/maps/search/independent%20pharmacy%20Aberdeen%20SD/@42.54640259466427,-95.98474960000003,8z?hl=en",
    "searchString": "independent pharmacy Aberdeen SD",
    "language": "en",
    "rank": 4,
    "isAdvertisement": false,
    "imageUrl": "https://streetviewpixels-pa.googleapis.com/v1/thumbnail?panoid=A3X5wB3q2hjFLzK5WRTNLw&cb_client=search.gws-prod.gps&w=408&h=240&yaw=93.54886&pitch=0&thumbfov=100",
    "kgmid": "/g/1xg5t55t",
    "classification": "chain",
    "is_independent": false,
    "is_compounding": false,
    "confidence": 0.95,
    "source": "perplexity",
    "method": "llm"
  },
  {
    "title": "Lewis Drug",
    "price": null,
    "categoryName": "Drug store",
    "address": "2701 S Minnesota Ave Suite 1, Sioux Falls, SD 57105",
    "neighborhood": null,
    "street": "2701 S Minnesota Ave Suite 1",
    "city": "Sioux Falls",
    "postalCode": "57105",
    "state": "South Dakota",
    "countryCode": "US",
    "website": "http://lewisdrugbenefits.com/",
    "phone": "(877) 282-0808",
    "phoneUnformatted": "+18772820808",
    "claimThisBusiness": true,
    "location": {
      "lat": 43.5197263,
      "lng": -96.7319146
    },
    "permanentlyClosed": false,
    "temporarilyClosed": false,
    "placeId": null,
    "categories": [
      "Drug store"
    ],
    "fid": "0x878eb5e1151fd8ef:0x654ee62717a70ec9",
    "cid": "7300025101589089993",
    "reviewsCount": 0,
    "imagesCount": null,
    "imageCategories": [],
    "scrapedAt": "2025-06-22T09:47:29.783Z",
    "googleFoodUrl": null,
    "hotelAds": [],
    "openingHours": [],
    "peopleAlsoSearch": [],
    "placesTags": [],
    "reviewsTags": [],
    "additionalInfo": {
      "Accessibility": [
        {
          "Wheelchair accessible entrance": true
        },
        {
          "Wheelchair accessible parking lot": true
        }
      ],
      "Payments": [
        {
          "Credit cards": true
        }
      ]
    },
    "gasPrices": [],
    "url": "https://www.google.com/maps/search/?api=1&query=Lewis%20Drug&query_place_id=ChIJ79gfFeG1jocRyQ6nFyfmTmU",
    "searchPageUrl": "https://www.google.com/maps/search/independent%20pharmacy%20Aberdeen%20SD/@42.54640259466427,-95.98474960000003,8z?hl=en",
    "searchString": "independent pharmacy Aberdeen SD",
    "language": "en",
    "rank": 5,
    "isAdvertisement": false,
    "kgmid": "/g/11vwg8_f7_",
    "classification": "independent",
    "is_independent": true,
    "is_compounding": false,
    "confidence": 0.9,
    "source": "perplexity",
    "method": "llm"
  },
  {
    "title": "Lynn's Dakotamart Pharmacy - Belle Fourche",
    "price": null,
    "categoryName": "Pharmacy",
    "address": "600 National St, Belle Fourche, SD 57717, United States",
    "neighborhood": null,
    "street": "600 National St",
    "city": "Belle Fourche",
    "postalCode": "57717",
    "state": "South Dakota",
    "countryCode": "US",
    "website": "https://www.mygnp.com/pharmacies/lynns-dakotamart-pharmacy-belle-fourche-belle-fourche-sd-57717/?utm_source=google&utm_medium=local&utm_campaign=localmaps&utm_content=4353835",
    "phone": "+1 605-892-2666",
    "phoneUnformatted": "+16058922666",
    "claimThisBusiness": false,
    "location": {
      "lat": 44.6621375,
      "lng": -103.8513957
    },
    "totalScore": 4.5,
    "permanentlyClosed": false,
    "temporarilyClosed": false,
    "placeId": null,
    "categories": [
      "Pharmacy",
      "Drug store"
    ],
    "fid": "0x533283eb6d637295:0x59bdbc8217d6ed0c",
    "cid": "6466531906905632012",
    "reviewsCount": 8,
    "imagesCount": 6,
    "imageCategories": [],
    "scrapedAt": "2025-06-22T09:47:48.550Z",
    "googleFoodUrl": null,
    "hotelAds": [],
    "openingHours": [
      {
        "day": "Monday",
        "hours": "8:30\u202fAM to 6\u202fPM"
      },
      {
        "day": "Tuesday",
        "hours": "8:30\u202fAM to 6\u202fPM"
      },
      {
        "day": "Wednesday",
        "hours": "8:30\u202fAM to 6\u202fPM"
      },
      {
        "day": "Thursday",
        "hours": "8:30\u202fAM to 6\u202fPM"
      },
      {
        "day": "Friday",
        "hours": "8:30\u202fAM to 6\u202fPM"
      },
      {
        "day": "Saturday",
        "hours": "8\u202fAM to 1\u202fPM"
      },
      {
        "day": "Sunday",
        "hours": "Closed"
      }
    ],
    "peopleAlsoSearch": [],
    "placesTags": [],
    "reviewsTags": [],
    "additionalInfo": {
      "Service options": [
        {
          "Delivery": true
        },
        {
          "In-store pick-up": true
        },
        {
          "In-store shopping": true
        },
        {
          "On-site services": true
        }
      ],
      "Accessibility": [
        {
          "Wheelchair-accessible car park": true
        },
        {
          "Wheelchair-accessible entrance": true
        }
      ],
      "Planning": [
        {
          "Quick visit": true
        }
      ],
      "Payments": [
        {
          "Cheques": true
        },
        {
          "Credit cards": true
        },
        {
          "Debit cards": true
        },
        {
          "NFC mobile payments": true
        },
        {
          "Credit cards": true
        }
      ]
    },
    "gasPrices": [],
    "url": "https://www.google.com/maps/search/?api=1&query=Lynn's%20Dakotamart%20Pharmacy%20-%20Belle%20Fourche&query_place_id=ChIJlXJjbeuDMlMRDO3WF4K8vVk",
    "searchPageUrl": "https://www.google.com/maps/search/independent%20pharmacy%20Aberdeen%20SD/@45.410355141996405,-105.48342742835163,8z?hl=en",
    "searchString": "independent pharmacy Aberdeen SD",
    "language": "en",
    "rank": 1,
    "isAdvertisement": false,
    "imageUrl": "https://lh3.googleusercontent.com/p/AF1QipNGQBTwcvbEXy2L-_ISsk07iW2FKGCpBwkFDI24=w408-h306-k-no",
    "kgmid": "/g/1tfby3gf",
    "classification": "independent",
    "is_independent": true,
    "is_compounding": false,
    "confidence": 0.9,
    "source": "perplexity",
    "method": "llm"
  }
]