[
  {
    "title": "Pharmacy Partners",
    "price": null,
    "categoryName": "Pharmacy",
    "address": "3831 E Blue Lupine Dr suite a, Wasilla, AK 99654",
    "neighborhood": "Lakes",
    "street": "3831 E Blue Lupine Dr suite a",
    "city": "Wasilla",
    "postalCode": "99654",
    "state": "Alaska",
    "countryCode": "US",
    "website": "https://pharmacypartnersalaska.com/",
    "phone": "(907) 376-5700",
    "phoneUnformatted": "+19073765700",
    "claimThisBusiness": false,
    "location": {
      "lat": 61.5724744,
      "lng": -149.3537575
    },
    "totalScore": 4.3,
    "permanentlyClosed": false,
    "temporarilyClosed": false,
    "placeId": null,
    "categories": [
      "Pharmacy",
      "Drug store"
    ],
    "fid": "0x56c8e08112435dc9:0x6e9c893fe9aef1eb",
    "cid": "7970396348135436779",
    "reviewsCount": 40,
    "imagesCount": 2,
    "imageCategories": [],
    "scrapedAt": "2025-06-22T07:04:11.912Z",
    "googleFoodUrl": null,
    "hotelAds": [],
    "openingHours": [
      {
        "day": "Monday",
        "hours": "8\u202fAM to 5\u202fPM"
      },
      {
        "day": "Tuesday",
        "hours": "8\u202fAM to 5\u202fPM"
      },
      {
        "day": "Wednesday",
        "hours": "8\u202fAM to 5\u202fPM"
      },
      {
        "day": "Thursday",
        "hours": "8\u202fAM to 5\u202fPM"
      },
      {
        "day": "Friday",
        "hours": "8\u202fAM to 5\u202fPM"
      },
      {
        "day": "Saturday",
        "hours": "Closed"
      },
      {
        "day": "Sunday",
        "hours": "Closed"
      }
    ],
    "additionalOpeningHours": {
      "Drive through": [
        {
          "day": "Monday",
          "hours": "8\u202fAM\u20135\u202fPM"
        },
        {
          "day": "Tuesday",
          "hours": "8\u202fAM\u20135\u202fPM"
        },
        {
          "day": "Wednesday",
          "hours": "8\u202fAM\u20135\u202fPM"
        },
        {
          "day": "Thursday",
          "hours": "8\u202fAM\u20135\u202fPM"
        },
        {
          "day": "Friday",
          "hours": "8\u202fAM\u20135\u202fPM"
        },
        {
          "day": "Saturday",
          "hours": "Closed"
        },
        {
          "day": "Sunday",
          "hours": "Closed"
        }
      ]
    },
    "peopleAlsoSearch": [],
    "placesTags": [],
    "reviewsTags": [],
    "additionalInfo": {
      "From the business": [
        {
          "Small business": true
        }
      ],
      "Service options": [
        {
          "Delivery": true
        },
        {
          "Drive-through": true
        },
        {
          "In-store pickup": true
        },
        {
          "Same-day delivery": true
        }
      ],
      "Accessibility": [
        {
          "Wheelchair accessible entrance": true
        },
        {
          "Wheelchair accessible parking lot": true
        }
      ],
      "Planning": [
        {
          "Quick visit": true
        }
      ],
      "Payments": [
        {
          "Credit cards": true
        }
      ]
    },
    "gasPrices": [],
    "url": "https://www.google.com/maps/search/?api=1&query=Pharmacy%20Partners&query_place_id=ChIJyV1DEoHgyFYR6_Gu6T-JnG4",
    "searchPageUrl": "https://www.google.com/maps/search/independent%20pharmacy%20Wasilla%20AK/@61.56929586514925,-163.4677018424355,9z?hl=en",
    "searchString": "independent pharmacy Wasilla AK",
    "language": "en",
    "rank": 1,
    "isAdvertisement": false,
    "imageUrl": "https://lh3.googleusercontent.com/p/AF1QipPEGOzLgh1vYE1g4B3MbL0KsxEoRSYZFI72NM0_=w426-h240-k-no",
    "kgmid": "/g/11gblbj4j8",
    "classification": "independent",
    "is_independent": true,
    "is_compounding": false,
    "confidence": 0.9,
    "source": "perplexity",
    "method": "llm"
  },
  {
    "title": "Carrs Pharmacy",
    "price": null,
    "categoryName": "Pharmacy",
    "address": "595 E Parks Hwy, Wasilla, AK 99654",
    "neighborhood": null,
    "street": "595 E Parks Hwy",
    "city": "Wasilla",
    "postalCode": "99654",
    "state": "Alaska",
    "countryCode": "US",
    "website": "https://local.pharmacy.carrsqc.com/ak/wasilla/595-e-parks-hwy.html",
    "phone": "(907) 352-1160",
    "phoneUnformatted": "+19073521160",
    "claimThisBusiness": false,
    "location": {
      "lat": 61.5826681,
      "lng": -149.4363296
    },
    "totalScore": 3.3,
    "permanentlyClosed": false,
    "temporarilyClosed": false,
    "placeId": null,
    "categories": [
      "Pharmacy",
      "Drug store",
      "Vitamin & supplements store"
    ],
    "fid": "0x56c8de1358b0281f:0x44961c2e445c8f32",
    "cid": "4942168626126688050",
    "reviewsCount": 61,
    "imagesCount": 7,
    "imageCategories": [],
    "scrapedAt": "2025-06-22T07:04:11.913Z",
    "googleFoodUrl": null,
    "hotelAds": [],
    "openingHours": [
      {
        "day": "Monday",
        "hours": "9\u202fAM to 1:30\u202fPM, 2 to 9\u202fPM"
      },
      {
        "day": "Tuesday",
        "hours": "9\u202fAM to 1:30\u202fPM, 2 to 9\u202fPM"
      },
      {
        "day": "Wednesday",
        "hours": "9\u202fAM to 1:30\u202fPM, 2 to 9\u202fPM"
      },
      {
        "day": "Thursday",
        "hours": "9\u202fAM to 1:30\u202fPM, 2 to 9\u202fPM"
      },
      {
        "day": "Friday",
        "hours": "9\u202fAM to 1:30\u202fPM, 2 to 9\u202fPM"
      },
      {
        "day": "Saturday",
        "hours": "10\u202fAM to 1:30\u202fPM, 2 to 6\u202fPM"
      },
      {
        "day": "Sunday",
        "hours": "10\u202fAM to 1:30\u202fPM, 2 to 6\u202fPM"
      }
    ],
    "peopleAlsoSearch": [],
    "placesTags": [],
    "reviewsTags": [],
    "additionalInfo": {
      "Service options": [
        {
          "Delivery": true
        },
        {
          "In-store pickup": true
        },
        {
          "In-store shopping": true
        },
        {
          "Same-day delivery": true
        }
      ],
      "Accessibility": [
        {
          "Wheelchair accessible entrance": true
        },
        {
          "Wheelchair accessible parking lot": true
        }
      ],
      "Crowd": [
        {
          "LGBTQ+ friendly": true
        }
      ],
      "Planning": [
        {
          "Appointment required": true
        },
        {
          "Quick visit": true
        }
      ],
      "Payments": [
        {
          "Checks": true
        },
        {
          "Debit cards": true
        },
        {
          "Credit cards": true
        }
      ]
    },
    "gasPrices": [],
    "url": "https://www.google.com/maps/search/?api=1&query=Carrs%20Pharmacy&query_place_id=ChIJHyiwWBPeyFYRMo9cRC4clkQ",
    "searchPageUrl": "https://www.google.com/maps/search/independent%20pharmacy%20Wasilla%20AK/@61.56929586514925,-163.4677018424355,9z?hl=en",
    "searchString": "independent pharmacy Wasilla AK",
    "language": "en",
    "rank": 2,
    "isAdvertisement": false,
    "imageUrl": "https://lh3.googleusercontent.com/gps-cs-s/AC9h4noEzmQmJ9Swm0kshzK8lxcaqnAe2rzdewuUS4j_WYE8F2EJdplmbnS64jTxTghQtCIxLwfrMwlDh3NKxWBzx-9wktp92jFHnnIYlGDGZHtT2HVpoc4IfigxhRpsTUVcLt7E0B-N-Q=w408-h725-k-no",
    "kgmid": "/g/1tgg9pzw",
    "classification": "independent",
    "is_independent": true,
    "is_compounding": false,
    "confidence": 0.85,
    "source": "perplexity",
    "method": "llm"
  },
  {
    "title": "Fred Meyer Pharmacy",
    "price": null,
    "categoryName": "Pharmacy",
    "address": "1501 E Parks Hwy, Wasilla, AK 99654",
    "neighborhood": null,
    "street": "1501 E Parks Hwy",
    "city": "Wasilla",
    "postalCode": "99654",
    "state": "Alaska",
    "countryCode": "US",
    "website": "https://www.fredmeyer.com/rx/pharmacy/details/701/00653?cid=loc_70100653P_gmb",
    "phone": "(907) 352-5033",
    "phoneUnformatted": "+19073525033",
    "claimThisBusiness": false,
    "location": {
      "lat": 61.5793971,
      "lng": -149.4090072
    },
    "totalScore": 3.8,
    "permanentlyClosed": false,
    "temporarilyClosed": false,
    "placeId": null,
    "categories": [
      "Pharmacy",
      "Drug store",
      "Health counselor",
      "Home health care service"
    ],
    "fid": "0x56c8de190b7202ef:0xb149ded7a7ecf2ad",
    "cid": "12774986835829781165",
    "reviewsCount": 39,
    "imagesCount": 13,
    "imageCategories": [],
    "scrapedAt": "2025-06-22T07:04:11.913Z",
    "googleFoodUrl": null,
    "hotelAds": [],
    "openingHours": [
      {
        "day": "Monday",
        "hours": "9\u202fAM to 1\u202fPM, 1:30 to 8\u202fPM"
      },
      {
        "day": "Tuesday",
        "hours": "9\u202fAM to 1\u202fPM, 1:30 to 8\u202fPM"
      },
      {
        "day": "Wednesday",
        "hours": "9\u202fAM to 1\u202fPM, 1:30 to 8\u202fPM"
      },
      {
        "day": "Thursday",
        "hours": "9\u202fAM to 1\u202fPM, 1:30 to 8\u202fPM"
      },
      {
        "day": "Friday",
        "hours": "9\u202fAM to 1\u202fPM, 1:30 to 8\u202fPM"
      },
      {
        "day": "Saturday",
        "hours": "10\u202fAM to 1\u202fPM, 1:30 to 6\u202fPM"
      },
      {
        "day": "Sunday",
        "hours": "10\u202fAM to 1\u202fPM, 1:30 to 6\u202fPM"
      }
    ],
    "peopleAlsoSearch": [],
    "placesTags": [],
    "reviewsTags": [],
    "additionalInfo": {
      "Service options": [
        {
          "Curbside pickup": true
        },
        {
          "Delivery": true
        },
        {
          "In-store pickup": true
        },
        {
          "In-store shopping": true
        },
        {
          "Same-day delivery": true
        }
      ],
      "Accessibility": [
        {
          "Wheelchair accessible entrance": true
        },
        {
          "Wheelchair accessible parking lot": true
        },
        {
          "Wheelchair accessible restroom": true
        },
        {
          "Wheelchair accessible seating": true
        }
      ],
      "Offerings": [
        {
          "Passport photos": true
        }
      ],
      "Crowd": [
        {
          "LGBTQ+ friendly": true
        },
        {
          "Transgender safespace": true
        }
      ],
      "Planning": [
        {
          "Quick visit": true
        }
      ],
      "Payments": [
        {
          "Checks": true
        },
        {
          "Credit cards": true
        },
        {
          "Debit cards": true
        },
        {
          "NFC mobile payments": true
        },
        {
          "Credit cards": true
        }
      ]
    },
    "gasPrices": [],
    "url": "https://www.google.com/maps/search/?api=1&query=Fred%20Meyer%20Pharmacy&query_place_id=ChIJ7wJyCxneyFYRrfLsp9feSbE",
    "searchPageUrl": "https://www.google.com/maps/search/independent%20pharmacy%20Wasilla%20AK/@61.56929586514925,-163.4677018424355,9z?hl=en",
    "searchString": "independent pharmacy Wasilla AK",
    "language": "en",
    "rank": 3,
    "isAdvertisement": false,
    "imageUrl": "https://lh3.googleusercontent.com/gps-cs-s/AC9h4np8qDOabT9Xg3GUxGaaOLC4XkIhHae2gUOnqtengJb81TF2_aAdzuRTxnm2K954QblSGPVeeOt9h3BNwt9IxHfAmOmh_PHRWbMDL81Kl4MayB81s40dPYq4jk35vA0ME0GX88En=w408-h544-k-no",
    "kgmid": "/g/1tdsjj0g",
    "classification": "chain",
    "is_independent": false,
    "is_compounding": false,
    "confidence": 0.98,
    "source": "perplexity",
    "method": "llm"
  },
  {
    "title": "Walgreens Pharmacy",
    "description": "Department of the Walgreens chain providing prescription medications & other health-related items.",
    "price": "$$",
    "categoryName": "Pharmacy",
    "address": "1721 E Parks Hwy, Wasilla, AK 99654",
    "neighborhood": null,
    "street": "1721 E Parks Hwy",
    "city": "Wasilla",
    "postalCode": "99654",
    "state": "Alaska",
    "countryCode": "US",
    "website": "https://www.walgreens.com/locator/walgreens-1721+e+parks+hwy-wasilla-ak-99654/id=12681",
    "phone": "(907) 631-0300",
    "phoneUnformatted": "+19076310300",
    "claimThisBusiness": false,
    "location": {
      "lat": 61.5773533,
      "lng": -149.4069842
    },
    "totalScore": 2.4,
    "permanentlyClosed": false,
    "temporarilyClosed": false,
    "placeId": null,
    "categories": [
      "Pharmacy"
    ],
    "fid": "0x56c8de193ef7f361:0x92d9cd4865ab7dfe",
    "cid": "10581714510310768126",
    "reviewsCount": 54,
    "imagesCount": 4,
    "imageCategories": [],
    "scrapedAt": "2025-06-22T07:04:11.914Z",
    "googleFoodUrl": null,
    "hotelAds": [],
    "openingHours": [
      {
        "day": "Monday",
        "hours": "9\u202fAM to 7\u202fPM"
      },
      {
        "day": "Tuesday",
        "hours": "9\u202fAM to 7\u202fPM"
      },
      {
        "day": "Wednesday",
        "hours": "9\u202fAM to 7\u202fPM"
      },
      {
        "day": "Thursday",
        "hours": "9\u202fAM to 7\u202fPM"
      },
      {
        "day": "Friday",
        "hours": "9\u202fAM to 7\u202fPM"
      },
      {
        "day": "Saturday",
        "hours": "9\u202fAM to 6\u202fPM"
      },
      {
        "day": "Sunday",
        "hours": "10\u202fAM to 6\u202fPM"
      }
    ],
    "additionalOpeningHours": {
      "Drive through": [
        {
          "day": "Monday",
          "hours": "9\u202fAM\u20131:30\u202fPM"
        },
        {
          "day": "Tuesday",
          "hours": "9\u202fAM\u20131:30\u202fPM"
        },
        {
          "day": "Wednesday",
          "hours": "9\u202fAM\u20131:30\u202fPM"
        },
        {
          "day": "Thursday",
          "hours": "9\u202fAM\u20131:30\u202fPM"
        },
        {
          "day": "Friday",
          "hours": "9\u202fAM\u20131:30\u202fPM"
        },
        {
          "day": "Saturday",
          "hours": "9\u202fAM\u20131:30\u202fPM"
        },
        {
          "day": "Sunday",
          "hours": "10\u202fAM\u20131:30\u202fPM"
        }
      ]
    },
    "peopleAlsoSearch": [],
    "placesTags": [],
    "reviewsTags": [],
    "additionalInfo": {
      "Service options": [
        {
          "Curbside pickup": true
        },
        {
          "Drive-through": true
        },
        {
          "In-store pickup": true
        },
        {
          "Onsite services": true
        }
      ],
      "Accessibility": [
        {
          "Wheelchair accessible entrance": true
        },
        {
          "Wheelchair accessible parking lot": true
        }
      ],
      "Offerings": [
        {
          "Naloxone": true
        },
        {
          "Passport photos": true
        }
      ],
      "Planning": [
        {
          "Quick visit": true
        }
      ],
      "Payments": [
        {
          "Checks": true
        },
        {
          "Credit cards": true
        },
        {
          "Debit cards": true
        }
      ]
    },
    "gasPrices": [],
    "url": "https://www.google.com/maps/search/?api=1&query=Walgreens%20Pharmacy&query_place_id=ChIJYfP3PhneyFYR_n2rZUjN2ZI",
    "searchPageUrl": "https://www.google.com/maps/search/independent%20pharmacy%20Wasilla%20AK/@61.56929586514925,-163.4677018424355,9z?hl=en",
    "searchString": "independent pharmacy Wasilla AK",
    "language": "en",
    "rank": 4,
    "isAdvertisement": false,
    "imageUrl": "https://lh3.googleusercontent.com/p/AF1QipNSlW704JL-6w2fdyXAwaqLFk3ET2rfrjkpbN0I=w525-h240-k-no",
    "kgmid": "/g/11cn93zw5q",
    "classification": "chain",
    "is_independent": false,
    "is_compounding": false,
    "confidence": 1.0,
    "source": "perplexity",
    "method": "llm"
  },
  {
    "title": "CVS Pharmacy",
    "description": "Drugstore chain selling a variety of beauty & health products, plus some grocery & household items.",
    "price": null,
    "categoryName": "Pharmacy",
    "address": "1801 E Parks Hwy, Wasilla, AK 99654",
    "neighborhood": null,
    "street": "1801 E Parks Hwy",
    "city": "Wasilla",
    "postalCode": "99654",
    "state": "Alaska",
    "countryCode": "US",
    "website": "https://www.cvs.com/store-locator/wasilla-ak-pharmacies/1801-e-parks-hwy-wasilla-ak-99654/storeid=17404?WT.mc_id=LS_GOOGLE_RX_17404",
    "phone": "(907) 631-7201",
    "phoneUnformatted": "+19076317201",
    "claimThisBusiness": false,
    "location": {
      "lat": 61.5779604,
      "lng": -149.403722
    },
    "totalScore": 3.4,
    "permanentlyClosed": false,
    "temporarilyClosed": false,
    "placeId": null,
    "categories": [
      "Pharmacy"
    ],
    "fid": "0x56c8de18d4c2eb93:0xcfb07e0600be849c",
    "cid": "14965600125999547548",
    "reviewsCount": 51,
    "imagesCount": 11,
    "imageCategories": [],
    "scrapedAt": "2025-06-22T07:04:11.914Z",
    "googleFoodUrl": null,
    "hotelAds": [],
    "openingHours": [
      {
        "day": "Monday",
        "hours": "9\u202fAM to 1:30\u202fPM, 2 to 8\u202fPM"
      },
      {
        "day": "Tuesday",
        "hours": "9\u202fAM to 1:30\u202fPM, 2 to 8\u202fPM"
      },
      {
        "day": "Wednesday",
        "hours": "9\u202fAM to 1:30\u202fPM, 2 to 8\u202fPM"
      },
      {
        "day": "Thursday",
        "hours": "9\u202fAM to 1:30\u202fPM, 2 to 8\u202fPM"
      },
      {
        "day": "Friday",
        "hours": "9\u202fAM to 1:30\u202fPM, 2 to 8\u202fPM"
      },
      {
        "day": "Saturday",
        "hours": "10\u202fAM to 1:30\u202fPM, 2 to 6\u202fPM"
      },
      {
        "day": "Sunday",
        "hours": "10\u202fAM to 1:30\u202fPM, 2 to 6\u202fPM"
      }
    ],
    "peopleAlsoSearch": [],
    "placesTags": [],
    "reviewsTags": [],
    "additionalInfo": {
      "Service options": [
        {
          "Delivery": true
        },
        {
          "In-store shopping": true
        },
        {
          "Onsite services": true
        }
      ],
      "Accessibility": [
        {
          "Wheelchair accessible entrance": true
        },
        {
          "Wheelchair accessible parking lot": true
        }
      ],
      "Offerings": [
        {
          "Medication disposal": true
        },
        {
          "Naloxone": true
        }
      ],
      "Amenities": [
        {
          "Wi-Fi": true
        }
      ],
      "Crowd": [
        {
          "LGBTQ+ friendly": true
        },
        {
          "Transgender safespace": true
        }
      ],
      "Planning": [
        {
          "Quick visit": true
        }
      ],
      "Payments": [
        {
          "Credit cards": true
        },
        {
          "Debit cards": true
        },
        {
          "Credit cards": true
        }
      ]
    },
    "gasPrices": [],
    "url": "https://www.google.com/maps/search/?api=1&query=CVS%20Pharmacy&query_place_id=ChIJk-vC1BjeyFYRnIS-AAZ-sM8",
    "searchPageUrl": "https://www.google.com/maps/search/independent%20pharmacy%20Wasilla%20AK/@61.56929586514925,-163.4677018424355,9z?hl=en",
    "searchString": "independent pharmacy Wasilla AK",
    "language": "en",
    "rank": 5,
    "isAdvertisement": false,
    "imageUrl": "https://lh3.googleusercontent.com/p/AF1QipOaU-hP0UhlLjbDU9RnYhtbid3CTQBV6D_0Hhy5=w408-h272-k-no",
    "kgmid": "/g/113hy1njv",
    "classification": "chain",
    "is_independent": false,
    "is_compounding": false,
    "confidence": 1.0,
    "source": "perplexity",
    "method": "llm"
  },
  {
    "title": "Geneva Woods Pharmacy",
    "price": null,
    "categoryName": "Pharmacy",
    "address": "3674 E Country Field Cir, Wasilla, AK 99654",
    "neighborhood": "Lakes",
    "street": "3674 E Country Field Cir",
    "city": "Wasilla",
    "postalCode": "99654",
    "state": "Alaska",
    "countryCode": "US",
    "website": "http://www.genevawoods.com/copy-of-alaska-anchorage",
    "phone": "(907) 352-2870",
    "phoneUnformatted": "+19073522870",
    "claimThisBusiness": false,
    "location": {
      "lat": 61.5891385,
      "lng": -149.3575935
    },
    "totalScore": 3.9,
    "permanentlyClosed": true,
    "temporarilyClosed": false,
    "placeId": null,
    "categories": [
      "Pharmacy"
    ],
    "fid": "0x56c8de157e1fe1f1:0xf17a969b0e420f6e",
    "cid": "17400385703002640238",
    "reviewsCount": 28,
    "imagesCount": null,
    "imageCategories": [],
    "scrapedAt": "2025-06-22T07:04:12.074Z",
    "googleFoodUrl": null,
    "hotelAds": [],
    "openingHours": [],
    "peopleAlsoSearch": [],
    "placesTags": [],
    "reviewsTags": [],
    "gasPrices": [],
    "url": "https://www.google.com/maps/search/?api=1&query=Geneva%20Woods%20Pharmacy&query_place_id=ChIJ8eEffhXeyFYRbg9CDpuWevE",
    "searchPageUrl": "https://www.google.com/maps/search/independent%20pharmacy%20Wasilla%20AK/@51.480255229786856,-177.84405273110096,11z?hl=en",
    "searchString": "independent pharmacy Wasilla AK",
    "language": "en",
    "rank": 6,
    "isAdvertisement": false,
    "kgmid": "/g/1td4pfb_",
    "classification": "independent",
    "is_independent": true,
    "is_compounding": false,
    "confidence": 0.9,
    "source": "perplexity",
    "method": "llm"
  },
  {
    "title": "Benteh Nuutah Valley Native Primary Care Center Pharmacy",
    "price": null,
    "categoryName": "Pharmacy",
    "address": "1001 S Knik Goose Bay Rd, Wasilla, AK 99654",
    "neighborhood": null,
    "street": "1001 S Knik Goose Bay Rd",
    "city": "Wasilla",
    "postalCode": "99654",
    "state": "Alaska",
    "countryCode": "US",
    "website": "https://www.southcentralfoundation.com/services/pharmacy/",
    "phone": "(907) 631-7660",
    "phoneUnformatted": "+19076317660",
    "claimThisBusiness": true,
    "location": {
      "lat": 61.5718136,
      "lng": -149.439708
    },
    "permanentlyClosed": false,
    "temporarilyClosed": false,
    "placeId": null,
    "categories": [
      "Pharmacy"
    ],
    "fid": "0x56c8df002c8b0e37:0x440588478ba797d9",
    "cid": "4901473610329724889",
    "reviewsCount": 0,
    "imagesCount": null,
    "imageCategories": [],
    "scrapedAt": "2025-06-22T07:04:14.610Z",
    "googleFoodUrl": null,
    "hotelAds": [],
    "openingHours": [
      {
        "day": "Monday",
        "hours": "8:30\u202fAM to 7\u202fPM"
      },
      {
        "day": "Tuesday",
        "hours": "8:30\u202fAM to 7\u202fPM"
      },
      {
        "day": "Wednesday",
        "hours": "8:30\u202fAM to 7\u202fPM"
      },
      {
        "day": "Thursday",
        "hours": "8:30\u202fAM to 7\u202fPM"
      },
      {
        "day": "Friday",
        "hours": "8:30\u202fAM to 7\u202fPM"
      },
      {
        "day": "Saturday",
        "hours": "Closed"
      },
      {
        "day": "Sunday",
        "hours": "Closed"
      }
    ],
    "peopleAlsoSearch": [],
    "placesTags": [],
    "reviewsTags": [],
    "additionalInfo": {
      "Accessibility": [
        {
          "Wheelchair accessible entrance": true
        },
        {
          "Wheelchair accessible parking lot": true
        }
      ]
    },
    "gasPrices": [],
    "url": "https://www.google.com/maps/search/?api=1&query=Benteh%20Nuutah%20Valley%20Native%20Primary%20Care%20Center%20Pharmacy&query_place_id=ChIJNw6LLADfyFYR2Zeni0eIBUQ",
    "searchPageUrl": "https://www.google.com/maps/search/independent%20pharmacy%20Wasilla%20AK/@60.17977372574618,-139.3009231432406,9z?hl=en",
    "searchString": "independent pharmacy Wasilla AK",
    "language": "en",
    "rank": 6,
    "isAdvertisement": false,
    "kgmid": "/g/11w858tr_q",
    "classification": "independent",
    "is_independent": true,
    "is_compounding": false,
    "confidence": 0.9,
    "source": "perplexity",
    "method": "llm"
  },
  {
    "title": "Walgreens",
    "description": "Drugstore chain with health & beauty aids, prescriptions & photo services, plus mini-mart basics.",
    "price": "$$",
    "categoryName": "Drug store",
    "address": "1721 E Parks Hwy, Wasilla, AK 99654",
    "neighborhood": null,
    "street": "1721 E Parks Hwy",
    "city": "Wasilla",
    "postalCode": "99654",
    "state": "Alaska",
    "countryCode": "US",
    "website": "https://www.walgreens.com/locator/walgreens-1721+e+parks+hwy-wasilla-ak-99654/id=12681",
    "phone": "(907) 631-0300",
    "phoneUnformatted": "+19076310300",
    "claimThisBusiness": false,
    "location": {
      "lat": 61.5773405,
      "lng": -149.4070095
    },
    "locatedIn": "Walgreens Pharmacy",
    "totalScore": 2.1,
    "permanentlyClosed": false,
    "temporarilyClosed": false,
    "placeId": null,
    "categories": [
      "Drug store",
      "Beauty supply store",
      "Convenience store",
      "Cosmetics store",
      "Greeting card shop",
      "Perfume store",
      "Stationery store"
    ],
    "fid": "0x56c8de7fc3c28453:0x7b918af0803a634c",
    "cid": "8904050703836275532",
    "reviewsCount": 193,
    "imagesCount": 22,
    "imageCategories": [],
    "scrapedAt": "2025-06-22T07:04:14.610Z",
    "googleFoodUrl": null,
    "hotelAds": [],
    "openingHours": [
      {
        "day": "Monday",
        "hours": "7\u202fAM to 11\u202fPM"
      },
      {
        "day": "Tuesday",
        "hours": "7\u202fAM to 11\u202fPM"
      },
      {
        "day": "Wednesday",
        "hours": "7\u202fAM to 11\u202fPM"
      },
      {
        "day": "Thursday",
        "hours": "7\u202fAM to 11\u202fPM"
      },
      {
        "day": "Friday",
        "hours": "7\u202fAM to 11\u202fPM"
      },
      {
        "day": "Saturday",
        "hours": "7\u202fAM to 11\u202fPM"
      },
      {
        "day": "Sunday",
        "hours": "7\u202fAM to 11\u202fPM"
      }
    ],
    "additionalOpeningHours": {
      "Walgreens Pharmacy": [
        {
          "day": "Monday",
          "hours": "9\u202fAM\u20137\u202fPM"
        },
        {
          "day": "Tuesday",
          "hours": "9\u202fAM\u20137\u202fPM"
        },
        {
          "day": "Wednesday",
          "hours": "9\u202fAM\u20137\u202fPM"
        },
        {
          "day": "Thursday",
          "hours": "9\u202fAM\u20137\u202fPM"
        },
        {
          "day": "Friday",
          "hours": "9\u202fAM\u20137\u202fPM"
        },
        {
          "day": "Saturday",
          "hours": "9\u202fAM\u20136\u202fPM"
        },
        {
          "day": "Sunday",
          "hours": "10\u202fAM\u20136\u202fPM"
        }
      ],
      "Walgreens Photo": [
        {
          "day": "Monday",
          "hours": "7\u202fAM\u201311\u202fPM"
        },
        {
          "day": "Tuesday",
          "hours": "7\u202fAM\u201311\u202fPM"
        },
        {
          "day": "Wednesday",
          "hours": "7\u202fAM\u201311\u202fPM"
        },
        {
          "day": "Thursday",
          "hours": "7\u202fAM\u201311\u202fPM"
        },
        {
          "day": "Friday",
          "hours": "7\u202fAM\u201311\u202fPM"
        },
        {
          "day": "Saturday",
          "hours": "7\u202fAM\u201311\u202fPM"
        },
        {
          "day": "Sunday",
          "hours": "7\u202fAM\u201311\u202fPM"
        }
      ],
      "Pickup": [
        {
          "day": "Monday",
          "hours": "7\u202fAM\u201311\u202fPM"
        },
        {
          "day": "Tuesday",
          "hours": "7\u202fAM\u201311\u202fPM"
        },
        {
          "day": "Wednesday",
          "hours": "7\u202fAM\u201311\u202fPM"
        },
        {
          "day": "Thursday",
          "hours": "7\u202fAM\u201311\u202fPM"
        },
        {
          "day": "Friday",
          "hours": "7\u202fAM\u201311\u202fPM"
        },
        {
          "day": "Saturday",
          "hours": "7\u202fAM\u201311\u202fPM"
        },
        {
          "day": "Sunday",
          "hours": "7\u202fAM\u201311\u202fPM"
        }
      ]
    },
    "peopleAlsoSearch": [],
    "placesTags": [],
    "reviewsTags": [],
    "additionalInfo": {
      "Service options": [
        {
          "Curbside pickup": true
        },
        {
          "Delivery": true
        },
        {
          "Drive-through": true
        },
        {
          "In-store pickup": true
        },
        {
          "Same-day delivery": false
        }
      ],
      "Accessibility": [
        {
          "Wheelchair accessible entrance": true
        },
        {
          "Wheelchair accessible parking lot": true
        }
      ],
      "Planning": [
        {
          "Quick visit": true
        }
      ],
      "Payments": [
        {
          "Checks": true
        },
        {
          "Credit cards": true
        },
        {
          "Debit cards": true
        },
        {
          "NFC mobile payments": true
        },
        {
          "SNAP/EBT": true
        },
        {
          "Credit cards": true
        }
      ]
    },
    "gasPrices": [],
    "url": "https://www.google.com/maps/search/?api=1&query=Walgreens&query_place_id=ChIJU4TCw3_eyFYRTGM6gPCKkXs",
    "searchPageUrl": "https://www.google.com/maps/search/independent%20pharmacy%20Wasilla%20AK/@60.17977372574618,-139.3009231432406,9z?hl=en",
    "searchString": "independent pharmacy Wasilla AK",
    "language": "en",
    "rank": 7,
    "isAdvertisement": false,
    "imageUrl": "https://lh3.googleusercontent.com/gps-cs-s/AC9h4npja5vSou5kox45lIv_aTemMkTM6Md6wXP1Y0o5_whKqbLp_rFBfPQKal8b53MW-Yxko6y6CGPEFyjCeEGKbcVaRtEE-od_x6Cj8BUEb_R11IyFhoAPTqvou-pjT7rlXc9PfmxStg=w408-h306-k-no",
    "kgmid": "/g/1tfrghgg",
    "classification": "chain",
    "is_independent": false,
    "is_compounding": false,
    "confidence": 1.0,
    "source": "perplexity",
    "method": "llm"
  },
  {
    "title": "Susitna Mediset Services",
    "price": null,
    "categoryName": "Pharmacy",
    "address": "1751 E Gardner Way # F, Wasilla, AK 99654, United States",
    "neighborhood": null,
    "street": "1751 E Gardner Way # F",
    "city": "Wasilla",
    "postalCode": "99654",
    "state": "Alaska",
    "countryCode": "US",
    "phone": "+1 907-352-4303",
    "phoneUnformatted": "+19073524303",
    "claimThisBusiness": true,
    "location": {
      "lat": 61.5895944,
      "lng": -149.4057357
    },
    "totalScore": 5,
    "permanentlyClosed": false,
    "temporarilyClosed": false,
    "placeId": null,
    "categories": [
      "Pharmacy"
    ],
    "fid": "0x56c8de3b0cd37457:0x36b9e40d033d9bda",
    "cid": "3943433693279656922",
    "reviewsCount": 1,
    "imagesCount": null,
    "imageCategories": [],
    "scrapedAt": "2025-06-22T07:04:20.357Z",
    "googleFoodUrl": null,
    "hotelAds": [],
    "openingHours": [],
    "peopleAlsoSearch": [],
    "placesTags": [],
    "reviewsTags": [],
    "additionalInfo": {
      "Accessibility": [
        {
          "Wheelchair-accessible car park": true
        },
        {
          "Wheelchair-accessible entrance": true
        }
      ]
    },
    "gasPrices": [],
    "url": "https://www.google.com/maps/search/?api=1&query=Susitna%20Mediset%20Services&query_place_id=ChIJV3TTDDveyFYR2ps9Aw3kuTY",
    "searchPageUrl": "https://www.google.com/maps/search/independent%20pharmacy%20Wasilla%20AK/@69.9064287015676,-147.35651604297223,9z?hl=en",
    "searchString": "independent pharmacy Wasilla AK",
    "language": "en",
    "rank": 2,
    "isAdvertisement": false,
    "kgmid": "/g/1v3drw79",
    "classification": "independent",
    "is_independent": true,
    "is_compounding": false,
    "confidence": 0.85,
    "source": "perplexity",
    "method": "llm"
  },
  {
    "title": "Walmart Pharmacy",
    "price": "\u20ac",
    "categoryName": "Pharmacy",
    "address": "1350 S Seward Meridian Pkwy, Wasilla, AK 99654, United States",
    "neighborhood": null,
    "street": "1350 S Seward Meridian Pkwy",
    "city": "Wasilla",
    "postalCode": "99654",
    "state": "Alaska",
    "countryCode": "US",
    "website": "https://www.walmart.com/store/2074-wasilla-ak/pharmacy/?veh=seo_loc",
    "phone": "+1 907-376-9783",
    "phoneUnformatted": "+19073769783",
    "claimThisBusiness": false,
    "location": {
      "lat": 61.5689838,
      "lng": -149.3636799
    },
    "totalScore": 3.2,
    "permanentlyClosed": false,
    "temporarilyClosed": false,
    "placeId": null,
    "categories": [
      "Pharmacy",
      "Herbal medicine store",
      "Medical supply store",
      "Parapharmacy",
      "Vitamin & supplements store"
    ],
    "fid": "0x56c8e0bdd0717e83:0xbd13d812c2a3cc11",
    "cid": "13624470872812407825",
    "reviewsCount": 42,
    "imagesCount": 6,
    "imageCategories": [],
    "scrapedAt": "2025-06-22T07:04:35.250Z",
    "googleFoodUrl": null,
    "hotelAds": [],
    "openingHours": [
      {
        "day": "Monday",
        "hours": "9\u202fAM to 7\u202fPM"
      },
      {
        "day": "Tuesday",
        "hours": "9\u202fAM to 7\u202fPM"
      },
      {
        "day": "Wednesday",
        "hours": "9\u202fAM to 7\u202fPM"
      },
      {
        "day": "Thursday",
        "hours": "9\u202fAM to 7\u202fPM"
      },
      {
        "day": "Friday",
        "hours": "9\u202fAM to 7\u202fPM"
      },
      {
        "day": "Saturday",
        "hours": "9\u202fAM to 7\u202fPM"
      },
      {
        "day": "Sunday",
        "hours": "10\u202fAM to 6\u202fPM"
      }
    ],
    "peopleAlsoSearch": [],
    "placesTags": [],
    "reviewsTags": [],
    "additionalInfo": {
      "Service options": [
        {
          "Kerbside pickup": true
        },
        {
          "Delivery": true
        },
        {
          "In-store pick-up": true
        },
        {
          "In-store shopping": true
        },
        {
          "On-site services": true
        }
      ],
      "Accessibility": [
        {
          "Wheelchair-accessible car park": true
        },
        {
          "Wheelchair-accessible entrance": true
        },
        {
          "Wheelchair-accessible toilet": true
        }
      ],
      "Offerings": [
        {
          "Passport photos": true
        }
      ],
      "Amenities": [
        {
          "Wi-Fi": true
        },
        {
          "Free Wi-Fi": true
        }
      ],
      "Planning": [
        {
          "Quick visit": true
        }
      ],
      "Payments": [
        {
          "Credit cards": true
        },
        {
          "Debit cards": true
        },
        {
          "Credit cards": true
        }
      ]
    },
    "gasPrices": [],
    "url": "https://www.google.com/maps/search/?api=1&query=Walmart%20Pharmacy&query_place_id=ChIJg35x0L3gyFYREcyjwhLYE70",
    "searchPageUrl": "https://www.google.com/maps/search/independent%20pharmacy%20Wasilla%20AK/@55.90929253764349,-155.26772981839719,12z?hl=en",
    "searchString": "independent pharmacy Wasilla AK",
    "language": "en",
    "rank": 7,
    "isAdvertisement": false,
    "imageUrl": "https://lh3.googleusercontent.com/p/AF1QipPPXypbpOez5OHqC1C_vkD2H0CE-49u_rgB0fTM=w408-h306-k-no",
    "kgmid": "/g/1thz1dcy",
    "classification": "chain",
    "is_independent": false,
    "is_compounding": false,
    "confidence": 1.0,
    "source": "perplexity",
    "method": "llm"
  },
  {
    "title": "Carrs Pharmacy",
    "price": null,
    "categoryName": "Pharmacy",
    "address": "664 E Palmer-Wasilla Hwy, Palmer, AK 99645",
    "neighborhood": null,
    "street": "664 E Palmer-Wasilla Hwy",
    "city": "Palmer",
    "postalCode": "99645",
    "state": "Alaska",
    "countryCode": "US",
    "website": "https://local.pharmacy.carrsqc.com/ak/palmer/664-e-palmer-wasilla-hwy.html",
    "phone": "(907) 761-1460",
    "phoneUnformatted": "+19077611460",
    "claimThisBusiness": false,
    "location": {
      "lat": 61.598097,
      "lng": -149.1271454
    },
    "totalScore": 3.5,
    "permanentlyClosed": false,
    "temporarilyClosed": false,
    "placeId": null,
    "categories": [
      "Pharmacy",
      "Drug store",
      "Vitamin & supplements store"
    ],
    "fid": "0x56c91dfb85ce5e19:0x930960397cb1f960",
    "cid": "10595105398387243360",
    "reviewsCount": 21,
    "imagesCount": 5,
    "imageCategories": [],
    "scrapedAt": "2025-06-22T07:04:37.824Z",
    "googleFoodUrl": null,
    "hotelAds": [],
    "openingHours": [
      {
        "day": "Monday",
        "hours": "9\u202fAM to 1:30\u202fPM, 2 to 9\u202fPM"
      },
      {
        "day": "Tuesday",
        "hours": "9\u202fAM to 1:30\u202fPM, 2 to 9\u202fPM"
      },
      {
        "day": "Wednesday",
        "hours": "9\u202fAM to 1:30\u202fPM, 2 to 9\u202fPM"
      },
      {
        "day": "Thursday",
        "hours": "9\u202fAM to 1:30\u202fPM, 2 to 9\u202fPM"
      },
      {
        "day": "Friday",
        "hours": "9\u202fAM to 1:30\u202fPM, 2 to 9\u202fPM"
      },
      {
        "day": "Saturday",
        "hours": "10\u202fAM to 1:30\u202fPM, 2 to 6\u202fPM"
      },
      {
        "day": "Sunday",
        "hours": "10\u202fAM to 1:30\u202fPM, 2 to 6\u202fPM"
      }
    ],
    "peopleAlsoSearch": [],
    "placesTags": [],
    "reviewsTags": [],
    "additionalInfo": {
      "Service options": [
        {
          "Delivery": true
        },
        {
          "In-store pickup": true
        },
        {
          "In-store shopping": true
        },
        {
          "Same-day delivery": true
        }
      ],
      "Accessibility": [
        {
          "Wheelchair accessible entrance": true
        },
        {
          "Wheelchair accessible parking lot": true
        }
      ],
      "Crowd": [
        {
          "LGBTQ+ friendly": true
        }
      ],
      "Planning": [
        {
          "Appointment required": true
        },
        {
          "Quick visit": true
        }
      ],
      "Payments": [
        {
          "Checks": true
        },
        {
          "Debit cards": true
        },
        {
          "Credit cards": true
        }
      ]
    },
    "gasPrices": [],
    "url": "https://www.google.com/maps/search/?api=1&query=Carrs%20Pharmacy&query_place_id=ChIJGV7OhfsdyVYRYPmxfDlgCZM",
    "searchPageUrl": "https://www.google.com/maps/search/independent%20pharmacy%20Wasilla%20AK/@61.56929586514925,-146.20571705729628,9z?hl=en",
    "searchString": "independent pharmacy Wasilla AK",
    "language": "en",
    "rank": 9,
    "isAdvertisement": false,
    "imageUrl": "https://lh3.googleusercontent.com/p/AF1QipN6OJQb6ivJPKGRAc60Whp_OQHUgPNn2K1in_AV=w426-h240-k-no",
    "kgmid": "/g/1261dg5__",
    "classification": "independent",
    "is_independent": true,
    "is_compounding": false,
    "confidence": 0.9,
    "source": "perplexity",
    "method": "llm"
  },
  {
    "title": "Bernie's Pharmacy",
    "price": null,
    "categoryName": "Pharmacy",
    "address": "4100 Lake Otis Pkwy STE 200, Anchorage, AK 99508, United States",
    "neighborhood": "Tudor Area",
    "street": "4100 Lake Otis Pkwy STE 200",
    "city": "Anchorage",
    "postalCode": "99508",
    "state": "Alaska",
    "countryCode": "US",
    "website": "http://www.berniespharmacy.com/",
    "phone": "+1 907-562-2138",
    "phoneUnformatted": "+19075622138",
    "claimThisBusiness": false,
    "location": {
      "lat": 61.1828815,
      "lng": -149.8399346
    },
    "totalScore": 4.4,
    "permanentlyClosed": false,
    "temporarilyClosed": false,
    "placeId": null,
    "categories": [
      "Pharmacy",
      "Chemist"
    ],
    "fid": "0x56c897a631f1a021:0x50c37fafb43f3509",
    "cid": "5819635536112858377",
    "reviewsCount": 77,
    "imagesCount": 28,
    "imageCategories": [],
    "scrapedAt": "2025-06-22T07:04:49.018Z",
    "googleFoodUrl": null,
    "hotelAds": [],
    "openingHours": [
      {
        "day": "Monday",
        "hours": "9\u202fAM to 6\u202fPM"
      },
      {
        "day": "Tuesday",
        "hours": "9\u202fAM to 6\u202fPM"
      },
      {
        "day": "Wednesday",
        "hours": "9\u202fAM to 6\u202fPM"
      },
      {
        "day": "Thursday",
        "hours": "9\u202fAM to 6\u202fPM"
      },
      {
        "day": "Friday",
        "hours": "9\u202fAM to 6\u202fPM"
      },
      {
        "day": "Saturday",
        "hours": "10\u202fAM to 2\u202fPM"
      },
      {
        "day": "Sunday",
        "hours": "Closed"
      }
    ],
    "peopleAlsoSearch": [],
    "placesTags": [],
    "reviewsTags": [],
    "additionalInfo": {
      "From the business": [
        {
          "Identifies as women-owned": true
        },
        {
          "Small Business": true
        }
      ],
      "Service options": [
        {
          "Kerbside pickup": true
        },
        {
          "Delivery": true
        },
        {
          "In-store shopping": true
        },
        {
          "Same-day delivery": true
        }
      ],
      "Accessibility": [
        {
          "Wheelchair-accessible car park": true
        },
        {
          "Wheelchair-accessible entrance": true
        }
      ],
      "Planning": [
        {
          "Quick visit": true
        }
      ],
      "Payments": [
        {
          "Cheques": true
        },
        {
          "Credit cards": true
        },
        {
          "Debit cards": true
        },
        {
          "NFC mobile payments": true
        },
        {
          "Credit cards": true
        }
      ]
    },
    "gasPrices": [],
    "url": "https://www.google.com/maps/search/?api=1&query=Bernie's%20Pharmacy&query_place_id=ChIJIaDxMaaXyFYRCTU_tK9_w1A",
    "searchPageUrl": "https://www.google.com/maps/search/independent%20pharmacy%20Wasilla%20AK/@60.874534795447715,-150.80891300000008,9z?hl=en",
    "searchString": "independent pharmacy Wasilla AK",
    "language": "en",
    "rank": 1,
    "isAdvertisement": false,
    "imageUrl": "https://lh3.googleusercontent.com/gps-cs-s/AC9h4npJSQAjzHezcZsLvaz7BtrHYQutIRZPK9N4l0j-yCEngwz9NT0Kqz0BU5ZgwMliOB7TToPxsRyfuwzgsXsiDYxJU2JQCnsqe3zoVC3KN4Xt9D5YD3vnZKjHbIT6UWsMtew9oQmu=w408-h306-k-no",
    "kgmid": "/g/1tffjht8",
    "classification": "independent",
    "is_independent": true,
    "is_compounding": false,
    "confidence": 0.9,
    "source": "perplexity",
    "method": "llm"
  },
  {
    "title": "Anchorage Native Primary Care Center Pharmacy",
    "price": null,
    "categoryName": "Pharmacy",
    "address": "4320 Diplomacy Dr, Anchorage, AK 99508, United States",
    "neighborhood": "U-MED District",
    "street": "4320 Diplomacy Dr",
    "city": "Anchorage",
    "postalCode": "99508",
    "state": "Alaska",
    "countryCode": "US",
    "website": "https://www.southcentralfoundation.com/services/pharmacy/",
    "phone": "+1 907-729-4172",
    "phoneUnformatted": "+19077294172",
    "claimThisBusiness": true,
    "location": {
      "lat": 61.1814242,
      "lng": -149.799862
    },
    "permanentlyClosed": false,
    "temporarilyClosed": false,
    "placeId": null,
    "categories": [
      "Pharmacy"
    ],
    "fid": "0x56c8975706b96123:0xbc90bb1af020fc9c",
    "cid": "13587565800149023900",
    "reviewsCount": 0,
    "imagesCount": 1,
    "imageCategories": [],
    "scrapedAt": "2025-06-22T07:04:49.019Z",
    "googleFoodUrl": null,
    "hotelAds": [],
    "openingHours": [
      {
        "day": "Monday",
        "hours": "8:30\u202fAM to 7\u202fPM"
      },
      {
        "day": "Tuesday",
        "hours": "8:30\u202fAM to 7\u202fPM"
      },
      {
        "day": "Wednesday",
        "hours": "8:30\u202fAM to 7\u202fPM"
      },
      {
        "day": "Thursday",
        "hours": "8:30\u202fAM to 7\u202fPM"
      },
      {
        "day": "Friday",
        "hours": "8:30\u202fAM to 7\u202fPM"
      },
      {
        "day": "Saturday",
        "hours": "9\u202fAM to 5:30\u202fPM"
      },
      {
        "day": "Sunday",
        "hours": "Closed"
      }
    ],
    "peopleAlsoSearch": [],
    "placesTags": [],
    "reviewsTags": [],
    "additionalInfo": {
      "Accessibility": [
        {
          "Wheelchair-accessible car park": true
        },
        {
          "Wheelchair-accessible entrance": true
        }
      ],
      "Payments": [
        {
          "Credit cards": true
        }
      ]
    },
    "gasPrices": [],
    "url": "https://www.google.com/maps/search/?api=1&query=Anchorage%20Native%20Primary%20Care%20Center%20Pharmacy&query_place_id=ChIJI2G5BleXyFYRnPwg8Bq7kLw",
    "searchPageUrl": "https://www.google.com/maps/search/independent%20pharmacy%20Wasilla%20AK/@60.874534795447715,-150.80891300000008,9z?hl=en",
    "searchString": "independent pharmacy Wasilla AK",
    "language": "en",
    "rank": 3,
    "isAdvertisement": false,
    "imageUrl": "https://streetviewpixels-pa.googleapis.com/v1/thumbnail?panoid=prRSt6LfGfRXFuzAxYTb5g&cb_client=search.gws-prod.gps&w=408&h=240&yaw=24.249943&pitch=0&thumbfov=100",
    "kgmid": "/g/11fnqk0xd0",
    "classification": "independent",
    "is_independent": true,
    "is_compounding": false,
    "confidence": 0.9,
    "source": "perplexity",
    "method": "llm"
  },
  {
    "title": "Ron's Apothecary Shoppe",
    "price": null,
    "categoryName": "Pharmacy",
    "address": "9101 Mendenhall Mall Rd, Juneau, AK 99801",
    "neighborhood": "Mendenhall Valley",
    "street": "9101 Mendenhall Mall Rd",
    "city": "Juneau",
    "postalCode": "99801",
    "state": "Alaska",
    "countryCode": "US",
    "website": "https://www.ronsapothecary.com/",
    "phone": "(907) 789-0458",
    "phoneUnformatted": "+19077890458",
    "claimThisBusiness": false,
    "location": {
      "lat": 58.3715465,
      "lng": -134.5872648
    },
    "totalScore": 4.7,
    "permanentlyClosed": true,
    "temporarilyClosed": false,
    "placeId": null,
    "categories": [
      "Pharmacy",
      "Drug store"
    ],
    "fid": "0x5400e1e2871ed9a5:0x5411bf26b48d4fc7",
    "cid": "6057833146748850119",
    "reviewsCount": 20,
    "imagesCount": 14,
    "imageCategories": [],
    "scrapedAt": "2025-06-22T07:04:50.263Z",
    "googleFoodUrl": null,
    "hotelAds": [],
    "openingHours": [],
    "peopleAlsoSearch": [],
    "placesTags": [],
    "reviewsTags": [],
    "additionalInfo": {
      "Service options": [
        {
          "Curbside pickup": true
        },
        {
          "Delivery": true
        },
        {
          "In-store pickup": true
        },
        {
          "In-store shopping": true
        },
        {
          "Same-day delivery": true
        }
      ],
      "Accessibility": [
        {
          "Wheelchair accessible entrance": true
        },
        {
          "Wheelchair accessible parking lot": true
        }
      ],
      "Payments": [
        {
          "Debit cards": true
        },
        {
          "NFC mobile payments": true
        },
        {
          "Credit cards": true
        }
      ]
    },
    "gasPrices": [],
    "url": "https://www.google.com/maps/search/?api=1&query=Ron's%20Apothecary%20Shoppe&query_place_id=ChIJpdkeh-LhAFQRx0-NtCa_EVQ",
    "searchPageUrl": "https://www.google.com/maps/search/independent%20pharmacy%20Wasilla%20AK/@58.095490516641576,-133.54692821486086,9z?hl=en",
    "searchString": "independent pharmacy Wasilla AK",
    "language": "en",
    "rank": 6,
    "isAdvertisement": false,
    "imageUrl": "https://lh3.googleusercontent.com/gps-cs-s/AC9h4no5TrWvvLmWaHt7OGzMbNiH9id2Y2S_gCVpv4XjTAYQgF52hiwuDuvfX2hH2-ZuK_tBsQ60v6aPyC3NRIvsdftFc1LBkLl7Pfox_33H1_zSwtvOiqduPY6by0-miSp2znx5ie10Xw=w408-h544-k-no",
    "kgmid": "/g/1ths90sv",
    "classification": "independent",
    "is_independent": true,
    "is_compounding": false,
    "confidence": 0.9,
    "source": "perplexity",
    "method": "llm"
  },
  {
    "title": "Family Pharmacy",
    "price": null,
    "categoryName": "Pharmacy",
    "address": "11432 Business Blvd #10, Eagle River, AK 99577",
    "neighborhood": "Eagle River",
    "street": "11432 Business Blvd #10",
    "city": "Eagle River",
    "postalCode": "99577",
    "state": "Alaska",
    "countryCode": "US",
    "phone": "(907) 694-7007",
    "phoneUnformatted": "+19076947007",
    "claimThisBusiness": true,
    "location": {
      "lat": 61.3230647,
      "lng": -149.5727951
    },
    "totalScore": 4.9,
    "permanentlyClosed": false,
    "temporarilyClosed": false,
    "placeId": null,
    "categories": [
      "Pharmacy"
    ],
    "fid": "0x56c8eb6de1a8616b:0x269135521221fbde",
    "cid": "2779061071672114142",
    "reviewsCount": 35,
    "imagesCount": 3,
    "imageCategories": [],
    "scrapedAt": "2025-06-22T07:05:17.812Z",
    "googleFoodUrl": null,
    "hotelAds": [],
    "openingHours": [
      {
        "day": "Monday",
        "hours": "10\u202fAM to 7\u202fPM"
      },
      {
        "day": "Tuesday",
        "hours": "10\u202fAM to 7\u202fPM"
      },
      {
        "day": "Wednesday",
        "hours": "10\u202fAM to 7\u202fPM"
      },
      {
        "day": "Thursday",
        "hours": "10\u202fAM to 7\u202fPM"
      },
      {
        "day": "Friday",
        "hours": "10\u202fAM to 7\u202fPM"
      },
      {
        "day": "Saturday",
        "hours": "10\u202fAM to 2\u202fPM"
      },
      {
        "day": "Sunday",
        "hours": "Closed"
      }
    ],
    "peopleAlsoSearch": [],
    "placesTags": [],
    "reviewsTags": [],
    "additionalInfo": {
      "Accessibility": [
        {
          "Wheelchair accessible entrance": true
        },
        {
          "Wheelchair accessible parking lot": true
        }
      ],
      "Planning": [
        {
          "Quick visit": true
        }
      ],
      "Payments": [
        {
          "Credit cards": true
        },
        {
          "Debit cards": true
        },
        {
          "Credit cards": true
        }
      ]
    },
    "gasPrices": [],
    "url": "https://www.google.com/maps/search/?api=1&query=Family%20Pharmacy&query_place_id=ChIJa2Go4W3ryFYR3vshElI1kSY",
    "searchPageUrl": "https://www.google.com/maps/search/independent%20pharmacy%20Wasilla%20AK/@60.874534795447715,-149.65811401432413,9z?hl=en",
    "searchString": "independent pharmacy Wasilla AK",
    "language": "en",
    "rank": 3,
    "isAdvertisement": false,
    "imageUrl": "https://lh3.googleusercontent.com/gps-cs-s/AC9h4npTaUWi3_83WITCriASCw-_JURnBXLKMaOGxhukttRnpaWrfAAmJUbEo6JrprqMDdVXi7pcCXtj7Xm8V0cG2qhae2De0sw8T5MUbrNvsyFm38db60p2B98DEBTIdcmyfkAICisB=w408-h502-k-no",
    "kgmid": "/g/1v46_2b4",
    "classification": "independent",
    "is_independent": true,
    "is_compounding": false,
    "confidence": 0.85,
    "source": "perplexity",
    "method": "llm"
  },
  {
    "title": "Soldotna Professional Pharmacy",
    "price": null,
    "categoryName": "Pharmacy",
    "address": "299 N Binkley St, Soldotna, AK 99669",
    "neighborhood": null,
    "street": "299 N Binkley St",
    "city": "Soldotna",
    "postalCode": "99669",
    "state": "Alaska",
    "countryCode": "US",
    "website": "http://www.soldotnapharmacy.com/?utm_source=google&utm_medium=local&utm_campaign=localmaps&utm_content=201436",
    "phone": "(907) 262-3800",
    "phoneUnformatted": "+19072623800",
    "claimThisBusiness": true,
    "location": {
      "lat": 60.4945546,
      "lng": -151.0731048
    },
    "totalScore": 4.1,
    "permanentlyClosed": false,
    "temporarilyClosed": false,
    "placeId": null,
    "categories": [
      "Pharmacy",
      "Drug store"
    ],
    "fid": "0x56c663e098445141:0xf1c6340a2afccc3d",
    "cid": "17421669426804870205",
    "reviewsCount": 53,
    "imagesCount": 1,
    "imageCategories": [],
    "scrapedAt": "2025-06-22T07:05:17.812Z",
    "googleFoodUrl": null,
    "hotelAds": [],
    "openingHours": [
      {
        "day": "Monday",
        "hours": "9\u202fAM to 6:30\u202fPM"
      },
      {
        "day": "Tuesday",
        "hours": "9\u202fAM to 6:30\u202fPM"
      },
      {
        "day": "Wednesday",
        "hours": "9\u202fAM to 6:30\u202fPM"
      },
      {
        "day": "Thursday",
        "hours": "9\u202fAM to 6:30\u202fPM"
      },
      {
        "day": "Friday",
        "hours": "9\u202fAM to 6:30\u202fPM"
      },
      {
        "day": "Saturday",
        "hours": "10\u202fAM to 2\u202fPM"
      },
      {
        "day": "Sunday",
        "hours": "Closed"
      }
    ],
    "peopleAlsoSearch": [],
    "placesTags": [],
    "reviewsTags": [],
    "additionalInfo": {
      "Service options": [
        {
          "Delivery": true
        },
        {
          "Drive-through": true
        },
        {
          "In-store pickup": true
        },
        {
          "Same-day delivery": true
        }
      ],
      "Accessibility": [
        {
          "Wheelchair accessible entrance": true
        },
        {
          "Wheelchair accessible parking lot": true
        }
      ],
      "Amenities": [
        {
          "Gender-neutral restroom": true
        }
      ],
      "Crowd": [
        {
          "LGBTQ+ friendly": true
        },
        {
          "Transgender safespace": true
        }
      ],
      "Planning": [
        {
          "Quick visit": true
        }
      ],
      "Payments": [
        {
          "Checks": true
        },
        {
          "Credit cards": true
        },
        {
          "Debit cards": true
        },
        {
          "Credit cards": true
        }
      ]
    },
    "gasPrices": [],
    "url": "https://www.google.com/maps/search/?api=1&query=Soldotna%20Professional%20Pharmacy&query_place_id=ChIJQVFEmOBjxlYRPcz8Kgo0xvE",
    "searchPageUrl": "https://www.google.com/maps/search/independent%20pharmacy%20Wasilla%20AK/@60.874534795447715,-149.65811401432413,9z?hl=en",
    "searchString": "independent pharmacy Wasilla AK",
    "language": "en",
    "rank": 5,
    "isAdvertisement": false,
    "imageUrl": "https://streetviewpixels-pa.googleapis.com/v1/thumbnail?panoid=ydIyuWJu2kFj7H77CyvL6g&cb_client=search.gws-prod.gps&w=408&h=240&yaw=270.8964&pitch=0&thumbfov=100",
    "kgmid": "/g/1th7y28x",
    "classification": "independent",
    "is_independent": true,
    "is_compounding": false,
    "confidence": 0.9,
    "source": "perplexity",
    "method": "llm"
  },
  {
    "title": "Carrs Pharmacy",
    "price": null,
    "categoryName": "Pharmacy",
    "address": "11431 Business Park Blvd, Eagle River, AK 99577",
    "neighborhood": "Eagle River",
    "street": "11431 Business Park Blvd",
    "city": "Eagle River",
    "postalCode": "99577",
    "state": "Alaska",
    "countryCode": "US",
    "website": "https://local.pharmacy.carrsqc.com/ak/eagle-river/11431-business-park-blvd.html",
    "phone": "(907) 726-0760",
    "phoneUnformatted": "+19077260760",
    "claimThisBusiness": false,
    "location": {
      "lat": 61.3246487,
      "lng": -149.573278
    },
    "totalScore": 2.7,
    "permanentlyClosed": false,
    "temporarilyClosed": false,
    "placeId": null,
    "categories": [
      "Pharmacy",
      "Drug store",
      "Vitamin & supplements store"
    ],
    "fid": "0x8640b4d60428d1b9:0xf7f9fead4437dcb8",
    "cid": "17868593016696462520",
    "reviewsCount": 17,
    "imagesCount": 16,
    "imageCategories": [],
    "scrapedAt": "2025-06-22T07:05:17.812Z",
    "googleFoodUrl": null,
    "hotelAds": [],
    "openingHours": [
      {
        "day": "Monday",
        "hours": "9\u202fAM to 1:30\u202fPM, 2 to 8\u202fPM"
      },
      {
        "day": "Tuesday",
        "hours": "9\u202fAM to 1:30\u202fPM, 2 to 8\u202fPM"
      },
      {
        "day": "Wednesday",
        "hours": "9\u202fAM to 1:30\u202fPM, 2 to 8\u202fPM"
      },
      {
        "day": "Thursday",
        "hours": "9\u202fAM to 1:30\u202fPM, 2 to 8\u202fPM"
      },
      {
        "day": "Friday",
        "hours": "9\u202fAM to 1:30\u202fPM, 2 to 8\u202fPM"
      },
      {
        "day": "Saturday",
        "hours": "10\u202fAM to 1:30\u202fPM, 2 to 6\u202fPM"
      },
      {
        "day": "Sunday",
        "hours": "10\u202fAM to 1:30\u202fPM, 2 to 5\u202fPM"
      }
    ],
    "peopleAlsoSearch": [],
    "placesTags": [],
    "reviewsTags": [],
    "additionalInfo": {
      "Service options": [
        {
          "Delivery": true
        },
        {
          "In-store pickup": true
        },
        {
          "In-store shopping": true
        },
        {
          "Same-day delivery": true
        }
      ],
      "Accessibility": [
        {
          "Wheelchair accessible entrance": true
        },
        {
          "Wheelchair accessible parking lot": true
        }
      ],
      "Crowd": [
        {
          "LGBTQ+ friendly": true
        }
      ],
      "Planning": [
        {
          "Appointment required": true
        },
        {
          "Quick visit": true
        }
      ],
      "Payments": [
        {
          "Checks": true
        },
        {
          "Debit cards": true
        },
        {
          "NFC mobile payments": true
        },
        {
          "Credit cards": true
        }
      ]
    },
    "gasPrices": [],
    "url": "https://www.google.com/maps/search/?api=1&query=Carrs%20Pharmacy&query_place_id=ChIJudEoBNa0QIYRuNw3RK3--fc",
    "searchPageUrl": "https://www.google.com/maps/search/independent%20pharmacy%20Wasilla%20AK/@60.874534795447715,-149.65811401432413,9z?hl=en",
    "searchString": "independent pharmacy Wasilla AK",
    "language": "en",
    "rank": 6,
    "isAdvertisement": false,
    "imageUrl": "https://lh3.googleusercontent.com/gps-cs-s/AC9h4noAk5-oa_xypEdG1WrNLGlmTdYmOw73CEGleopt81-1gQrIGzr2hlMffkyjDGcP_iWzqDqUu1pSUlrBBI6HVkTjiy_91SniZU7jVAg069lwNSh-EF4IHuRz27ExA1blfzfBegnU=w408-h544-k-no",
    "kgmid": "/g/1ptw_tnz_",
    "classification": "independent",
    "is_independent": true,
    "is_compounding": false,
    "confidence": 0.85,
    "source": "perplexity",
    "method": "llm"
  },
  {
    "title": "Walmart Pharmacy",
    "price": "$",
    "categoryName": "Pharmacy",
    "address": "18600 Eagle River Rd, Eagle River, AK 99577",
    "neighborhood": "Eagle River",
    "street": "18600 Eagle River Rd",
    "city": "Eagle River",
    "postalCode": "99577",
    "state": "Alaska",
    "countryCode": "US",
    "website": "https://www.walmart.com/store/2188-eagle-river-ak/pharmacy/?veh=seo_loc",
    "phone": "(907) 694-9786",
    "phoneUnformatted": "+19076949786",
    "claimThisBusiness": false,
    "location": {
      "lat": 61.3090066,
      "lng": -149.5351648
    },
    "totalScore": 5,
    "permanentlyClosed": false,
    "temporarilyClosed": false,
    "placeId": null,
    "categories": [
      "Pharmacy",
      "Herbal medicine store",
      "Medical supply store",
      "Parapharmacy",
      "Vitamin & supplements store"
    ],
    "fid": "0x56c8ec9967bbd3c3:0x1481a53440070913",
    "cid": "1477643796585318675",
    "reviewsCount": 4,
    "imagesCount": 4,
    "imageCategories": [],
    "scrapedAt": "2025-06-22T07:05:17.812Z",
    "googleFoodUrl": null,
    "hotelAds": [],
    "openingHours": [
      {
        "day": "Monday",
        "hours": "9\u202fAM to 7\u202fPM"
      },
      {
        "day": "Tuesday",
        "hours": "9\u202fAM to 7\u202fPM"
      },
      {
        "day": "Wednesday",
        "hours": "9\u202fAM to 7\u202fPM"
      },
      {
        "day": "Thursday",
        "hours": "9\u202fAM to 7\u202fPM"
      },
      {
        "day": "Friday",
        "hours": "9\u202fAM to 7\u202fPM"
      },
      {
        "day": "Saturday",
        "hours": "9\u202fAM to 7\u202fPM"
      },
      {
        "day": "Sunday",
        "hours": "10\u202fAM to 6\u202fPM"
      }
    ],
    "peopleAlsoSearch": [],
    "placesTags": [],
    "reviewsTags": [],
    "additionalInfo": {
      "Service options": [
        {
          "Delivery": true
        },
        {
          "In-store pickup": true
        },
        {
          "In-store shopping": true
        },
        {
          "Onsite services": true
        }
      ],
      "Accessibility": [
        {
          "Wheelchair accessible entrance": true
        },
        {
          "Wheelchair accessible parking lot": true
        },
        {
          "Wheelchair accessible restroom": true
        }
      ],
      "Offerings": [
        {
          "Passport photos": true
        }
      ],
      "Amenities": [
        {
          "Wi-Fi": true
        },
        {
          "Free Wi-Fi": true
        }
      ],
      "Planning": [
        {
          "Quick visit": true
        }
      ],
      "Payments": [
        {
          "Credit cards": true
        },
        {
          "Debit cards": true
        },
        {
          "Credit cards": true
        }
      ]
    },
    "gasPrices": [],
    "url": "https://www.google.com/maps/search/?api=1&query=Walmart%20Pharmacy&query_place_id=ChIJw9O7Z5nsyFYREwkHQDSlgRQ",
    "searchPageUrl": "https://www.google.com/maps/search/independent%20pharmacy%20Wasilla%20AK/@60.874534795447715,-149.65811401432413,9z?hl=en",
    "searchString": "independent pharmacy Wasilla AK",
    "language": "en",
    "rank": 14,
    "isAdvertisement": false,
    "imageUrl": "https://lh3.googleusercontent.com/p/AF1QipN_qUmg78iJd5gHrqYOT71shhRHVSwy8a89VsgJ=w426-h240-k-no",
    "kgmid": "/g/1hf05nd8v",
    "classification": "chain",
    "is_independent": false,
    "is_compounding": false,
    "confidence": 1.0,
    "source": "perplexity",
    "method": "llm"
  }
]