[
  {
    "title": "Barney's Pharmacy",
    "price": null,
    "categoryName": "Pharmacy",
    "address": "215 Furys Ferry Rd, Augusta, GA 30907",
    "neighborhood": null,
    "street": "215 Furys Ferry Rd",
    "city": "Augusta",
    "postalCode": "30907",
    "state": "Georgia",
    "countryCode": "US",
    "website": "http://www.barneysrx.com/#/locations/furys-ferry",
    "phone": "(706) 863-3456",
    "phoneUnformatted": "+17068633456",
    "claimThisBusiness": false,
    "location": {
      "lat": 33.5163208,
      "lng": -82.0593635
    },
    "totalScore": 4.6,
    "permanentlyClosed": false,
    "temporarilyClosed": false,
    "placeId": null,
    "categories": [
      "Pharmacy"
    ],
    "fid": "0x88f9d29456d15cd3:0x3df7a6a5ff45cdef",
    "cid": "4465220787443715567",
    "reviewsCount": 54,
    "imagesCount": 2,
    "imageCategories": [],
    "scrapedAt": "2025-06-22T05:01:52.671Z",
    "googleFoodUrl": null,
    "hotelAds": [],
    "openingHours": [
      {
        "day": "Monday",
        "hours": "9\u202fAM to 6\u202fPM"
      },
      {
        "day": "Tuesday",
        "hours": "9\u202fAM to 6\u202fPM"
      },
      {
        "day": "Wednesday",
        "hours": "9\u202fAM to 6\u202fPM"
      },
      {
        "day": "Thursday",
        "hours": "9\u202fAM to 6\u202fPM"
      },
      {
        "day": "Friday",
        "hours": "9\u202fAM to 6\u202fPM"
      },
      {
        "day": "Saturday",
        "hours": "9\u202fAM to 2\u202fPM"
      },
      {
        "day": "Sunday",
        "hours": "Closed"
      }
    ],
    "peopleAlsoSearch": [],
    "placesTags": [],
    "reviewsTags": [],
    "additionalInfo": {
      "Service options": [
        {
          "Delivery": true
        },
        {
          "Drive-through": true
        },
        {
          "In-store pickup": true
        },
        {
          "Same-day delivery": true
        }
      ],
      "Accessibility": [
        {
          "Wheelchair accessible entrance": true
        },
        {
          "Wheelchair accessible parking lot": true
        }
      ],
      "Planning": [
        {
          "Quick visit": true
        }
      ],
      "Payments": [
        {
          "Credit cards": true
        },
        {
          "Debit cards": true
        },
        {
          "NFC mobile payments": true
        },
        {
          "Credit cards": true
        }
      ]
    },
    "gasPrices": [],
    "url": "https://www.google.com/maps/search/?api=1&query=Barney's%20Pharmacy&query_place_id=ChIJ01zRVpTS-YgR781F_6Wm9z0",
    "searchPageUrl": "https://www.google.com/maps/search/independent%20pharmacy%20Augusta%20GA/@63.96402929632397,-172.11313138426246,11z?hl=en",
    "searchString": "independent pharmacy Augusta GA",
    "language": "en",
    "rank": 1,
    "isAdvertisement": false,
    "imageUrl": "https://lh3.googleusercontent.com/gps-cs-s/AC9h4nq4M4cc_VR4v2MYIuCqK_RAfQgCuyLYfibi-wid-dpZnLJX1vR86snEK3t1ZNANmq7YBp6kOPa9vCbjyanBDbLLiE7QUpcZDgVtRMBCJOrtOPhkCMSVJ0laJ9yF6dVYYiTpHpA=w408-h544-k-no",
    "kgmid": "/g/11bw20l0yn",
    "classification": "independent",
    "is_independent": true,
    "is_compounding": false,
    "confidence": 0.9,
    "source": "perplexity",
    "method": "llm"
  },
  {
    "title": "Barney's Pharmacy",
    "price": null,
    "categoryName": "Pharmacy",
    "address": "2604 Peach Orchard Rd, Augusta, GA 30906",
    "neighborhood": null,
    "street": "2604 Peach Orchard Rd",
    "city": "Augusta",
    "postalCode": "30906",
    "state": "Georgia",
    "countryCode": "US",
    "website": "http://www.barneysrx.com/",
    "phone": "(706) 798-5645",
    "phoneUnformatted": "+17067985645",
    "claimThisBusiness": false,
    "location": {
      "lat": 33.4252866,
      "lng": -82.0180765
    },
    "totalScore": 4.3,
    "permanentlyClosed": false,
    "temporarilyClosed": false,
    "placeId": null,
    "categories": [
      "Pharmacy"
    ],
    "fid": "0x88f9ce40637fb72b:0x6970ef1745a6ac63",
    "cid": "7597835454605864035",
    "reviewsCount": 243,
    "imagesCount": 8,
    "imageCategories": [],
    "scrapedAt": "2025-06-22T05:01:52.673Z",
    "googleFoodUrl": null,
    "hotelAds": [],
    "openingHours": [
      {
        "day": "Monday",
        "hours": "9\u202fAM to 6\u202fPM"
      },
      {
        "day": "Tuesday",
        "hours": "9\u202fAM to 6\u202fPM"
      },
      {
        "day": "Wednesday",
        "hours": "9\u202fAM to 6\u202fPM"
      },
      {
        "day": "Thursday",
        "hours": "9\u202fAM to 6\u202fPM"
      },
      {
        "day": "Friday",
        "hours": "9\u202fAM to 6\u202fPM"
      },
      {
        "day": "Saturday",
        "hours": "9\u202fAM to 2\u202fPM"
      },
      {
        "day": "Sunday",
        "hours": "Closed"
      }
    ],
    "peopleAlsoSearch": [],
    "placesTags": [],
    "reviewsTags": [],
    "additionalInfo": {
      "Service options": [
        {
          "Delivery": true
        },
        {
          "In-store pickup": true
        },
        {
          "Same-day delivery": true
        }
      ],
      "Accessibility": [
        {
          "Wheelchair accessible entrance": true
        },
        {
          "Wheelchair accessible parking lot": true
        }
      ],
      "Planning": [
        {
          "Quick visit": true
        }
      ],
      "Payments": [
        {
          "Credit cards": true
        },
        {
          "Debit cards": true
        },
        {
          "NFC mobile payments": true
        },
        {
          "Credit cards": true
        }
      ]
    },
    "gasPrices": [],
    "url": "https://www.google.com/maps/search/?api=1&query=Barney's%20Pharmacy&query_place_id=ChIJK7d_Y0DO-YgRY6ymRRfvcGk",
    "searchPageUrl": "https://www.google.com/maps/search/independent%20pharmacy%20Augusta%20GA/@63.96402929632397,-172.11313138426246,11z?hl=en",
    "searchString": "independent pharmacy Augusta GA",
    "language": "en",
    "rank": 2,
    "isAdvertisement": false,
    "imageUrl": "https://lh3.googleusercontent.com/gps-cs-s/AC9h4nqfv9g2dB_l44Vuq5HaF4l0_NbslV_qc-1KqY27Csl-WL7LrBKY7tVQ8lwOb9CdRf0ijtPU7oaOCHgSGaEbKYIuCIAxF8w4sAnUL_AWEQgzCcLg2UTSfRH4iITyAIZUTVr26SWz3w=w493-h240-k-no",
    "kgmid": "/g/1tdfzl3x",
    "classification": "independent",
    "is_independent": true,
    "is_compounding": false,
    "confidence": 0.9,
    "source": "perplexity",
    "method": "llm"
  },
  {
    "title": "Augusta Pharmacy",
    "price": null,
    "categoryName": "Pharmacy",
    "address": "1944 Walton Wy # C, Augusta, GA 30904",
    "neighborhood": "Midtown",
    "street": "1944 Walton Wy # C",
    "city": "Augusta",
    "postalCode": "30904",
    "state": "Georgia",
    "countryCode": "US",
    "website": "https://augustapharmacy.com/",
    "phone": "(706) 287-2700",
    "phoneUnformatted": "+17062872700",
    "claimThisBusiness": false,
    "location": {
      "lat": 33.4753929,
      "lng": -82.0031163
    },
    "totalScore": 5,
    "permanentlyClosed": false,
    "temporarilyClosed": false,
    "placeId": null,
    "categories": [
      "Pharmacy"
    ],
    "fid": "0x88f9cd7cf826483b:0x718a131290553b8",
    "cid": "511335790220235704",
    "reviewsCount": 11,
    "imagesCount": 4,
    "imageCategories": [],
    "scrapedAt": "2025-06-22T05:01:52.673Z",
    "googleFoodUrl": null,
    "hotelAds": [],
    "openingHours": [
      {
        "day": "Monday",
        "hours": "9\u202fAM to 6\u202fPM"
      },
      {
        "day": "Tuesday",
        "hours": "9\u202fAM to 6\u202fPM"
      },
      {
        "day": "Wednesday",
        "hours": "9\u202fAM to 6\u202fPM"
      },
      {
        "day": "Thursday",
        "hours": "9\u202fAM to 6\u202fPM"
      },
      {
        "day": "Friday",
        "hours": "9\u202fAM to 6\u202fPM"
      },
      {
        "day": "Saturday",
        "hours": "Closed"
      },
      {
        "day": "Sunday",
        "hours": "Closed"
      }
    ],
    "peopleAlsoSearch": [],
    "placesTags": [],
    "reviewsTags": [],
    "additionalInfo": {
      "Service options": [
        {
          "Delivery": true
        },
        {
          "In-store pickup": true
        }
      ],
      "Accessibility": [
        {
          "Wheelchair accessible entrance": true
        },
        {
          "Wheelchair accessible parking lot": true
        }
      ],
      "Planning": [
        {
          "Quick visit": true
        }
      ],
      "Payments": [
        {
          "Credit cards": true
        }
      ]
    },
    "gasPrices": [],
    "url": "https://www.google.com/maps/search/?api=1&query=Augusta%20Pharmacy&query_place_id=ChIJO0gm-HzN-YgRuFMFKTGhGAc",
    "searchPageUrl": "https://www.google.com/maps/search/independent%20pharmacy%20Augusta%20GA/@63.96402929632397,-172.11313138426246,11z?hl=en",
    "searchString": "independent pharmacy Augusta GA",
    "language": "en",
    "rank": 3,
    "isAdvertisement": false,
    "imageUrl": "https://lh3.googleusercontent.com/p/AF1QipNskWL5tu5LAfxQXZkojf5G6DXLn_Z0d8zBuRXQ=w408-h408-k-no",
    "kgmid": "/g/11x1lrkc7x",
    "classification": "independent",
    "is_independent": true,
    "is_compounding": false,
    "confidence": 0.9,
    "source": "perplexity",
    "method": "llm"
  },
  {
    "title": "Medical Villa Pharmacy",
    "price": null,
    "categoryName": "Pharmacy",
    "address": "1520 Laney Walker Blvd # C, Augusta, GA 30904",
    "neighborhood": null,
    "street": "1520 Laney Walker Blvd # C",
    "city": "Augusta",
    "postalCode": "30904",
    "state": "Georgia",
    "countryCode": "US",
    "phone": "(706) 722-7355",
    "phoneUnformatted": "+17067227355",
    "claimThisBusiness": true,
    "location": {
      "lat": 33.4703705,
      "lng": -81.9935457
    },
    "totalScore": 3.5,
    "permanentlyClosed": false,
    "temporarilyClosed": false,
    "placeId": null,
    "categories": [
      "Pharmacy"
    ],
    "fid": "0x88f9cc3589606b27:0x283674622e419a0d",
    "cid": "2897631375291161101",
    "reviewsCount": 8,
    "imagesCount": 1,
    "imageCategories": [],
    "scrapedAt": "2025-06-22T05:01:52.673Z",
    "googleFoodUrl": null,
    "hotelAds": [],
    "openingHours": [
      {
        "day": "Monday",
        "hours": "9\u202fAM to 5\u202fPM"
      },
      {
        "day": "Tuesday",
        "hours": "9\u202fAM to 5\u202fPM"
      },
      {
        "day": "Wednesday",
        "hours": "9\u202fAM to 5\u202fPM"
      },
      {
        "day": "Thursday",
        "hours": "9\u202fAM to 5\u202fPM"
      },
      {
        "day": "Friday",
        "hours": "9\u202fAM to 5\u202fPM"
      },
      {
        "day": "Saturday",
        "hours": "Closed"
      },
      {
        "day": "Sunday",
        "hours": "Closed"
      }
    ],
    "peopleAlsoSearch": [],
    "placesTags": [],
    "reviewsTags": [],
    "additionalInfo": {
      "Service options": [
        {
          "Delivery": true
        },
        {
          "Same-day delivery": true
        }
      ],
      "Accessibility": [
        {
          "Wheelchair accessible entrance": true
        },
        {
          "Wheelchair accessible parking lot": true
        }
      ],
      "Planning": [
        {
          "Quick visit": true
        }
      ],
      "Payments": [
        {
          "Credit cards": true
        },
        {
          "Debit cards": true
        },
        {
          "Credit cards": true
        }
      ]
    },
    "gasPrices": [],
    "url": "https://www.google.com/maps/search/?api=1&query=Medical%20Villa%20Pharmacy&query_place_id=ChIJJ2tgiTXM-YgRDZpBLmJ0Nig",
    "searchPageUrl": "https://www.google.com/maps/search/independent%20pharmacy%20Augusta%20GA/@63.96402929632397,-172.11313138426246,11z?hl=en",
    "searchString": "independent pharmacy Augusta GA",
    "language": "en",
    "rank": 4,
    "isAdvertisement": false,
    "imageUrl": "https://streetviewpixels-pa.googleapis.com/v1/thumbnail?panoid=xhche6qfPfA6UkKN5D2Fow&cb_client=search.gws-prod.gps&w=408&h=240&yaw=207.97435&pitch=0&thumbfov=100",
    "kgmid": "/g/1tdw8x_3",
    "classification": "independent",
    "is_independent": true,
    "is_compounding": false,
    "confidence": 0.85,
    "source": "perplexity",
    "method": "llm"
  },
  {
    "title": "Surrey Center Pharmacy",
    "price": null,
    "categoryName": "Pharmacy",
    "address": "483 Highland Ave, Augusta, GA 30909",
    "neighborhood": null,
    "street": "483 Highland Ave",
    "city": "Augusta",
    "postalCode": "30909",
    "state": "Georgia",
    "countryCode": "US",
    "website": "https://surreycenterpharmacy.com/",
    "phone": "(706) 738-4558",
    "phoneUnformatted": "+17067384558",
    "claimThisBusiness": false,
    "location": {
      "lat": 33.4861133,
      "lng": -82.0309086
    },
    "totalScore": 5,
    "permanentlyClosed": false,
    "temporarilyClosed": false,
    "placeId": null,
    "categories": [
      "Pharmacy",
      "Drug store",
      "Frozen yogurt shop",
      "Gift shop",
      "Post office"
    ],
    "fid": "0x88f9cd8555b048cd:0x6df7cf42d4b1e4fc",
    "cid": "7924029955324896508",
    "reviewsCount": 22,
    "imagesCount": 8,
    "imageCategories": [],
    "scrapedAt": "2025-06-22T05:01:52.673Z",
    "googleFoodUrl": null,
    "hotelAds": [],
    "openingHours": [
      {
        "day": "Monday",
        "hours": "9\u202fAM to 6\u202fPM"
      },
      {
        "day": "Tuesday",
        "hours": "9\u202fAM to 6\u202fPM"
      },
      {
        "day": "Wednesday",
        "hours": "9\u202fAM to 6\u202fPM"
      },
      {
        "day": "Thursday",
        "hours": "9\u202fAM to 6\u202fPM"
      },
      {
        "day": "Friday",
        "hours": "9\u202fAM to 6\u202fPM"
      },
      {
        "day": "Saturday",
        "hours": "9\u202fAM to 2\u202fPM"
      },
      {
        "day": "Sunday",
        "hours": "Closed"
      }
    ],
    "peopleAlsoSearch": [],
    "placesTags": [],
    "reviewsTags": [],
    "additionalInfo": {
      "From the business": [
        {
          "Small business": true
        }
      ],
      "Service options": [
        {
          "Curbside pickup": true
        },
        {
          "Delivery": true
        },
        {
          "In-store pickup": true
        },
        {
          "In-store shopping": true
        },
        {
          "Onsite services": true
        }
      ],
      "Accessibility": [
        {
          "Wheelchair accessible entrance": true
        },
        {
          "Wheelchair accessible parking lot": true
        },
        {
          "Wheelchair accessible restroom": true
        }
      ],
      "Crowd": [
        {
          "LGBTQ+ friendly": true
        },
        {
          "Transgender safespace": true
        }
      ],
      "Planning": [
        {
          "Quick visit": true
        }
      ],
      "Payments": [
        {
          "Checks": true
        },
        {
          "Credit cards": true
        },
        {
          "Debit cards": true
        },
        {
          "Credit cards": true
        }
      ]
    },
    "gasPrices": [],
    "url": "https://www.google.com/maps/search/?api=1&query=Surrey%20Center%20Pharmacy&query_place_id=ChIJzUiwVYXN-YgR_OSx1ELP920",
    "searchPageUrl": "https://www.google.com/maps/search/independent%20pharmacy%20Augusta%20GA/@63.96402929632397,-172.11313138426246,11z?hl=en",
    "searchString": "independent pharmacy Augusta GA",
    "language": "en",
    "rank": 5,
    "isAdvertisement": false,
    "imageUrl": "https://lh3.googleusercontent.com/gps-cs-s/AC9h4nqTPyCks5znkF-bJwOtq538E1AEMx4kiq_eVOkOQ3ADzW8Jlzd_RRPyTkUdutgBoKx6JHQVNIbyguh_3rpW1jkkuAGnIzgVuBBTow6L_PVbSnp-5iQYFnA9Imtyy8l2ljICtXNS=w408-h544-k-no",
    "kgmid": "/g/1tw1fpcg",
    "classification": "independent",
    "is_independent": true,
    "is_compounding": false,
    "confidence": 0.9,
    "source": "perplexity",
    "method": "llm"
  },
  {
    "title": "Janus RX",
    "price": null,
    "categoryName": "Pharmacy",
    "address": "1721 Wrightsboro Rd, Augusta, GA 31904",
    "neighborhood": "Midtown",
    "street": "1721 Wrightsboro Rd",
    "city": "Augusta",
    "postalCode": "31904",
    "state": "Georgia",
    "countryCode": "US",
    "website": "https://www.januspharmacy.com/augusta-ga-contact",
    "phone": "(706) 738-6578",
    "phoneUnformatted": "+17067386578",
    "claimThisBusiness": true,
    "location": {
      "lat": 33.4661479,
      "lng": -82.0010212
    },
    "totalScore": 4.2,
    "permanentlyClosed": false,
    "temporarilyClosed": false,
    "placeId": null,
    "categories": [
      "Pharmacy"
    ],
    "fid": "0x88f9cdcb8c53ffff:0xbd16506a246bd171",
    "cid": "13625166139463815537",
    "reviewsCount": 5,
    "imagesCount": 1,
    "imageCategories": [],
    "scrapedAt": "2025-06-22T05:01:52.674Z",
    "googleFoodUrl": null,
    "hotelAds": [],
    "openingHours": [
      {
        "day": "Monday",
        "hours": "8\u202fAM to 5\u202fPM"
      },
      {
        "day": "Tuesday",
        "hours": "8\u202fAM to 5\u202fPM"
      },
      {
        "day": "Wednesday",
        "hours": "8\u202fAM to 5\u202fPM"
      },
      {
        "day": "Thursday",
        "hours": "8\u202fAM to 5\u202fPM"
      },
      {
        "day": "Friday",
        "hours": "8\u202fAM to 5\u202fPM"
      },
      {
        "day": "Saturday",
        "hours": "Closed"
      },
      {
        "day": "Sunday",
        "hours": "Closed"
      }
    ],
    "peopleAlsoSearch": [],
    "placesTags": [],
    "reviewsTags": [],
    "additionalInfo": {
      "Service options": [
        {
          "Delivery": true
        }
      ],
      "Accessibility": [
        {
          "Wheelchair accessible entrance": true
        },
        {
          "Wheelchair accessible parking lot": true
        }
      ],
      "Payments": [
        {
          "Credit cards": true
        },
        {
          "Debit cards": true
        },
        {
          "Credit cards": true
        }
      ]
    },
    "gasPrices": [],
    "url": "https://www.google.com/maps/search/?api=1&query=Janus%20RX&query_place_id=ChIJ__9TjMvN-YgRcdFrJGpQFr0",
    "searchPageUrl": "https://www.google.com/maps/search/independent%20pharmacy%20Augusta%20GA/@63.96402929632397,-172.11313138426246,11z?hl=en",
    "searchString": "independent pharmacy Augusta GA",
    "language": "en",
    "rank": 6,
    "isAdvertisement": false,
    "imageUrl": "https://streetviewpixels-pa.googleapis.com/v1/thumbnail?panoid=6ohzXgdbWKtUa8OM1FlqKg&cb_client=search.gws-prod.gps&w=408&h=240&yaw=355.34555&pitch=0&thumbfov=100",
    "kgmid": "/g/11sghq17vb",
    "classification": "independent",
    "is_independent": true,
    "is_compounding": false,
    "confidence": 0.9,
    "source": "perplexity",
    "method": "llm"
  },
  {
    "title": "Living Well Pharmacy",
    "price": null,
    "categoryName": "Pharmacy",
    "address": "3736 Mike Padgett Hwy, Augusta, GA 30906",
    "neighborhood": "Industrial",
    "street": "3736 Mike Padgett Hwy",
    "city": "Augusta",
    "postalCode": "30906",
    "state": "Georgia",
    "countryCode": "US",
    "website": "http://livingwellpharmacy.com/",
    "phone": "(706) 262-4455",
    "phoneUnformatted": "+17062624455",
    "claimThisBusiness": false,
    "location": {
      "lat": 33.365957,
      "lng": -81.9947564
    },
    "totalScore": 4,
    "permanentlyClosed": false,
    "temporarilyClosed": false,
    "placeId": null,
    "categories": [
      "Pharmacy"
    ],
    "fid": "0x88f9cf78df341053:0xfdce498a6319d942",
    "cid": "18288635995515115842",
    "reviewsCount": 32,
    "imagesCount": 1,
    "imageCategories": [],
    "scrapedAt": "2025-06-22T05:01:52.674Z",
    "googleFoodUrl": null,
    "hotelAds": [],
    "openingHours": [
      {
        "day": "Monday",
        "hours": "9\u202fAM to 6\u202fPM"
      },
      {
        "day": "Tuesday",
        "hours": "9\u202fAM to 6\u202fPM"
      },
      {
        "day": "Wednesday",
        "hours": "9\u202fAM to 6\u202fPM"
      },
      {
        "day": "Thursday",
        "hours": "9\u202fAM to 6\u202fPM"
      },
      {
        "day": "Friday",
        "hours": "9\u202fAM to 6\u202fPM"
      },
      {
        "day": "Saturday",
        "hours": "9\u202fAM to 12\u202fPM"
      },
      {
        "day": "Sunday",
        "hours": "Closed"
      }
    ],
    "peopleAlsoSearch": [],
    "placesTags": [],
    "reviewsTags": [],
    "additionalInfo": {
      "From the business": [
        {
          "Small business": true
        }
      ],
      "Service options": [
        {
          "In-store pickup": true
        }
      ],
      "Accessibility": [
        {
          "Wheelchair accessible entrance": true
        },
        {
          "Wheelchair accessible parking lot": true
        }
      ],
      "Planning": [
        {
          "Quick visit": true
        }
      ],
      "Payments": [
        {
          "Credit cards": true
        },
        {
          "Debit cards": true
        },
        {
          "NFC mobile payments": true
        },
        {
          "Credit cards": true
        }
      ]
    },
    "gasPrices": [],
    "url": "https://www.google.com/maps/search/?api=1&query=Living%20Well%20Pharmacy&query_place_id=ChIJUxA033jP-YgRQtkZY4pJzv0",
    "searchPageUrl": "https://www.google.com/maps/search/independent%20pharmacy%20Augusta%20GA/@63.96402929632397,-172.11313138426246,11z?hl=en",
    "searchString": "independent pharmacy Augusta GA",
    "language": "en",
    "rank": 7,
    "isAdvertisement": false,
    "imageUrl": "https://streetviewpixels-pa.googleapis.com/v1/thumbnail?panoid=jJgzZCl4s_jaPCKtWJ3RIA&cb_client=search.gws-prod.gps&w=408&h=240&yaw=173.79579&pitch=0&thumbfov=100",
    "kgmid": "/g/1pp2vbmyn",
    "classification": "independent",
    "is_independent": true,
    "is_compounding": false,
    "confidence": 0.9,
    "source": "perplexity",
    "method": "llm"
  },
  {
    "title": "Walgreens Specialty Pharmacy",
    "price": "$$",
    "categoryName": "Pharmacy",
    "address": "1022 Walton Wy Suite C, Augusta, GA 30901",
    "neighborhood": "Laney Walker",
    "street": "1022 Walton Wy Suite C",
    "city": "Augusta",
    "postalCode": "30901",
    "state": "Georgia",
    "countryCode": "US",
    "website": "https://www.walgreens.com/locator/walgreens-1022+walton+way-augusta-ga-30901/id=21163",
    "phone": "(706) 619-2467",
    "phoneUnformatted": "+17066192467",
    "claimThisBusiness": false,
    "location": {
      "lat": 33.4696026,
      "lng": -81.9741491
    },
    "totalScore": 4.2,
    "permanentlyClosed": false,
    "temporarilyClosed": false,
    "placeId": null,
    "categories": [
      "Pharmacy"
    ],
    "fid": "0x88f9cd47b4a6f6bb:0xee6fffcc3a29677b",
    "cid": "17181232356055934843",
    "reviewsCount": 9,
    "imagesCount": 3,
    "imageCategories": [],
    "scrapedAt": "2025-06-22T05:01:52.674Z",
    "googleFoodUrl": null,
    "hotelAds": [],
    "openingHours": [
      {
        "day": "Monday",
        "hours": "8:30\u202fAM to 1:30\u202fPM, 2 to 5\u202fPM"
      },
      {
        "day": "Tuesday",
        "hours": "8:30\u202fAM to 1:30\u202fPM, 2 to 5\u202fPM"
      },
      {
        "day": "Wednesday",
        "hours": "8:30\u202fAM to 1:30\u202fPM, 2 to 5\u202fPM"
      },
      {
        "day": "Thursday",
        "hours": "8:30\u202fAM to 1:30\u202fPM, 2 to 5\u202fPM"
      },
      {
        "day": "Friday",
        "hours": "8:30\u202fAM to 1:30\u202fPM, 2 to 5\u202fPM"
      },
      {
        "day": "Saturday",
        "hours": "Closed"
      },
      {
        "day": "Sunday",
        "hours": "Closed"
      }
    ],
    "peopleAlsoSearch": [],
    "placesTags": [],
    "reviewsTags": [],
    "additionalInfo": {
      "Service options": [
        {
          "In-store pickup": true
        }
      ],
      "Accessibility": [
        {
          "Wheelchair accessible entrance": true
        },
        {
          "Wheelchair accessible parking lot": true
        }
      ],
      "Planning": [
        {
          "Quick visit": true
        }
      ],
      "Payments": [
        {
          "Credit cards": true
        }
      ]
    },
    "gasPrices": [],
    "url": "https://www.google.com/maps/search/?api=1&query=Walgreens%20Specialty%20Pharmacy&query_place_id=ChIJu_amtEfN-YgRe2cpOsz_b-4",
    "searchPageUrl": "https://www.google.com/maps/search/independent%20pharmacy%20Augusta%20GA/@63.96402929632397,-172.11313138426246,11z?hl=en",
    "searchString": "independent pharmacy Augusta GA",
    "language": "en",
    "rank": 8,
    "isAdvertisement": false,
    "imageUrl": "https://lh3.googleusercontent.com/gps-cs-s/AC9h4npPwEznyqWNZ_rK_hMSIXYkHSmx4sjbbLQYognejaYx7nA7bvDX2SYOTXQWIm73M-wSdy91ht-EWvD-quuMIxJiTzVT22Bx7k9-LUkCPvV3gq96ZlhAvFNw_nI1DsF5wBWwlrC0=w408-h306-k-no",
    "kgmid": "/g/11g21s8dy1",
    "classification": "chain",
    "is_independent": false,
    "is_compounding": false,
    "confidence": 0.99,
    "source": "perplexity",
    "method": "llm"
  },
  {
    "title": "Peach Orchard Drugs",
    "price": null,
    "categoryName": "Pharmacy",
    "address": "2529 Peach Orchard Rd, Augusta, GA 30906",
    "neighborhood": null,
    "street": "2529 Peach Orchard Rd",
    "city": "Augusta",
    "postalCode": "30906",
    "state": "Georgia",
    "countryCode": "US",
    "website": "https://stores.healthmart.com/peachorcharddrugs/stores.aspx",
    "phone": "(706) 798-3253",
    "phoneUnformatted": "+17067983253",
    "claimThisBusiness": false,
    "location": {
      "lat": 33.4282631,
      "lng": -82.0170845
    },
    "totalScore": 4.5,
    "permanentlyClosed": false,
    "temporarilyClosed": false,
    "placeId": null,
    "categories": [
      "Pharmacy"
    ],
    "fid": "0x88f9ce6a83ecd37f:0x97ee3a2d983c4cd9",
    "cid": "10947751711686282457",
    "reviewsCount": 25,
    "imagesCount": 4,
    "imageCategories": [],
    "scrapedAt": "2025-06-22T05:01:52.674Z",
    "googleFoodUrl": null,
    "hotelAds": [],
    "openingHours": [
      {
        "day": "Monday",
        "hours": "9\u202fAM to 6\u202fPM"
      },
      {
        "day": "Tuesday",
        "hours": "9\u202fAM to 6\u202fPM"
      },
      {
        "day": "Wednesday",
        "hours": "9\u202fAM to 6\u202fPM"
      },
      {
        "day": "Thursday",
        "hours": "9\u202fAM to 6\u202fPM"
      },
      {
        "day": "Friday",
        "hours": "9\u202fAM to 6\u202fPM"
      },
      {
        "day": "Saturday",
        "hours": "Closed"
      },
      {
        "day": "Sunday",
        "hours": "Closed"
      }
    ],
    "peopleAlsoSearch": [],
    "placesTags": [],
    "reviewsTags": [],
    "additionalInfo": {
      "From the business": [
        {
          "Identifies as women-owned": true
        }
      ],
      "Service options": [
        {
          "Delivery": true
        },
        {
          "In-store pickup": true
        },
        {
          "Same-day delivery": true
        }
      ],
      "Accessibility": [
        {
          "Wheelchair accessible entrance": true
        },
        {
          "Wheelchair accessible parking lot": true
        }
      ],
      "Planning": [
        {
          "Quick visit": true
        }
      ],
      "Payments": [
        {
          "Checks": true
        },
        {
          "Credit cards": true
        },
        {
          "Debit cards": true
        },
        {
          "NFC mobile payments": true
        },
        {
          "Credit cards": true
        }
      ]
    },
    "gasPrices": [],
    "url": "https://www.google.com/maps/search/?api=1&query=Peach%20Orchard%20Drugs&query_place_id=ChIJf9Psg2rO-YgR2Uw8mC067pc",
    "searchPageUrl": "https://www.google.com/maps/search/independent%20pharmacy%20Augusta%20GA/@63.96402929632397,-172.11313138426246,11z?hl=en",
    "searchString": "independent pharmacy Augusta GA",
    "language": "en",
    "rank": 9,
    "isAdvertisement": false,
    "imageUrl": "https://lh3.googleusercontent.com/p/AF1QipNWlCFWv4p869aGtpdzSlhxQ27FF8Mpz2NXr0WJ=w408-h408-k-no",
    "kgmid": "/g/1tgdd83q",
    "classification": "independent",
    "is_independent": true,
    "is_compounding": false,
    "confidence": 0.9,
    "source": "perplexity",
    "method": "llm"
  },
  {
    "title": "Just in Time Meds LLC",
    "price": null,
    "categoryName": "Pharmacy",
    "address": "1007 Jones St, Augusta, GA 30901",
    "neighborhood": "Downtown Augusta",
    "street": "1007 Jones St",
    "city": "Augusta",
    "postalCode": "30901",
    "state": "Georgia",
    "countryCode": "US",
    "website": "http://justintimemeds.com/",
    "phone": "(706) 868-1919",
    "phoneUnformatted": "+17068681919",
    "claimThisBusiness": true,
    "location": {
      "lat": 33.4779197,
      "lng": -81.9699062
    },
    "permanentlyClosed": false,
    "temporarilyClosed": false,
    "placeId": null,
    "categories": [
      "Pharmacy"
    ],
    "fid": "0x88f9cc6f2b5e6029:0x6946e50261f2ab04",
    "cid": "7586002420748167940",
    "reviewsCount": 0,
    "imagesCount": 1,
    "imageCategories": [],
    "scrapedAt": "2025-06-22T05:01:52.675Z",
    "googleFoodUrl": null,
    "hotelAds": [],
    "openingHours": [],
    "peopleAlsoSearch": [],
    "placesTags": [],
    "reviewsTags": [],
    "additionalInfo": {
      "Accessibility": [
        {
          "Wheelchair accessible parking lot": true
        }
      ]
    },
    "gasPrices": [],
    "url": "https://www.google.com/maps/search/?api=1&query=Just%20in%20Time%20Meds%20LLC&query_place_id=ChIJKWBeK2_M-YgRBKvyYQLlRmk",
    "searchPageUrl": "https://www.google.com/maps/search/independent%20pharmacy%20Augusta%20GA/@63.96402929632397,-172.11313138426246,11z?hl=en",
    "searchString": "independent pharmacy Augusta GA",
    "language": "en",
    "rank": 10,
    "isAdvertisement": false,
    "imageUrl": "https://streetviewpixels-pa.googleapis.com/v1/thumbnail?panoid=Fyu2Tm7qExW9rr_u8Pa6aw&cb_client=search.gws-prod.gps&w=408&h=240&yaw=27.121012&pitch=0&thumbfov=100",
    "kgmid": "/g/1tdpsj03",
    "classification": "independent",
    "is_independent": true,
    "is_compounding": false,
    "confidence": 0.85,
    "source": "perplexity",
    "method": "llm"
  },
  {
    "title": "Walgreens Pharmacy",
    "description": "Department of the Walgreens chain providing prescription medications & other health-related items.",
    "price": null,
    "categoryName": "Pharmacy",
    "address": "1022 Walton Wy, Augusta, GA 30901",
    "neighborhood": "Laney Walker",
    "street": "1022 Walton Wy",
    "city": "Augusta",
    "postalCode": "30901",
    "state": "Georgia",
    "countryCode": "US",
    "website": "https://www.walgreens.com/locator/walgreens+specialty+pharmacy-1022+walton+way-augusta-ga-30901/id=21163",
    "phone": "(706) 619-2467",
    "phoneUnformatted": "+17066192467",
    "claimThisBusiness": true,
    "location": {
      "lat": 33.4696177,
      "lng": -81.9742055
    },
    "totalScore": 4.3,
    "permanentlyClosed": false,
    "temporarilyClosed": false,
    "placeId": null,
    "categories": [
      "Pharmacy"
    ],
    "fid": "0x88f9cc6ab48c4d05:0x2fc54d7789c96511",
    "cid": "3442242666002736401",
    "reviewsCount": 3,
    "imagesCount": 1,
    "imageCategories": [],
    "scrapedAt": "2025-06-22T05:01:52.675Z",
    "googleFoodUrl": null,
    "hotelAds": [],
    "openingHours": [],
    "peopleAlsoSearch": [],
    "placesTags": [],
    "reviewsTags": [],
    "additionalInfo": {
      "Service options": [
        {
          "In-store pickup": true
        }
      ],
      "Accessibility": [
        {
          "Wheelchair accessible entrance": true
        },
        {
          "Wheelchair accessible parking lot": true
        }
      ],
      "Planning": [
        {
          "Quick visit": true
        }
      ],
      "Payments": [
        {
          "Credit cards": true
        }
      ]
    },
    "gasPrices": [],
    "url": "https://www.google.com/maps/search/?api=1&query=Walgreens%20Pharmacy&query_place_id=ChIJBU2MtGrM-YgREWXJiXdNxS8",
    "searchPageUrl": "https://www.google.com/maps/search/independent%20pharmacy%20Augusta%20GA/@63.96402929632397,-172.11313138426246,11z?hl=en",
    "searchString": "independent pharmacy Augusta GA",
    "language": "en",
    "rank": 11,
    "isAdvertisement": false,
    "imageUrl": "https://streetviewpixels-pa.googleapis.com/v1/thumbnail?panoid=LXf8adF_C5fv3lLlry04ww&cb_client=search.gws-prod.gps&w=408&h=240&yaw=115.58791&pitch=0&thumbfov=100",
    "kgmid": "/g/11wvkxt516",
    "classification": "chain",
    "is_independent": false,
    "is_compounding": false,
    "confidence": 1.0,
    "source": "perplexity",
    "method": "llm"
  },
  {
    "title": "Wellstar Pharmacy",
    "price": null,
    "categoryName": "Pharmacy",
    "address": "1481 Laney Walker Blvd #1600, Augusta, GA 30912",
    "neighborhood": "Medical District",
    "street": "1481 Laney Walker Blvd #1600",
    "city": "Augusta",
    "postalCode": "30912",
    "state": "Georgia",
    "countryCode": "US",
    "website": "https://www.wellstar.org/locations/pharmacy/pharmacy-1481-laney-walker-blvd?utm_medium=listing&utm_source=google&utm_content=Wellstar_Pharmacy",
    "phone": "(706) 723-0900",
    "phoneUnformatted": "+17067230900",
    "claimThisBusiness": false,
    "location": {
      "lat": 33.4704304,
      "lng": -81.9909276
    },
    "totalScore": 5,
    "permanentlyClosed": false,
    "temporarilyClosed": false,
    "placeId": null,
    "categories": [
      "Pharmacy"
    ],
    "fid": "0x88f9cd62bea6e359:0xd586aaea92ec32af",
    "cid": "15386173101421900463",
    "reviewsCount": 1,
    "imagesCount": 1,
    "imageCategories": [],
    "scrapedAt": "2025-06-22T05:01:52.675Z",
    "googleFoodUrl": null,
    "hotelAds": [],
    "openingHours": [
      {
        "day": "Monday",
        "hours": "7\u202fAM to 6\u202fPM"
      },
      {
        "day": "Tuesday",
        "hours": "7\u202fAM to 6\u202fPM"
      },
      {
        "day": "Wednesday",
        "hours": "7\u202fAM to 6\u202fPM"
      },
      {
        "day": "Thursday",
        "hours": "7\u202fAM to 6\u202fPM"
      },
      {
        "day": "Friday",
        "hours": "7\u202fAM to 6\u202fPM"
      },
      {
        "day": "Saturday",
        "hours": "Closed"
      },
      {
        "day": "Sunday",
        "hours": "Closed"
      }
    ],
    "peopleAlsoSearch": [],
    "placesTags": [],
    "reviewsTags": [],
    "additionalInfo": {
      "Service options": [
        {
          "In-store pickup": true
        },
        {
          "Onsite services": true
        }
      ],
      "Accessibility": [
        {
          "Wheelchair accessible entrance": true
        },
        {
          "Wheelchair accessible parking lot": true
        }
      ],
      "Payments": [
        {
          "Credit cards": true
        }
      ]
    },
    "gasPrices": [],
    "url": "https://www.google.com/maps/search/?api=1&query=Wellstar%20Pharmacy&query_place_id=ChIJWeOmvmLN-YgRrzLskuqqhtU",
    "searchPageUrl": "https://www.google.com/maps/search/independent%20pharmacy%20Augusta%20GA/@63.96402929632397,-172.11313138426246,11z?hl=en",
    "searchString": "independent pharmacy Augusta GA",
    "language": "en",
    "rank": 13,
    "isAdvertisement": false,
    "imageUrl": "https://streetviewpixels-pa.googleapis.com/v1/thumbnail?panoid=4xA6uzIrDOJdadCE0lIsXQ&cb_client=search.gws-prod.gps&w=408&h=240&yaw=199.87311&pitch=0&thumbfov=100",
    "kgmid": "/g/11wvlyg772",
    "classification": "independent",
    "is_independent": true,
    "is_compounding": false,
    "confidence": 0.85,
    "source": "perplexity",
    "method": "llm"
  },
  {
    "title": "CVS Pharmacy",
    "price": null,
    "categoryName": "Pharmacy",
    "address": "1520 Walton Wy, Augusta, GA 30904",
    "neighborhood": "Medical District",
    "street": "1520 Walton Wy",
    "city": "Augusta",
    "postalCode": "30904",
    "state": "Georgia",
    "countryCode": "US",
    "website": "https://www.cvs.com/store-locator/augusta-ga-pharmacies/1520-walton-way-augusta-ga-30904/storeid=3378?WT.mc_id=LS_GOOGLE_RX_3378",
    "phone": "(706) 724-0598",
    "phoneUnformatted": "+17067240598",
    "claimThisBusiness": false,
    "location": {
      "lat": 33.475087,
      "lng": -81.9889749
    },
    "totalScore": 4.2,
    "permanentlyClosed": false,
    "temporarilyClosed": false,
    "placeId": null,
    "categories": [
      "Pharmacy"
    ],
    "fid": "0x88f9cc4927426ef9:0x2d4ab81ffca34f02",
    "cid": "3263623327505403650",
    "reviewsCount": 44,
    "imagesCount": 8,
    "imageCategories": [],
    "scrapedAt": "2025-06-22T05:01:52.675Z",
    "googleFoodUrl": null,
    "hotelAds": [],
    "openingHours": [
      {
        "day": "Monday",
        "hours": "9\u202fAM to 1:30\u202fPM, 2 to 10\u202fPM"
      },
      {
        "day": "Tuesday",
        "hours": "9\u202fAM to 1:30\u202fPM, 2 to 10\u202fPM"
      },
      {
        "day": "Wednesday",
        "hours": "9\u202fAM to 1:30\u202fPM, 2 to 10\u202fPM"
      },
      {
        "day": "Thursday",
        "hours": "9\u202fAM to 1:30\u202fPM, 2 to 10\u202fPM"
      },
      {
        "day": "Friday",
        "hours": "9\u202fAM to 1:30\u202fPM, 2 to 10\u202fPM"
      },
      {
        "day": "Saturday",
        "hours": "9\u202fAM to 1:30\u202fPM, 2 to 9\u202fPM"
      },
      {
        "day": "Sunday",
        "hours": "10\u202fAM to 1:30\u202fPM, 2 to 9\u202fPM"
      }
    ],
    "peopleAlsoSearch": [],
    "placesTags": [],
    "reviewsTags": [],
    "additionalInfo": {
      "Service options": [
        {
          "Delivery": true
        },
        {
          "Drive-through": true
        },
        {
          "In-store pickup": true
        },
        {
          "In-store shopping": true
        },
        {
          "Onsite services": true
        }
      ],
      "Accessibility": [
        {
          "Wheelchair accessible entrance": true
        },
        {
          "Wheelchair accessible parking lot": true
        }
      ],
      "Offerings": [
        {
          "Naloxone": true
        },
        {
          "Passport photos": true
        }
      ],
      "Crowd": [
        {
          "LGBTQ+ friendly": true
        },
        {
          "Transgender safespace": true
        }
      ],
      "Planning": [
        {
          "Quick visit": true
        }
      ],
      "Payments": [
        {
          "Credit cards": true
        },
        {
          "Debit cards": true
        },
        {
          "NFC mobile payments": true
        },
        {
          "SNAP/EBT": true
        },
        {
          "Credit cards": true
        }
      ]
    },
    "gasPrices": [],
    "url": "https://www.google.com/maps/search/?api=1&query=CVS%20Pharmacy&query_place_id=ChIJ-W5CJ0nM-YgRAk-j_B-4Si0",
    "searchPageUrl": "https://www.google.com/maps/search/independent%20pharmacy%20Augusta%20GA/@63.96402929632397,-172.11313138426246,11z?hl=en",
    "searchString": "independent pharmacy Augusta GA",
    "language": "en",
    "rank": 14,
    "isAdvertisement": false,
    "imageUrl": "https://lh3.googleusercontent.com/p/AF1QipM_bNl_wpJYUndw199LIVV46dnkeb6l_oRyo_hp=w408-h272-k-no",
    "kgmid": "/g/11c462qbg_",
    "classification": "chain",
    "is_independent": false,
    "is_compounding": false,
    "confidence": 1.0,
    "source": "perplexity",
    "method": "llm"
  },
  {
    "title": "CVS Pharmacy",
    "price": null,
    "categoryName": "Pharmacy",
    "address": "235 Robert C Daniel Jr Pkwy, Augusta, GA 30909",
    "neighborhood": null,
    "street": "235 Robert C Daniel Jr Pkwy",
    "city": "Augusta",
    "postalCode": "30909",
    "state": "Georgia",
    "countryCode": "US",
    "website": "https://www.cvs.com/store-locator/augusta-ga-pharmacies/235-robert-c-daniel-jr-pkwy-augusta-ga-30909/storeid=16468?WT.mc_id=LS_GOOGLE_RX_16468",
    "phone": "(706) 733-3011",
    "phoneUnformatted": "+17067333011",
    "claimThisBusiness": false,
    "location": {
      "lat": 33.4904972,
      "lng": -82.0817375
    },
    "totalScore": 4,
    "permanentlyClosed": false,
    "temporarilyClosed": false,
    "placeId": null,
    "categories": [
      "Pharmacy"
    ],
    "fid": "0x88f9d252534c1a33:0x77e82932ae6395e9",
    "cid": "8640201182761162217",
    "reviewsCount": 34,
    "imagesCount": 6,
    "imageCategories": [],
    "scrapedAt": "2025-06-22T05:01:52.675Z",
    "googleFoodUrl": null,
    "hotelAds": [],
    "openingHours": [
      {
        "day": "Monday",
        "hours": "9\u202fAM to 1:30\u202fPM, 2 to 7\u202fPM"
      },
      {
        "day": "Tuesday",
        "hours": "9\u202fAM to 1:30\u202fPM, 2 to 7\u202fPM"
      },
      {
        "day": "Wednesday",
        "hours": "9\u202fAM to 1:30\u202fPM, 2 to 7\u202fPM"
      },
      {
        "day": "Thursday",
        "hours": "9\u202fAM to 1:30\u202fPM, 2 to 7\u202fPM"
      },
      {
        "day": "Friday",
        "hours": "9\u202fAM to 1:30\u202fPM, 2 to 7\u202fPM"
      },
      {
        "day": "Saturday",
        "hours": "9\u202fAM to 1:30\u202fPM, 2 to 5\u202fPM"
      },
      {
        "day": "Sunday",
        "hours": "11\u202fAM to 1:30\u202fPM, 2 to 5\u202fPM"
      }
    ],
    "peopleAlsoSearch": [],
    "placesTags": [],
    "reviewsTags": [],
    "additionalInfo": {
      "Service options": [
        {
          "Delivery": true
        },
        {
          "In-store shopping": true
        },
        {
          "Onsite services": true
        }
      ],
      "Accessibility": [
        {
          "Wheelchair accessible entrance": true
        },
        {
          "Wheelchair accessible parking lot": true
        }
      ],
      "Offerings": [
        {
          "Naloxone": true
        }
      ],
      "Crowd": [
        {
          "LGBTQ+ friendly": true
        },
        {
          "Transgender safespace": true
        }
      ],
      "Planning": [
        {
          "Quick visit": true
        }
      ],
      "Payments": [
        {
          "Credit cards": true
        },
        {
          "Debit cards": true
        },
        {
          "Credit cards": true
        }
      ]
    },
    "gasPrices": [],
    "url": "https://www.google.com/maps/search/?api=1&query=CVS%20Pharmacy&query_place_id=ChIJMxpMU1LS-YgR6ZVjrjIp6Hc",
    "searchPageUrl": "https://www.google.com/maps/search/independent%20pharmacy%20Augusta%20GA/@63.96402929632397,-172.11313138426246,11z?hl=en",
    "searchString": "independent pharmacy Augusta GA",
    "language": "en",
    "rank": 15,
    "isAdvertisement": false,
    "imageUrl": "https://lh3.googleusercontent.com/p/AF1QipPcFP0fvnMY8RON_iLYj_osZamLn6P1xnf3JqTd=w408-h272-k-no",
    "kgmid": "/g/1tcz9537",
    "classification": "chain",
    "is_independent": false,
    "is_compounding": false,
    "confidence": 1.0,
    "source": "perplexity",
    "method": "llm"
  },
  {
    "title": "Wellstar Pharmacy",
    "price": null,
    "categoryName": "Pharmacy",
    "address": "1014 Moore Ave, Augusta, GA 30912",
    "neighborhood": "Medical District",
    "street": "1014 Moore Ave",
    "city": "Augusta",
    "postalCode": "30912",
    "state": "Georgia",
    "countryCode": "US",
    "website": "https://www.wellstar.org/locations/pharmacy/pharmacy-1014-moore-avenue?utm_medium=listing&utm_source=google&utm_content=Wellstar_Pharmacy",
    "claimThisBusiness": false,
    "location": {
      "lat": 33.4728066,
      "lng": -81.9933862
    },
    "permanentlyClosed": false,
    "temporarilyClosed": false,
    "placeId": null,
    "categories": [
      "Pharmacy"
    ],
    "fid": "0x88f9cd89f9c91b4f:0x86de72b2323a323b",
    "cid": "9718331155584528955",
    "reviewsCount": 0,
    "imagesCount": 1,
    "imageCategories": [],
    "scrapedAt": "2025-06-22T05:01:52.676Z",
    "googleFoodUrl": null,
    "hotelAds": [],
    "openingHours": [
      {
        "day": "Monday",
        "hours": "8\u202fAM to 12:30\u202fPM, 1 to 5\u202fPM"
      },
      {
        "day": "Tuesday",
        "hours": "8\u202fAM to 12:30\u202fPM, 1 to 5\u202fPM"
      },
      {
        "day": "Wednesday",
        "hours": "8\u202fAM to 12:30\u202fPM, 1 to 5\u202fPM"
      },
      {
        "day": "Thursday",
        "hours": "8\u202fAM to 12:30\u202fPM, 1 to 5\u202fPM"
      },
      {
        "day": "Friday",
        "hours": "8\u202fAM to 12\u202fPM"
      },
      {
        "day": "Saturday",
        "hours": "Closed"
      },
      {
        "day": "Sunday",
        "hours": "Closed"
      }
    ],
    "peopleAlsoSearch": [],
    "placesTags": [],
    "reviewsTags": [],
    "additionalInfo": {
      "Service options": [
        {
          "Onsite services": true
        }
      ],
      "Accessibility": [
        {
          "Wheelchair accessible entrance": true
        },
        {
          "Wheelchair accessible parking lot": true
        }
      ],
      "Payments": [
        {
          "Credit cards": true
        }
      ]
    },
    "gasPrices": [],
    "url": "https://www.google.com/maps/search/?api=1&query=Wellstar%20Pharmacy&query_place_id=ChIJTxvJ-YnN-YgROzI6MrJy3oY",
    "searchPageUrl": "https://www.google.com/maps/search/independent%20pharmacy%20Augusta%20GA/@63.96402929632397,-172.11313138426246,11z?hl=en",
    "searchString": "independent pharmacy Augusta GA",
    "language": "en",
    "rank": 16,
    "isAdvertisement": false,
    "imageUrl": "https://streetviewpixels-pa.googleapis.com/v1/thumbnail?panoid=145UZijTY8-SLp_OuLqqBg&cb_client=search.gws-prod.gps&w=408&h=240&yaw=202.85268&pitch=0&thumbfov=100",
    "kgmid": "/g/11ybdzh0wq",
    "classification": "independent",
    "is_independent": true,
    "is_compounding": false,
    "confidence": 0.85,
    "source": "perplexity",
    "method": "llm"
  },
  {
    "title": "CVS Pharmacy",
    "price": null,
    "categoryName": "Pharmacy",
    "address": "2902 Peach Orchard Rd, Augusta, GA 30906",
    "neighborhood": null,
    "street": "2902 Peach Orchard Rd",
    "city": "Augusta",
    "postalCode": "30906",
    "state": "Georgia",
    "countryCode": "US",
    "website": "https://www.cvs.com/store-locator/augusta-ga-pharmacies/2902-peach-orchard-road-augusta-ga-30906/storeid=4119?WT.mc_id=LS_GOOGLE_RX_4119",
    "phone": "(706) 798-8088",
    "phoneUnformatted": "+17067988088",
    "claimThisBusiness": false,
    "location": {
      "lat": 33.4179789,
      "lng": -82.0222793
    },
    "totalScore": 3.1,
    "permanentlyClosed": false,
    "temporarilyClosed": false,
    "placeId": null,
    "categories": [
      "Pharmacy"
    ],
    "fid": "0x88f9ce39c8963d8d:0xe418d3ea349ad986",
    "cid": "16436119842946996614",
    "reviewsCount": 40,
    "imagesCount": 10,
    "imageCategories": [],
    "scrapedAt": "2025-06-22T05:01:52.676Z",
    "googleFoodUrl": null,
    "hotelAds": [],
    "openingHours": [
      {
        "day": "Monday",
        "hours": "8\u202fAM to 1:30\u202fPM, 2 to 10\u202fPM"
      },
      {
        "day": "Tuesday",
        "hours": "8\u202fAM to 1:30\u202fPM, 2 to 10\u202fPM"
      },
      {
        "day": "Wednesday",
        "hours": "8\u202fAM to 1:30\u202fPM, 2 to 10\u202fPM"
      },
      {
        "day": "Thursday",
        "hours": "8\u202fAM to 1:30\u202fPM, 2 to 10\u202fPM"
      },
      {
        "day": "Friday",
        "hours": "8\u202fAM to 1:30\u202fPM, 2 to 10\u202fPM"
      },
      {
        "day": "Saturday",
        "hours": "9\u202fAM to 1:30\u202fPM, 2 to 9\u202fPM"
      },
      {
        "day": "Sunday",
        "hours": "9\u202fAM to 1:30\u202fPM, 2 to 9\u202fPM"
      }
    ],
    "peopleAlsoSearch": [],
    "placesTags": [],
    "reviewsTags": [],
    "additionalInfo": {
      "Service options": [
        {
          "Delivery": true
        },
        {
          "Drive-through": true
        },
        {
          "In-store shopping": true
        },
        {
          "Onsite services": true
        }
      ],
      "Accessibility": [
        {
          "Wheelchair accessible entrance": true
        },
        {
          "Wheelchair accessible parking lot": true
        }
      ],
      "Offerings": [
        {
          "Medication disposal": true
        },
        {
          "Naloxone": true
        },
        {
          "Passport photos": true
        }
      ],
      "Crowd": [
        {
          "LGBTQ+ friendly": true
        },
        {
          "Transgender safespace": true
        }
      ],
      "Planning": [
        {
          "Quick visit": true
        }
      ],
      "Payments": [
        {
          "Credit cards": true
        },
        {
          "Debit cards": true
        },
        {
          "NFC mobile payments": true
        },
        {
          "SNAP/EBT": true
        },
        {
          "Credit cards": true
        }
      ]
    },
    "gasPrices": [],
    "url": "https://www.google.com/maps/search/?api=1&query=CVS%20Pharmacy&query_place_id=ChIJjT2WyDnO-YgRhtmaNOrTGOQ",
    "searchPageUrl": "https://www.google.com/maps/search/independent%20pharmacy%20Augusta%20GA/@63.96402929632397,-172.11313138426246,11z?hl=en",
    "searchString": "independent pharmacy Augusta GA",
    "language": "en",
    "rank": 17,
    "isAdvertisement": false,
    "imageUrl": "https://lh3.googleusercontent.com/p/AF1QipPO5IPHi35CTj6LMbMNMw5QNKib2CIip0EmCE1u=w408-h272-k-no",
    "kgmid": "/g/11c4615fm1",
    "classification": "chain",
    "is_independent": false,
    "is_compounding": false,
    "confidence": 1.0,
    "source": "perplexity",
    "method": "llm"
  },
  {
    "title": "CVS Pharmacy",
    "price": null,
    "categoryName": "Pharmacy",
    "address": "2559 Windsor Spring Rd, Augusta, GA 30906",
    "neighborhood": null,
    "street": "2559 Windsor Spring Rd",
    "city": "Augusta",
    "postalCode": "30906",
    "state": "Georgia",
    "countryCode": "US",
    "website": "https://www.cvs.com/store-locator/augusta-ga-pharmacies/2559-windsor-spring-road-augusta-ga-30906/storeid=7746?WT.mc_id=LS_GOOGLE_RX_7746",
    "phone": "(706) 796-8146",
    "phoneUnformatted": "+17067968146",
    "claimThisBusiness": false,
    "location": {
      "lat": 33.3968429,
      "lng": -82.0581699
    },
    "totalScore": 3.5,
    "permanentlyClosed": false,
    "temporarilyClosed": false,
    "placeId": null,
    "categories": [
      "Pharmacy"
    ],
    "fid": "0x88f9d03758a0455f:0x1d0816be55182b88",
    "cid": "2091947033640840072",
    "reviewsCount": 19,
    "imagesCount": 8,
    "imageCategories": [],
    "scrapedAt": "2025-06-22T05:01:52.676Z",
    "googleFoodUrl": null,
    "hotelAds": [],
    "openingHours": [
      {
        "day": "Monday",
        "hours": "9\u202fAM to 1:30\u202fPM, 2 to 9\u202fPM"
      },
      {
        "day": "Tuesday",
        "hours": "9\u202fAM to 1:30\u202fPM, 2 to 9\u202fPM"
      },
      {
        "day": "Wednesday",
        "hours": "9\u202fAM to 1:30\u202fPM, 2 to 9\u202fPM"
      },
      {
        "day": "Thursday",
        "hours": "9\u202fAM to 1:30\u202fPM, 2 to 9\u202fPM"
      },
      {
        "day": "Friday",
        "hours": "9\u202fAM to 1:30\u202fPM, 2 to 9\u202fPM"
      },
      {
        "day": "Saturday",
        "hours": "9\u202fAM to 1:30\u202fPM, 2 to 6\u202fPM"
      },
      {
        "day": "Sunday",
        "hours": "10\u202fAM to 1:30\u202fPM, 2 to 6\u202fPM"
      }
    ],
    "peopleAlsoSearch": [],
    "placesTags": [],
    "reviewsTags": [],
    "additionalInfo": {
      "Service options": [
        {
          "Delivery": true
        },
        {
          "Drive-through": true
        },
        {
          "In-store shopping": true
        },
        {
          "Onsite services": true
        }
      ],
      "Accessibility": [
        {
          "Wheelchair accessible entrance": true
        },
        {
          "Wheelchair accessible parking lot": true
        }
      ],
      "Offerings": [
        {
          "Medication disposal": true
        },
        {
          "Naloxone": true
        },
        {
          "Passport photos": true
        }
      ],
      "Crowd": [
        {
          "LGBTQ+ friendly": true
        },
        {
          "Transgender safespace": true
        }
      ],
      "Planning": [
        {
          "Quick visit": true
        }
      ],
      "Payments": [
        {
          "Credit cards": true
        },
        {
          "Debit cards": true
        },
        {
          "NFC mobile payments": true
        },
        {
          "SNAP/EBT": true
        },
        {
          "Credit cards": true
        }
      ]
    },
    "gasPrices": [],
    "url": "https://www.google.com/maps/search/?api=1&query=CVS%20Pharmacy&query_place_id=ChIJX0WgWDfQ-YgRiCsYVb4WCB0",
    "searchPageUrl": "https://www.google.com/maps/search/independent%20pharmacy%20Augusta%20GA/@63.96402929632397,-172.11313138426246,11z?hl=en",
    "searchString": "independent pharmacy Augusta GA",
    "language": "en",
    "rank": 18,
    "isAdvertisement": false,
    "imageUrl": "https://lh3.googleusercontent.com/p/AF1QipNZU0KzsqtUnxZ1lz7d0uNl8kyjc5f7NsoFxohc=w408-h272-k-no",
    "kgmid": "/g/11c469d7bj",
    "classification": "chain",
    "is_independent": false,
    "is_compounding": false,
    "confidence": 1.0,
    "source": "perplexity",
    "method": "llm"
  },
  {
    "title": "Custom Pharmacy",
    "price": null,
    "categoryName": "Pharmacy",
    "address": "1202 Town Park Ln #101, Evans, GA 30809",
    "neighborhood": null,
    "street": "1202 Town Park Ln #101",
    "city": "Evans",
    "postalCode": "30809",
    "state": "Georgia",
    "countryCode": "US",
    "website": "http://www.custompharmacyrx.com/",
    "phone": "(706) 760-7956",
    "phoneUnformatted": "+17067607956",
    "claimThisBusiness": false,
    "location": {
      "lat": 33.5302708,
      "lng": -82.1327749
    },
    "totalScore": 4.7,
    "permanentlyClosed": false,
    "temporarilyClosed": false,
    "placeId": null,
    "categories": [
      "Pharmacy"
    ],
    "fid": "0x88f9d4a6b6738693:0x1ce32194c5ce382b",
    "cid": "2081544375632803883",
    "reviewsCount": 15,
    "imagesCount": 1,
    "imageCategories": [],
    "scrapedAt": "2025-06-22T05:01:52.676Z",
    "googleFoodUrl": null,
    "hotelAds": [],
    "openingHours": [
      {
        "day": "Monday",
        "hours": "9:30\u202fAM to 5:30\u202fPM"
      },
      {
        "day": "Tuesday",
        "hours": "9:30\u202fAM to 5:30\u202fPM"
      },
      {
        "day": "Wednesday",
        "hours": "9:30\u202fAM to 5:30\u202fPM"
      },
      {
        "day": "Thursday",
        "hours": "9:30\u202fAM to 5:30\u202fPM"
      },
      {
        "day": "Friday",
        "hours": "9:30\u202fAM to 5:30\u202fPM"
      },
      {
        "day": "Saturday",
        "hours": "Closed"
      },
      {
        "day": "Sunday",
        "hours": "Closed"
      }
    ],
    "peopleAlsoSearch": [],
    "placesTags": [],
    "reviewsTags": [],
    "additionalInfo": {
      "From the business": [
        {
          "Small business": true
        }
      ],
      "Service options": [
        {
          "Delivery": true
        },
        {
          "In-store pickup": true
        },
        {
          "Same-day delivery": true
        }
      ],
      "Accessibility": [
        {
          "Wheelchair accessible entrance": true
        },
        {
          "Wheelchair accessible parking lot": true
        }
      ],
      "Planning": [
        {
          "Quick visit": true
        }
      ],
      "Payments": [
        {
          "Credit cards": true
        },
        {
          "Debit cards": true
        },
        {
          "NFC mobile payments": true
        },
        {
          "Credit cards": true
        }
      ]
    },
    "gasPrices": [],
    "url": "https://www.google.com/maps/search/?api=1&query=Custom%20Pharmacy&query_place_id=ChIJk4ZztqbU-YgRKzjOxZQh4xw",
    "searchPageUrl": "https://www.google.com/maps/search/independent%20pharmacy%20Augusta%20GA/@63.96402929632397,-172.11313138426246,11z?hl=en",
    "searchString": "independent pharmacy Augusta GA",
    "language": "en",
    "rank": 19,
    "isAdvertisement": false,
    "imageUrl": "https://streetviewpixels-pa.googleapis.com/v1/thumbnail?panoid=3v5wwaxqEnqbGlfXkh6S8A&cb_client=search.gws-prod.gps&w=408&h=240&yaw=145.92331&pitch=0&thumbfov=100",
    "kgmid": "/g/11bbrmncy0",
    "classification": "independent",
    "is_independent": true,
    "is_compounding": false,
    "confidence": 0.85,
    "source": "perplexity",
    "method": "llm"
  },
  {
    "title": "Hephzibah Pharmacy",
    "price": null,
    "categoryName": "Pharmacy",
    "address": "4819 Windsor Spring Rd, Hephzibah, GA 30815",
    "neighborhood": "Farmers Bridge",
    "street": "4819 Windsor Spring Rd",
    "city": "Hephzibah",
    "postalCode": "30815",
    "state": "Georgia",
    "countryCode": "US",
    "website": "https://www.hephzibahpharmacy.com/",
    "phone": "(706) 592-4646",
    "phoneUnformatted": "+17065924646",
    "claimThisBusiness": false,
    "location": {
      "lat": 33.3154883,
      "lng": -82.094721
    },
    "totalScore": 4.8,
    "permanentlyClosed": false,
    "temporarilyClosed": false,
    "placeId": null,
    "categories": [
      "Pharmacy",
      "Boutique",
      "Drug store"
    ],
    "fid": "0x88f9dbad5fdc740b:0x20c43012a168fae5",
    "cid": "2361064961224538853",
    "reviewsCount": 45,
    "imagesCount": 18,
    "imageCategories": [],
    "scrapedAt": "2025-06-22T05:01:52.676Z",
    "googleFoodUrl": null,
    "hotelAds": [],
    "openingHours": [
      {
        "day": "Monday",
        "hours": "9:30\u202fAM to 6:30\u202fPM"
      },
      {
        "day": "Tuesday",
        "hours": "9:30\u202fAM to 6:30\u202fPM"
      },
      {
        "day": "Wednesday",
        "hours": "9:30\u202fAM to 6:30\u202fPM"
      },
      {
        "day": "Thursday",
        "hours": "9:30\u202fAM to 6:30\u202fPM"
      },
      {
        "day": "Friday",
        "hours": "9:30\u202fAM to 6:30\u202fPM"
      },
      {
        "day": "Saturday",
        "hours": "9:30\u202fAM to 1\u202fPM"
      },
      {
        "day": "Sunday",
        "hours": "Closed"
      }
    ],
    "peopleAlsoSearch": [],
    "placesTags": [],
    "reviewsTags": [],
    "additionalInfo": {
      "From the business": [
        {
          "Small business": true
        }
      ],
      "Service options": [
        {
          "Delivery": true
        },
        {
          "Drive-through": true
        },
        {
          "In-store pickup": true
        },
        {
          "Onsite services": true
        },
        {
          "Same-day delivery": true
        }
      ],
      "Accessibility": [
        {
          "Wheelchair accessible entrance": true
        },
        {
          "Wheelchair accessible parking lot": true
        }
      ],
      "Planning": [
        {
          "Quick visit": true
        }
      ],
      "Payments": [
        {
          "Credit cards": true
        },
        {
          "Debit cards": true
        },
        {
          "NFC mobile payments": true
        },
        {
          "Credit cards": true
        }
      ]
    },
    "gasPrices": [],
    "url": "https://www.google.com/maps/search/?api=1&query=Hephzibah%20Pharmacy&query_place_id=ChIJC3TcX63b-YgR5fpooRIwxCA",
    "searchPageUrl": "https://www.google.com/maps/search/independent%20pharmacy%20Augusta%20GA/@63.96402929632397,-172.11313138426246,11z?hl=en",
    "searchString": "independent pharmacy Augusta GA",
    "language": "en",
    "rank": 20,
    "isAdvertisement": false,
    "imageUrl": "https://lh3.googleusercontent.com/p/AF1QipPnDalIeccEe51VJw0NaN_tQMTaIsP-gxshXIri=w408-h306-k-no",
    "kgmid": "/g/1tdlj4df",
    "classification": "independent",
    "is_independent": true,
    "is_compounding": false,
    "confidence": 0.9,
    "source": "perplexity",
    "method": "llm"
  }
]