[
  {
    "title": "Keystone Compounding Pharmacy",
    "price": null,
    "categoryName": "Pharmacy",
    "address": "4021 Cascade Rd SE, Grand Rapids, MI 49546",
    "neighborhood": null,
    "street": "4021 Cascade Rd SE",
    "city": "Grand Rapids",
    "postalCode": "49546",
    "state": "Michigan",
    "countryCode": "US",
    "website": "http://www.keystonerx.com/",
    "phone": "(616) 974-9792",
    "phoneUnformatted": "+16169749792",
    "claimThisBusiness": false,
    "location": {
      "lat": 42.9486409,
      "lng": -85.5699396
    },
    "totalScore": 4.7,
    "permanentlyClosed": false,
    "temporarilyClosed": false,
    "placeId": null,
    "categories": [
      "Pharmacy",
      "Alternative medicine practitioner",
      "Drug store",
      "Health consultant",
      "Homeopathic pharmacy",
      "Veterinary pharmacy",
      "Vitamin & supplements store",
      "Wellness center",
      "Wellness program"
    ],
    "fid": "0x8818528ddf1515c1:0x71cd17aa3305bd86",
    "cid": "8200236516279434630",
    "reviewsCount": 186,
    "imagesCount": 5,
    "imageCategories": [],
    "scrapedAt": "2025-06-22T05:47:16.849Z",
    "googleFoodUrl": null,
    "hotelAds": [],
    "openingHours": [
      {
        "day": "Monday",
        "hours": "9\u202fAM to 5:30\u202fPM"
      },
      {
        "day": "Tuesday",
        "hours": "9\u202fAM to 5:30\u202fPM"
      },
      {
        "day": "Wednesday",
        "hours": "9\u202fAM to 5:30\u202fPM"
      },
      {
        "day": "Thursday",
        "hours": "9\u202fAM to 5:30\u202fPM"
      },
      {
        "day": "Friday",
        "hours": "9\u202fAM to 5:30\u202fPM"
      },
      {
        "day": "Saturday",
        "hours": "Closed"
      },
      {
        "day": "Sunday",
        "hours": "Closed"
      }
    ],
    "peopleAlsoSearch": [],
    "placesTags": [],
    "reviewsTags": [],
    "additionalInfo": {
      "From the business": [
        {
          "Small business": true
        }
      ],
      "Service options": [
        {
          "Delivery": true
        },
        {
          "Drive-through": true
        },
        {
          "In-store pickup": true
        },
        {
          "In-store shopping": true
        },
        {
          "Same-day delivery": true
        }
      ],
      "Accessibility": [
        {
          "Wheelchair accessible entrance": true
        },
        {
          "Wheelchair accessible parking lot": true
        }
      ],
      "Offerings": [
        {
          "Medication disposal": true
        }
      ],
      "Planning": [
        {
          "Quick visit": true
        }
      ],
      "Payments": [
        {
          "Credit cards": true
        },
        {
          "Debit cards": true
        },
        {
          "NFC mobile payments": true
        },
        {
          "Credit cards": true
        }
      ],
      "Parking": [
        {
          "Free parking lot": true
        },
        {
          "On-site parking": true
        }
      ]
    },
    "gasPrices": [],
    "url": "https://www.google.com/maps/search/?api=1&query=Keystone%20Compounding%20Pharmacy&query_place_id=ChIJwRUV341SGIgRhr0FM6oXzXE",
    "searchPageUrl": "https://www.google.com/maps/search/independent%20pharmacy%20Grand%20Rapids%20MI/@20.34180385134867,-155.76937533997466,11z?hl=en",
    "searchString": "independent pharmacy Grand Rapids MI",
    "language": "en",
    "rank": 1,
    "isAdvertisement": false,
    "imageUrl": "https://lh3.googleusercontent.com/gps-cs-s/AC9h4nruinsyH51SjnjK_RLh5wPryIx3y4shN3IZrYjariZy-vS5eBumW1rZ2LA5aQV4jK-nWJc0d_H94l3ONZddb4AiM8bp1Gjf9e2gRCdZZdYB1w39vUYzK1_6cWgKx7AyP4y1wSw=w408-h306-k-no",
    "kgmid": "/g/119vp50ch",
    "classification": "independent",
    "is_independent": true,
    "is_compounding": true,
    "confidence": 0.9,
    "source": "perplexity",
    "method": "llm"
  },
  {
    "title": "HomeTown Pharmacy - Grand Rapids",
    "price": null,
    "categoryName": "Pharmacy",
    "address": "4252 Kalamazoo Ave SE, Grand Rapids, MI 49508",
    "neighborhood": "Millbrook",
    "street": "4252 Kalamazoo Ave SE",
    "city": "Grand Rapids",
    "postalCode": "49508",
    "state": "Michigan",
    "countryCode": "US",
    "website": "https://hometownpharmacy.com/locations/grand-rapids",
    "phone": "(616) 281-1323",
    "phoneUnformatted": "+16162811323",
    "claimThisBusiness": false,
    "location": {
      "lat": 42.8856296,
      "lng": -85.6256058
    },
    "totalScore": 4.5,
    "permanentlyClosed": false,
    "temporarilyClosed": false,
    "placeId": null,
    "categories": [
      "Pharmacy",
      "Drug store"
    ],
    "fid": "0x8819b317042c8a99:0x21e863443b88a5cc",
    "cid": "2443311942556231116",
    "reviewsCount": 46,
    "imagesCount": 3,
    "imageCategories": [],
    "scrapedAt": "2025-06-22T05:47:16.851Z",
    "googleFoodUrl": null,
    "hotelAds": [],
    "openingHours": [
      {
        "day": "Monday",
        "hours": "9\u202fAM to 6\u202fPM"
      },
      {
        "day": "Tuesday",
        "hours": "9\u202fAM to 6\u202fPM"
      },
      {
        "day": "Wednesday",
        "hours": "9\u202fAM to 6\u202fPM"
      },
      {
        "day": "Thursday",
        "hours": "9\u202fAM to 6\u202fPM"
      },
      {
        "day": "Friday",
        "hours": "9\u202fAM to 6\u202fPM"
      },
      {
        "day": "Saturday",
        "hours": "9\u202fAM to 1\u202fPM"
      },
      {
        "day": "Sunday",
        "hours": "Closed"
      }
    ],
    "peopleAlsoSearch": [],
    "placesTags": [],
    "reviewsTags": [],
    "additionalInfo": {
      "Service options": [
        {
          "Delivery": true
        },
        {
          "In-store pickup": true
        },
        {
          "In-store shopping": true
        }
      ],
      "Accessibility": [
        {
          "Wheelchair accessible entrance": true
        },
        {
          "Wheelchair accessible parking lot": true
        }
      ],
      "Offerings": [
        {
          "Medication disposal": true
        }
      ],
      "Planning": [
        {
          "Quick visit": true
        }
      ],
      "Payments": [
        {
          "Checks": true
        },
        {
          "Credit cards": true
        },
        {
          "Debit cards": true
        },
        {
          "NFC mobile payments": true
        },
        {
          "Credit cards": true
        }
      ]
    },
    "gasPrices": [],
    "url": "https://www.google.com/maps/search/?api=1&query=HomeTown%20Pharmacy%20-%20Grand%20Rapids&query_place_id=ChIJmYosBBezGYgRzKWIO0Rj6CE",
    "searchPageUrl": "https://www.google.com/maps/search/independent%20pharmacy%20Grand%20Rapids%20MI/@20.34180385134867,-155.76937533997466,11z?hl=en",
    "searchString": "independent pharmacy Grand Rapids MI",
    "language": "en",
    "rank": 2,
    "isAdvertisement": false,
    "imageUrl": "https://lh3.googleusercontent.com/p/AF1QipMT7u_RncV8weckPT3FJQJu1PMKTtaIGE9afYgr=w470-h240-k-no",
    "kgmid": "/g/1tmqmd7q",
    "classification": "independent",
    "is_independent": true,
    "is_compounding": false,
    "confidence": 0.9,
    "source": "perplexity",
    "method": "llm"
  },
  {
    "title": "PharmaScript of MI Grand Rapids",
    "price": null,
    "categoryName": "Pharmacy",
    "address": "2661 29th St SE, Grand Rapids, MI 49512",
    "neighborhood": null,
    "street": "2661 29th St SE",
    "city": "Grand Rapids",
    "postalCode": "49512",
    "state": "Michigan",
    "countryCode": "US",
    "website": "http://www.pharmascript.com/",
    "phone": "(616) 947-3500",
    "phoneUnformatted": "+16169473500",
    "claimThisBusiness": true,
    "location": {
      "lat": 42.9113207,
      "lng": -85.6012418
    },
    "totalScore": 3,
    "permanentlyClosed": false,
    "temporarilyClosed": false,
    "placeId": null,
    "categories": [
      "Pharmacy"
    ],
    "fid": "0x88184d6c7a95fab1:0x662ccda63381d8b4",
    "cid": "7362485604556331188",
    "reviewsCount": 1,
    "imagesCount": 1,
    "imageCategories": [],
    "scrapedAt": "2025-06-22T05:47:16.851Z",
    "googleFoodUrl": null,
    "hotelAds": [],
    "openingHours": [],
    "peopleAlsoSearch": [],
    "placesTags": [],
    "reviewsTags": [],
    "additionalInfo": {
      "Service options": [
        {
          "Delivery": true
        }
      ],
      "Accessibility": [
        {
          "Wheelchair accessible entrance": true
        },
        {
          "Wheelchair accessible parking lot": true
        }
      ],
      "Payments": [
        {
          "Credit cards": true
        }
      ]
    },
    "gasPrices": [],
    "url": "https://www.google.com/maps/search/?api=1&query=PharmaScript%20of%20MI%20Grand%20Rapids&query_place_id=ChIJsfqVemxNGIgRtNiBM6bNLGY",
    "searchPageUrl": "https://www.google.com/maps/search/independent%20pharmacy%20Grand%20Rapids%20MI/@20.34180385134867,-155.76937533997466,11z?hl=en",
    "searchString": "independent pharmacy Grand Rapids MI",
    "language": "en",
    "rank": 3,
    "isAdvertisement": false,
    "imageUrl": "https://streetviewpixels-pa.googleapis.com/v1/thumbnail?panoid=TYRhOczsshxUEvli__0c0g&cb_client=search.gws-prod.gps&w=408&h=240&yaw=272.059&pitch=0&thumbfov=100",
    "kgmid": "/g/11hyb3p_zk",
    "classification": "independent",
    "is_independent": true,
    "is_compounding": false,
    "confidence": 0.9,
    "source": "perplexity",
    "method": "llm"
  },
  {
    "title": "HomeTown Pharmacy - Grand Rapids Walker",
    "price": null,
    "categoryName": "Pharmacy",
    "address": "1181 Walker Ave NW, Grand Rapids, MI 49504",
    "neighborhood": "West Grand",
    "street": "1181 Walker Ave NW",
    "city": "Grand Rapids",
    "postalCode": "49504",
    "state": "Michigan",
    "countryCode": "US",
    "website": "https://hometownpharmacy.com/locations/grand-rapids-walker",
    "phone": "(616) 458-9640",
    "phoneUnformatted": "+16164589640",
    "claimThisBusiness": false,
    "location": {
      "lat": 42.9817006,
      "lng": -85.6975323
    },
    "totalScore": 4.6,
    "permanentlyClosed": false,
    "temporarilyClosed": false,
    "placeId": null,
    "categories": [
      "Pharmacy",
      "Convenience store",
      "Gift shop",
      "Greeting card shop",
      "Health and beauty shop",
      "Liquor store",
      "Lottery retailer",
      "Tobacco supplier",
      "Vitamin & supplements store",
      "Wine store"
    ],
    "fid": "0x8819ae88df154cc3:0x6e5786d0a3be54a4",
    "cid": "7950971897804379300",
    "reviewsCount": 46,
    "imagesCount": 7,
    "imageCategories": [],
    "scrapedAt": "2025-06-22T05:47:16.851Z",
    "googleFoodUrl": null,
    "hotelAds": [],
    "openingHours": [
      {
        "day": "Monday",
        "hours": "9\u202fAM to 7\u202fPM"
      },
      {
        "day": "Tuesday",
        "hours": "9\u202fAM to 7\u202fPM"
      },
      {
        "day": "Wednesday",
        "hours": "9\u202fAM to 7\u202fPM"
      },
      {
        "day": "Thursday",
        "hours": "9\u202fAM to 7\u202fPM"
      },
      {
        "day": "Friday",
        "hours": "9\u202fAM to 7\u202fPM"
      },
      {
        "day": "Saturday",
        "hours": "9\u202fAM to 4\u202fPM"
      },
      {
        "day": "Sunday",
        "hours": "Closed"
      }
    ],
    "additionalOpeningHours": {
      "Pickup": [
        {
          "day": "Monday",
          "hours": "9\u202fAM\u20137\u202fPM"
        },
        {
          "day": "Tuesday",
          "hours": "9\u202fAM\u20137\u202fPM"
        },
        {
          "day": "Wednesday",
          "hours": "9\u202fAM\u20137\u202fPM"
        },
        {
          "day": "Thursday",
          "hours": "9\u202fAM\u20137\u202fPM"
        },
        {
          "day": "Friday",
          "hours": "9\u202fAM\u20137\u202fPM"
        },
        {
          "day": "Saturday",
          "hours": "9\u202fAM\u20135\u202fPM"
        },
        {
          "day": "Sunday",
          "hours": "Closed"
        }
      ]
    },
    "peopleAlsoSearch": [],
    "placesTags": [],
    "reviewsTags": [],
    "additionalInfo": {
      "Service options": [
        {
          "Delivery": true
        },
        {
          "In-store pickup": true
        },
        {
          "In-store shopping": true
        },
        {
          "Onsite services": true
        },
        {
          "Same-day delivery": true
        }
      ],
      "Accessibility": [
        {
          "Wheelchair accessible entrance": true
        },
        {
          "Wheelchair accessible parking lot": true
        }
      ],
      "Offerings": [
        {
          "Medication disposal": true
        }
      ],
      "Planning": [
        {
          "Quick visit": true
        }
      ],
      "Payments": [
        {
          "Checks": true
        },
        {
          "Credit cards": true
        },
        {
          "Debit cards": true
        },
        {
          "NFC mobile payments": true
        },
        {
          "SNAP/EBT": true
        },
        {
          "Credit cards": true
        }
      ]
    },
    "gasPrices": [],
    "url": "https://www.google.com/maps/search/?api=1&query=HomeTown%20Pharmacy%20-%20Grand%20Rapids%20Walker&query_place_id=ChIJw0wV34iuGYgRpFS-o9CGV24",
    "searchPageUrl": "https://www.google.com/maps/search/independent%20pharmacy%20Grand%20Rapids%20MI/@20.34180385134867,-155.76937533997466,11z?hl=en",
    "searchString": "independent pharmacy Grand Rapids MI",
    "language": "en",
    "rank": 4,
    "isAdvertisement": false,
    "imageUrl": "https://lh3.googleusercontent.com/gps-cs-s/AC9h4npCEXBPUews4zyN4BEPqyT6ud3C5zkkBDV0cCNw5Qy1GfgMP9o33cPmAoTYwJrYlSy8d3fIolTdMEhCUY-YTLHq5IlfG7TBsSpzWyhOTi1xiXVGwkca0C5zakQqA5xXw8vzzSs=w444-h240-k-no",
    "kgmid": "/g/1tg16bjb",
    "classification": "independent",
    "is_independent": true,
    "is_compounding": false,
    "confidence": 0.9,
    "source": "perplexity",
    "method": "llm"
  },
  {
    "title": "PharMerica \u2013 Grand Rapids, MI",
    "price": null,
    "categoryName": "Pharmacy",
    "address": "4575 44th St SE A A, Grand Rapids, MI 49512",
    "neighborhood": null,
    "street": "4575 44th St SE A A",
    "city": "Grand Rapids",
    "postalCode": "49512",
    "state": "Michigan",
    "countryCode": "US",
    "website": "https://pharmerica.com/",
    "phone": "(866) 618-5695",
    "phoneUnformatted": "+18666185695",
    "claimThisBusiness": false,
    "location": {
      "lat": 42.8840419,
      "lng": -85.5527662
    },
    "permanentlyClosed": false,
    "temporarilyClosed": false,
    "placeId": null,
    "categories": [
      "Pharmacy"
    ],
    "fid": "0x88184c5a9acf2f5b:0xc7bd63d07849aeee",
    "cid": "14392769731168415470",
    "reviewsCount": 0,
    "imagesCount": 1,
    "imageCategories": [],
    "scrapedAt": "2025-06-22T05:47:16.852Z",
    "googleFoodUrl": null,
    "hotelAds": [],
    "openingHours": [
      {
        "day": "Monday",
        "hours": "Open 24 hours"
      },
      {
        "day": "Tuesday",
        "hours": "Open 24 hours"
      },
      {
        "day": "Wednesday",
        "hours": "Open 24 hours"
      },
      {
        "day": "Thursday",
        "hours": "Open 24 hours"
      },
      {
        "day": "Friday",
        "hours": "Open 24 hours"
      },
      {
        "day": "Saturday",
        "hours": "Open 24 hours"
      },
      {
        "day": "Sunday",
        "hours": "Open 24 hours"
      }
    ],
    "peopleAlsoSearch": [],
    "placesTags": [],
    "reviewsTags": [],
    "additionalInfo": {
      "Accessibility": [
        {
          "Wheelchair accessible entrance": true
        },
        {
          "Wheelchair accessible parking lot": true
        }
      ],
      "Payments": [
        {
          "Credit cards": true
        }
      ]
    },
    "gasPrices": [],
    "url": "https://www.google.com/maps/search/?api=1&query=PharMerica%20%E2%80%93%20Grand%20Rapids%2C%20MI&query_place_id=ChIJWy_PmlpMGIgR7q5JeNBjvcc",
    "searchPageUrl": "https://www.google.com/maps/search/independent%20pharmacy%20Grand%20Rapids%20MI/@20.34180385134867,-155.76937533997466,11z?hl=en",
    "searchString": "independent pharmacy Grand Rapids MI",
    "language": "en",
    "rank": 5,
    "isAdvertisement": false,
    "imageUrl": "https://streetviewpixels-pa.googleapis.com/v1/thumbnail?panoid=WXT3OBCw2jxfqB4JlKxrMg&cb_client=search.gws-prod.gps&w=408&h=240&yaw=103.46761&pitch=0&thumbfov=100",
    "kgmid": "/g/1tcxvvrj",
    "classification": "not_a_pharmacy",
    "is_independent": false,
    "is_compounding": false,
    "confidence": 0.85,
    "source": "perplexity",
    "method": "llm"
  },
  {
    "title": "Trinity Health Phramacy Solutions - Grand Rapids",
    "price": null,
    "categoryName": "Pharmacy",
    "address": "360 Division Ave S Ste 1E, Grand Rapids, MI 49503",
    "neighborhood": "Downtown",
    "street": "360 Division Ave S Ste 1E",
    "city": "Grand Rapids",
    "postalCode": "49503",
    "state": "Michigan",
    "countryCode": "US",
    "website": "https://www.trinityhealthmichigan.org/location/trinity-health-pharmacy-solutions-grand-rapids",
    "phone": "(616) 685-1080",
    "phoneUnformatted": "+16166851080",
    "claimThisBusiness": false,
    "location": {
      "lat": 42.9565836,
      "lng": -85.6670036
    },
    "totalScore": 4.3,
    "permanentlyClosed": false,
    "temporarilyClosed": false,
    "placeId": "ChIJj6BpbuqtGYgRUkvPcD0C7bM",
    "categories": [
      "Pharmacy"
    ],
    "fid": "0x8819adea6e69a08f:0xb3ed023d70cf4b52",
    "cid": "12965021365178420050",
    "reviewsCount": 6,
    "imagesCount": 10,
    "imageCategories": [],
    "scrapedAt": "2025-06-22T05:47:16.852Z",
    "googleFoodUrl": null,
    "hotelAds": [],
    "openingHours": [
      {
        "day": "Monday",
        "hours": "7:30\u202fAM to 6\u202fPM"
      },
      {
        "day": "Tuesday",
        "hours": "7:30\u202fAM to 6\u202fPM"
      },
      {
        "day": "Wednesday",
        "hours": "7:30\u202fAM to 6\u202fPM"
      },
      {
        "day": "Thursday",
        "hours": "7:30\u202fAM to 6\u202fPM"
      },
      {
        "day": "Friday",
        "hours": "7:30\u202fAM to 6\u202fPM"
      },
      {
        "day": "Saturday",
        "hours": "Closed"
      },
      {
        "day": "Sunday",
        "hours": "Closed"
      }
    ],
    "peopleAlsoSearch": [],
    "placesTags": [],
    "reviewsTags": [],
    "additionalInfo": {
      "Accessibility": [
        {
          "Wheelchair accessible entrance": true
        },
        {
          "Wheelchair accessible parking lot": true
        }
      ],
      "Payments": [
        {
          "Credit cards": true
        }
      ]
    },
    "gasPrices": [],
    "url": "https://www.google.com/maps/search/?api=1&query=Trinity%20Health%20Phramacy%20Solutions%20-%20Grand%20Rapids&query_place_id=ChIJj6BpbuqtGYgRUkvPcD0C7bM",
    "searchPageUrl": "https://www.google.com/maps/search/independent%20pharmacy%20Grand%20Rapids%20MI/@20.34180385134867,-155.76937533997466,11z?hl=en",
    "searchString": "independent pharmacy Grand Rapids MI",
    "language": "en",
    "rank": 6,
    "isAdvertisement": false,
    "imageUrl": "https://lh3.googleusercontent.com/p/AF1QipMDMPJQ0hc0ywbYnwvIO-GAzi2oVL-BWPv9iFaq=w824-h240-k-no",
    "kgmid": "/g/11b67m391q",
    "classification": "hospital",
    "is_independent": false,
    "confidence": 1.0,
    "source": "rule-based"
  },
  {
    "title": "Janus Pharmacy",
    "price": null,
    "categoryName": "Pharmacy",
    "address": "300 68th St SE, Grand Rapids, MI 49548",
    "neighborhood": "Pine Rest",
    "street": "300 68th St SE",
    "city": "Grand Rapids",
    "postalCode": "49548",
    "state": "Michigan",
    "countryCode": "US",
    "website": "https://www.januspharmacy.com/",
    "phone": "(616) 591-3726",
    "phoneUnformatted": "+16165913726",
    "claimThisBusiness": true,
    "location": {
      "lat": 42.8383618,
      "lng": -85.656092
    },
    "totalScore": 4.6,
    "permanentlyClosed": false,
    "temporarilyClosed": false,
    "placeId": null,
    "categories": [
      "Pharmacy"
    ],
    "fid": "0x8819b442098fffff:0xdd75d4a18fa6f87b",
    "cid": "15957894645022128251",
    "reviewsCount": 16,
    "imagesCount": null,
    "imageCategories": [],
    "scrapedAt": "2025-06-22T05:47:16.852Z",
    "googleFoodUrl": null,
    "hotelAds": [],
    "openingHours": [
      {
        "day": "Monday",
        "hours": "8\u202fAM to 6\u202fPM"
      },
      {
        "day": "Tuesday",
        "hours": "8\u202fAM to 6\u202fPM"
      },
      {
        "day": "Wednesday",
        "hours": "8\u202fAM to 6\u202fPM"
      },
      {
        "day": "Thursday",
        "hours": "8\u202fAM to 6\u202fPM"
      },
      {
        "day": "Friday",
        "hours": "8\u202fAM to 6\u202fPM"
      },
      {
        "day": "Saturday",
        "hours": "Closed"
      },
      {
        "day": "Sunday",
        "hours": "Closed"
      }
    ],
    "peopleAlsoSearch": [],
    "placesTags": [],
    "reviewsTags": [],
    "additionalInfo": {
      "Service options": [
        {
          "Delivery": true
        }
      ],
      "Accessibility": [
        {
          "Wheelchair accessible entrance": true
        },
        {
          "Wheelchair accessible parking lot": true
        }
      ],
      "Amenities": [
        {
          "Wi-Fi": true
        },
        {
          "Free Wi-Fi": true
        }
      ],
      "Payments": [
        {
          "Credit cards": true
        }
      ]
    },
    "gasPrices": [],
    "url": "https://www.google.com/maps/search/?api=1&query=Janus%20Pharmacy&query_place_id=ChIJ__-PCUK0GYgRe_imj6HUdd0",
    "searchPageUrl": "https://www.google.com/maps/search/independent%20pharmacy%20Grand%20Rapids%20MI/@20.34180385134867,-155.76937533997466,11z?hl=en",
    "searchString": "independent pharmacy Grand Rapids MI",
    "language": "en",
    "rank": 7,
    "isAdvertisement": false,
    "kgmid": "/g/11gmyx6b3w",
    "classification": "independent",
    "is_independent": true,
    "is_compounding": false,
    "confidence": 0.9,
    "source": "perplexity",
    "method": "llm"
  },
  {
    "title": "LTC Pharmacy LLC",
    "price": null,
    "categoryName": "Pharmacy",
    "address": "1314 Leonard St NW, Grand Rapids, MI 49504",
    "neighborhood": "West Grand",
    "street": "1314 Leonard St NW",
    "city": "Grand Rapids",
    "postalCode": "49504",
    "state": "Michigan",
    "countryCode": "US",
    "website": "http://www.ltcpharmacyrx.com/",
    "phone": "(616) 214-8011",
    "phoneUnformatted": "+16162148011",
    "claimThisBusiness": true,
    "location": {
      "lat": 42.9854328,
      "lng": -85.700962
    },
    "totalScore": 4.8,
    "permanentlyClosed": false,
    "temporarilyClosed": false,
    "placeId": null,
    "categories": [
      "Pharmacy"
    ],
    "fid": "0x8819b3330c55f501:0xf286b8552451478e",
    "cid": "17475858079878825870",
    "reviewsCount": 9,
    "imagesCount": 1,
    "imageCategories": [],
    "scrapedAt": "2025-06-22T05:47:16.852Z",
    "googleFoodUrl": null,
    "hotelAds": [],
    "openingHours": [
      {
        "day": "Monday",
        "hours": "8:30\u202fAM to 5\u202fPM"
      },
      {
        "day": "Tuesday",
        "hours": "8:30\u202fAM to 5\u202fPM"
      },
      {
        "day": "Wednesday",
        "hours": "8:30\u202fAM to 5\u202fPM"
      },
      {
        "day": "Thursday",
        "hours": "8:30\u202fAM to 5\u202fPM"
      },
      {
        "day": "Friday",
        "hours": "8:30\u202fAM to 5\u202fPM"
      },
      {
        "day": "Saturday",
        "hours": "Closed"
      },
      {
        "day": "Sunday",
        "hours": "Closed"
      }
    ],
    "peopleAlsoSearch": [],
    "placesTags": [],
    "reviewsTags": [],
    "additionalInfo": {
      "Service options": [
        {
          "Delivery": true
        },
        {
          "Same-day delivery": true
        }
      ],
      "Accessibility": [
        {
          "Wheelchair accessible entrance": true
        },
        {
          "Wheelchair accessible parking lot": true
        }
      ],
      "Offerings": [
        {
          "Medication disposal": true
        }
      ],
      "Payments": [
        {
          "Credit cards": true
        },
        {
          "Debit cards": true
        },
        {
          "Credit cards": true
        }
      ]
    },
    "gasPrices": [],
    "url": "https://www.google.com/maps/search/?api=1&query=LTC%20Pharmacy%20LLC&query_place_id=ChIJAfVVDDOzGYgRjkdRJFW4hvI",
    "searchPageUrl": "https://www.google.com/maps/search/independent%20pharmacy%20Grand%20Rapids%20MI/@20.34180385134867,-155.76937533997466,11z?hl=en",
    "searchString": "independent pharmacy Grand Rapids MI",
    "language": "en",
    "rank": 8,
    "isAdvertisement": false,
    "imageUrl": "https://streetviewpixels-pa.googleapis.com/v1/thumbnail?panoid=Lu5SxDeKGup6q9TRI3hKgQ&cb_client=search.gws-prod.gps&w=408&h=240&yaw=216.11043&pitch=0&thumbfov=100",
    "kgmid": "/g/1tqclv0t",
    "classification": "independent",
    "is_independent": true,
    "is_compounding": false,
    "confidence": 0.85,
    "source": "perplexity",
    "method": "llm"
  },
  {
    "title": "Haven Pharmacy",
    "price": null,
    "categoryName": "Pharmacy",
    "address": "2680 Leonard St NE Suite 5, Grand Rapids, MI 49525",
    "neighborhood": "Northeast",
    "street": "2680 Leonard St NE Suite 5",
    "city": "Grand Rapids",
    "postalCode": "49525",
    "state": "Michigan",
    "countryCode": "US",
    "website": "http://www.havenpharmacy.org/",
    "phone": "(616) 369-6401",
    "phoneUnformatted": "+16163696401",
    "claimThisBusiness": false,
    "location": {
      "lat": 42.9827911,
      "lng": -85.6030593
    },
    "totalScore": 5,
    "permanentlyClosed": false,
    "temporarilyClosed": false,
    "placeId": null,
    "categories": [
      "Pharmacy"
    ],
    "fid": "0x8819acd2b9c59893:0x16ea43d24808db32",
    "cid": "1651206783815441202",
    "reviewsCount": 2,
    "imagesCount": 7,
    "imageCategories": [],
    "scrapedAt": "2025-06-22T05:47:16.853Z",
    "googleFoodUrl": null,
    "hotelAds": [],
    "openingHours": [
      {
        "day": "Monday",
        "hours": "8:30\u202fAM to 5\u202fPM"
      },
      {
        "day": "Tuesday",
        "hours": "8:30\u202fAM to 5\u202fPM"
      },
      {
        "day": "Wednesday",
        "hours": "8:30\u202fAM to 5\u202fPM"
      },
      {
        "day": "Thursday",
        "hours": "8:30\u202fAM to 12:30\u202fPM"
      },
      {
        "day": "Friday",
        "hours": "8:30\u202fAM to 5\u202fPM"
      },
      {
        "day": "Saturday",
        "hours": "Closed"
      },
      {
        "day": "Sunday",
        "hours": "Closed"
      }
    ],
    "peopleAlsoSearch": [],
    "placesTags": [],
    "reviewsTags": [],
    "additionalInfo": {
      "From the business": [
        {
          "Small business": true
        }
      ],
      "Service options": [
        {
          "Delivery": true
        }
      ],
      "Accessibility": [
        {
          "Wheelchair accessible entrance": true
        },
        {
          "Wheelchair accessible parking lot": true
        }
      ],
      "Payments": [
        {
          "Credit cards": true
        }
      ]
    },
    "gasPrices": [],
    "url": "https://www.google.com/maps/search/?api=1&query=Haven%20Pharmacy&query_place_id=ChIJk5jFudKsGYgRMtsISNJD6hY",
    "searchPageUrl": "https://www.google.com/maps/search/independent%20pharmacy%20Grand%20Rapids%20MI/@20.34180385134867,-155.76937533997466,11z?hl=en",
    "searchString": "independent pharmacy Grand Rapids MI",
    "language": "en",
    "rank": 9,
    "isAdvertisement": false,
    "imageUrl": "https://lh3.googleusercontent.com/p/AF1QipPQyyT_1yfXOpWCRcyooZU1SxY2vjqinSX1VErx=w556-h240-k-no",
    "kgmid": "/g/1v16qxwn",
    "classification": "independent",
    "is_independent": true,
    "is_compounding": false,
    "confidence": 0.9,
    "source": "perplexity",
    "method": "llm"
  },
  {
    "title": "Walgreens Specialty Pharmacy",
    "price": "$$",
    "categoryName": "Pharmacy",
    "address": "555 Michigan St NE Suite 100, Grand Rapids, MI 49503",
    "neighborhood": "Midtown",
    "street": "555 Michigan St NE Suite 100",
    "city": "Grand Rapids",
    "postalCode": "49503",
    "state": "Michigan",
    "countryCode": "US",
    "website": "https://www.walgreens.com/locator/walgreens-555+michigan+st+ne-grand+rapids-mi-49503/id=16475",
    "phone": "(616) 224-0115",
    "phoneUnformatted": "+16162240115",
    "claimThisBusiness": false,
    "location": {
      "lat": 42.9716287,
      "lng": -85.6544844
    },
    "locatedIn": "Walgreens Pharmacy",
    "totalScore": 4.3,
    "permanentlyClosed": false,
    "temporarilyClosed": false,
    "placeId": "ChIJr0MGj7GtGYgRik7B3TuVUfU",
    "categories": [
      "Pharmacy"
    ],
    "fid": "0x8819adb18f0643af:0xf551953bddc14e8a",
    "cid": "17677074096761949834",
    "reviewsCount": 26,
    "imagesCount": 18,
    "imageCategories": [],
    "scrapedAt": "2025-06-22T05:47:16.853Z",
    "googleFoodUrl": null,
    "hotelAds": [],
    "openingHours": [
      {
        "day": "Monday",
        "hours": "8:30\u202fAM to 5:30\u202fPM"
      },
      {
        "day": "Tuesday",
        "hours": "8:30\u202fAM to 5:30\u202fPM"
      },
      {
        "day": "Wednesday",
        "hours": "8:30\u202fAM to 5:30\u202fPM"
      },
      {
        "day": "Thursday",
        "hours": "8:30\u202fAM to 5:30\u202fPM"
      },
      {
        "day": "Friday",
        "hours": "8:30\u202fAM to 5:30\u202fPM"
      },
      {
        "day": "Saturday",
        "hours": "Closed"
      },
      {
        "day": "Sunday",
        "hours": "Closed"
      }
    ],
    "peopleAlsoSearch": [],
    "placesTags": [],
    "reviewsTags": [],
    "additionalInfo": {
      "Service options": [
        {
          "In-store pickup": true
        }
      ],
      "Accessibility": [
        {
          "Wheelchair accessible entrance": true
        },
        {
          "Wheelchair accessible parking lot": true
        }
      ],
      "Planning": [
        {
          "Quick visit": true
        }
      ],
      "Payments": [
        {
          "Credit cards": true
        },
        {
          "Debit cards": true
        },
        {
          "Credit cards": true
        }
      ]
    },
    "gasPrices": [],
    "url": "https://www.google.com/maps/search/?api=1&query=Walgreens%20Specialty%20Pharmacy&query_place_id=ChIJr0MGj7GtGYgRik7B3TuVUfU",
    "searchPageUrl": "https://www.google.com/maps/search/independent%20pharmacy%20Grand%20Rapids%20MI/@20.34180385134867,-155.76937533997466,11z?hl=en",
    "searchString": "independent pharmacy Grand Rapids MI",
    "language": "en",
    "rank": 12,
    "isAdvertisement": false,
    "imageUrl": "https://lh3.googleusercontent.com/gps-cs-s/AC9h4nokKVi2WnjyEs4wMByGa2xuvGG4MzkV8-kPIaHfWCgLZxAP8fFfB_ln1hG4Ac7xyL7jgLi7nvDcMASSRM1vI4EC2LGKbBlMkcQt41qVa3Mt7xc8rKLkMmr3A6rY-d6EUb0GTpHZ1BIgEd4=w408-h544-k-no",
    "kgmid": "/g/11c58nlzdd",
    "classification": "chain",
    "is_independent": false,
    "confidence": 1.0,
    "source": "rule-based"
  },
  {
    "title": "Kay Pharmacy",
    "price": null,
    "categoryName": "Pharmacy",
    "address": "2178 Plainfield Ave NE, Grand Rapids, MI 49505",
    "neighborhood": "Cheshire",
    "street": "2178 Plainfield Ave NE",
    "city": "Grand Rapids",
    "postalCode": "49505",
    "state": "Michigan",
    "countryCode": "US",
    "website": "http://www.kaypharmacy.com/",
    "phone": "(616) 361-7319",
    "phoneUnformatted": "+16163617319",
    "claimThisBusiness": false,
    "location": {
      "lat": 43.002466,
      "lng": -85.653721
    },
    "totalScore": 4.5,
    "permanentlyClosed": false,
    "temporarilyClosed": false,
    "placeId": null,
    "categories": [
      "Pharmacy"
    ],
    "fid": "0x8819ac6f7e1bbfd9:0x7468bef0b59c3109",
    "cid": "8388164247025889545",
    "reviewsCount": 101,
    "imagesCount": 50,
    "imageCategories": [],
    "scrapedAt": "2025-06-22T05:47:16.853Z",
    "googleFoodUrl": null,
    "hotelAds": [],
    "openingHours": [
      {
        "day": "Monday",
        "hours": "9\u202fAM to 5\u202fPM"
      },
      {
        "day": "Tuesday",
        "hours": "9\u202fAM to 5\u202fPM"
      },
      {
        "day": "Wednesday",
        "hours": "9\u202fAM to 5\u202fPM"
      },
      {
        "day": "Thursday",
        "hours": "9\u202fAM to 5\u202fPM"
      },
      {
        "day": "Friday",
        "hours": "9\u202fAM to 5\u202fPM"
      },
      {
        "day": "Saturday",
        "hours": "Closed"
      },
      {
        "day": "Sunday",
        "hours": "Closed"
      }
    ],
    "peopleAlsoSearch": [],
    "placesTags": [],
    "reviewsTags": [],
    "additionalInfo": {
      "From the business": [
        {
          "Small business": true
        }
      ],
      "Service options": [
        {
          "Curbside pickup": true
        },
        {
          "Delivery": true
        },
        {
          "In-store pickup": true
        },
        {
          "In-store shopping": true
        }
      ],
      "Accessibility": [
        {
          "Wheelchair accessible entrance": true
        },
        {
          "Wheelchair accessible parking lot": true
        }
      ],
      "Offerings": [
        {
          "Medication disposal": true
        }
      ],
      "Planning": [
        {
          "Quick visit": true
        }
      ],
      "Payments": [
        {
          "Checks": true
        },
        {
          "Credit cards": true
        },
        {
          "Debit cards": true
        },
        {
          "NFC mobile payments": true
        },
        {
          "Credit cards": true
        }
      ]
    },
    "gasPrices": [],
    "url": "https://www.google.com/maps/search/?api=1&query=Kay%20Pharmacy&query_place_id=ChIJ2b8bfm-sGYgRCTGctfC-aHQ",
    "searchPageUrl": "https://www.google.com/maps/search/independent%20pharmacy%20Grand%20Rapids%20MI/@20.34180385134867,-155.76937533997466,11z?hl=en",
    "searchString": "independent pharmacy Grand Rapids MI",
    "language": "en",
    "rank": 13,
    "isAdvertisement": false,
    "imageUrl": "https://lh3.googleusercontent.com/p/AF1QipO-3ysFs8aIqmbt8tNd4XpFG4eBYrGuFp05E8IR=w457-h240-k-no",
    "kgmid": "/g/1tdhfm2x",
    "classification": "independent",
    "is_independent": true,
    "is_compounding": false,
    "confidence": 0.9,
    "source": "perplexity",
    "method": "llm"
  },
  {
    "title": "Zuah Pharmacy, LLC",
    "price": null,
    "categoryName": "Pharmacy",
    "address": "4301 Kalamazoo Ave SE #13, Grand Rapids, MI 49508",
    "neighborhood": "West Millbrook",
    "street": "4301 Kalamazoo Ave SE #13",
    "city": "Grand Rapids",
    "postalCode": "49508",
    "state": "Michigan",
    "countryCode": "US",
    "website": "http://www.zuahpharmacy.com/",
    "phone": "(616) 280-4169",
    "phoneUnformatted": "+16162804169",
    "claimThisBusiness": false,
    "location": {
      "lat": 42.8861796,
      "lng": -85.6285091
    },
    "totalScore": 5,
    "permanentlyClosed": false,
    "temporarilyClosed": false,
    "placeId": null,
    "categories": [
      "Pharmacy"
    ],
    "fid": "0x8819b310c93cb78b:0x146ef3cf66a8740a",
    "cid": "1472382200302826506",
    "reviewsCount": 5,
    "imagesCount": 4,
    "imageCategories": [],
    "scrapedAt": "2025-06-22T05:47:16.853Z",
    "googleFoodUrl": null,
    "hotelAds": [],
    "openingHours": [
      {
        "day": "Monday",
        "hours": "9\u202fAM to 6\u202fPM"
      },
      {
        "day": "Tuesday",
        "hours": "9\u202fAM to 6\u202fPM"
      },
      {
        "day": "Wednesday",
        "hours": "9\u202fAM to 6\u202fPM"
      },
      {
        "day": "Thursday",
        "hours": "9\u202fAM to 6\u202fPM"
      },
      {
        "day": "Friday",
        "hours": "9\u202fAM to 6\u202fPM"
      },
      {
        "day": "Saturday",
        "hours": "8\u202fAM to 5\u202fPM"
      },
      {
        "day": "Sunday",
        "hours": "Closed"
      }
    ],
    "peopleAlsoSearch": [],
    "placesTags": [],
    "reviewsTags": [],
    "additionalInfo": {
      "From the business": [
        {
          "Small business": true
        }
      ],
      "Service options": [
        {
          "Delivery": true
        },
        {
          "Same-day delivery": true
        }
      ],
      "Accessibility": [
        {
          "Wheelchair accessible entrance": true
        },
        {
          "Wheelchair accessible parking lot": true
        }
      ],
      "Payments": [
        {
          "Credit cards": true
        },
        {
          "Debit cards": true
        },
        {
          "Credit cards": true
        }
      ]
    },
    "gasPrices": [],
    "url": "https://www.google.com/maps/search/?api=1&query=Zuah%20Pharmacy%2C%20LLC&query_place_id=ChIJi7c8yRCzGYgRCnSoZs_zbhQ",
    "searchPageUrl": "https://www.google.com/maps/search/independent%20pharmacy%20Grand%20Rapids%20MI/@20.34180385134867,-155.76937533997466,11z?hl=en",
    "searchString": "independent pharmacy Grand Rapids MI",
    "language": "en",
    "rank": 14,
    "isAdvertisement": false,
    "imageUrl": "https://lh3.googleusercontent.com/p/AF1QipO4Gwfg7o2oRFkeCccGrJn05MWx5PANo5-IcoDu=w408-h306-k-no",
    "kgmid": "/g/11c4d9zrwy",
    "classification": "independent",
    "is_independent": true,
    "is_compounding": false,
    "confidence": 0.9,
    "source": "perplexity",
    "method": "llm"
  },
  {
    "title": "Cherry Health - Westside Pharmacy",
    "price": null,
    "categoryName": "Pharmacy",
    "address": "669 Stocking Ave NW, Grand Rapids, MI 49504",
    "neighborhood": "West Grand",
    "street": "669 Stocking Ave NW",
    "city": "Grand Rapids",
    "postalCode": "49504",
    "state": "Michigan",
    "countryCode": "US",
    "website": "https://www.healthmart.com/store-details.html?storeId=24434",
    "phone": "(616) 776-2226",
    "phoneUnformatted": "+16167762226",
    "claimThisBusiness": false,
    "location": {
      "lat": 42.9755507,
      "lng": -85.6885124
    },
    "totalScore": 5,
    "permanentlyClosed": false,
    "temporarilyClosed": false,
    "placeId": null,
    "categories": [
      "Pharmacy"
    ],
    "fid": "0x8819af3fc8a59e89:0x1193536005594fdb",
    "cid": "1266447592092946395",
    "reviewsCount": 6,
    "imagesCount": 2,
    "imageCategories": [],
    "scrapedAt": "2025-06-22T05:47:16.854Z",
    "googleFoodUrl": null,
    "hotelAds": [],
    "openingHours": [
      {
        "day": "Monday",
        "hours": "9\u202fAM to 1\u202fPM, 1:30 to 5\u202fPM"
      },
      {
        "day": "Tuesday",
        "hours": "9\u202fAM to 1\u202fPM, 1:30 to 5\u202fPM"
      },
      {
        "day": "Wednesday",
        "hours": "9\u202fAM to 1\u202fPM, 1:30 to 5\u202fPM"
      },
      {
        "day": "Thursday",
        "hours": "9\u202fAM to 1\u202fPM, 1:30 to 5\u202fPM"
      },
      {
        "day": "Friday",
        "hours": "9\u202fAM to 1\u202fPM, 1:30 to 5\u202fPM"
      },
      {
        "day": "Saturday",
        "hours": "Closed"
      },
      {
        "day": "Sunday",
        "hours": "Closed"
      }
    ],
    "peopleAlsoSearch": [],
    "placesTags": [],
    "reviewsTags": [],
    "additionalInfo": {
      "Service options": [
        {
          "In-store pickup": true
        }
      ],
      "Accessibility": [
        {
          "Wheelchair accessible entrance": true
        },
        {
          "Wheelchair accessible parking lot": true
        }
      ],
      "Planning": [
        {
          "Quick visit": true
        }
      ],
      "Payments": [
        {
          "Credit cards": true
        },
        {
          "Debit cards": true
        },
        {
          "NFC mobile payments": true
        },
        {
          "Credit cards": true
        }
      ]
    },
    "gasPrices": [],
    "url": "https://www.google.com/maps/search/?api=1&query=Cherry%20Health%20-%20Westside%20Pharmacy&query_place_id=ChIJiZ6lyD-vGYgR209ZBWBTkxE",
    "searchPageUrl": "https://www.google.com/maps/search/independent%20pharmacy%20Grand%20Rapids%20MI/@20.34180385134867,-155.76937533997466,11z?hl=en",
    "searchString": "independent pharmacy Grand Rapids MI",
    "language": "en",
    "rank": 15,
    "isAdvertisement": false,
    "imageUrl": "https://streetviewpixels-pa.googleapis.com/v1/thumbnail?panoid=IaCRmEcM1om0HwASXlylUg&cb_client=search.gws-prod.gps&w=408&h=240&yaw=263.1195&pitch=0&thumbfov=100",
    "kgmid": "/g/11v0tmyw05",
    "classification": "independent",
    "is_independent": true,
    "is_compounding": false,
    "confidence": 0.9,
    "source": "perplexity",
    "method": "llm"
  },
  {
    "title": "Parkwood Pharmacy LLC",
    "price": null,
    "categoryName": "Pharmacy",
    "address": "1106 Burton St SW Suite A, Wyoming, MI 49509",
    "neighborhood": "Urbandale",
    "street": "1106 Burton St SW Suite A",
    "city": "Wyoming",
    "postalCode": "49509",
    "state": "Michigan",
    "countryCode": "US",
    "phone": "(616) 245-2463",
    "phoneUnformatted": "+16162452463",
    "claimThisBusiness": false,
    "location": {
      "lat": 42.9278457,
      "lng": -85.6940088
    },
    "totalScore": 4.9,
    "permanentlyClosed": false,
    "temporarilyClosed": false,
    "placeId": null,
    "categories": [
      "Pharmacy",
      "Medical supply store"
    ],
    "fid": "0x8819b1f03ef4b7dd:0xdade523421e18cb1",
    "cid": "15771133328958262449",
    "reviewsCount": 86,
    "imagesCount": 6,
    "imageCategories": [],
    "scrapedAt": "2025-06-22T05:47:16.854Z",
    "googleFoodUrl": null,
    "hotelAds": [],
    "openingHours": [
      {
        "day": "Monday",
        "hours": "9\u202fAM to 7\u202fPM"
      },
      {
        "day": "Tuesday",
        "hours": "9\u202fAM to 7\u202fPM"
      },
      {
        "day": "Wednesday",
        "hours": "9\u202fAM to 7\u202fPM"
      },
      {
        "day": "Thursday",
        "hours": "9\u202fAM to 7\u202fPM"
      },
      {
        "day": "Friday",
        "hours": "9\u202fAM to 7\u202fPM"
      },
      {
        "day": "Saturday",
        "hours": "9\u202fAM to 1\u202fPM"
      },
      {
        "day": "Sunday",
        "hours": "Closed"
      }
    ],
    "peopleAlsoSearch": [],
    "placesTags": [],
    "reviewsTags": [],
    "additionalInfo": {
      "From the business": [
        {
          "Small business": true
        }
      ],
      "Service options": [
        {
          "Delivery": true
        },
        {
          "In-store pickup": true
        },
        {
          "In-store shopping": true
        },
        {
          "Same-day delivery": true
        }
      ],
      "Accessibility": [
        {
          "Wheelchair accessible entrance": true
        },
        {
          "Wheelchair accessible parking lot": true
        }
      ],
      "Offerings": [
        {
          "Medication disposal": true
        }
      ],
      "Amenities": [
        {
          "Wi-Fi": true
        },
        {
          "Free Wi-Fi": true
        }
      ],
      "Planning": [
        {
          "Quick visit": true
        }
      ],
      "Payments": [
        {
          "Credit cards": true
        },
        {
          "Debit cards": true
        },
        {
          "NFC mobile payments": true
        },
        {
          "Credit cards": true
        }
      ]
    },
    "gasPrices": [],
    "url": "https://www.google.com/maps/search/?api=1&query=Parkwood%20Pharmacy%20LLC&query_place_id=ChIJ3bf0PvCxGYgRsYzhITRS3to",
    "searchPageUrl": "https://www.google.com/maps/search/independent%20pharmacy%20Grand%20Rapids%20MI/@20.34180385134867,-155.76937533997466,11z?hl=en",
    "searchString": "independent pharmacy Grand Rapids MI",
    "language": "en",
    "rank": 16,
    "isAdvertisement": false,
    "imageUrl": "https://lh3.googleusercontent.com/p/AF1QipNxnpi-PUiONI90urrdTLqbR1yB3I6l82vP2_by=w408-h272-k-no",
    "kgmid": "/g/1vljgyvz",
    "classification": "independent",
    "is_independent": true,
    "is_compounding": false,
    "confidence": 0.85,
    "source": "perplexity",
    "method": "llm"
  },
  {
    "title": "Cherry Health \u2013 Heart of the City Pharmacy",
    "price": null,
    "categoryName": "Pharmacy",
    "address": "100 Cherry St SE, Grand Rapids, MI 49503",
    "neighborhood": "Downtown",
    "street": "100 Cherry St SE",
    "city": "Grand Rapids",
    "postalCode": "49503",
    "state": "Michigan",
    "countryCode": "US",
    "website": "https://www.healthmart.com/store-details.html?storeId=7783",
    "phone": "(616) 965-8278",
    "phoneUnformatted": "+16169658278",
    "claimThisBusiness": false,
    "location": {
      "lat": 42.9592257,
      "lng": -85.6659387
    },
    "totalScore": 4.3,
    "permanentlyClosed": false,
    "temporarilyClosed": false,
    "placeId": null,
    "categories": [
      "Pharmacy"
    ],
    "fid": "0x8819adc059f90cc1:0x452c99b09bbf7f42",
    "cid": "4984527871398608706",
    "reviewsCount": 25,
    "imagesCount": 23,
    "imageCategories": [],
    "scrapedAt": "2025-06-22T05:47:16.854Z",
    "googleFoodUrl": null,
    "hotelAds": [],
    "openingHours": [
      {
        "day": "Monday",
        "hours": "8\u202fAM to 5\u202fPM"
      },
      {
        "day": "Tuesday",
        "hours": "8\u202fAM to 5\u202fPM"
      },
      {
        "day": "Wednesday",
        "hours": "8\u202fAM to 5\u202fPM"
      },
      {
        "day": "Thursday",
        "hours": "8\u202fAM to 5\u202fPM"
      },
      {
        "day": "Friday",
        "hours": "8\u202fAM to 5\u202fPM"
      },
      {
        "day": "Saturday",
        "hours": "9\u202fAM to 12\u202fPM"
      },
      {
        "day": "Sunday",
        "hours": "Closed"
      }
    ],
    "peopleAlsoSearch": [],
    "placesTags": [],
    "reviewsTags": [],
    "additionalInfo": {
      "Service options": [
        {
          "In-store shopping": true
        }
      ],
      "Accessibility": [
        {
          "Wheelchair accessible entrance": true
        },
        {
          "Wheelchair accessible parking lot": true
        }
      ],
      "Offerings": [
        {
          "Medication disposal": true
        }
      ],
      "Planning": [
        {
          "Quick visit": true
        }
      ],
      "Payments": [
        {
          "Credit cards": true
        },
        {
          "Debit cards": true
        }
      ]
    },
    "gasPrices": [],
    "url": "https://www.google.com/maps/search/?api=1&query=Cherry%20Health%20%E2%80%93%20Heart%20of%20the%20City%20Pharmacy&query_place_id=ChIJwQz5WcCtGYgRQn-_m7CZLEU",
    "searchPageUrl": "https://www.google.com/maps/search/independent%20pharmacy%20Grand%20Rapids%20MI/@20.34180385134867,-155.76937533997466,11z?hl=en",
    "searchString": "independent pharmacy Grand Rapids MI",
    "language": "en",
    "rank": 17,
    "isAdvertisement": false,
    "imageUrl": "https://lh3.googleusercontent.com/p/AF1QipNhOZgjL3QVqJ4GgerkNjZIJtpGsdGfnPAeTMxl=w408-h272-k-no",
    "kgmid": "/g/11f0wl_s5s",
    "classification": "hospital",
    "is_independent": false,
    "is_compounding": false,
    "confidence": 0.9,
    "source": "perplexity",
    "method": "llm"
  },
  {
    "title": "Meijer Pharmacy",
    "price": "$$",
    "categoryName": "Pharmacy",
    "address": "100 Michigan St NE Suite 1830, Grand Rapids, MI 49503",
    "neighborhood": "Belknap Lookout",
    "street": "100 Michigan St NE Suite 1830",
    "city": "Grand Rapids",
    "postalCode": "49503",
    "state": "Michigan",
    "countryCode": "US",
    "website": "https://www.meijer.com/shopping/store-locator/465.html?cmpid=LM:Web::::05112021::GooglePharmacy",
    "phone": "(616) 249-6210",
    "phoneUnformatted": "+16162496210",
    "claimThisBusiness": false,
    "location": {
      "lat": 42.9699164,
      "lng": -85.6649441
    },
    "totalScore": 3.9,
    "permanentlyClosed": false,
    "temporarilyClosed": false,
    "placeId": "ChIJBy4KasitGYgRBdTgiY8cw2E",
    "categories": [
      "Pharmacy",
      "Medical supply store",
      "Drug store"
    ],
    "fid": "0x8819adc86a0a2e07:0x61c31c8f89e0d405",
    "cid": "7044505644956701701",
    "reviewsCount": 45,
    "imagesCount": 6,
    "imageCategories": [],
    "scrapedAt": "2025-06-22T05:47:16.854Z",
    "googleFoodUrl": null,
    "hotelAds": [],
    "openingHours": [
      {
        "day": "Monday",
        "hours": "7:30\u202fAM to 8\u202fPM"
      },
      {
        "day": "Tuesday",
        "hours": "7:30\u202fAM to 8\u202fPM"
      },
      {
        "day": "Wednesday",
        "hours": "7:30\u202fAM to 8\u202fPM"
      },
      {
        "day": "Thursday",
        "hours": "7:30\u202fAM to 8\u202fPM"
      },
      {
        "day": "Friday",
        "hours": "7:30\u202fAM to 8\u202fPM"
      },
      {
        "day": "Saturday",
        "hours": "9\u202fAM to 5\u202fPM"
      },
      {
        "day": "Sunday",
        "hours": "10\u202fAM to 6\u202fPM"
      }
    ],
    "additionalOpeningHours": {
      "Drive through": [
        {
          "day": "Monday",
          "hours": "9\u202fAM\u20138\u202fPM"
        },
        {
          "day": "Tuesday",
          "hours": "9\u202fAM\u20138\u202fPM"
        },
        {
          "day": "Wednesday",
          "hours": "9\u202fAM\u20138\u202fPM"
        },
        {
          "day": "Thursday",
          "hours": "9\u202fAM\u20138\u202fPM"
        },
        {
          "day": "Friday",
          "hours": "9\u202fAM\u20138\u202fPM"
        },
        {
          "day": "Saturday",
          "hours": "10\u202fAM\u20136\u202fPM"
        },
        {
          "day": "Sunday",
          "hours": "10\u202fAM\u20136\u202fPM"
        }
      ],
      "Pickup": [
        {
          "day": "Monday",
          "hours": "7:30\u202fAM\u20138\u202fPM"
        },
        {
          "day": "Tuesday",
          "hours": "7:30\u202fAM\u20138\u202fPM"
        },
        {
          "day": "Wednesday",
          "hours": "7:30\u202fAM\u20138\u202fPM"
        },
        {
          "day": "Thursday",
          "hours": "7:30\u202fAM\u20138\u202fPM"
        },
        {
          "day": "Friday",
          "hours": "7:30\u202fAM\u20138\u202fPM"
        },
        {
          "day": "Saturday",
          "hours": "9\u202fAM\u20135\u202fPM"
        },
        {
          "day": "Sunday",
          "hours": "10\u202fAM\u20136\u202fPM"
        }
      ]
    },
    "peopleAlsoSearch": [],
    "placesTags": [],
    "reviewsTags": [],
    "additionalInfo": {
      "Service options": [
        {
          "In-store pickup": true
        },
        {
          "In-store shopping": true
        }
      ],
      "Accessibility": [
        {
          "Wheelchair accessible entrance": true
        },
        {
          "Wheelchair accessible parking lot": true
        }
      ],
      "Offerings": [
        {
          "Medication disposal": true
        }
      ],
      "Amenities": [
        {
          "Wi-Fi": true
        },
        {
          "Free Wi-Fi": true
        }
      ],
      "Planning": [
        {
          "Quick visit": true
        }
      ],
      "Payments": [
        {
          "Checks": true
        },
        {
          "Debit cards": true
        },
        {
          "NFC mobile payments": true
        }
      ]
    },
    "gasPrices": [],
    "url": "https://www.google.com/maps/search/?api=1&query=Meijer%20Pharmacy&query_place_id=ChIJBy4KasitGYgRBdTgiY8cw2E",
    "searchPageUrl": "https://www.google.com/maps/search/independent%20pharmacy%20Grand%20Rapids%20MI/@20.34180385134867,-155.76937533997466,11z?hl=en",
    "searchString": "independent pharmacy Grand Rapids MI",
    "language": "en",
    "rank": 18,
    "isAdvertisement": false,
    "imageUrl": "https://lh3.googleusercontent.com/gps-cs-s/AC9h4noSYyMIlDEgZp1lWk3np_FHSkYSVnPQhc66EjmeIDLGDEalXubPf6W_I7ikTUjAciwgX6Zn8nrU5H6jnxTUoVa64LYX0yRwM_DthpAUBxnwcEayJ14o-UPMYbEkp0rvCliiQ6g=w426-h240-k-no",
    "kgmid": "/g/11bxjlpljj",
    "classification": "chain",
    "is_independent": false,
    "confidence": 1.0,
    "source": "rule-based"
  },
  {
    "title": "Meijer Pharmacy",
    "price": "$$",
    "categoryName": "Pharmacy",
    "address": "1540 28th St SE, Grand Rapids, MI 49508",
    "neighborhood": "West Millbrook",
    "street": "1540 28th St SE",
    "city": "Grand Rapids",
    "postalCode": "49508",
    "state": "Michigan",
    "countryCode": "US",
    "website": "https://www.meijer.com/shopping/store-locator/311.html?cmpid=LM:Web::::05112021::GooglePharmacy",
    "phone": "(616) 248-2610",
    "phoneUnformatted": "+16162482610",
    "claimThisBusiness": false,
    "location": {
      "lat": 42.9113147,
      "lng": -85.629858
    },
    "totalScore": 2.6,
    "permanentlyClosed": false,
    "temporarilyClosed": false,
    "placeId": "ChIJW0gXmO6yGYgRkvp24hXbwQc",
    "categories": [
      "Pharmacy",
      "Medical supply store",
      "Drug store"
    ],
    "fid": "0x8819b2ee9817485b:0x7c1db15e276fa92",
    "cid": "558968715810896530",
    "reviewsCount": 79,
    "imagesCount": 56,
    "imageCategories": [],
    "scrapedAt": "2025-06-22T05:47:16.854Z",
    "googleFoodUrl": null,
    "hotelAds": [],
    "openingHours": [
      {
        "day": "Monday",
        "hours": "9\u202fAM to 8\u202fPM"
      },
      {
        "day": "Tuesday",
        "hours": "9\u202fAM to 8\u202fPM"
      },
      {
        "day": "Wednesday",
        "hours": "9\u202fAM to 8\u202fPM"
      },
      {
        "day": "Thursday",
        "hours": "9\u202fAM to 8\u202fPM"
      },
      {
        "day": "Friday",
        "hours": "9\u202fAM to 8\u202fPM"
      },
      {
        "day": "Saturday",
        "hours": "10\u202fAM to 6\u202fPM"
      },
      {
        "day": "Sunday",
        "hours": "10\u202fAM to 6\u202fPM"
      }
    ],
    "additionalOpeningHours": {
      "Drive through": [
        {
          "day": "Monday",
          "hours": "9\u202fAM\u20138\u202fPM"
        },
        {
          "day": "Tuesday",
          "hours": "9\u202fAM\u20138\u202fPM"
        },
        {
          "day": "Wednesday",
          "hours": "9\u202fAM\u20138\u202fPM"
        },
        {
          "day": "Thursday",
          "hours": "9\u202fAM\u20138\u202fPM"
        },
        {
          "day": "Friday",
          "hours": "9\u202fAM\u20138\u202fPM"
        },
        {
          "day": "Saturday",
          "hours": "10\u202fAM\u20136\u202fPM"
        },
        {
          "day": "Sunday",
          "hours": "10\u202fAM\u20136\u202fPM"
        }
      ],
      "Pickup": [
        {
          "day": "Monday",
          "hours": "9\u202fAM\u20138\u202fPM"
        },
        {
          "day": "Tuesday",
          "hours": "9\u202fAM\u20138\u202fPM"
        },
        {
          "day": "Wednesday",
          "hours": "9\u202fAM\u20138\u202fPM"
        },
        {
          "day": "Thursday",
          "hours": "9\u202fAM\u20138\u202fPM"
        },
        {
          "day": "Friday",
          "hours": "9\u202fAM\u20138\u202fPM"
        },
        {
          "day": "Saturday",
          "hours": "10\u202fAM\u20136\u202fPM"
        },
        {
          "day": "Sunday",
          "hours": "10\u202fAM\u20136\u202fPM"
        }
      ]
    },
    "peopleAlsoSearch": [],
    "placesTags": [],
    "reviewsTags": [],
    "additionalInfo": {
      "Service options": [
        {
          "Curbside pickup": true
        },
        {
          "Delivery": true
        },
        {
          "Drive-through": true
        },
        {
          "In-store pickup": true
        },
        {
          "In-store shopping": true
        }
      ],
      "Accessibility": [
        {
          "Wheelchair accessible entrance": true
        },
        {
          "Wheelchair accessible parking lot": true
        }
      ],
      "Offerings": [
        {
          "Medication disposal": true
        }
      ],
      "Amenities": [
        {
          "Wi-Fi": true
        }
      ],
      "Planning": [
        {
          "Quick visit": true
        }
      ],
      "Payments": [
        {
          "Checks": true
        },
        {
          "Credit cards": true
        },
        {
          "Debit cards": true
        },
        {
          "NFC mobile payments": true
        }
      ]
    },
    "gasPrices": [],
    "url": "https://www.google.com/maps/search/?api=1&query=Meijer%20Pharmacy&query_place_id=ChIJW0gXmO6yGYgRkvp24hXbwQc",
    "searchPageUrl": "https://www.google.com/maps/search/independent%20pharmacy%20Grand%20Rapids%20MI/@20.34180385134867,-155.76937533997466,11z?hl=en",
    "searchString": "independent pharmacy Grand Rapids MI",
    "language": "en",
    "rank": 19,
    "isAdvertisement": false,
    "imageUrl": "https://lh3.googleusercontent.com/p/AF1QipNK-8_OKsqkel1_wSj45jLjsWuwtbvzVQRUVgAT=w408-h272-k-no",
    "kgmid": "/g/1tff3n7s",
    "classification": "chain",
    "is_independent": false,
    "confidence": 1.0,
    "source": "rule-based"
  },
  {
    "title": "Forest Hills Pharmacy",
    "price": null,
    "categoryName": "Pharmacy",
    "address": "4668 Cascade Rd SE, Grand Rapids, MI 49546",
    "neighborhood": null,
    "street": "4668 Cascade Rd SE",
    "city": "Grand Rapids",
    "postalCode": "49546",
    "state": "Michigan",
    "countryCode": "US",
    "website": "https://www.shopforesthillsfoods.com/pharmacy",
    "phone": "(616) 949-0170",
    "phoneUnformatted": "+16169490170",
    "claimThisBusiness": false,
    "location": {
      "lat": 42.9454719,
      "lng": -85.5540528
    },
    "totalScore": 3.5,
    "permanentlyClosed": false,
    "temporarilyClosed": false,
    "placeId": "ChIJfw4f9mRSGIgRyKJqkBOmBvU",
    "categories": [
      "Pharmacy"
    ],
    "fid": "0x88185264f61f0e7f:0xf506a613906aa2c8",
    "cid": "17655981992110105288",
    "reviewsCount": 13,
    "imagesCount": 4,
    "imageCategories": [],
    "scrapedAt": "2025-06-22T05:47:16.854Z",
    "googleFoodUrl": null,
    "hotelAds": [],
    "openingHours": [
      {
        "day": "Monday",
        "hours": "9\u202fAM to 7\u202fPM"
      },
      {
        "day": "Tuesday",
        "hours": "9\u202fAM to 7\u202fPM"
      },
      {
        "day": "Wednesday",
        "hours": "9\u202fAM to 7\u202fPM"
      },
      {
        "day": "Thursday",
        "hours": "9\u202fAM to 7\u202fPM"
      },
      {
        "day": "Friday",
        "hours": "9\u202fAM to 7\u202fPM"
      },
      {
        "day": "Saturday",
        "hours": "9\u202fAM to 5\u202fPM"
      },
      {
        "day": "Sunday",
        "hours": "11\u202fAM to 3\u202fPM"
      }
    ],
    "peopleAlsoSearch": [],
    "placesTags": [],
    "reviewsTags": [],
    "additionalInfo": {
      "Service options": [
        {
          "Curbside pickup": true
        },
        {
          "Delivery": true
        },
        {
          "Drive-through": true
        },
        {
          "In-store pickup": true
        },
        {
          "In-store shopping": true
        },
        {
          "Same-day delivery": false
        }
      ],
      "Accessibility": [
        {
          "Wheelchair accessible entrance": true
        },
        {
          "Wheelchair accessible parking lot": true
        }
      ],
      "Offerings": [
        {
          "Medication disposal": true
        }
      ],
      "Amenities": [
        {
          "Wi-Fi": true
        },
        {
          "Free Wi-Fi": true
        }
      ],
      "Crowd": [
        {
          "LGBTQ+ friendly": true
        },
        {
          "Transgender safespace": true
        }
      ],
      "Planning": [
        {
          "Quick visit": true
        }
      ],
      "Payments": [
        {
          "Checks": true
        },
        {
          "Credit cards": true
        },
        {
          "Debit cards": true
        },
        {
          "NFC mobile payments": true
        },
        {
          "Credit cards": true
        }
      ]
    },
    "gasPrices": [],
    "url": "https://www.google.com/maps/search/?api=1&query=Forest%20Hills%20Pharmacy&query_place_id=ChIJfw4f9mRSGIgRyKJqkBOmBvU",
    "searchPageUrl": "https://www.google.com/maps/search/independent%20pharmacy%20Grand%20Rapids%20MI/@20.34180385134867,-155.76937533997466,11z?hl=en",
    "searchString": "independent pharmacy Grand Rapids MI",
    "language": "en",
    "rank": 20,
    "isAdvertisement": false,
    "imageUrl": "https://lh3.googleusercontent.com/gps-cs-s/AC9h4nrVRUvaOIlt2CCZim_ZbjL73CEwin73rXv1lw9AfmWLK5NumQK4pcnhyQEDAGYVuwIECviJC0gvqL4M4x7Dl1fdcI8d97Hwv-yJ-Bl3V1FO5RgVzmM3X5c_z1U0Xlh1xLDazwNqYA=w408-h544-k-no",
    "kgmid": "/g/1th0nhz5",
    "classification": "hospital",
    "is_independent": false,
    "confidence": 1.0,
    "source": "rule-based"
  }
]