[
  {
    "title": "Juneau Drug Co Inc",
    "price": null,
    "categoryName": "Pharmacy",
    "address": "TRIANGLE BUILDING, 202 Front St, Juneau, AK 99801",
    "neighborhood": "Downtown Juneau",
    "street": "TRIANGLE BUILDING, 202 Front St",
    "city": "Juneau",
    "postalCode": "99801",
    "state": "Alaska",
    "countryCode": "US",
    "website": "https://m.facebook.com/juneaudrugco/about/?mt_nav=1",
    "phone": "(907) 586-1233",
    "phoneUnformatted": "+19075861233",
    "claimThisBusiness": false,
    "location": {
      "lat": 58.3007546,
      "lng": -134.4072387
    },
    "totalScore": 4.3,
    "permanentlyClosed": false,
    "temporarilyClosed": false,
    "placeId": null,
    "categories": [
      "Pharmacy"
    ],
    "fid": "0x5400df83197d0fd9:0xc8a44f1924c3f696",
    "cid": "14457767673175733910",
    "reviewsCount": 84,
    "imagesCount": 45,
    "imageCategories": [],
    "scrapedAt": "2025-06-22T07:02:43.269Z",
    "googleFoodUrl": null,
    "hotelAds": [],
    "openingHours": [
      {
        "day": "Monday",
        "hours": "9\u202fAM to 8\u202fPM"
      },
      {
        "day": "Tuesday",
        "hours": "9\u202fAM to 8\u202fPM"
      },
      {
        "day": "Wednesday",
        "hours": "9\u202fAM to 8\u202fPM"
      },
      {
        "day": "Thursday",
        "hours": "9\u202fAM to 8\u202fPM"
      },
      {
        "day": "Friday",
        "hours": "9\u202fAM to 8\u202fPM"
      },
      {
        "day": "Saturday",
        "hours": "9\u202fAM to 7:30\u202fPM"
      },
      {
        "day": "Sunday",
        "hours": "9\u202fAM to 7:30\u202fPM"
      }
    ],
    "peopleAlsoSearch": [],
    "placesTags": [],
    "reviewsTags": [],
    "additionalInfo": {
      "From the business": [
        {
          "Small business": true
        }
      ],
      "Service options": [
        {
          "Onsite services": true
        }
      ],
      "Accessibility": [
        {
          "Wheelchair accessible entrance": true
        },
        {
          "Wheelchair accessible parking lot": true
        }
      ],
      "Planning": [
        {
          "Quick visit": true
        }
      ],
      "Payments": [
        {
          "Credit cards": true
        },
        {
          "Debit cards": true
        },
        {
          "NFC mobile payments": true
        },
        {
          "Credit cards": true
        }
      ]
    },
    "gasPrices": [],
    "url": "https://www.google.com/maps/search/?api=1&query=Juneau%20Drug%20Co%20Inc&query_place_id=ChIJ2Q99GYPfAFQRlvbDJBlPpMg",
    "searchPageUrl": "https://www.google.com/maps/search/independent%20pharmacy%20Juneau%20AK/@64.94267025847846,-167.73503139124153,13z?hl=en",
    "searchString": "independent pharmacy Juneau AK",
    "language": "en",
    "rank": 1,
    "isAdvertisement": false,
    "imageUrl": "https://lh3.googleusercontent.com/gps-cs-s/AC9h4npG-ai2Uj-iG2pmeVmZSF9AggNfxUBcIegVFGAGUnjGTc0dze0PkM-TnjenW910wOZxTRWVbqfv1gVn1_H45HRg7GnOT_2PDdDoudUdMfzOXdvZqxIz1E_jebYOO7hl-vBagSs=w408-h408-k-no",
    "kgmid": "/g/1tgwryyy",
    "classification": "independent",
    "is_independent": true,
    "is_compounding": false,
    "confidence": 0.9,
    "source": "perplexity",
    "method": "llm"
  },
  {
    "title": "Safeway Pharmacy",
    "price": "$$",
    "categoryName": "Pharmacy",
    "address": "3033 Vintage Blvd, Juneau, AK 99801",
    "neighborhood": "Mendenhall Valley",
    "street": "3033 Vintage Blvd",
    "city": "Juneau",
    "postalCode": "99801",
    "state": "Alaska",
    "countryCode": "US",
    "website": "https://local.pharmacy.safeway.com/safeway/ak/juneau/3033-vintage-blvd.html",
    "phone": "(907) 523-2060",
    "phoneUnformatted": "+19075232060",
    "claimThisBusiness": false,
    "location": {
      "lat": 58.3710267,
      "lng": -134.5957417
    },
    "totalScore": 2.5,
    "permanentlyClosed": false,
    "temporarilyClosed": false,
    "placeId": null,
    "categories": [
      "Pharmacy",
      "Drug store",
      "Vitamin & supplements store"
    ],
    "fid": "0x54011e02cfba6a01:0x107a4f2dc7a58e3d",
    "cid": "1187348509807185469",
    "reviewsCount": 19,
    "imagesCount": 3,
    "imageCategories": [],
    "scrapedAt": "2025-06-22T07:02:43.270Z",
    "googleFoodUrl": null,
    "hotelAds": [],
    "openingHours": [
      {
        "day": "Monday",
        "hours": "9\u202fAM to 1:30\u202fPM, 2 to 7\u202fPM"
      },
      {
        "day": "Tuesday",
        "hours": "9\u202fAM to 1:30\u202fPM, 2 to 7\u202fPM"
      },
      {
        "day": "Wednesday",
        "hours": "9\u202fAM to 1:30\u202fPM, 2 to 7\u202fPM"
      },
      {
        "day": "Thursday",
        "hours": "9\u202fAM to 1:30\u202fPM, 2 to 7\u202fPM"
      },
      {
        "day": "Friday",
        "hours": "9\u202fAM to 1:30\u202fPM, 2 to 7\u202fPM"
      },
      {
        "day": "Saturday",
        "hours": "10\u202fAM to 1:30\u202fPM, 2 to 6\u202fPM"
      },
      {
        "day": "Sunday",
        "hours": "10\u202fAM to 1:30\u202fPM, 2 to 6\u202fPM"
      }
    ],
    "peopleAlsoSearch": [],
    "placesTags": [],
    "reviewsTags": [],
    "additionalInfo": {
      "Service options": [
        {
          "Delivery": true
        },
        {
          "In-store pickup": true
        },
        {
          "In-store shopping": true
        },
        {
          "Same-day delivery": true
        }
      ],
      "Accessibility": [
        {
          "Wheelchair accessible entrance": true
        },
        {
          "Wheelchair accessible parking lot": true
        }
      ],
      "Crowd": [
        {
          "LGBTQ+ friendly": true
        }
      ],
      "Planning": [
        {
          "Appointment required": true
        },
        {
          "Quick visit": true
        }
      ],
      "Payments": [
        {
          "Checks": true
        },
        {
          "Debit cards": true
        },
        {
          "Credit cards": true
        }
      ]
    },
    "gasPrices": [],
    "url": "https://www.google.com/maps/search/?api=1&query=Safeway%20Pharmacy&query_place_id=ChIJAWq6zwIeAVQRPY6lxy1PehA",
    "searchPageUrl": "https://www.google.com/maps/search/independent%20pharmacy%20Juneau%20AK/@64.94267025847846,-167.73503139124153,13z?hl=en",
    "searchString": "independent pharmacy Juneau AK",
    "language": "en",
    "rank": 2,
    "isAdvertisement": false,
    "imageUrl": "https://lh3.googleusercontent.com/p/AF1QipMqrXoHuyV12_TmfadmYvOQDGgKMOaH4jEIKqak=w426-h240-k-no",
    "kgmid": "/g/1ptxc1cn0",
    "classification": "chain",
    "is_independent": false,
    "is_compounding": false,
    "confidence": 0.98,
    "source": "perplexity",
    "method": "llm"
  },
  {
    "title": "Fred Meyer Pharmacy",
    "price": null,
    "categoryName": "Pharmacy",
    "address": "8181 Glacier Hwy, Juneau, AK 99801",
    "neighborhood": "Mendenhall Valley",
    "street": "8181 Glacier Hwy",
    "city": "Juneau",
    "postalCode": "99801",
    "state": "Alaska",
    "countryCode": "US",
    "website": "https://www.fredmeyer.com/rx/pharmacy/details/701/00158?cid=loc_70100158P_gmb",
    "phone": "(907) 789-6533",
    "phoneUnformatted": "+19077896533",
    "claimThisBusiness": false,
    "location": {
      "lat": 58.359514,
      "lng": -134.5623278
    },
    "totalScore": 3.3,
    "permanentlyClosed": false,
    "temporarilyClosed": false,
    "placeId": null,
    "categories": [
      "Pharmacy",
      "Drug store",
      "Health counselor",
      "Home health care service"
    ],
    "fid": "0x5400fdaffd0229db:0x7aaefa554be7b861",
    "cid": "8840278362827503713",
    "reviewsCount": 33,
    "imagesCount": 10,
    "imageCategories": [],
    "scrapedAt": "2025-06-22T07:02:43.270Z",
    "googleFoodUrl": null,
    "hotelAds": [],
    "openingHours": [
      {
        "day": "Monday",
        "hours": "9\u202fAM to 1\u202fPM, 1:30 to 8\u202fPM"
      },
      {
        "day": "Tuesday",
        "hours": "9\u202fAM to 1\u202fPM, 1:30 to 8\u202fPM"
      },
      {
        "day": "Wednesday",
        "hours": "9\u202fAM to 1\u202fPM, 1:30 to 8\u202fPM"
      },
      {
        "day": "Thursday",
        "hours": "9\u202fAM to 1\u202fPM, 1:30 to 8\u202fPM"
      },
      {
        "day": "Friday",
        "hours": "9\u202fAM to 1\u202fPM, 1:30 to 8\u202fPM"
      },
      {
        "day": "Saturday",
        "hours": "10\u202fAM to 1\u202fPM, 1:30 to 6\u202fPM"
      },
      {
        "day": "Sunday",
        "hours": "10\u202fAM to 1\u202fPM, 1:30 to 6\u202fPM"
      }
    ],
    "additionalOpeningHours": {
      "Drive through": [
        {
          "day": "Monday",
          "hours": "9\u202fAM\u20131\u202fPM"
        },
        {
          "day": "Tuesday",
          "hours": "9\u202fAM\u20131\u202fPM"
        },
        {
          "day": "Wednesday",
          "hours": "9\u202fAM\u20131\u202fPM"
        },
        {
          "day": "Thursday",
          "hours": "9\u202fAM\u20131\u202fPM"
        },
        {
          "day": "Friday",
          "hours": "9\u202fAM\u20131\u202fPM"
        },
        {
          "day": "Saturday",
          "hours": "10\u202fAM\u20131\u202fPM"
        },
        {
          "day": "Sunday",
          "hours": "10\u202fAM\u20131\u202fPM"
        }
      ]
    },
    "peopleAlsoSearch": [],
    "placesTags": [],
    "reviewsTags": [],
    "additionalInfo": {
      "Service options": [
        {
          "Curbside pickup": true
        },
        {
          "Delivery": true
        },
        {
          "Drive-through": true
        },
        {
          "In-store pickup": true
        },
        {
          "In-store shopping": true
        },
        {
          "Same-day delivery": true
        }
      ],
      "Accessibility": [
        {
          "Wheelchair accessible entrance": true
        },
        {
          "Wheelchair accessible parking lot": true
        },
        {
          "Wheelchair accessible restroom": true
        },
        {
          "Wheelchair accessible seating": true
        }
      ],
      "Offerings": [
        {
          "Passport photos": true
        }
      ],
      "Amenities": [
        {
          "Wi-Fi": true
        },
        {
          "Free Wi-Fi": true
        }
      ],
      "Crowd": [
        {
          "LGBTQ+ friendly": true
        },
        {
          "Transgender safespace": true
        }
      ],
      "Planning": [
        {
          "Quick visit": true
        }
      ],
      "Payments": [
        {
          "Checks": true
        },
        {
          "Credit cards": true
        },
        {
          "Debit cards": true
        },
        {
          "NFC mobile payments": true
        },
        {
          "Credit cards": true
        }
      ]
    },
    "gasPrices": [],
    "url": "https://www.google.com/maps/search/?api=1&query=Fred%20Meyer%20Pharmacy&query_place_id=ChIJ2ykC_a_9AFQRYbjnS1X6rno",
    "searchPageUrl": "https://www.google.com/maps/search/independent%20pharmacy%20Juneau%20AK/@64.94267025847846,-167.73503139124153,13z?hl=en",
    "searchString": "independent pharmacy Juneau AK",
    "language": "en",
    "rank": 3,
    "isAdvertisement": false,
    "imageUrl": "https://lh3.googleusercontent.com/p/AF1QipPEhOpdwnJaOrkRBsiE5B4k6waQanQDcq2GDuTk=w408-h265-k-no",
    "kgmid": "/g/11bbrjgmm1",
    "classification": "chain",
    "is_independent": false,
    "is_compounding": false,
    "confidence": 0.98,
    "source": "perplexity",
    "method": "llm"
  },
  {
    "title": "Ron's Apothecary Shoppe",
    "price": null,
    "categoryName": "Pharmacy",
    "address": "9101 Mendenhall Mall Rd, Juneau, AK 99801",
    "neighborhood": "Mendenhall Valley",
    "street": "9101 Mendenhall Mall Rd",
    "city": "Juneau",
    "postalCode": "99801",
    "state": "Alaska",
    "countryCode": "US",
    "website": "https://www.ronsapothecary.com/",
    "phone": "(907) 789-0458",
    "phoneUnformatted": "+19077890458",
    "claimThisBusiness": false,
    "location": {
      "lat": 58.3715465,
      "lng": -134.5872648
    },
    "totalScore": 4.7,
    "permanentlyClosed": true,
    "temporarilyClosed": false,
    "placeId": null,
    "categories": [
      "Pharmacy",
      "Drug store"
    ],
    "fid": "0x5400e1e2871ed9a5:0x5411bf26b48d4fc7",
    "cid": "6057833146748850119",
    "reviewsCount": 20,
    "imagesCount": 14,
    "imageCategories": [],
    "scrapedAt": "2025-06-22T07:02:43.271Z",
    "googleFoodUrl": null,
    "hotelAds": [],
    "openingHours": [],
    "peopleAlsoSearch": [],
    "placesTags": [],
    "reviewsTags": [],
    "additionalInfo": {
      "Service options": [
        {
          "Curbside pickup": true
        },
        {
          "Delivery": true
        },
        {
          "In-store pickup": true
        },
        {
          "In-store shopping": true
        },
        {
          "Same-day delivery": true
        }
      ],
      "Accessibility": [
        {
          "Wheelchair accessible entrance": true
        },
        {
          "Wheelchair accessible parking lot": true
        }
      ],
      "Payments": [
        {
          "Debit cards": true
        },
        {
          "NFC mobile payments": true
        },
        {
          "Credit cards": true
        }
      ]
    },
    "gasPrices": [],
    "url": "https://www.google.com/maps/search/?api=1&query=Ron's%20Apothecary%20Shoppe&query_place_id=ChIJpdkeh-LhAFQRx0-NtCa_EVQ",
    "searchPageUrl": "https://www.google.com/maps/search/independent%20pharmacy%20Juneau%20AK/@64.94267025847846,-167.73503139124153,13z?hl=en",
    "searchString": "independent pharmacy Juneau AK",
    "language": "en",
    "rank": 4,
    "isAdvertisement": false,
    "imageUrl": "https://lh3.googleusercontent.com/gps-cs-s/AC9h4no5TrWvvLmWaHt7OGzMbNiH9id2Y2S_gCVpv4XjTAYQgF52hiwuDuvfX2hH2-ZuK_tBsQ60v6aPyC3NRIvsdftFc1LBkLl7Pfox_33H1_zSwtvOiqduPY6by0-miSp2znx5ie10Xw=w408-h544-k-no",
    "kgmid": "/g/1ths90sv",
    "classification": "independent",
    "is_independent": true,
    "is_compounding": false,
    "confidence": 0.9,
    "source": "perplexity",
    "method": "llm"
  },
  {
    "title": "Cole R. Dysinger, PharmD",
    "price": null,
    "categoryName": "Pharmacy",
    "address": "3245 Hospital Dr, Juneau, AK 99801",
    "neighborhood": "Twin Lakes",
    "street": "3245 Hospital Dr",
    "city": "Juneau",
    "postalCode": "99801",
    "state": "Alaska",
    "countryCode": "US",
    "phone": "(907) 463-4031",
    "phoneUnformatted": "+19074634031",
    "claimThisBusiness": true,
    "location": {
      "lat": 58.3298101,
      "lng": -134.4692375
    },
    "totalScore": 5,
    "permanentlyClosed": false,
    "temporarilyClosed": true,
    "placeId": null,
    "categories": [
      "Pharmacy"
    ],
    "fid": "0x5400e007cdb37e9f:0x89b4c32cd156bccf",
    "cid": "9922770476262145231",
    "reviewsCount": 1,
    "imagesCount": 1,
    "imageCategories": [],
    "scrapedAt": "2025-06-22T07:02:43.271Z",
    "googleFoodUrl": null,
    "hotelAds": [],
    "openingHours": [],
    "peopleAlsoSearch": [],
    "placesTags": [],
    "reviewsTags": [],
    "gasPrices": [],
    "url": "https://www.google.com/maps/search/?api=1&query=Cole%20R.%20Dysinger%2C%20PharmD&query_place_id=ChIJn36zzQfgAFQRz7xW0SzDtIk",
    "searchPageUrl": "https://www.google.com/maps/search/independent%20pharmacy%20Juneau%20AK/@64.94267025847846,-167.73503139124153,13z?hl=en",
    "searchString": "independent pharmacy Juneau AK",
    "language": "en",
    "rank": 5,
    "isAdvertisement": false,
    "imageUrl": "https://streetviewpixels-pa.googleapis.com/v1/thumbnail?panoid=CHdtXa6gpp3wLgGj5TjlhQ&cb_client=search.gws-prod.gps&w=408&h=240&yaw=42.461933&pitch=0&thumbfov=100",
    "kgmid": "/g/1thq0ddt",
    "classification": "independent",
    "is_independent": true,
    "is_compounding": false,
    "confidence": 0.85,
    "source": "perplexity",
    "method": "llm"
  },
  {
    "title": "Genoa Healthcare",
    "price": null,
    "categoryName": "Pharmacy",
    "address": "1944 Allen Ct p1, Juneau, AK 99801",
    "neighborhood": "Lemon Creek",
    "street": "1944 Allen Ct p1",
    "city": "Juneau",
    "postalCode": "99801",
    "state": "Alaska",
    "countryCode": "US",
    "website": "https://www.genoahealthcare.com/",
    "phone": "(877) 658-0304",
    "phoneUnformatted": "+18776580304",
    "claimThisBusiness": false,
    "location": {
      "lat": 58.355,
      "lng": -134.49
    },
    "totalScore": 4.8,
    "permanentlyClosed": false,
    "temporarilyClosed": false,
    "placeId": null,
    "categories": [
      "Pharmacy"
    ],
    "fid": "0x5400e1b622216bdd:0xf2fa1a80f4010bef",
    "cid": "17508335642508069871",
    "reviewsCount": 4,
    "imagesCount": 2,
    "imageCategories": [],
    "scrapedAt": "2025-06-22T07:02:43.467Z",
    "googleFoodUrl": null,
    "hotelAds": [],
    "openingHours": [
      {
        "day": "Monday",
        "hours": "8\u202fAM to 4:30\u202fPM"
      },
      {
        "day": "Tuesday",
        "hours": "8\u202fAM to 4:30\u202fPM"
      },
      {
        "day": "Wednesday",
        "hours": "8\u202fAM to 4:30\u202fPM"
      },
      {
        "day": "Thursday",
        "hours": "8\u202fAM to 4:30\u202fPM"
      },
      {
        "day": "Friday",
        "hours": "8\u202fAM to 4:30\u202fPM"
      },
      {
        "day": "Saturday",
        "hours": "Closed"
      },
      {
        "day": "Sunday",
        "hours": "Closed"
      }
    ],
    "peopleAlsoSearch": [],
    "placesTags": [],
    "reviewsTags": [],
    "additionalInfo": {
      "Accessibility": [
        {
          "Wheelchair accessible entrance": true
        },
        {
          "Wheelchair accessible parking lot": true
        }
      ],
      "Payments": [
        {
          "Credit cards": true
        }
      ]
    },
    "gasPrices": [],
    "url": "https://www.google.com/maps/search/?api=1&query=Genoa%20Healthcare&query_place_id=ChIJ3WshIrbhAFQR7wsB9IAa-vI",
    "searchPageUrl": "https://www.google.com/maps/search/independent%20pharmacy%20Juneau%20AK/@60.31354917823661,-173.20649518568482,12z?hl=en",
    "searchString": "independent pharmacy Juneau AK",
    "language": "en",
    "rank": 2,
    "isAdvertisement": false,
    "imageUrl": "https://lh3.googleusercontent.com/gps-cs-s/AC9h4npD45zb9uDkQIKOdkyqnF5hEAULn_aT_zAtMSBtsFWFVx5jD5b4RLd9kEv-U2JIUZve5ZruJdelMZm5n6fw9nnf2sH3mnRzWMbL7di8OW0rEwuFgAd6KjoR-K4zT6_0uIYphH5NLQ=w408-h725-k-no",
    "kgmid": "/g/11h45bf0fd",
    "classification": "chain",
    "is_independent": false,
    "is_compounding": false,
    "confidence": 0.95,
    "source": "perplexity",
    "method": "llm"
  },
  {
    "title": "SEARHC ELMC Pharmacy",
    "price": null,
    "categoryName": "Pharmacy",
    "address": "1200 Salmon Creek Ln, Juneau, AK 99801",
    "neighborhood": "Twin Lakes",
    "street": "1200 Salmon Creek Ln",
    "city": "Juneau",
    "postalCode": "99801",
    "state": "Alaska",
    "countryCode": "US",
    "website": "https://searhc.org/location/ethel-lund-medical-center/",
    "phone": "(907) 463-4030",
    "phoneUnformatted": "+19074634030",
    "claimThisBusiness": false,
    "location": {
      "lat": 58.3312553,
      "lng": -134.4671516
    },
    "totalScore": 4,
    "permanentlyClosed": false,
    "temporarilyClosed": false,
    "placeId": null,
    "categories": [
      "Pharmacy"
    ],
    "fid": "0x5400e007cdb37e9f:0x6db16ea4d976208f",
    "cid": "7904220475314020495",
    "reviewsCount": 5,
    "imagesCount": 4,
    "imageCategories": [],
    "scrapedAt": "2025-06-22T07:02:44.820Z",
    "googleFoodUrl": null,
    "hotelAds": [],
    "openingHours": [
      {
        "day": "Monday",
        "hours": "8\u202fAM to 6\u202fPM"
      },
      {
        "day": "Tuesday",
        "hours": "8\u202fAM to 6\u202fPM"
      },
      {
        "day": "Wednesday",
        "hours": "9\u202fAM to 6\u202fPM"
      },
      {
        "day": "Thursday",
        "hours": "8\u202fAM to 6\u202fPM"
      },
      {
        "day": "Friday",
        "hours": "8\u202fAM to 6\u202fPM"
      },
      {
        "day": "Saturday",
        "hours": "9\u202fAM to 5\u202fPM"
      },
      {
        "day": "Sunday",
        "hours": "9\u202fAM to 5\u202fPM"
      }
    ],
    "peopleAlsoSearch": [],
    "placesTags": [],
    "reviewsTags": [],
    "additionalInfo": {
      "Service options": [
        {
          "Delivery": true
        }
      ],
      "Accessibility": [
        {
          "Wheelchair accessible entrance": true
        },
        {
          "Wheelchair accessible parking lot": true
        }
      ],
      "Payments": [
        {
          "Credit cards": true
        }
      ]
    },
    "gasPrices": [],
    "url": "https://www.google.com/maps/search/?api=1&query=SEARHC%20ELMC%20Pharmacy&query_place_id=ChIJn36zzQfgAFQRjyB22aRusW0",
    "searchPageUrl": "https://www.google.com/maps/search/independent%20pharmacy%20Juneau%20AK/@28.477330106549307,-177.64283584778357,12z?hl=en",
    "searchString": "independent pharmacy Juneau AK",
    "language": "en",
    "rank": 4,
    "isAdvertisement": false,
    "imageUrl": "https://lh3.googleusercontent.com/p/AF1QipON2N2EmVx4-i5AcENO6sf5jkKaYRhwlrkgKzFR=w408-h272-k-no",
    "kgmid": "/g/1tsljdk7",
    "classification": "independent",
    "is_independent": true,
    "is_compounding": false,
    "confidence": 0.9,
    "source": "perplexity",
    "method": "llm"
  },
  {
    "title": "Soldotna Professional Pharmacy",
    "price": null,
    "categoryName": "Pharmacy",
    "address": "299 N Binkley St, Soldotna, AK 99669",
    "neighborhood": null,
    "street": "299 N Binkley St",
    "city": "Soldotna",
    "postalCode": "99669",
    "state": "Alaska",
    "countryCode": "US",
    "website": "http://www.soldotnapharmacy.com/?utm_source=google&utm_medium=local&utm_campaign=localmaps&utm_content=201436",
    "phone": "(907) 262-3800",
    "phoneUnformatted": "+19072623800",
    "claimThisBusiness": true,
    "location": {
      "lat": 60.4945546,
      "lng": -151.0731048
    },
    "totalScore": 4.1,
    "permanentlyClosed": false,
    "temporarilyClosed": false,
    "placeId": null,
    "categories": [
      "Pharmacy",
      "Drug store"
    ],
    "fid": "0x56c663e098445141:0xf1c6340a2afccc3d",
    "cid": "17421669426804870205",
    "reviewsCount": 53,
    "imagesCount": 1,
    "imageCategories": [],
    "scrapedAt": "2025-06-22T07:02:50.587Z",
    "googleFoodUrl": null,
    "hotelAds": [],
    "openingHours": [
      {
        "day": "Monday",
        "hours": "9\u202fAM to 6:30\u202fPM"
      },
      {
        "day": "Tuesday",
        "hours": "9\u202fAM to 6:30\u202fPM"
      },
      {
        "day": "Wednesday",
        "hours": "9\u202fAM to 6:30\u202fPM"
      },
      {
        "day": "Thursday",
        "hours": "9\u202fAM to 6:30\u202fPM"
      },
      {
        "day": "Friday",
        "hours": "9\u202fAM to 6:30\u202fPM"
      },
      {
        "day": "Saturday",
        "hours": "10\u202fAM to 2\u202fPM"
      },
      {
        "day": "Sunday",
        "hours": "Closed"
      }
    ],
    "peopleAlsoSearch": [],
    "placesTags": [],
    "reviewsTags": [],
    "additionalInfo": {
      "Service options": [
        {
          "Delivery": true
        },
        {
          "Drive-through": true
        },
        {
          "In-store pickup": true
        },
        {
          "Same-day delivery": true
        }
      ],
      "Accessibility": [
        {
          "Wheelchair accessible entrance": true
        },
        {
          "Wheelchair accessible parking lot": true
        }
      ],
      "Amenities": [
        {
          "Gender-neutral restroom": true
        }
      ],
      "Crowd": [
        {
          "LGBTQ+ friendly": true
        },
        {
          "Transgender safespace": true
        }
      ],
      "Planning": [
        {
          "Quick visit": true
        }
      ],
      "Payments": [
        {
          "Checks": true
        },
        {
          "Credit cards": true
        },
        {
          "Debit cards": true
        },
        {
          "Credit cards": true
        }
      ]
    },
    "gasPrices": [],
    "url": "https://www.google.com/maps/search/?api=1&query=Soldotna%20Professional%20Pharmacy&query_place_id=ChIJQVFEmOBjxlYRPcz8Kgo0xvE",
    "searchPageUrl": "https://www.google.com/maps/search/independent%20pharmacy%20Juneau%20AK/@62.264056934850785,-149.65811401432413,9z?hl=en",
    "searchString": "independent pharmacy Juneau AK",
    "language": "en",
    "rank": 10,
    "isAdvertisement": false,
    "imageUrl": "https://streetviewpixels-pa.googleapis.com/v1/thumbnail?panoid=ydIyuWJu2kFj7H77CyvL6g&cb_client=search.gws-prod.gps&w=408&h=240&yaw=270.8964&pitch=0&thumbfov=100",
    "kgmid": "/g/1th7y28x",
    "classification": "independent",
    "is_independent": true,
    "is_compounding": false,
    "confidence": 0.9,
    "source": "perplexity",
    "method": "llm"
  },
  {
    "title": "Bernie's Pharmacy",
    "price": null,
    "categoryName": "Pharmacy",
    "address": "4100 Lake Otis Pkwy STE 200, Anchorage, AK 99508",
    "neighborhood": "Tudor Area",
    "street": "4100 Lake Otis Pkwy STE 200",
    "city": "Anchorage",
    "postalCode": "99508",
    "state": "Alaska",
    "countryCode": "US",
    "website": "http://www.berniespharmacy.com/",
    "phone": "(907) 562-2138",
    "phoneUnformatted": "+19075622138",
    "claimThisBusiness": false,
    "location": {
      "lat": 61.1828815,
      "lng": -149.8399346
    },
    "totalScore": 4.4,
    "permanentlyClosed": false,
    "temporarilyClosed": false,
    "placeId": null,
    "categories": [
      "Pharmacy",
      "Drug store"
    ],
    "fid": "0x56c897a631f1a021:0x50c37fafb43f3509",
    "cid": "5819635536112858377",
    "reviewsCount": 77,
    "imagesCount": 28,
    "imageCategories": [],
    "scrapedAt": "2025-06-22T07:02:50.587Z",
    "googleFoodUrl": null,
    "hotelAds": [],
    "openingHours": [
      {
        "day": "Monday",
        "hours": "9\u202fAM to 6\u202fPM"
      },
      {
        "day": "Tuesday",
        "hours": "9\u202fAM to 6\u202fPM"
      },
      {
        "day": "Wednesday",
        "hours": "9\u202fAM to 6\u202fPM"
      },
      {
        "day": "Thursday",
        "hours": "9\u202fAM to 6\u202fPM"
      },
      {
        "day": "Friday",
        "hours": "9\u202fAM to 6\u202fPM"
      },
      {
        "day": "Saturday",
        "hours": "10\u202fAM to 2\u202fPM"
      },
      {
        "day": "Sunday",
        "hours": "Closed"
      }
    ],
    "peopleAlsoSearch": [],
    "placesTags": [],
    "reviewsTags": [],
    "additionalInfo": {
      "From the business": [
        {
          "Identifies as women-owned": true
        },
        {
          "Small business": true
        }
      ],
      "Service options": [
        {
          "Curbside pickup": true
        },
        {
          "Delivery": true
        },
        {
          "In-store shopping": true
        },
        {
          "Same-day delivery": true
        }
      ],
      "Accessibility": [
        {
          "Wheelchair accessible entrance": true
        },
        {
          "Wheelchair accessible parking lot": true
        }
      ],
      "Planning": [
        {
          "Quick visit": true
        }
      ],
      "Payments": [
        {
          "Checks": true
        },
        {
          "Credit cards": true
        },
        {
          "Debit cards": true
        },
        {
          "NFC mobile payments": true
        },
        {
          "Credit cards": true
        }
      ]
    },
    "gasPrices": [],
    "url": "https://www.google.com/maps/search/?api=1&query=Bernie's%20Pharmacy&query_place_id=ChIJIaDxMaaXyFYRCTU_tK9_w1A",
    "searchPageUrl": "https://www.google.com/maps/search/independent%20pharmacy%20Juneau%20AK/@62.264056934850785,-149.65811401432413,9z?hl=en",
    "searchString": "independent pharmacy Juneau AK",
    "language": "en",
    "rank": 11,
    "isAdvertisement": false,
    "imageUrl": "https://lh3.googleusercontent.com/gps-cs-s/AC9h4nqlEh1GSfmrDzMHo2_FoKApQXV-WukgEOAsH6vyGGuN8VSf3ygewVctRXtOm4ea8yFzVaALWmLcwSP94fFRaGLOJYMi5rnmIncaB9SrGV7jr3ZuqXalNRpwIlLv5jpag40s=w408-h306-k-no",
    "kgmid": "/g/1tffjht8",
    "classification": "independent",
    "is_independent": true,
    "is_compounding": false,
    "confidence": 0.9,
    "source": "perplexity",
    "method": "llm"
  },
  {
    "title": "Family Pharmacy",
    "price": null,
    "categoryName": "Pharmacy",
    "address": "11432 Business Blvd #10, Eagle River, AK 99577",
    "neighborhood": "Eagle River",
    "street": "11432 Business Blvd #10",
    "city": "Eagle River",
    "postalCode": "99577",
    "state": "Alaska",
    "countryCode": "US",
    "phone": "(907) 694-7007",
    "phoneUnformatted": "+19076947007",
    "claimThisBusiness": true,
    "location": {
      "lat": 61.3230647,
      "lng": -149.5727951
    },
    "totalScore": 4.9,
    "permanentlyClosed": false,
    "temporarilyClosed": false,
    "placeId": null,
    "categories": [
      "Pharmacy"
    ],
    "fid": "0x56c8eb6de1a8616b:0x269135521221fbde",
    "cid": "2779061071672114142",
    "reviewsCount": 35,
    "imagesCount": 3,
    "imageCategories": [],
    "scrapedAt": "2025-06-22T07:02:54.487Z",
    "googleFoodUrl": null,
    "hotelAds": [],
    "openingHours": [
      {
        "day": "Monday",
        "hours": "10\u202fAM to 7\u202fPM"
      },
      {
        "day": "Tuesday",
        "hours": "10\u202fAM to 7\u202fPM"
      },
      {
        "day": "Wednesday",
        "hours": "10\u202fAM to 7\u202fPM"
      },
      {
        "day": "Thursday",
        "hours": "10\u202fAM to 7\u202fPM"
      },
      {
        "day": "Friday",
        "hours": "10\u202fAM to 7\u202fPM"
      },
      {
        "day": "Saturday",
        "hours": "10\u202fAM to 2\u202fPM"
      },
      {
        "day": "Sunday",
        "hours": "Closed"
      }
    ],
    "peopleAlsoSearch": [],
    "placesTags": [],
    "reviewsTags": [],
    "additionalInfo": {
      "Accessibility": [
        {
          "Wheelchair accessible entrance": true
        },
        {
          "Wheelchair accessible parking lot": true
        }
      ],
      "Planning": [
        {
          "Quick visit": true
        }
      ],
      "Payments": [
        {
          "Credit cards": true
        },
        {
          "Debit cards": true
        },
        {
          "Credit cards": true
        }
      ]
    },
    "gasPrices": [],
    "url": "https://www.google.com/maps/search/?api=1&query=Family%20Pharmacy&query_place_id=ChIJa2Go4W3ryFYR3vshElI1kSY",
    "searchPageUrl": "https://www.google.com/maps/search/independent%20pharmacy%20Juneau%20AK/@60.874534795447715,-148.50731502864818,9z?hl=en",
    "searchString": "independent pharmacy Juneau AK",
    "language": "en",
    "rank": 2,
    "isAdvertisement": false,
    "imageUrl": "https://lh3.googleusercontent.com/gps-cs-s/AC9h4npTaUWi3_83WITCriASCw-_JURnBXLKMaOGxhukttRnpaWrfAAmJUbEo6JrprqMDdVXi7pcCXtj7Xm8V0cG2qhae2De0sw8T5MUbrNvsyFm38db60p2B98DEBTIdcmyfkAICisB=w408-h502-k-no",
    "kgmid": "/g/1v46_2b4",
    "classification": "independent",
    "is_independent": true,
    "is_compounding": false,
    "confidence": 0.85,
    "source": "perplexity",
    "method": "llm"
  },
  {
    "title": "Amp Pharmacy",
    "price": null,
    "categoryName": "Pharmacy",
    "address": "4101 Arctic Blvd B, Anchorage, AK 99503",
    "neighborhood": "Midtown",
    "street": "4101 Arctic Blvd B",
    "city": "Anchorage",
    "postalCode": "99503",
    "state": "Alaska",
    "countryCode": "US",
    "website": "http://amppharmacy.com/",
    "phone": "(907) 770-6081",
    "phoneUnformatted": "+19077706081",
    "claimThisBusiness": true,
    "location": {
      "lat": 61.1838435,
      "lng": -149.8973897
    },
    "totalScore": 4,
    "permanentlyClosed": false,
    "temporarilyClosed": false,
    "placeId": null,
    "categories": [
      "Pharmacy"
    ],
    "fid": "0x56c897ea18153435:0x75b0a86c6e4b22dc",
    "cid": "8480463281998996188",
    "reviewsCount": 5,
    "imagesCount": 1,
    "imageCategories": [],
    "scrapedAt": "2025-06-22T07:02:54.487Z",
    "googleFoodUrl": null,
    "hotelAds": [],
    "openingHours": [
      {
        "day": "Monday",
        "hours": "9\u202fAM to 5\u202fPM"
      },
      {
        "day": "Tuesday",
        "hours": "9\u202fAM to 5\u202fPM"
      },
      {
        "day": "Wednesday",
        "hours": "9\u202fAM to 5\u202fPM"
      },
      {
        "day": "Thursday",
        "hours": "9\u202fAM to 5\u202fPM"
      },
      {
        "day": "Friday",
        "hours": "9\u202fAM to 5\u202fPM"
      },
      {
        "day": "Saturday",
        "hours": "Closed"
      },
      {
        "day": "Sunday",
        "hours": "Closed"
      }
    ],
    "peopleAlsoSearch": [],
    "placesTags": [],
    "reviewsTags": [],
    "additionalInfo": {
      "Accessibility": [
        {
          "Wheelchair accessible entrance": true
        },
        {
          "Wheelchair accessible parking lot": true
        }
      ],
      "Planning": [
        {
          "Quick visit": true
        }
      ],
      "Payments": [
        {
          "Credit cards": true
        }
      ]
    },
    "gasPrices": [],
    "url": "https://www.google.com/maps/search/?api=1&query=Amp%20Pharmacy&query_place_id=ChIJNTQVGOqXyFYR3CJLbmyosHU",
    "searchPageUrl": "https://www.google.com/maps/search/independent%20pharmacy%20Juneau%20AK/@60.874534795447715,-148.50731502864818,9z?hl=en",
    "searchString": "independent pharmacy Juneau AK",
    "language": "en",
    "rank": 3,
    "isAdvertisement": false,
    "imageUrl": "https://streetviewpixels-pa.googleapis.com/v1/thumbnail?panoid=D3IAWPn8z4qPaVeeQ5msqA&cb_client=search.gws-prod.gps&w=408&h=240&yaw=87.107056&pitch=0&thumbfov=100",
    "kgmid": "/g/1th7y29p",
    "classification": "independent",
    "is_independent": true,
    "is_compounding": false,
    "confidence": 0.85,
    "source": "perplexity",
    "method": "llm"
  },
  {
    "title": "Alaska Family Pharmacy",
    "price": null,
    "categoryName": "Pharmacy",
    "address": "167 S Santa Claus Ln, North Pole, AK 99705",
    "neighborhood": null,
    "street": "167 S Santa Claus Ln",
    "city": "North Pole",
    "postalCode": "99705",
    "state": "Alaska",
    "countryCode": "US",
    "website": "https://www.mygnp.com/pharmacies/north-pole-prescription-laboratory-north-pole-ak-99705/",
    "phone": "(907) 488-8555",
    "phoneUnformatted": "+19074888555",
    "claimThisBusiness": false,
    "location": {
      "lat": 64.7538738,
      "lng": -147.3538619
    },
    "totalScore": 4.8,
    "permanentlyClosed": false,
    "temporarilyClosed": false,
    "placeId": null,
    "categories": [
      "Pharmacy",
      "Drug store"
    ],
    "fid": "0x51324d5a897e54f3:0xaef4d3e27d36ad60",
    "cid": "12606934226633665888",
    "reviewsCount": 42,
    "imagesCount": 9,
    "imageCategories": [],
    "scrapedAt": "2025-06-22T07:03:07.834Z",
    "googleFoodUrl": null,
    "hotelAds": [],
    "openingHours": [
      {
        "day": "Monday",
        "hours": "10\u202fAM to 6\u202fPM"
      },
      {
        "day": "Tuesday",
        "hours": "10\u202fAM to 6\u202fPM"
      },
      {
        "day": "Wednesday",
        "hours": "10\u202fAM to 6\u202fPM"
      },
      {
        "day": "Thursday",
        "hours": "10\u202fAM to 6\u202fPM"
      },
      {
        "day": "Friday",
        "hours": "10\u202fAM to 6\u202fPM"
      },
      {
        "day": "Saturday",
        "hours": "Closed"
      },
      {
        "day": "Sunday",
        "hours": "Closed"
      }
    ],
    "peopleAlsoSearch": [],
    "placesTags": [],
    "reviewsTags": [],
    "additionalInfo": {
      "Service options": [
        {
          "Delivery": true
        },
        {
          "Drive-through": true
        },
        {
          "In-store pickup": true
        },
        {
          "Onsite services": true
        },
        {
          "English": true
        }
      ],
      "Accessibility": [
        {
          "Wheelchair accessible entrance": true
        },
        {
          "Wheelchair accessible parking lot": true
        }
      ],
      "Planning": [
        {
          "Quick visit": true
        }
      ],
      "Payments": [
        {
          "Checks": true
        },
        {
          "Credit cards": true
        },
        {
          "Debit cards": true
        },
        {
          "NFC mobile payments": true
        },
        {
          "Credit cards": true
        }
      ]
    },
    "gasPrices": [],
    "url": "https://www.google.com/maps/search/?api=1&query=Alaska%20Family%20Pharmacy&query_place_id=ChIJ81R-iVpNMlERYK02feLT9K4",
    "searchPageUrl": "https://www.google.com/maps/search/independent%20pharmacy%20Juneau%20AK/@65.04310121365691,-146.20571705729628,9z?hl=en",
    "searchString": "independent pharmacy Juneau AK",
    "language": "en",
    "rank": 1,
    "isAdvertisement": false,
    "imageUrl": "https://lh3.googleusercontent.com/p/AF1QipMqjXTk4lo8zTMW5ZMY_PQkEQRqIXS0UdYilIPt=w408-h306-k-no",
    "kgmid": "/g/1tdp97wh",
    "classification": "independent",
    "is_independent": true,
    "is_compounding": false,
    "confidence": 0.9,
    "source": "perplexity",
    "method": "llm"
  },
  {
    "title": "Alaska Family Pharmacy (Tanana Valley Clinic)",
    "price": null,
    "categoryName": "Pharmacy",
    "address": "1001 Noble St, Fairbanks, AK 99701",
    "neighborhood": null,
    "street": "1001 Noble St",
    "city": "Fairbanks",
    "postalCode": "99701",
    "state": "Alaska",
    "countryCode": "US",
    "website": "http://www.akfamilypharmacy.com/",
    "phone": "(907) 452-2556",
    "phoneUnformatted": "+19074522556",
    "claimThisBusiness": false,
    "location": {
      "lat": 64.8390657,
      "lng": -147.713685
    },
    "totalScore": 4.5,
    "permanentlyClosed": false,
    "temporarilyClosed": false,
    "placeId": null,
    "categories": [
      "Pharmacy",
      "Drug store"
    ],
    "fid": "0x5132454ef1908d69:0xcaf13805656c3940",
    "cid": "14623531060876294464",
    "reviewsCount": 22,
    "imagesCount": 9,
    "imageCategories": [],
    "scrapedAt": "2025-06-22T07:03:07.834Z",
    "googleFoodUrl": null,
    "hotelAds": [],
    "openingHours": [
      {
        "day": "Monday",
        "hours": "9\u202fAM to 6\u202fPM"
      },
      {
        "day": "Tuesday",
        "hours": "9\u202fAM to 6\u202fPM"
      },
      {
        "day": "Wednesday",
        "hours": "9\u202fAM to 6\u202fPM"
      },
      {
        "day": "Thursday",
        "hours": "9\u202fAM to 6\u202fPM"
      },
      {
        "day": "Friday",
        "hours": "9\u202fAM to 6\u202fPM"
      },
      {
        "day": "Saturday",
        "hours": "Closed"
      },
      {
        "day": "Sunday",
        "hours": "Closed"
      }
    ],
    "peopleAlsoSearch": [],
    "placesTags": [],
    "reviewsTags": [],
    "additionalInfo": {
      "From the business": [
        {
          "Small business": true
        }
      ],
      "Service options": [
        {
          "Curbside pickup": true
        },
        {
          "Delivery": true
        },
        {
          "In-store pickup": true
        },
        {
          "In-store shopping": true
        },
        {
          "Onsite services": true
        },
        {
          "Same-day delivery": true
        },
        {
          "English": true
        }
      ],
      "Accessibility": [
        {
          "Wheelchair accessible entrance": true
        },
        {
          "Wheelchair accessible parking lot": true
        }
      ],
      "Planning": [
        {
          "Quick visit": true
        }
      ],
      "Payments": [
        {
          "Checks": true
        },
        {
          "Credit cards": true
        },
        {
          "Debit cards": true
        },
        {
          "NFC mobile payments": true
        },
        {
          "Credit cards": true
        }
      ]
    },
    "gasPrices": [],
    "url": "https://www.google.com/maps/search/?api=1&query=Alaska%20Family%20Pharmacy%20(Tanana%20Valley%20Clinic)&query_place_id=ChIJaY2Q8U5FMlERQDlsZQU48co",
    "searchPageUrl": "https://www.google.com/maps/search/independent%20pharmacy%20Juneau%20AK/@65.04310121365691,-146.20571705729628,9z?hl=en",
    "searchString": "independent pharmacy Juneau AK",
    "language": "en",
    "rank": 3,
    "isAdvertisement": false,
    "imageUrl": "https://lh3.googleusercontent.com/gps-cs-s/AC9h4nrpqM7B2gXnBFK6GBt2QeCZ5bJEZJuklw4kFfrLHxOIv5bZdnHsZou_Ddf6cL_UkIhzP7q6jq-aWCJ2XZxbJKApcb5df_DdOIuWoX5x-ALWYRM_bHWxHE0NUWymOun6uPWhcJRa6A=w408-h544-k-no",
    "kgmid": "/g/1tmz6l0f",
    "classification": "independent",
    "is_independent": true,
    "is_compounding": false,
    "confidence": 0.9,
    "source": "perplexity",
    "method": "llm"
  },
  {
    "title": "Stikine Drug",
    "price": null,
    "categoryName": "Pharmacy",
    "address": "202 Front St, Wrangell, AK 99929",
    "neighborhood": null,
    "street": "202 Front St",
    "city": "Wrangell",
    "postalCode": "99929",
    "state": "Alaska",
    "countryCode": "US",
    "website": "https://www.stikinedrug.com/",
    "phone": "(907) 874-3422",
    "phoneUnformatted": "+19078743422",
    "claimThisBusiness": false,
    "location": {
      "lat": 56.4716749,
      "lng": -132.3841176
    },
    "totalScore": 3.8,
    "permanentlyClosed": false,
    "temporarilyClosed": false,
    "placeId": null,
    "categories": [
      "Pharmacy"
    ],
    "fid": "0x5408ca36deda6b49:0xc0e29b2ec02a6a1e",
    "cid": "13898842025113578014",
    "reviewsCount": 10,
    "imagesCount": 6,
    "imageCategories": [],
    "scrapedAt": "2025-06-22T07:03:22.775Z",
    "googleFoodUrl": null,
    "hotelAds": [],
    "openingHours": [
      {
        "day": "Monday",
        "hours": "11\u202fAM to 5\u202fPM"
      },
      {
        "day": "Tuesday",
        "hours": "11\u202fAM to 5\u202fPM"
      },
      {
        "day": "Wednesday",
        "hours": "11\u202fAM to 5\u202fPM"
      },
      {
        "day": "Thursday",
        "hours": "11\u202fAM to 5\u202fPM"
      },
      {
        "day": "Friday",
        "hours": "11\u202fAM to 5\u202fPM"
      },
      {
        "day": "Saturday",
        "hours": "11\u202fAM to 4\u202fPM"
      },
      {
        "day": "Sunday",
        "hours": "Closed"
      }
    ],
    "peopleAlsoSearch": [],
    "placesTags": [],
    "reviewsTags": [],
    "additionalInfo": {
      "Accessibility": [
        {
          "Wheelchair accessible entrance": true
        },
        {
          "Wheelchair accessible parking lot": true
        }
      ],
      "Planning": [
        {
          "Quick visit": true
        }
      ],
      "Payments": [
        {
          "Credit cards": true
        },
        {
          "Debit cards": true
        },
        {
          "NFC mobile payments": true
        },
        {
          "Credit cards": true
        }
      ]
    },
    "gasPrices": [],
    "url": "https://www.google.com/maps/search/?api=1&query=Stikine%20Drug&query_place_id=ChIJSWva3jbKCFQRHmoqwC6b4sA",
    "searchPageUrl": "https://www.google.com/maps/search/independent%20pharmacy%20Juneau%20AK/@56.705968377238506,-132.3961292291849,9z?hl=en",
    "searchString": "independent pharmacy Juneau AK",
    "language": "en",
    "rank": 1,
    "isAdvertisement": false,
    "imageUrl": "https://lh3.googleusercontent.com/gps-cs-s/AC9h4nqlLsgoTNUJcy7WyT5xFT422oCKIXlAK8beSumC44Wq8LOliNtoAoTSv7Jg5SpDJ8_RWksMz3-pKv9QUBRbBXVRzCAbVYEgAJxR-PHMoZI6h_oSXuMEggEY4omMEnuihM6m28dGgQ=w408-h306-k-no",
    "kgmid": "/g/1txy209h",
    "classification": "independent",
    "is_independent": true,
    "is_compounding": false,
    "confidence": 0.9,
    "source": "perplexity",
    "method": "llm"
  },
  {
    "title": "Petersburg Rexall Drug",
    "price": null,
    "categoryName": "Pharmacy",
    "address": "215 N Nordic Dr, Petersburg, AK 99833",
    "neighborhood": null,
    "street": "215 N Nordic Dr",
    "city": "Petersburg",
    "postalCode": "99833",
    "state": "Alaska",
    "countryCode": "US",
    "website": "https://www.petersburgrexalldrug.com/",
    "phone": "(907) 772-3265",
    "phoneUnformatted": "+19077723265",
    "claimThisBusiness": false,
    "location": {
      "lat": 56.8128603,
      "lng": -132.9577762
    },
    "totalScore": 5,
    "permanentlyClosed": false,
    "temporarilyClosed": false,
    "placeId": null,
    "categories": [
      "Pharmacy"
    ],
    "fid": "0x5406038d6f8b20c1:0x869a21af7d130799",
    "cid": "9699101785097176985",
    "reviewsCount": 4,
    "imagesCount": 1,
    "imageCategories": [],
    "scrapedAt": "2025-06-22T07:03:22.775Z",
    "googleFoodUrl": null,
    "hotelAds": [],
    "openingHours": [
      {
        "day": "Monday",
        "hours": "9:30\u202fAM to 5:30\u202fPM"
      },
      {
        "day": "Tuesday",
        "hours": "9:30\u202fAM to 5:30\u202fPM"
      },
      {
        "day": "Wednesday",
        "hours": "9:30\u202fAM to 5:30\u202fPM"
      },
      {
        "day": "Thursday",
        "hours": "9:30\u202fAM to 5:30\u202fPM"
      },
      {
        "day": "Friday",
        "hours": "9:30\u202fAM to 5:30\u202fPM"
      },
      {
        "day": "Saturday",
        "hours": "9:30\u202fAM to 5\u202fPM"
      },
      {
        "day": "Sunday",
        "hours": "Closed"
      }
    ],
    "peopleAlsoSearch": [],
    "placesTags": [],
    "reviewsTags": [],
    "additionalInfo": {
      "From the business": [
        {
          "Small business": true
        }
      ],
      "Accessibility": [
        {
          "Wheelchair accessible parking lot": true
        }
      ],
      "Payments": [
        {
          "Debit cards": true
        },
        {
          "NFC mobile payments": true
        },
        {
          "Credit cards": true
        }
      ]
    },
    "gasPrices": [],
    "url": "https://www.google.com/maps/search/?api=1&query=Petersburg%20Rexall%20Drug&query_place_id=ChIJwSCLb40DBlQRmQcTfa8hmoY",
    "searchPageUrl": "https://www.google.com/maps/search/independent%20pharmacy%20Juneau%20AK/@56.705968377238506,-132.3961292291849,9z?hl=en",
    "searchString": "independent pharmacy Juneau AK",
    "language": "en",
    "rank": 2,
    "isAdvertisement": false,
    "imageUrl": "https://streetviewpixels-pa.googleapis.com/v1/thumbnail?panoid=yE1eRRyXRIyZ-i_7Cwx5Cw&cb_client=search.gws-prod.gps&w=408&h=240&yaw=261.1552&pitch=0&thumbfov=100",
    "kgmid": "/g/1tt1gxct",
    "classification": "independent",
    "is_independent": true,
    "is_compounding": false,
    "confidence": 0.9,
    "source": "perplexity",
    "method": "llm"
  },
  {
    "title": "Harry Race Pharmacy",
    "price": null,
    "categoryName": "Pharmacy",
    "address": "106 Lincoln St, Sitka, AK 99835, United States",
    "neighborhood": null,
    "street": "106 Lincoln St",
    "city": "Sitka",
    "postalCode": "99835",
    "state": "Alaska",
    "countryCode": "US",
    "website": "http://www.sitkapharmacies.com/",
    "phone": "+1 907-313-6750",
    "phoneUnformatted": "+19073136750",
    "claimThisBusiness": false,
    "location": {
      "lat": 57.0491652,
      "lng": -135.3382225
    },
    "totalScore": 4.5,
    "permanentlyClosed": false,
    "temporarilyClosed": false,
    "placeId": null,
    "categories": [
      "Pharmacy",
      "Cosmetics store",
      "Drug store",
      "Ice cream shop",
      "Photo lab",
      "Photo shop",
      "Snack bar",
      "Souvenir store"
    ],
    "fid": "0x540467a363616bf9:0x8d657a0de432947b",
    "cid": "10188683932077298811",
    "reviewsCount": 58,
    "imagesCount": 34,
    "imageCategories": [],
    "scrapedAt": "2025-06-22T07:03:28.513Z",
    "googleFoodUrl": null,
    "hotelAds": [],
    "openingHours": [
      {
        "day": "Monday",
        "hours": "9\u202fAM to 6\u202fPM"
      },
      {
        "day": "Tuesday",
        "hours": "9\u202fAM to 6\u202fPM"
      },
      {
        "day": "Wednesday",
        "hours": "9\u202fAM to 6\u202fPM"
      },
      {
        "day": "Thursday",
        "hours": "9\u202fAM to 6\u202fPM"
      },
      {
        "day": "Friday",
        "hours": "9\u202fAM to 6\u202fPM"
      },
      {
        "day": "Saturday",
        "hours": "9\u202fAM to 5\u202fPM"
      },
      {
        "day": "Sunday",
        "hours": "1 to 5\u202fPM"
      }
    ],
    "additionalOpeningHours": {
      "Pickup": [
        {
          "day": "Monday",
          "hours": "9\u202fam\u20136\u202fpm"
        },
        {
          "day": "Tuesday",
          "hours": "9\u202fam\u20136\u202fpm"
        },
        {
          "day": "Wednesday",
          "hours": "9\u202fam\u20136\u202fpm"
        },
        {
          "day": "Thursday",
          "hours": "9\u202fam\u20136\u202fpm"
        },
        {
          "day": "Friday",
          "hours": "9\u202fam\u20136\u202fpm"
        },
        {
          "day": "Saturday",
          "hours": "9\u202fam\u20135\u202fpm"
        },
        {
          "day": "Sunday",
          "hours": "1\u20135\u202fpm"
        }
      ],
      "Delivery": [
        {
          "day": "Monday",
          "hours": "9\u202fam\u20136\u202fpm"
        },
        {
          "day": "Tuesday",
          "hours": "Closed"
        },
        {
          "day": "Wednesday",
          "hours": "9\u202fam\u20136\u202fpm"
        },
        {
          "day": "Thursday",
          "hours": "Closed"
        },
        {
          "day": "Friday",
          "hours": "9\u202fam\u20136\u202fpm"
        },
        {
          "day": "Saturday",
          "hours": "Closed"
        },
        {
          "day": "Sunday",
          "hours": "Closed"
        }
      ]
    },
    "peopleAlsoSearch": [],
    "placesTags": [],
    "reviewsTags": [],
    "additionalInfo": {
      "Service options": [
        {
          "Kerbside pickup": true
        },
        {
          "Delivery": true
        },
        {
          "In-store pick-up": true
        },
        {
          "In-store shopping": true
        },
        {
          "On-site services": true
        }
      ],
      "Accessibility": [
        {
          "Wheelchair-accessible car park": true
        },
        {
          "Wheelchair-accessible entrance": true
        }
      ],
      "Offerings": [
        {
          "Passport photos": true
        }
      ],
      "Planning": [
        {
          "Quick visit": true
        }
      ],
      "Payments": [
        {
          "Cheques": true
        },
        {
          "Credit cards": true
        },
        {
          "Debit cards": true
        },
        {
          "NFC mobile payments": true
        },
        {
          "Credit cards": true
        }
      ],
      "Parking": [
        {
          "Free of charge street parking": true
        },
        {
          "Free parking lot": true
        }
      ]
    },
    "gasPrices": [],
    "url": "https://www.google.com/maps/search/?api=1&query=Harry%20Race%20Pharmacy&query_place_id=ChIJ-WthY6NnBFQRe5Qy5A16ZY0",
    "searchPageUrl": "https://www.google.com/maps/search/independent%20pharmacy%20Juneau%20AK/@56.705968377238506,-135.84852618621275,9z?hl=en",
    "searchString": "independent pharmacy Juneau AK",
    "language": "en",
    "rank": 1,
    "isAdvertisement": false,
    "imageUrl": "https://lh3.googleusercontent.com/gps-cs-s/AC9h4nozuRCIlOgp2glhsX4ASMsMBlb6PkTpTEwc86Jfbfa8v_DdBnrnLebIdXgPYEGuZxiKgVLPo8lAI3ZWz0R4PUMX9uJafBVEG3_fvWmbCpAKhllw3dhE7KSyI8emxo5Mkw79i8M=w493-h240-k-no",
    "kgmid": "/g/1thpwj97",
    "classification": "independent",
    "is_independent": true,
    "is_compounding": false,
    "confidence": 0.9,
    "source": "perplexity",
    "method": "llm"
  },
  {
    "title": "White's Pharmacy",
    "price": null,
    "categoryName": "Pharmacy",
    "address": "705 Halibut Point Rd, Sitka, AK 99835, United States",
    "neighborhood": null,
    "street": "705 Halibut Point Rd",
    "city": "Sitka",
    "postalCode": "99835",
    "state": "Alaska",
    "countryCode": "US",
    "website": "https://www.sitkapharmacies.com/whites-pharmacy",
    "phone": "+1 907-313-6881",
    "phoneUnformatted": "+19073136881",
    "claimThisBusiness": false,
    "location": {
      "lat": 57.0569543,
      "lng": -135.3461305
    },
    "totalScore": 4.6,
    "permanentlyClosed": false,
    "temporarilyClosed": false,
    "placeId": null,
    "categories": [
      "Pharmacy",
      "Drug store"
    ],
    "fid": "0x540467b1752004ff:0x4049e959e5797985",
    "cid": "4632490264038570373",
    "reviewsCount": 8,
    "imagesCount": 5,
    "imageCategories": [],
    "scrapedAt": "2025-06-22T07:03:28.514Z",
    "googleFoodUrl": null,
    "hotelAds": [],
    "openingHours": [
      {
        "day": "Monday",
        "hours": "9:30\u202fAM to 5:30\u202fPM"
      },
      {
        "day": "Tuesday",
        "hours": "9:30\u202fAM to 5:30\u202fPM"
      },
      {
        "day": "Wednesday",
        "hours": "9:30\u202fAM to 5:30\u202fPM"
      },
      {
        "day": "Thursday",
        "hours": "9:30\u202fAM to 5:30\u202fPM"
      },
      {
        "day": "Friday",
        "hours": "9:30\u202fAM to 5:30\u202fPM"
      },
      {
        "day": "Saturday",
        "hours": "Closed"
      },
      {
        "day": "Sunday",
        "hours": "Closed"
      }
    ],
    "additionalOpeningHours": {
      "Delivery": [
        {
          "day": "Monday",
          "hours": "9:30\u202fam\u20135:30\u202fpm"
        },
        {
          "day": "Tuesday",
          "hours": "Closed"
        },
        {
          "day": "Wednesday",
          "hours": "9:30\u202fam\u20135:30\u202fpm"
        },
        {
          "day": "Thursday",
          "hours": "Closed"
        },
        {
          "day": "Friday",
          "hours": "9:30\u202fam\u20135:30\u202fpm"
        },
        {
          "day": "Saturday",
          "hours": "Closed"
        },
        {
          "day": "Sunday",
          "hours": "Closed"
        }
      ]
    },
    "peopleAlsoSearch": [],
    "placesTags": [],
    "reviewsTags": [],
    "additionalInfo": {
      "Service options": [
        {
          "Delivery": true
        },
        {
          "In-store shopping": true
        }
      ],
      "Accessibility": [
        {
          "Wheelchair-accessible car park": true
        },
        {
          "Wheelchair-accessible entrance": true
        }
      ],
      "Planning": [
        {
          "Quick visit": true
        }
      ],
      "Payments": [
        {
          "Cheques": true
        },
        {
          "Credit cards": true
        },
        {
          "Debit cards": true
        },
        {
          "NFC mobile payments": true
        },
        {
          "Credit cards": true
        }
      ]
    },
    "gasPrices": [],
    "url": "https://www.google.com/maps/search/?api=1&query=White's%20Pharmacy&query_place_id=ChIJ_wQgdbFnBFQRhXl55VnpSUA",
    "searchPageUrl": "https://www.google.com/maps/search/independent%20pharmacy%20Juneau%20AK/@56.705968377238506,-135.84852618621275,9z?hl=en",
    "searchString": "independent pharmacy Juneau AK",
    "language": "en",
    "rank": 4,
    "isAdvertisement": false,
    "imageUrl": "https://lh3.googleusercontent.com/p/AF1QipNWMhdLsC_Zquh-Rx2RCxiaQNtGFZGwC19jrrhN=w408-h306-k-no",
    "kgmid": "/g/1tdwdmcc",
    "classification": "independent",
    "is_independent": true,
    "is_compounding": false,
    "confidence": 0.9,
    "source": "perplexity",
    "method": "llm"
  }
]