[
  {
    "title": "Hart Pharmacy",
    "price": null,
    "categoryName": "Pharmacy",
    "address": "4861 Glenway Ave, Cincinnati, OH 45238",
    "neighborhood": "West Price Hill",
    "street": "4861 Glenway Ave",
    "city": "Cincinnati",
    "postalCode": "45238",
    "state": "Ohio",
    "countryCode": "US",
    "website": "http://hartpharmacyoh.com/",
    "phone": "(513) 471-1605",
    "phoneUnformatted": "+15134711605",
    "claimThisBusiness": false,
    "location": {
      "lat": 39.1182258,
      "lng": -84.5991196
    },
    "totalScore": 4.8,
    "permanentlyClosed": false,
    "temporarilyClosed": false,
    "placeId": null,
    "categories": [
      "Pharmacy"
    ],
    "fid": "0x8841b5fb8f20b91b:0xb1a27ed5dd9c3b9a",
    "cid": "12799932547951508378",
    "reviewsCount": 51,
    "imagesCount": 9,
    "imageCategories": [],
    "scrapedAt": "2025-06-22T06:23:04.815Z",
    "googleFoodUrl": null,
    "hotelAds": [],
    "openingHours": [
      {
        "day": "Monday",
        "hours": "9\u202fAM to 7\u202fPM"
      },
      {
        "day": "Tuesday",
        "hours": "9\u202fAM to 7\u202fPM"
      },
      {
        "day": "Wednesday",
        "hours": "9\u202fAM to 7\u202fPM"
      },
      {
        "day": "Thursday",
        "hours": "9\u202fAM to 7\u202fPM"
      },
      {
        "day": "Friday",
        "hours": "9\u202fAM to 7\u202fPM"
      },
      {
        "day": "Saturday",
        "hours": "9\u202fAM to 4\u202fPM"
      },
      {
        "day": "Sunday",
        "hours": "Closed"
      }
    ],
    "peopleAlsoSearch": [],
    "placesTags": [],
    "reviewsTags": [],
    "additionalInfo": {
      "From the business": [
        {
          "Identifies as women-owned": true
        },
        {
          "Small business": true
        }
      ],
      "Service options": [
        {
          "Curbside pickup": true
        },
        {
          "Delivery": true
        },
        {
          "In-store pickup": true
        },
        {
          "In-store shopping": true
        },
        {
          "Same-day delivery": true
        }
      ],
      "Accessibility": [
        {
          "Wheelchair accessible entrance": true
        },
        {
          "Wheelchair accessible parking lot": true
        }
      ],
      "Planning": [
        {
          "Quick visit": true
        }
      ],
      "Payments": [
        {
          "Credit cards": true
        },
        {
          "Debit cards": true
        },
        {
          "Credit cards": true
        }
      ]
    },
    "gasPrices": [],
    "url": "https://www.google.com/maps/search/?api=1&query=Hart%20Pharmacy&query_place_id=ChIJG7kgj_u1QYgRmjuc3dV-orE",
    "searchPageUrl": "https://www.google.com/maps/search/independent%20pharmacy%20Cincinnati%20OH/@51.9240985376484,-179.97595653707245,14z?hl=en",
    "searchString": "independent pharmacy Cincinnati OH",
    "language": "en",
    "rank": 1,
    "isAdvertisement": false,
    "imageUrl": "https://lh3.googleusercontent.com/p/AF1QipNkhg2lQrFJyfhYE6F9YYAeoHsLWEkbJSsgy2QQ=w408-h306-k-no",
    "kgmid": "/g/1tks6_cb",
    "classification": "independent",
    "is_independent": true,
    "is_compounding": false,
    "confidence": 0.9,
    "source": "perplexity",
    "method": "llm"
  },
  {
    "title": "Rohe Pharmacy Inc",
    "price": null,
    "categoryName": "Pharmacy",
    "address": "4047 Harrison Ave, Cincinnati, OH 45211",
    "neighborhood": null,
    "street": "4047 Harrison Ave",
    "city": "Cincinnati",
    "postalCode": "45211",
    "state": "Ohio",
    "countryCode": "US",
    "phone": "(513) 661-0480",
    "phoneUnformatted": "+15136610480",
    "claimThisBusiness": false,
    "location": {
      "lat": 39.1574797,
      "lng": -84.6166899
    },
    "totalScore": 4.9,
    "permanentlyClosed": false,
    "temporarilyClosed": false,
    "placeId": null,
    "categories": [
      "Pharmacy"
    ],
    "fid": "0x8841ca887fb4a4a9:0xad5ba28455183344",
    "cid": "12491756680689234756",
    "reviewsCount": 35,
    "imagesCount": 1,
    "imageCategories": [],
    "scrapedAt": "2025-06-22T06:23:04.816Z",
    "googleFoodUrl": null,
    "hotelAds": [],
    "openingHours": [
      {
        "day": "Monday",
        "hours": "9\u202fAM to 7\u202fPM"
      },
      {
        "day": "Tuesday",
        "hours": "9\u202fAM to 7\u202fPM"
      },
      {
        "day": "Wednesday",
        "hours": "9\u202fAM to 7\u202fPM"
      },
      {
        "day": "Thursday",
        "hours": "9\u202fAM to 7\u202fPM"
      },
      {
        "day": "Friday",
        "hours": "9\u202fAM to 7\u202fPM"
      },
      {
        "day": "Saturday",
        "hours": "9\u202fAM to 3\u202fPM"
      },
      {
        "day": "Sunday",
        "hours": "10\u202fAM to 2\u202fPM"
      }
    ],
    "peopleAlsoSearch": [],
    "placesTags": [],
    "reviewsTags": [],
    "additionalInfo": {
      "From the business": [
        {
          "Small business": true
        }
      ],
      "Service options": [
        {
          "Curbside pickup": true
        },
        {
          "Delivery": true
        },
        {
          "In-store pickup": true
        },
        {
          "In-store shopping": true
        },
        {
          "Same-day delivery": true
        }
      ],
      "Accessibility": [
        {
          "Wheelchair accessible entrance": true
        },
        {
          "Wheelchair accessible parking lot": true
        }
      ],
      "Planning": [
        {
          "Quick visit": true
        }
      ],
      "Payments": [
        {
          "Credit cards": true
        },
        {
          "Debit cards": true
        },
        {
          "NFC mobile payments": true
        },
        {
          "Credit cards": true
        }
      ]
    },
    "gasPrices": [],
    "url": "https://www.google.com/maps/search/?api=1&query=Rohe%20Pharmacy%20Inc&query_place_id=ChIJqaS0f4jKQYgRRDMYVYSiW60",
    "searchPageUrl": "https://www.google.com/maps/search/independent%20pharmacy%20Cincinnati%20OH/@51.9240985376484,-179.97595653707245,14z?hl=en",
    "searchString": "independent pharmacy Cincinnati OH",
    "language": "en",
    "rank": 2,
    "isAdvertisement": false,
    "imageUrl": "https://streetviewpixels-pa.googleapis.com/v1/thumbnail?panoid=S1P5BJcnKNb6wbdNng3dUQ&cb_client=search.gws-prod.gps&w=408&h=240&yaw=253.05312&pitch=0&thumbfov=100",
    "kgmid": "/g/1tg6wcpm",
    "classification": "independent",
    "is_independent": true,
    "is_compounding": false,
    "confidence": 0.9,
    "source": "perplexity",
    "method": "llm"
  },
  {
    "title": "Roselawn Pharmacy",
    "price": null,
    "categoryName": "Pharmacy",
    "address": "7601 Reading Rd, Cincinnati, OH 45237",
    "neighborhood": "Roselawn",
    "street": "7601 Reading Rd",
    "city": "Cincinnati",
    "postalCode": "45237",
    "state": "Ohio",
    "countryCode": "US",
    "website": "http://www.roselawnpharmacy.com/",
    "phone": "(513) 761-1212",
    "phoneUnformatted": "+15137611212",
    "claimThisBusiness": false,
    "location": {
      "lat": 39.1991005,
      "lng": -84.4581146
    },
    "totalScore": 4.7,
    "permanentlyClosed": false,
    "temporarilyClosed": false,
    "placeId": null,
    "categories": [
      "Pharmacy"
    ],
    "fid": "0x88404d4872569ea7:0xcbb4e7d1daa55e0b",
    "cid": "14678611974009740811",
    "reviewsCount": 47,
    "imagesCount": 9,
    "imageCategories": [],
    "scrapedAt": "2025-06-22T06:23:04.817Z",
    "googleFoodUrl": null,
    "hotelAds": [],
    "openingHours": [
      {
        "day": "Monday",
        "hours": "8:30\u202fAM to 7\u202fPM"
      },
      {
        "day": "Tuesday",
        "hours": "8:30\u202fAM to 7\u202fPM"
      },
      {
        "day": "Wednesday",
        "hours": "8:30\u202fAM to 7\u202fPM"
      },
      {
        "day": "Thursday",
        "hours": "8:30\u202fAM to 7\u202fPM"
      },
      {
        "day": "Friday",
        "hours": "8:30\u202fAM to 7\u202fPM"
      },
      {
        "day": "Saturday",
        "hours": "9\u202fAM to 2\u202fPM"
      },
      {
        "day": "Sunday",
        "hours": "Closed"
      }
    ],
    "peopleAlsoSearch": [],
    "placesTags": [],
    "reviewsTags": [],
    "additionalInfo": {
      "From the business": [
        {
          "Small business": true
        }
      ],
      "Service options": [
        {
          "Delivery": true
        },
        {
          "Drive-through": true
        },
        {
          "In-store pickup": true
        },
        {
          "In-store shopping": true
        },
        {
          "Onsite services": true
        },
        {
          "Same-day delivery": true
        }
      ],
      "Accessibility": [
        {
          "Wheelchair accessible entrance": true
        },
        {
          "Wheelchair accessible parking lot": true
        }
      ],
      "Planning": [
        {
          "Quick visit": true
        }
      ],
      "Payments": [
        {
          "Credit cards": true
        },
        {
          "Debit cards": true
        },
        {
          "NFC mobile payments": true
        },
        {
          "Credit cards": true
        }
      ]
    },
    "gasPrices": [],
    "url": "https://www.google.com/maps/search/?api=1&query=Roselawn%20Pharmacy&query_place_id=ChIJp55WckhNQIgRC16l2tHntMs",
    "searchPageUrl": "https://www.google.com/maps/search/independent%20pharmacy%20Cincinnati%20OH/@51.9240985376484,-179.97595653707245,14z?hl=en",
    "searchString": "independent pharmacy Cincinnati OH",
    "language": "en",
    "rank": 3,
    "isAdvertisement": false,
    "imageUrl": "https://lh3.googleusercontent.com/p/AF1QipP0xbsne1SGt9yho6bJJvAulwfytam5Gnjt0Iem=w408-h306-k-no",
    "kgmid": "/g/1txy304y",
    "classification": "independent",
    "is_independent": true,
    "is_compounding": false,
    "confidence": 0.9,
    "source": "perplexity",
    "method": "llm"
  },
  {
    "title": "Altev Community Pharmacy",
    "price": null,
    "categoryName": "Pharmacy",
    "address": "3559 Reading Rd Suite 104, Cincinnati, OH 45229",
    "neighborhood": "Avondale",
    "street": "3559 Reading Rd Suite 104",
    "city": "Cincinnati",
    "postalCode": "45229",
    "state": "Ohio",
    "countryCode": "US",
    "website": "https://www.altevrx.com/",
    "phone": "(513) 776-4580",
    "phoneUnformatted": "+15137764580",
    "claimThisBusiness": false,
    "location": {
      "lat": 39.1466683,
      "lng": -84.4899538
    },
    "totalScore": 5,
    "permanentlyClosed": false,
    "temporarilyClosed": false,
    "placeId": null,
    "categories": [
      "Pharmacy"
    ],
    "fid": "0x8841b3e6b3728199:0xfac29f5f5fa26e59",
    "cid": "18069179886939041369",
    "reviewsCount": 26,
    "imagesCount": 3,
    "imageCategories": [],
    "scrapedAt": "2025-06-22T06:23:04.817Z",
    "googleFoodUrl": null,
    "hotelAds": [],
    "openingHours": [
      {
        "day": "Monday",
        "hours": "9\u202fAM to 6\u202fPM"
      },
      {
        "day": "Tuesday",
        "hours": "9\u202fAM to 6\u202fPM"
      },
      {
        "day": "Wednesday",
        "hours": "9\u202fAM to 6\u202fPM"
      },
      {
        "day": "Thursday",
        "hours": "9\u202fAM to 6\u202fPM"
      },
      {
        "day": "Friday",
        "hours": "9\u202fAM to 6\u202fPM"
      },
      {
        "day": "Saturday",
        "hours": "10\u202fAM to 2\u202fPM"
      },
      {
        "day": "Sunday",
        "hours": "Closed"
      }
    ],
    "peopleAlsoSearch": [],
    "placesTags": [],
    "reviewsTags": [],
    "additionalInfo": {
      "Service options": [
        {
          "Delivery": true
        },
        {
          "Onsite services": true
        }
      ],
      "Accessibility": [
        {
          "Wheelchair accessible parking lot": true
        }
      ],
      "Payments": [
        {
          "Credit cards": true
        },
        {
          "Debit cards": true
        },
        {
          "NFC mobile payments": true
        },
        {
          "Credit cards": true
        }
      ]
    },
    "gasPrices": [],
    "url": "https://www.google.com/maps/search/?api=1&query=Altev%20Community%20Pharmacy&query_place_id=ChIJmYFys-azQYgRWW6iX1-fwvo",
    "searchPageUrl": "https://www.google.com/maps/search/independent%20pharmacy%20Cincinnati%20OH/@51.9240985376484,-179.97595653707245,14z?hl=en",
    "searchString": "independent pharmacy Cincinnati OH",
    "language": "en",
    "rank": 4,
    "isAdvertisement": false,
    "imageUrl": "https://streetviewpixels-pa.googleapis.com/v1/thumbnail?panoid=CXZvP3qsz29eEiAulsMlZQ&cb_client=search.gws-prod.gps&w=408&h=240&yaw=301.51776&pitch=0&thumbfov=100",
    "kgmid": "/g/11vjgy447l",
    "classification": "independent",
    "is_independent": true,
    "is_compounding": false,
    "confidence": 0.9,
    "source": "perplexity",
    "method": "llm"
  },
  {
    "title": "Equitas Health Cincinnati Pharmacy",
    "price": null,
    "categoryName": "Pharmacy",
    "address": "2805 Gilbert Ave, Cincinnati, OH 45206",
    "neighborhood": "Walnut Hills",
    "street": "2805 Gilbert Ave",
    "city": "Cincinnati",
    "postalCode": "45206",
    "state": "Ohio",
    "countryCode": "US",
    "website": "https://equitashealth.com/locations/cincinnati-medical-center/",
    "phone": "(513) 978-5858",
    "phoneUnformatted": "+15139785858",
    "claimThisBusiness": false,
    "location": {
      "lat": 39.1300167,
      "lng": -84.4888457
    },
    "totalScore": 4.9,
    "permanentlyClosed": false,
    "temporarilyClosed": false,
    "placeId": null,
    "categories": [
      "Pharmacy"
    ],
    "fid": "0x8841b379f7a3dee3:0xba9121047b935fe3",
    "cid": "13443562665814482915",
    "reviewsCount": 17,
    "imagesCount": 11,
    "imageCategories": [],
    "scrapedAt": "2025-06-22T06:23:04.817Z",
    "googleFoodUrl": null,
    "hotelAds": [],
    "openingHours": [
      {
        "day": "Monday",
        "hours": "8\u202fAM to 6:30\u202fPM"
      },
      {
        "day": "Tuesday",
        "hours": "8\u202fAM to 6:30\u202fPM"
      },
      {
        "day": "Wednesday",
        "hours": "8\u202fAM to 6:30\u202fPM"
      },
      {
        "day": "Thursday",
        "hours": "8\u202fAM to 6:30\u202fPM"
      },
      {
        "day": "Friday",
        "hours": "8\u202fAM to 6:30\u202fPM"
      },
      {
        "day": "Saturday",
        "hours": "9\u202fAM to 1\u202fPM"
      },
      {
        "day": "Sunday",
        "hours": "Closed"
      }
    ],
    "peopleAlsoSearch": [],
    "placesTags": [],
    "reviewsTags": [],
    "additionalInfo": {
      "Service options": [
        {
          "In-store shopping": true
        }
      ],
      "Accessibility": [
        {
          "Wheelchair accessible entrance": true
        },
        {
          "Wheelchair accessible parking lot": true
        },
        {
          "Wheelchair accessible restroom": true
        },
        {
          "Wheelchair accessible seating": true
        }
      ],
      "Payments": [
        {
          "Credit cards": true
        },
        {
          "Debit cards": true
        },
        {
          "NFC mobile payments": true
        },
        {
          "SNAP/EBT": true
        },
        {
          "Credit cards": true
        }
      ]
    },
    "gasPrices": [],
    "url": "https://www.google.com/maps/search/?api=1&query=Equitas%20Health%20Cincinnati%20Pharmacy&query_place_id=ChIJ496j93mzQYgR41-TewQhkbo",
    "searchPageUrl": "https://www.google.com/maps/search/independent%20pharmacy%20Cincinnati%20OH/@51.9240985376484,-179.97595653707245,14z?hl=en",
    "searchString": "independent pharmacy Cincinnati OH",
    "language": "en",
    "rank": 5,
    "isAdvertisement": false,
    "imageUrl": "https://lh3.googleusercontent.com/p/AF1QipOGrDpEPVbvWz_9-2RBS3rGnzzo-8YUV1zuV1jH=w426-h240-k-no",
    "kgmid": "/g/11jgtcxs0y",
    "classification": "independent",
    "is_independent": true,
    "is_compounding": false,
    "confidence": 0.9,
    "source": "perplexity",
    "method": "llm"
  },
  {
    "title": "Adrien Pharmacy",
    "price": null,
    "categoryName": "Pharmacy",
    "address": "7023 Miami Ave, Cincinnati, OH 45243",
    "neighborhood": null,
    "street": "7023 Miami Ave",
    "city": "Cincinnati",
    "postalCode": "45243",
    "state": "Ohio",
    "countryCode": "US",
    "website": "https://www.mygnp.com/pharmacies/adrien-pharmacy-cincinnati-oh-45243/?utm_source=google&utm_medium=local&utm_campaign=localmaps&utm_content=3612113",
    "phone": "(513) 561-7700",
    "phoneUnformatted": "+15135617700",
    "claimThisBusiness": false,
    "location": {
      "lat": 39.1888147,
      "lng": -84.3635348
    },
    "totalScore": 4.7,
    "permanentlyClosed": false,
    "temporarilyClosed": false,
    "placeId": null,
    "categories": [
      "Pharmacy",
      "Drug store"
    ],
    "fid": "0x88405352162101a9:0x7ad1da90a5176274",
    "cid": "8850095057539654260",
    "reviewsCount": 46,
    "imagesCount": 3,
    "imageCategories": [],
    "scrapedAt": "2025-06-22T06:23:04.817Z",
    "googleFoodUrl": null,
    "hotelAds": [],
    "openingHours": [
      {
        "day": "Monday",
        "hours": "9\u202fAM to 9\u202fPM"
      },
      {
        "day": "Tuesday",
        "hours": "9\u202fAM to 9\u202fPM"
      },
      {
        "day": "Wednesday",
        "hours": "9\u202fAM to 9\u202fPM"
      },
      {
        "day": "Thursday",
        "hours": "9\u202fAM to 9\u202fPM"
      },
      {
        "day": "Friday",
        "hours": "9\u202fAM to 9\u202fPM"
      },
      {
        "day": "Saturday",
        "hours": "9\u202fAM to 6\u202fPM"
      },
      {
        "day": "Sunday",
        "hours": "10\u202fAM to 3\u202fPM"
      }
    ],
    "peopleAlsoSearch": [],
    "placesTags": [],
    "reviewsTags": [],
    "additionalInfo": {
      "Service options": [
        {
          "Delivery": true
        },
        {
          "In-store pickup": true
        },
        {
          "In-store shopping": true
        },
        {
          "Onsite services": true
        }
      ],
      "Accessibility": [
        {
          "Wheelchair accessible entrance": true
        },
        {
          "Wheelchair accessible parking lot": true
        }
      ],
      "Planning": [
        {
          "Quick visit": true
        }
      ],
      "Payments": [
        {
          "Credit cards": true
        },
        {
          "Debit cards": true
        },
        {
          "NFC mobile payments": true
        },
        {
          "Credit cards": true
        }
      ]
    },
    "gasPrices": [],
    "url": "https://www.google.com/maps/search/?api=1&query=Adrien%20Pharmacy&query_place_id=ChIJqQEhFlJTQIgRdGIXpZDa0Xo",
    "searchPageUrl": "https://www.google.com/maps/search/independent%20pharmacy%20Cincinnati%20OH/@51.9240985376484,-179.97595653707245,14z?hl=en",
    "searchString": "independent pharmacy Cincinnati OH",
    "language": "en",
    "rank": 6,
    "isAdvertisement": false,
    "imageUrl": "https://lh3.googleusercontent.com/gps-cs-s/AC9h4npcRw9YUnYZsvPBidEIFKAIFPCiWUldCpRFc_reA1DlKwLyiAH_fJFGYstj4YJyB7Jv_EW2tEsI3Ly4k0ZpfCSywPYpWwREFMr8xw5sn9KbtUHWpYNuw9zPUhC37QSf9Z2XQqyx=w408-h306-k-no",
    "kgmid": "/g/1tht23ph",
    "classification": "independent",
    "is_independent": true,
    "is_compounding": false,
    "confidence": 0.9,
    "source": "perplexity",
    "method": "llm"
  },
  {
    "title": "Tischbein Pharmacy",
    "price": null,
    "categoryName": "Pharmacy",
    "address": "3500 Erie Ave, Cincinnati, OH 45208",
    "neighborhood": "Hyde Park",
    "street": "3500 Erie Ave",
    "city": "Cincinnati",
    "postalCode": "45208",
    "state": "Ohio",
    "countryCode": "US",
    "website": "https://stores.healthmart.com/tischbeinpharmacy/stores.aspx",
    "phone": "(513) 321-9282",
    "phoneUnformatted": "+15133219282",
    "claimThisBusiness": false,
    "location": {
      "lat": 39.1412612,
      "lng": -84.4191251
    },
    "totalScore": 4.3,
    "permanentlyClosed": false,
    "temporarilyClosed": false,
    "placeId": null,
    "categories": [
      "Pharmacy",
      "Drug store"
    ],
    "fid": "0x8841ad9f3b0775d1:0x4f2bc28b113d8057",
    "cid": "5704867255540351063",
    "reviewsCount": 30,
    "imagesCount": 2,
    "imageCategories": [],
    "scrapedAt": "2025-06-22T06:23:04.817Z",
    "googleFoodUrl": null,
    "hotelAds": [],
    "openingHours": [
      {
        "day": "Monday",
        "hours": "9\u202fAM to 7\u202fPM"
      },
      {
        "day": "Tuesday",
        "hours": "9\u202fAM to 7\u202fPM"
      },
      {
        "day": "Wednesday",
        "hours": "9\u202fAM to 7\u202fPM"
      },
      {
        "day": "Thursday",
        "hours": "9\u202fAM to 7\u202fPM"
      },
      {
        "day": "Friday",
        "hours": "9\u202fAM to 7\u202fPM"
      },
      {
        "day": "Saturday",
        "hours": "9\u202fAM to 4\u202fPM"
      },
      {
        "day": "Sunday",
        "hours": "10\u202fAM to 2\u202fPM"
      }
    ],
    "peopleAlsoSearch": [],
    "placesTags": [],
    "reviewsTags": [],
    "additionalInfo": {
      "From the business": [
        {
          "Small business": true
        }
      ],
      "Service options": [
        {
          "Delivery": true
        },
        {
          "In-store pickup": true
        },
        {
          "In-store shopping": true
        },
        {
          "Same-day delivery": true
        }
      ],
      "Accessibility": [
        {
          "Wheelchair accessible entrance": true
        },
        {
          "Wheelchair accessible restroom": false
        },
        {
          "Wheelchair accessible seating": false
        }
      ],
      "Planning": [
        {
          "Quick visit": true
        }
      ],
      "Payments": [
        {
          "Credit cards": true
        },
        {
          "Debit cards": true
        },
        {
          "NFC mobile payments": true
        },
        {
          "Credit cards": true
        }
      ]
    },
    "gasPrices": [],
    "url": "https://www.google.com/maps/search/?api=1&query=Tischbein%20Pharmacy&query_place_id=ChIJ0XUHO5-tQYgRV4A9EYvCK08",
    "searchPageUrl": "https://www.google.com/maps/search/independent%20pharmacy%20Cincinnati%20OH/@51.9240985376484,-179.97595653707245,14z?hl=en",
    "searchString": "independent pharmacy Cincinnati OH",
    "language": "en",
    "rank": 7,
    "isAdvertisement": false,
    "imageUrl": "https://lh3.googleusercontent.com/gps-cs-s/AC9h4nqW1dUFwJtSn3YxlLfOq3ph-Z8fspyJbX3WHYNsEaZ2AR90dQFxkb7kbeqOJtmzxWt6-vMD3YE1TmOyXOMAukIhkzHPfmGfBa29Nu4S3BsxVHUS03UAtVn5vewDmeh6HDqCGIeI=w408-h306-k-no",
    "kgmid": "/g/1tfbz45z",
    "classification": "independent",
    "is_independent": true,
    "is_compounding": false,
    "confidence": 0.9,
    "source": "perplexity",
    "method": "llm"
  },
  {
    "title": "Schaeper's Pharmacy Inc",
    "price": null,
    "categoryName": "Pharmacy",
    "address": "4187 Hamilton Ave, Cincinnati, OH 45223",
    "neighborhood": "Northside",
    "street": "4187 Hamilton Ave",
    "city": "Cincinnati",
    "postalCode": "45223",
    "state": "Ohio",
    "countryCode": "US",
    "website": "https://www.schaeperspharmacy.com/",
    "phone": "(513) 541-0354",
    "phoneUnformatted": "+15135410354",
    "claimThisBusiness": false,
    "location": {
      "lat": 39.1631945,
      "lng": -84.5402632
    },
    "totalScore": 4.8,
    "permanentlyClosed": false,
    "temporarilyClosed": false,
    "placeId": null,
    "categories": [
      "Pharmacy"
    ],
    "fid": "0x8841b492689b9303:0xa5b77ea62f2c1a80",
    "cid": "11941152189217249920",
    "reviewsCount": 40,
    "imagesCount": 15,
    "imageCategories": [],
    "scrapedAt": "2025-06-22T06:23:04.817Z",
    "googleFoodUrl": null,
    "hotelAds": [],
    "openingHours": [
      {
        "day": "Monday",
        "hours": "9\u202fAM to 6\u202fPM"
      },
      {
        "day": "Tuesday",
        "hours": "9\u202fAM to 6\u202fPM"
      },
      {
        "day": "Wednesday",
        "hours": "9\u202fAM to 6\u202fPM"
      },
      {
        "day": "Thursday",
        "hours": "9\u202fAM to 6\u202fPM"
      },
      {
        "day": "Friday",
        "hours": "9\u202fAM to 6\u202fPM"
      },
      {
        "day": "Saturday",
        "hours": "9\u202fAM to 2\u202fPM"
      },
      {
        "day": "Sunday",
        "hours": "Closed"
      }
    ],
    "peopleAlsoSearch": [],
    "placesTags": [],
    "reviewsTags": [],
    "additionalInfo": {
      "From the business": [
        {
          "Small business": true
        }
      ],
      "Service options": [
        {
          "Delivery": true
        },
        {
          "In-store pickup": true
        },
        {
          "In-store shopping": true
        },
        {
          "Onsite services": true
        },
        {
          "Same-day delivery": true
        }
      ],
      "Accessibility": [
        {
          "Wheelchair accessible restroom": false
        },
        {
          "Wheelchair accessible seating": false
        }
      ],
      "Amenities": [
        {
          "Wi-Fi": true
        },
        {
          "Free Wi-Fi": true
        }
      ],
      "Planning": [
        {
          "Quick visit": true
        }
      ],
      "Payments": [
        {
          "Credit cards": true
        },
        {
          "Debit cards": true
        },
        {
          "NFC mobile payments": true
        },
        {
          "Credit cards": true
        }
      ]
    },
    "gasPrices": [],
    "url": "https://www.google.com/maps/search/?api=1&query=Schaeper's%20Pharmacy%20Inc&query_place_id=ChIJA5ObaJK0QYgRgBosL6Z-t6U",
    "searchPageUrl": "https://www.google.com/maps/search/independent%20pharmacy%20Cincinnati%20OH/@51.9240985376484,-179.97595653707245,14z?hl=en",
    "searchString": "independent pharmacy Cincinnati OH",
    "language": "en",
    "rank": 8,
    "isAdvertisement": false,
    "imageUrl": "https://lh3.googleusercontent.com/p/AF1QipNDYH8g_mZR_JWW5A6zvqJvp3fzbieu4WJJ2jVQ=w422-h240-k-no",
    "kgmid": "/g/1tdq6psy",
    "classification": "independent",
    "is_independent": true,
    "is_compounding": false,
    "confidence": 0.9,
    "source": "perplexity",
    "method": "llm"
  },
  {
    "title": "TriHealth Pharmacy Solutions",
    "price": null,
    "categoryName": "Pharmacy",
    "address": "4623 Wesley Ave, Cincinnati, OH 45212",
    "neighborhood": null,
    "street": "4623 Wesley Ave",
    "city": "Cincinnati",
    "postalCode": "45212",
    "state": "Ohio",
    "countryCode": "US",
    "website": "https://www.trihealth.com/services/pharmacy/trihealth-pharmacy-solutions",
    "phone": "(877) 403-4229",
    "phoneUnformatted": "+18774034229",
    "claimThisBusiness": false,
    "location": {
      "lat": 39.1613744,
      "lng": -84.4512803
    },
    "totalScore": 4.8,
    "permanentlyClosed": false,
    "temporarilyClosed": false,
    "placeId": null,
    "categories": [
      "Pharmacy"
    ],
    "fid": "0x8841b290e4d2e697:0x900220f7d9fa8fdc",
    "cid": "10376892740301131740",
    "reviewsCount": 5,
    "imagesCount": 2,
    "imageCategories": [],
    "scrapedAt": "2025-06-22T06:23:04.817Z",
    "googleFoodUrl": null,
    "hotelAds": [],
    "openingHours": [],
    "peopleAlsoSearch": [],
    "placesTags": [],
    "reviewsTags": [],
    "additionalInfo": {
      "Service options": [
        {
          "Delivery": true
        },
        {
          "Same-day delivery": true
        }
      ],
      "Accessibility": [
        {
          "Wheelchair accessible entrance": true
        },
        {
          "Wheelchair accessible parking lot": true
        }
      ],
      "Payments": [
        {
          "Debit cards": true
        },
        {
          "Credit cards": true
        }
      ]
    },
    "gasPrices": [],
    "url": "https://www.google.com/maps/search/?api=1&query=TriHealth%20Pharmacy%20Solutions&query_place_id=ChIJl-bS5JCyQYgR3I_62fcgApA",
    "searchPageUrl": "https://www.google.com/maps/search/independent%20pharmacy%20Cincinnati%20OH/@51.9240985376484,-179.97595653707245,14z?hl=en",
    "searchString": "independent pharmacy Cincinnati OH",
    "language": "en",
    "rank": 9,
    "isAdvertisement": false,
    "imageUrl": "https://lh3.googleusercontent.com/p/AF1QipOkutXb6qRTDHSu0g0bzVRTxWHkgGykjGAUIrXk=w412-h240-k-no",
    "kgmid": "/g/11rbvb5z3v",
    "classification": "independent",
    "is_independent": true,
    "is_compounding": false,
    "confidence": 0.9,
    "source": "perplexity",
    "method": "llm"
  },
  {
    "title": "Tri-State Compounding Pharmacy & Kunkel Medical",
    "price": null,
    "categoryName": "Pharmacy",
    "address": "7715 Beechmont Ave, Cincinnati, OH 45255",
    "neighborhood": "Forestville",
    "street": "7715 Beechmont Ave",
    "city": "Cincinnati",
    "postalCode": "45255",
    "state": "Ohio",
    "countryCode": "US",
    "website": "http://www.tristaterx.com/",
    "phone": "(513) 624-7333",
    "phoneUnformatted": "+15136247333",
    "claimThisBusiness": false,
    "location": {
      "lat": 39.0721498,
      "lng": -84.3439346
    },
    "totalScore": 4.5,
    "permanentlyClosed": false,
    "temporarilyClosed": false,
    "placeId": null,
    "categories": [
      "Pharmacy",
      "Medical supply store"
    ],
    "fid": "0x8841a9309b55330f:0x3b1aee664dfcdeac",
    "cid": "4258978520794717868",
    "reviewsCount": 73,
    "imagesCount": 14,
    "imageCategories": [],
    "scrapedAt": "2025-06-22T06:23:04.817Z",
    "googleFoodUrl": null,
    "hotelAds": [],
    "openingHours": [
      {
        "day": "Monday",
        "hours": "9\u202fAM to 7\u202fPM"
      },
      {
        "day": "Tuesday",
        "hours": "9\u202fAM to 7\u202fPM"
      },
      {
        "day": "Wednesday",
        "hours": "9\u202fAM to 7\u202fPM"
      },
      {
        "day": "Thursday",
        "hours": "9\u202fAM to 7\u202fPM"
      },
      {
        "day": "Friday",
        "hours": "9\u202fAM to 7\u202fPM"
      },
      {
        "day": "Saturday",
        "hours": "9\u202fAM to 3\u202fPM"
      },
      {
        "day": "Sunday",
        "hours": "Closed"
      }
    ],
    "peopleAlsoSearch": [],
    "placesTags": [],
    "reviewsTags": [],
    "additionalInfo": {
      "From the business": [
        {
          "Small business": true
        }
      ],
      "Service options": [
        {
          "Delivery": true
        },
        {
          "In-store pickup": true
        },
        {
          "In-store shopping": true
        },
        {
          "Same-day delivery": true
        }
      ],
      "Accessibility": [
        {
          "Wheelchair accessible entrance": true
        },
        {
          "Wheelchair accessible parking lot": true
        }
      ],
      "Planning": [
        {
          "Quick visit": true
        }
      ],
      "Payments": [
        {
          "Credit cards": true
        },
        {
          "Debit cards": true
        },
        {
          "NFC mobile payments": true
        },
        {
          "Credit cards": true
        }
      ]
    },
    "gasPrices": [],
    "url": "https://www.google.com/maps/search/?api=1&query=Tri-State%20Compounding%20Pharmacy%20%26%20Kunkel%20Medical&query_place_id=ChIJDzNVmzCpQYgRrN78TWbuGjs",
    "searchPageUrl": "https://www.google.com/maps/search/independent%20pharmacy%20Cincinnati%20OH/@51.9240985376484,-179.97595653707245,14z?hl=en",
    "searchString": "independent pharmacy Cincinnati OH",
    "language": "en",
    "rank": 10,
    "isAdvertisement": false,
    "imageUrl": "https://lh3.googleusercontent.com/p/AF1QipM85lDf-WAXU9EvKU6pyShsh45OgxZJL5pw_gDu=w408-h272-k-no",
    "kgmid": "/g/1tfg8bv0",
    "classification": "independent",
    "is_independent": true,
    "is_compounding": true,
    "confidence": 0.95,
    "source": "perplexity",
    "method": "llm"
  },
  {
    "title": "Freetown Pharmacy",
    "price": null,
    "categoryName": "Pharmacy",
    "address": "5082 Glencrossing Way, Cincinnati, OH 45238",
    "neighborhood": "Westwood",
    "street": "5082 Glencrossing Way",
    "city": "Cincinnati",
    "postalCode": "45238",
    "state": "Ohio",
    "countryCode": "US",
    "phone": "(513) 376-7635",
    "phoneUnformatted": "+15133767635",
    "claimThisBusiness": false,
    "location": {
      "lat": 39.131121,
      "lng": -84.6127318
    },
    "totalScore": 5,
    "permanentlyClosed": false,
    "temporarilyClosed": false,
    "placeId": null,
    "categories": [
      "Pharmacy"
    ],
    "fid": "0x8841cb42ba5a1061:0x3ac0ee4457e99afc",
    "cid": "4233645627028380412",
    "reviewsCount": 3,
    "imagesCount": 8,
    "imageCategories": [],
    "scrapedAt": "2025-06-22T06:23:04.818Z",
    "googleFoodUrl": null,
    "hotelAds": [],
    "openingHours": [
      {
        "day": "Monday",
        "hours": "9\u202fAM to 6\u202fPM"
      },
      {
        "day": "Tuesday",
        "hours": "9\u202fAM to 6\u202fPM"
      },
      {
        "day": "Wednesday",
        "hours": "9\u202fAM to 6\u202fPM"
      },
      {
        "day": "Thursday",
        "hours": "9\u202fAM to 6\u202fPM"
      },
      {
        "day": "Friday",
        "hours": "9\u202fAM to 6\u202fPM"
      },
      {
        "day": "Saturday",
        "hours": "10\u202fAM to 3\u202fPM"
      },
      {
        "day": "Sunday",
        "hours": "Closed"
      }
    ],
    "peopleAlsoSearch": [],
    "placesTags": [],
    "reviewsTags": [],
    "additionalInfo": {
      "Accessibility": [
        {
          "Wheelchair accessible entrance": true
        },
        {
          "Wheelchair accessible parking lot": true
        }
      ],
      "Planning": [
        {
          "Quick visit": true
        }
      ],
      "Payments": [
        {
          "Credit cards": true
        }
      ],
      "Parking": [
        {
          "Free parking lot": true
        },
        {
          "Free street parking": true
        }
      ]
    },
    "gasPrices": [],
    "url": "https://www.google.com/maps/search/?api=1&query=Freetown%20Pharmacy&query_place_id=ChIJYRBaukLLQYgR_JrpV0TuwDo",
    "searchPageUrl": "https://www.google.com/maps/search/independent%20pharmacy%20Cincinnati%20OH/@51.9240985376484,-179.97595653707245,14z?hl=en",
    "searchString": "independent pharmacy Cincinnati OH",
    "language": "en",
    "rank": 11,
    "isAdvertisement": false,
    "imageUrl": "https://lh3.googleusercontent.com/p/AF1QipMpvGCA9oYMGZcbPITuGUq3BgSgLn-x-fTbf9B_=w408-h306-k-no",
    "kgmid": "/g/11whyqs_vy",
    "classification": "independent",
    "is_independent": true,
    "is_compounding": false,
    "confidence": 0.85,
    "source": "perplexity",
    "method": "llm"
  },
  {
    "title": "Super Pharmacy",
    "price": null,
    "categoryName": "Pharmacy",
    "address": "24 Compton Rd #102, Cincinnati, OH 45216",
    "neighborhood": null,
    "street": "24 Compton Rd #102",
    "city": "Cincinnati",
    "postalCode": "45216",
    "state": "Ohio",
    "countryCode": "US",
    "website": "https://www.superpharmacy.net/",
    "phone": "(513) 821-8201",
    "phoneUnformatted": "+15138218201",
    "claimThisBusiness": false,
    "location": {
      "lat": 39.2161654,
      "lng": -84.4752031
    },
    "totalScore": 4,
    "permanentlyClosed": false,
    "temporarilyClosed": false,
    "placeId": null,
    "categories": [
      "Pharmacy",
      "Drug store",
      "Medical supply store",
      "Pain management physician",
      "Veterinary pharmacy"
    ],
    "fid": "0x88404d90dc1a36d7:0xf01414bdcad5dd36",
    "cid": "17299474874021305654",
    "reviewsCount": 8,
    "imagesCount": 2,
    "imageCategories": [],
    "scrapedAt": "2025-06-22T06:23:04.818Z",
    "googleFoodUrl": null,
    "hotelAds": [],
    "openingHours": [
      {
        "day": "Monday",
        "hours": "9\u202fAM to 6\u202fPM"
      },
      {
        "day": "Tuesday",
        "hours": "9\u202fAM to 6\u202fPM"
      },
      {
        "day": "Wednesday",
        "hours": "9\u202fAM to 6\u202fPM"
      },
      {
        "day": "Thursday",
        "hours": "9\u202fAM to 6\u202fPM"
      },
      {
        "day": "Friday",
        "hours": "9\u202fAM to 6\u202fPM"
      },
      {
        "day": "Saturday",
        "hours": "Closed"
      },
      {
        "day": "Sunday",
        "hours": "Closed"
      }
    ],
    "peopleAlsoSearch": [],
    "placesTags": [],
    "reviewsTags": [],
    "additionalInfo": {
      "From the business": [
        {
          "Small business": true
        }
      ],
      "Service options": [
        {
          "Curbside pickup": true
        },
        {
          "Delivery": true
        },
        {
          "In-store pickup": true
        },
        {
          "In-store shopping": true
        },
        {
          "Same-day delivery": true
        }
      ],
      "Accessibility": [
        {
          "Wheelchair accessible entrance": true
        },
        {
          "Wheelchair accessible parking lot": true
        },
        {
          "Wheelchair accessible restroom": true
        },
        {
          "Wheelchair accessible seating": true
        }
      ],
      "Amenities": [
        {
          "Gender-neutral restroom": true
        },
        {
          "Wi-Fi": true
        },
        {
          "Free Wi-Fi": true
        }
      ],
      "Crowd": [
        {
          "LGBTQ+ friendly": true
        },
        {
          "Transgender safespace": true
        }
      ],
      "Planning": [
        {
          "Quick visit": true
        }
      ],
      "Payments": [
        {
          "Checks": true
        },
        {
          "Credit cards": true
        },
        {
          "Debit cards": true
        },
        {
          "NFC mobile payments": true
        },
        {
          "Credit cards": true
        }
      ]
    },
    "gasPrices": [],
    "url": "https://www.google.com/maps/search/?api=1&query=Super%20Pharmacy&query_place_id=ChIJ1zYa3JBNQIgRNt3Vyr0UFPA",
    "searchPageUrl": "https://www.google.com/maps/search/independent%20pharmacy%20Cincinnati%20OH/@51.9240985376484,-179.97595653707245,14z?hl=en",
    "searchString": "independent pharmacy Cincinnati OH",
    "language": "en",
    "rank": 12,
    "isAdvertisement": false,
    "imageUrl": "https://lh3.googleusercontent.com/p/AF1QipMIfXuYm2Mv3eJU2f0aFhucsf6dqLe1nVeWB4WZ=w425-h240-k-no",
    "kgmid": "/g/11tsqh4glm",
    "classification": "independent",
    "is_independent": true,
    "is_compounding": false,
    "confidence": 0.85,
    "source": "perplexity",
    "method": "llm"
  },
  {
    "title": "Day's Miami Heights Pharmacy",
    "price": null,
    "categoryName": "Pharmacy",
    "address": "7567 Bridgetown Rd, Cincinnati, OH 45248",
    "neighborhood": null,
    "street": "7567 Bridgetown Rd",
    "city": "Cincinnati",
    "postalCode": "45248",
    "state": "Ohio",
    "countryCode": "US",
    "website": "http://www.dayspharmacy.com/",
    "phone": "(513) 941-4011",
    "phoneUnformatted": "+15139414011",
    "claimThisBusiness": false,
    "location": {
      "lat": 39.164343,
      "lng": -84.6987966
    },
    "totalScore": 4.8,
    "permanentlyClosed": false,
    "temporarilyClosed": false,
    "placeId": null,
    "categories": [
      "Pharmacy",
      "Drug store"
    ],
    "fid": "0x8841cc85e7929489:0xa6bdab4701f2e368",
    "cid": "12014947702358074216",
    "reviewsCount": 30,
    "imagesCount": 9,
    "imageCategories": [],
    "scrapedAt": "2025-06-22T06:23:04.818Z",
    "googleFoodUrl": null,
    "hotelAds": [],
    "openingHours": [
      {
        "day": "Monday",
        "hours": "10\u202fAM to 6\u202fPM"
      },
      {
        "day": "Tuesday",
        "hours": "10\u202fAM to 6\u202fPM"
      },
      {
        "day": "Wednesday",
        "hours": "10\u202fAM to 6\u202fPM"
      },
      {
        "day": "Thursday",
        "hours": "10\u202fAM to 6\u202fPM"
      },
      {
        "day": "Friday",
        "hours": "10\u202fAM to 6\u202fPM"
      },
      {
        "day": "Saturday",
        "hours": "10\u202fAM to 2\u202fPM"
      },
      {
        "day": "Sunday",
        "hours": "Closed"
      }
    ],
    "peopleAlsoSearch": [],
    "placesTags": [],
    "reviewsTags": [],
    "additionalInfo": {
      "From the business": [
        {
          "Small business": true
        }
      ],
      "Service options": [
        {
          "Delivery": true
        },
        {
          "In-store pickup": true
        },
        {
          "In-store shopping": true
        },
        {
          "Onsite services": true
        },
        {
          "Same-day delivery": true
        }
      ],
      "Accessibility": [
        {
          "Wheelchair accessible entrance": true
        },
        {
          "Wheelchair accessible parking lot": true
        }
      ],
      "Planning": [
        {
          "Quick visit": true
        }
      ],
      "Payments": [
        {
          "Checks": true
        },
        {
          "Credit cards": true
        },
        {
          "Debit cards": true
        },
        {
          "NFC mobile payments": true
        },
        {
          "Credit cards": true
        }
      ]
    },
    "gasPrices": [],
    "url": "https://www.google.com/maps/search/?api=1&query=Day's%20Miami%20Heights%20Pharmacy&query_place_id=ChIJiZSS54XMQYgRaOPyAUervaY",
    "searchPageUrl": "https://www.google.com/maps/search/independent%20pharmacy%20Cincinnati%20OH/@51.9240985376484,-179.97595653707245,14z?hl=en",
    "searchString": "independent pharmacy Cincinnati OH",
    "language": "en",
    "rank": 13,
    "isAdvertisement": false,
    "imageUrl": "https://lh3.googleusercontent.com/p/AF1QipMbXPJW_SIvjHseuFIygAYI7zaMDz0eFCdeGtp8=w408-h544-k-no",
    "kgmid": "/g/1tvdkgv2",
    "classification": "independent",
    "is_independent": true,
    "is_compounding": false,
    "confidence": 0.9,
    "source": "perplexity",
    "method": "llm"
  },
  {
    "title": "Genuine Care Pharmacy",
    "price": null,
    "categoryName": "Pharmacy",
    "address": "28 Eswin St, Cincinnati, OH 45218",
    "neighborhood": null,
    "street": "28 Eswin St",
    "city": "Cincinnati",
    "postalCode": "45218",
    "state": "Ohio",
    "countryCode": "US",
    "website": "https://www.genuinecarepharmacy.org/.",
    "phone": "(513) 589-3858",
    "phoneUnformatted": "+15135893858",
    "claimThisBusiness": false,
    "location": {
      "lat": 39.2692511,
      "lng": -84.5224749
    },
    "totalScore": 5,
    "permanentlyClosed": false,
    "temporarilyClosed": false,
    "placeId": null,
    "categories": [
      "Pharmacy"
    ],
    "fid": "0x88404ba1d548df5b:0xf2bd4fe1e4519ebb",
    "cid": "17491224359393664699",
    "reviewsCount": 3,
    "imagesCount": 7,
    "imageCategories": [],
    "scrapedAt": "2025-06-22T06:23:04.818Z",
    "googleFoodUrl": null,
    "hotelAds": [],
    "openingHours": [
      {
        "day": "Monday",
        "hours": "8:30\u202fAM to 5\u202fPM"
      },
      {
        "day": "Tuesday",
        "hours": "8:30\u202fAM to 5\u202fPM"
      },
      {
        "day": "Wednesday",
        "hours": "8:30\u202fAM to 5\u202fPM"
      },
      {
        "day": "Thursday",
        "hours": "8:30\u202fAM to 5\u202fPM"
      },
      {
        "day": "Friday",
        "hours": "8:30\u202fAM to 5\u202fPM"
      },
      {
        "day": "Saturday",
        "hours": "9:30\u202fAM to 2\u202fPM"
      },
      {
        "day": "Sunday",
        "hours": "Closed"
      }
    ],
    "peopleAlsoSearch": [],
    "placesTags": [],
    "reviewsTags": [],
    "additionalInfo": {
      "Service options": [
        {
          "Delivery": true
        }
      ],
      "Accessibility": [
        {
          "Wheelchair accessible entrance": true
        },
        {
          "Wheelchair accessible parking lot": true
        }
      ],
      "Payments": [
        {
          "Credit cards": true
        }
      ]
    },
    "gasPrices": [],
    "url": "https://www.google.com/maps/search/?api=1&query=Genuine%20Care%20Pharmacy&query_place_id=ChIJW99I1aFLQIgRu55R5OFPvfI",
    "searchPageUrl": "https://www.google.com/maps/search/independent%20pharmacy%20Cincinnati%20OH/@51.9240985376484,-179.97595653707245,14z?hl=en",
    "searchString": "independent pharmacy Cincinnati OH",
    "language": "en",
    "rank": 14,
    "isAdvertisement": false,
    "imageUrl": "https://lh3.googleusercontent.com/p/AF1QipMLTZmfzIzg7q6tEphkdxBZ93REA6TJY8qD9I8Q=w408-h510-k-no",
    "kgmid": "/g/11vzs0kr4r",
    "classification": "independent",
    "is_independent": true,
    "is_compounding": false,
    "confidence": 0.9,
    "source": "perplexity",
    "method": "llm"
  },
  {
    "title": "Genoa Healthcare",
    "price": null,
    "categoryName": "Pharmacy",
    "address": "1501 Madison Rd 3rd fl, Cincinnati, OH 45206",
    "neighborhood": "East Walnut HIlls",
    "street": "1501 Madison Rd 3rd fl",
    "city": "Cincinnati",
    "postalCode": "45206",
    "state": "Ohio",
    "countryCode": "US",
    "website": "http://www.genoahealthcare.com/",
    "phone": "(513) 221-7000",
    "phoneUnformatted": "+15132217000",
    "claimThisBusiness": false,
    "location": {
      "lat": 39.1295826,
      "lng": -84.4793159
    },
    "totalScore": 4.8,
    "permanentlyClosed": false,
    "temporarilyClosed": false,
    "placeId": null,
    "categories": [
      "Pharmacy"
    ],
    "fid": "0x8841b3842eabb45b:0x8d442f51c63b50d1",
    "cid": "10179313086028796113",
    "reviewsCount": 5,
    "imagesCount": 1,
    "imageCategories": [],
    "scrapedAt": "2025-06-22T06:23:04.818Z",
    "googleFoodUrl": null,
    "hotelAds": [],
    "openingHours": [
      {
        "day": "Monday",
        "hours": "8:30\u202fAM to 5\u202fPM"
      },
      {
        "day": "Tuesday",
        "hours": "8:30\u202fAM to 5\u202fPM"
      },
      {
        "day": "Wednesday",
        "hours": "8:30\u202fAM to 5\u202fPM"
      },
      {
        "day": "Thursday",
        "hours": "8:30\u202fAM to 5\u202fPM"
      },
      {
        "day": "Friday",
        "hours": "8:30\u202fAM to 5\u202fPM"
      },
      {
        "day": "Saturday",
        "hours": "Closed"
      },
      {
        "day": "Sunday",
        "hours": "Closed"
      }
    ],
    "peopleAlsoSearch": [],
    "placesTags": [],
    "reviewsTags": [],
    "additionalInfo": {
      "Accessibility": [
        {
          "Wheelchair accessible entrance": true
        },
        {
          "Wheelchair accessible parking lot": true
        }
      ],
      "Payments": [
        {
          "Debit cards": true
        },
        {
          "NFC mobile payments": true
        },
        {
          "Credit cards": true
        }
      ]
    },
    "gasPrices": [],
    "url": "https://www.google.com/maps/search/?api=1&query=Genoa%20Healthcare&query_place_id=ChIJW7SrLoSzQYgR0VA7xlEvRI0",
    "searchPageUrl": "https://www.google.com/maps/search/independent%20pharmacy%20Cincinnati%20OH/@51.9240985376484,-179.97595653707245,14z?hl=en",
    "searchString": "independent pharmacy Cincinnati OH",
    "language": "en",
    "rank": 15,
    "isAdvertisement": false,
    "imageUrl": "https://streetviewpixels-pa.googleapis.com/v1/thumbnail?panoid=wSQZqr-JB3Q3Z5ntNNTo-g&cb_client=search.gws-prod.gps&w=408&h=240&yaw=188.06534&pitch=0&thumbfov=100",
    "kgmid": "/g/11gt_vhh2y",
    "classification": "chain",
    "is_independent": false,
    "is_compounding": false,
    "confidence": 0.95,
    "source": "perplexity",
    "method": "llm"
  },
  {
    "title": "Sterling Community Pharmacy",
    "price": null,
    "categoryName": "Pharmacy",
    "address": "129 W Kemper Rd, Springdale, OH 45246",
    "neighborhood": null,
    "street": "129 W Kemper Rd",
    "city": "Springdale",
    "postalCode": "45246",
    "state": "Ohio",
    "countryCode": "US",
    "website": "http://www.sterlingcprx.com/",
    "phone": "(513) 810-3299",
    "phoneUnformatted": "+15138103299",
    "claimThisBusiness": false,
    "location": {
      "lat": 39.287212,
      "lng": -84.4724887
    },
    "totalScore": 4.8,
    "permanentlyClosed": false,
    "temporarilyClosed": false,
    "placeId": null,
    "categories": [
      "Pharmacy"
    ],
    "fid": "0x88404fcba84a4755:0x2fd313aacf06b063",
    "cid": "3446119764207251555",
    "reviewsCount": 28,
    "imagesCount": 5,
    "imageCategories": [],
    "scrapedAt": "2025-06-22T06:23:04.818Z",
    "googleFoodUrl": null,
    "hotelAds": [],
    "openingHours": [
      {
        "day": "Monday",
        "hours": "9\u202fAM to 1:30\u202fPM, 2 to 5\u202fPM"
      },
      {
        "day": "Tuesday",
        "hours": "12 to 4\u202fPM, 4:30 to 8\u202fPM"
      },
      {
        "day": "Wednesday",
        "hours": "9\u202fAM to 1:30\u202fPM, 2 to 5\u202fPM"
      },
      {
        "day": "Thursday",
        "hours": "12 to 4\u202fPM, 4:30 to 8\u202fPM"
      },
      {
        "day": "Friday",
        "hours": "9\u202fAM to 1:30\u202fPM, 2 to 5\u202fPM"
      },
      {
        "day": "Saturday",
        "hours": "10\u202fAM to 2\u202fPM"
      },
      {
        "day": "Sunday",
        "hours": "Closed"
      }
    ],
    "peopleAlsoSearch": [],
    "placesTags": [],
    "reviewsTags": [],
    "additionalInfo": {
      "From the business": [
        {
          "Small business": true
        }
      ],
      "Service options": [
        {
          "Delivery": true
        }
      ],
      "Accessibility": [
        {
          "Wheelchair accessible entrance": true
        },
        {
          "Wheelchair accessible parking lot": true
        }
      ],
      "Payments": [
        {
          "Credit cards": true
        },
        {
          "Debit cards": true
        },
        {
          "Credit cards": true
        }
      ]
    },
    "gasPrices": [],
    "url": "https://www.google.com/maps/search/?api=1&query=Sterling%20Community%20Pharmacy&query_place_id=ChIJVUdKqMtPQIgRY7AGz6oT0y8",
    "searchPageUrl": "https://www.google.com/maps/search/independent%20pharmacy%20Cincinnati%20OH/@51.9240985376484,-179.97595653707245,14z?hl=en",
    "searchString": "independent pharmacy Cincinnati OH",
    "language": "en",
    "rank": 16,
    "isAdvertisement": false,
    "imageUrl": "https://lh3.googleusercontent.com/p/AF1QipMPVHRVzTfjHz4ws5HmAktgD1DI_pVGPmJJq2kw=w408-h544-k-no",
    "kgmid": "/g/11kpl8hp9p",
    "classification": "independent",
    "is_independent": true,
    "is_compounding": false,
    "confidence": 0.9,
    "source": "perplexity",
    "method": "llm"
  },
  {
    "title": "Group Health Anderson Pharmacy",
    "price": null,
    "categoryName": "Pharmacy",
    "address": "7810 Five Mile Rd, Cincinnati, OH 45230",
    "neighborhood": "Forestville",
    "street": "7810 Five Mile Rd",
    "city": "Cincinnati",
    "postalCode": "45230",
    "state": "Ohio",
    "countryCode": "US",
    "website": "https://www.trihealth.com/institutes-and-services/pharmacy/",
    "phone": "(513) 624-5535",
    "phoneUnformatted": "+15136245535",
    "claimThisBusiness": false,
    "location": {
      "lat": 39.0776781,
      "lng": -84.3514228
    },
    "totalScore": 5,
    "permanentlyClosed": false,
    "temporarilyClosed": false,
    "placeId": null,
    "categories": [
      "Pharmacy"
    ],
    "fid": "0x8841a91fef53ba67:0x19a0603c11fe95b4",
    "cid": "1846581658338104756",
    "reviewsCount": 1,
    "imagesCount": 1,
    "imageCategories": [],
    "scrapedAt": "2025-06-22T06:23:04.818Z",
    "googleFoodUrl": null,
    "hotelAds": [],
    "openingHours": [
      {
        "day": "Monday",
        "hours": "9\u202fAM to 5:30\u202fPM"
      },
      {
        "day": "Tuesday",
        "hours": "9\u202fAM to 5:30\u202fPM"
      },
      {
        "day": "Wednesday",
        "hours": "9\u202fAM to 5:30\u202fPM"
      },
      {
        "day": "Thursday",
        "hours": "9\u202fAM to 5:30\u202fPM"
      },
      {
        "day": "Friday",
        "hours": "9\u202fAM to 5:30\u202fPM"
      },
      {
        "day": "Saturday",
        "hours": "9\u202fAM to 12:30\u202fPM"
      },
      {
        "day": "Sunday",
        "hours": "Closed"
      }
    ],
    "peopleAlsoSearch": [],
    "placesTags": [],
    "reviewsTags": [],
    "additionalInfo": {
      "Service options": [
        {
          "In-store pickup": true
        },
        {
          "In-store shopping": true
        }
      ],
      "Accessibility": [
        {
          "Wheelchair accessible entrance": true
        },
        {
          "Wheelchair accessible parking lot": true
        }
      ],
      "Payments": [
        {
          "Credit cards": true
        }
      ]
    },
    "gasPrices": [],
    "url": "https://www.google.com/maps/search/?api=1&query=Group%20Health%20Anderson%20Pharmacy&query_place_id=ChIJZ7pT7x-pQYgRtJX-ETxgoBk",
    "searchPageUrl": "https://www.google.com/maps/search/independent%20pharmacy%20Cincinnati%20OH/@51.9240985376484,-179.97595653707245,14z?hl=en",
    "searchString": "independent pharmacy Cincinnati OH",
    "language": "en",
    "rank": 17,
    "isAdvertisement": false,
    "imageUrl": "https://streetviewpixels-pa.googleapis.com/v1/thumbnail?panoid=8fu2hs4l19HjOI9wVq9TBA&cb_client=search.gws-prod.gps&w=408&h=240&yaw=91.982315&pitch=0&thumbfov=100",
    "kgmid": "/g/11n0b1dtkv",
    "classification": "independent",
    "is_independent": true,
    "is_compounding": false,
    "confidence": 0.9,
    "source": "perplexity",
    "method": "llm"
  },
  {
    "title": "Bernens Pharmacy",
    "price": null,
    "categoryName": "Pharmacy",
    "address": "5053 Glenway Ave, Cincinnati, OH 45238",
    "neighborhood": "West Price Hill",
    "street": "5053 Glenway Ave",
    "city": "Cincinnati",
    "postalCode": "45238",
    "state": "Ohio",
    "countryCode": "US",
    "website": "http://www.bernens.com/",
    "phone": "(513) 471-7575",
    "phoneUnformatted": "+15134717575",
    "claimThisBusiness": false,
    "location": {
      "lat": 39.1225147,
      "lng": -84.6023352
    },
    "totalScore": 4,
    "permanentlyClosed": false,
    "temporarilyClosed": false,
    "placeId": null,
    "categories": [
      "Pharmacy",
      "Drug store",
      "Medical supply store"
    ],
    "fid": "0x8841b5f9c2bc1ac9:0xcb2407cea658a9f1",
    "cid": "14637833272996440561",
    "reviewsCount": 69,
    "imagesCount": 6,
    "imageCategories": [],
    "scrapedAt": "2025-06-22T06:23:04.818Z",
    "googleFoodUrl": null,
    "hotelAds": [],
    "openingHours": [
      {
        "day": "Monday",
        "hours": "9\u202fAM to 7\u202fPM"
      },
      {
        "day": "Tuesday",
        "hours": "9\u202fAM to 7\u202fPM"
      },
      {
        "day": "Wednesday",
        "hours": "9\u202fAM to 7\u202fPM"
      },
      {
        "day": "Thursday",
        "hours": "9\u202fAM to 7\u202fPM"
      },
      {
        "day": "Friday",
        "hours": "9\u202fAM to 7\u202fPM"
      },
      {
        "day": "Saturday",
        "hours": "9\u202fAM to 5\u202fPM"
      },
      {
        "day": "Sunday",
        "hours": "9\u202fAM to 1\u202fPM"
      }
    ],
    "peopleAlsoSearch": [],
    "placesTags": [],
    "reviewsTags": [],
    "additionalInfo": {
      "From the business": [
        {
          "Small business": true
        }
      ],
      "Service options": [
        {
          "Delivery": true
        },
        {
          "In-store pickup": true
        },
        {
          "Same-day delivery": true
        }
      ],
      "Accessibility": [
        {
          "Wheelchair accessible entrance": true
        },
        {
          "Wheelchair accessible parking lot": true
        }
      ],
      "Planning": [
        {
          "Quick visit": true
        }
      ],
      "Payments": [
        {
          "Credit cards": true
        },
        {
          "Debit cards": true
        },
        {
          "Credit cards": true
        }
      ]
    },
    "gasPrices": [],
    "url": "https://www.google.com/maps/search/?api=1&query=Bernens%20Pharmacy&query_place_id=ChIJyRq8wvm1QYgR8alYps4HJMs",
    "searchPageUrl": "https://www.google.com/maps/search/independent%20pharmacy%20Cincinnati%20OH/@51.9240985376484,-179.97595653707245,14z?hl=en",
    "searchString": "independent pharmacy Cincinnati OH",
    "language": "en",
    "rank": 18,
    "isAdvertisement": false,
    "imageUrl": "https://lh3.googleusercontent.com/gps-cs-s/AC9h4nrif6UusbpmDEZTl1Jc0Cvi6zA99euVB7SE1o8apXE6PP6F1tKsadlRMWCavNkFAoAKkktj9YsNs2uk1LVUONEFgdh9R9lY56co72C3_hIUewTHOtj6JaJMYMXqYYUPXfvTQ3D7=w408-h306-k-no",
    "kgmid": "/g/1wl4r8pv",
    "classification": "independent",
    "is_independent": true,
    "is_compounding": false,
    "confidence": 0.9,
    "source": "perplexity",
    "method": "llm"
  },
  {
    "title": "Meijer Pharmacy",
    "price": "$$",
    "categoryName": "Pharmacy",
    "address": "3195 Geier Dr, Cincinnati, OH 45209",
    "neighborhood": "Oakley",
    "street": "3195 Geier Dr",
    "city": "Cincinnati",
    "postalCode": "45209",
    "state": "Ohio",
    "countryCode": "US",
    "website": "https://www.meijer.com/shopping/store-locator/224.html?cmpid=LM:Web::::05112021::GooglePharmacy",
    "phone": "(513) 458-2410",
    "phoneUnformatted": "+15134582410",
    "claimThisBusiness": false,
    "location": {
      "lat": 39.162052,
      "lng": -84.4269676
    },
    "totalScore": 3.5,
    "permanentlyClosed": false,
    "temporarilyClosed": false,
    "placeId": null,
    "categories": [
      "Pharmacy",
      "Medical supply store",
      "Drug store"
    ],
    "fid": "0x8841ad6ed9d971b1:0xedf2b2ae897c0bcf",
    "cid": "17145963194053561295",
    "reviewsCount": 40,
    "imagesCount": 52,
    "imageCategories": [],
    "scrapedAt": "2025-06-22T06:23:04.819Z",
    "googleFoodUrl": null,
    "hotelAds": [],
    "openingHours": [
      {
        "day": "Monday",
        "hours": "9\u202fAM to 8\u202fPM"
      },
      {
        "day": "Tuesday",
        "hours": "9\u202fAM to 8\u202fPM"
      },
      {
        "day": "Wednesday",
        "hours": "9\u202fAM to 8\u202fPM"
      },
      {
        "day": "Thursday",
        "hours": "9\u202fAM to 8\u202fPM"
      },
      {
        "day": "Friday",
        "hours": "9\u202fAM to 8\u202fPM"
      },
      {
        "day": "Saturday",
        "hours": "10\u202fAM to 6\u202fPM"
      },
      {
        "day": "Sunday",
        "hours": "10\u202fAM to 6\u202fPM"
      }
    ],
    "additionalOpeningHours": {
      "Drive through": [
        {
          "day": "Monday",
          "hours": "9\u202fAM\u20138\u202fPM"
        },
        {
          "day": "Tuesday",
          "hours": "9\u202fAM\u20138\u202fPM"
        },
        {
          "day": "Wednesday",
          "hours": "9\u202fAM\u20138\u202fPM"
        },
        {
          "day": "Thursday",
          "hours": "9\u202fAM\u20138\u202fPM"
        },
        {
          "day": "Friday",
          "hours": "9\u202fAM\u20138\u202fPM"
        },
        {
          "day": "Saturday",
          "hours": "10\u202fAM\u20136\u202fPM"
        },
        {
          "day": "Sunday",
          "hours": "10\u202fAM\u20136\u202fPM"
        }
      ],
      "Pickup": [
        {
          "day": "Monday",
          "hours": "9\u202fAM\u20138\u202fPM"
        },
        {
          "day": "Tuesday",
          "hours": "9\u202fAM\u20138\u202fPM"
        },
        {
          "day": "Wednesday",
          "hours": "9\u202fAM\u20138\u202fPM"
        },
        {
          "day": "Thursday",
          "hours": "9\u202fAM\u20138\u202fPM"
        },
        {
          "day": "Friday",
          "hours": "9\u202fAM\u20138\u202fPM"
        },
        {
          "day": "Saturday",
          "hours": "10\u202fAM\u20136\u202fPM"
        },
        {
          "day": "Sunday",
          "hours": "10\u202fAM\u20136\u202fPM"
        }
      ]
    },
    "peopleAlsoSearch": [],
    "placesTags": [],
    "reviewsTags": [],
    "additionalInfo": {
      "Service options": [
        {
          "Curbside pickup": true
        },
        {
          "Delivery": true
        },
        {
          "Drive-through": true
        },
        {
          "In-store pickup": true
        },
        {
          "In-store shopping": true
        }
      ],
      "Accessibility": [
        {
          "Wheelchair accessible entrance": true
        },
        {
          "Wheelchair accessible parking lot": true
        }
      ],
      "Offerings": [
        {
          "Medication disposal": true
        }
      ],
      "Planning": [
        {
          "Quick visit": true
        }
      ],
      "Payments": [
        {
          "Checks": true
        },
        {
          "Credit cards": true
        },
        {
          "Debit cards": true
        },
        {
          "NFC mobile payments": true
        }
      ]
    },
    "gasPrices": [],
    "url": "https://www.google.com/maps/search/?api=1&query=Meijer%20Pharmacy&query_place_id=ChIJsXHZ2W6tQYgRzwt8ia6y8u0",
    "searchPageUrl": "https://www.google.com/maps/search/independent%20pharmacy%20Cincinnati%20OH/@51.9240985376484,-179.97595653707245,14z?hl=en",
    "searchString": "independent pharmacy Cincinnati OH",
    "language": "en",
    "rank": 19,
    "isAdvertisement": false,
    "imageUrl": "https://lh3.googleusercontent.com/p/AF1QipO3ROs9jcH2lM8LjnywGnOGwVw56muRpu1JAn3Y=w408-h272-k-no",
    "kgmid": "/g/1vq9mzk9",
    "classification": "chain",
    "is_independent": false,
    "is_compounding": false,
    "confidence": 0.98,
    "source": "perplexity",
    "method": "llm"
  },
  {
    "title": "Owens Dale",
    "price": null,
    "categoryName": "Pharmacy",
    "address": "3200 Vine St, Cincinnati, OH 45220, United States",
    "neighborhood": "Corryville",
    "street": "3200 Vine St",
    "city": "Cincinnati",
    "postalCode": "45220",
    "state": "Ohio",
    "countryCode": "US",
    "website": "http://www.cincinnati.va.gov/",
    "phone": "+1 513-861-3100",
    "phoneUnformatted": "+15138613100",
    "claimThisBusiness": true,
    "location": {
      "lat": 39.1392117,
      "lng": -84.5080364
    },
    "permanentlyClosed": false,
    "temporarilyClosed": false,
    "placeId": null,
    "categories": [
      "Pharmacy"
    ],
    "fid": "0x8841b39099518e23:0x877f1cc48996a04e",
    "cid": "9763554147610042446",
    "reviewsCount": 0,
    "imagesCount": 1,
    "imageCategories": [],
    "scrapedAt": "2025-06-22T06:23:07.037Z",
    "googleFoodUrl": null,
    "hotelAds": [],
    "openingHours": [],
    "peopleAlsoSearch": [],
    "placesTags": [],
    "reviewsTags": [],
    "gasPrices": [],
    "url": "https://www.google.com/maps/search/?api=1&query=Owens%20Dale&query_place_id=ChIJI45RmZCzQYgRTqCWicQcf4c",
    "searchPageUrl": "https://www.google.com/maps/search/independent%20pharmacy%20Cincinnati%20OH/@65.73786228335844,-153.11051097135197,9z?hl=en",
    "searchString": "independent pharmacy Cincinnati OH",
    "language": "en",
    "rank": 5,
    "isAdvertisement": false,
    "imageUrl": "https://streetviewpixels-pa.googleapis.com/v1/thumbnail?panoid=glYD9YFiZOg_MJvYfA-J9Q&cb_client=search.gws-prod.gps&w=408&h=240&yaw=62.266075&pitch=0&thumbfov=100",
    "kgmid": "/g/1tfpqcj6",
    "classification": "not_a_pharmacy",
    "is_independent": false,
    "is_compounding": false,
    "confidence": 0.95,
    "source": "perplexity",
    "method": "llm"
  }
]