[
  {
    "title": "Madison Pharmacy",
    "price": null,
    "categoryName": "Pharmacy",
    "address": "1350 Concourse Ave #111, Memphis, TN 38104",
    "neighborhood": "Crosstown",
    "street": "1350 Concourse Ave #111",
    "city": "Memphis",
    "postalCode": "38104",
    "state": "Tennessee",
    "countryCode": "US",
    "website": "https://www.mymadisonpharmacy.com/",
    "phone": "(901) 321-5530",
    "phoneUnformatted": "+19013215530",
    "claimThisBusiness": true,
    "location": {
      "lat": 35.1520537,
      "lng": -90.0156921
    },
    "totalScore": 3.7,
    "permanentlyClosed": false,
    "temporarilyClosed": false,
    "placeId": null,
    "categories": [
      "Pharmacy"
    ],
    "fid": "0x87d57e1cdb9988a1:0x5f19cdcdfd2fa593",
    "cid": "6852734592620668307",
    "reviewsCount": 54,
    "imagesCount": 4,
    "imageCategories": [],
    "scrapedAt": "2025-06-22T06:39:06.883Z",
    "googleFoodUrl": null,
    "hotelAds": [],
    "openingHours": [
      {
        "day": "Monday",
        "hours": "9\u202fAM to 5:30\u202fPM"
      },
      {
        "day": "Tuesday",
        "hours": "9\u202fAM to 5:30\u202fPM"
      },
      {
        "day": "Wednesday",
        "hours": "9\u202fAM to 5:30\u202fPM"
      },
      {
        "day": "Thursday",
        "hours": "9\u202fAM to 5:30\u202fPM"
      },
      {
        "day": "Friday",
        "hours": "9\u202fAM to 5:30\u202fPM"
      },
      {
        "day": "Saturday",
        "hours": "Closed"
      },
      {
        "day": "Sunday",
        "hours": "Closed"
      }
    ],
    "peopleAlsoSearch": [],
    "placesTags": [],
    "reviewsTags": [],
    "additionalInfo": {
      "Service options": [
        {
          "Delivery": true
        },
        {
          "In-store pickup": true
        },
        {
          "Same-day delivery": true
        }
      ],
      "Accessibility": [
        {
          "Wheelchair accessible entrance": true
        },
        {
          "Wheelchair accessible parking lot": true
        }
      ],
      "Planning": [
        {
          "Quick visit": true
        }
      ],
      "Payments": [
        {
          "Credit cards": true
        },
        {
          "Debit cards": true
        },
        {
          "NFC mobile payments": true
        },
        {
          "Credit cards": true
        }
      ]
    },
    "gasPrices": [],
    "url": "https://www.google.com/maps/search/?api=1&query=Madison%20Pharmacy&query_place_id=ChIJoYiZ2xx-1YcRk6Uv_c3NGV8",
    "searchPageUrl": "https://www.google.com/maps/search/independent%20pharmacy%20Memphis%20TN/@62.75796630367604,-168.95302698266974,11z?hl=en",
    "searchString": "independent pharmacy Memphis TN",
    "language": "en",
    "rank": 1,
    "isAdvertisement": false,
    "imageUrl": "https://lh3.googleusercontent.com/gps-cs-s/AC9h4nrGuPoNJ4POI8CpjMjs6t89amNQxhVwuZzvAcTvIgj-j1kg-JMm29SiEZhYTFFQayXJseS8ZJZTbm2WvtZFxRnGJhATAI9S5ETJFa1EUIkoL_rM963EHYd95btRNq385RYe8YdP=w408-h306-k-no",
    "kgmid": "/g/113fjbycw",
    "classification": "independent",
    "is_independent": true,
    "is_compounding": false,
    "confidence": 0.9,
    "source": "perplexity",
    "method": "llm"
  },
  {
    "title": "Highland Heights Pharmacy",
    "price": null,
    "categoryName": "Pharmacy",
    "address": "1327 Madison Ave, Memphis, TN 38104",
    "neighborhood": "New Pathways",
    "street": "1327 Madison Ave",
    "city": "Memphis",
    "postalCode": "38104",
    "state": "Tennessee",
    "countryCode": "US",
    "website": "http://www.highlandheightspharmacy.com/",
    "phone": "(901) 545-5817",
    "phoneUnformatted": "+19015455817",
    "claimThisBusiness": false,
    "location": {
      "lat": 35.1386959,
      "lng": -90.0169574
    },
    "totalScore": 4.1,
    "permanentlyClosed": false,
    "temporarilyClosed": false,
    "placeId": null,
    "categories": [
      "Pharmacy",
      "Blood testing service",
      "Diabetes center",
      "Health and beauty shop",
      "Health consultant",
      "HIV testing center"
    ],
    "fid": "0x887f8115857013f3:0xaf35780fbd1963dc",
    "cid": "12625129139395453916",
    "reviewsCount": 30,
    "imagesCount": 6,
    "imageCategories": [],
    "scrapedAt": "2025-06-22T06:39:06.885Z",
    "googleFoodUrl": null,
    "hotelAds": [],
    "openingHours": [
      {
        "day": "Monday",
        "hours": "9\u202fAM to 4\u202fPM"
      },
      {
        "day": "Tuesday",
        "hours": "9\u202fAM to 4\u202fPM"
      },
      {
        "day": "Wednesday",
        "hours": "9\u202fAM to 4\u202fPM"
      },
      {
        "day": "Thursday",
        "hours": "9\u202fAM to 4\u202fPM"
      },
      {
        "day": "Friday",
        "hours": "9\u202fAM to 4\u202fPM"
      },
      {
        "day": "Saturday",
        "hours": "Closed"
      },
      {
        "day": "Sunday",
        "hours": "Closed"
      }
    ],
    "additionalOpeningHours": {
      "Delivery": [
        {
          "day": "Monday",
          "hours": "9\u202fAM\u20134\u202fPM"
        },
        {
          "day": "Tuesday",
          "hours": "9\u202fAM\u20134\u202fPM"
        },
        {
          "day": "Wednesday",
          "hours": "9\u202fAM\u20134\u202fPM"
        },
        {
          "day": "Thursday",
          "hours": "9\u202fAM\u20134\u202fPM"
        },
        {
          "day": "Friday",
          "hours": "9\u202fAM\u20134\u202fPM"
        },
        {
          "day": "Saturday",
          "hours": "Closed"
        },
        {
          "day": "Sunday",
          "hours": "Closed"
        }
      ]
    },
    "peopleAlsoSearch": [],
    "placesTags": [],
    "reviewsTags": [],
    "additionalInfo": {
      "From the business": [
        {
          "Identifies as women-owned": true
        },
        {
          "Small business": true
        }
      ],
      "Service options": [
        {
          "Curbside pickup": true
        },
        {
          "Delivery": true
        },
        {
          "In-store pickup": true
        },
        {
          "Same-day delivery": true
        },
        {
          "English": true
        }
      ],
      "Accessibility": [
        {
          "Wheelchair accessible entrance": true
        },
        {
          "Wheelchair accessible parking lot": true
        },
        {
          "Wheelchair accessible restroom": true
        },
        {
          "Wheelchair accessible seating": true
        }
      ],
      "Amenities": [
        {
          "Gender-neutral restroom": true
        },
        {
          "Wi-Fi": true
        },
        {
          "Free Wi-Fi": true
        }
      ],
      "Crowd": [
        {
          "LGBTQ+ friendly": true
        }
      ],
      "Planning": [
        {
          "Quick visit": true
        }
      ],
      "Payments": [
        {
          "Checks": true
        },
        {
          "Credit cards": true
        },
        {
          "Debit cards": true
        },
        {
          "Credit cards": true
        }
      ],
      "Parking": [
        {
          "Free parking lot": true
        }
      ]
    },
    "gasPrices": [],
    "url": "https://www.google.com/maps/search/?api=1&query=Highland%20Heights%20Pharmacy&query_place_id=ChIJ8xNwhRWBf4gR3GMZvQ94Na8",
    "searchPageUrl": "https://www.google.com/maps/search/independent%20pharmacy%20Memphis%20TN/@62.75796630367604,-168.95302698266974,11z?hl=en",
    "searchString": "independent pharmacy Memphis TN",
    "language": "en",
    "rank": 2,
    "isAdvertisement": false,
    "imageUrl": "https://lh3.googleusercontent.com/gps-cs-s/AC9h4nqZGznCblatLLnh_mmxxurmgrp_fAle7c2QdY6qMiksLr7EA8jawhxQpLfpLn2W9LK9ltSZswMmAhe8a-oqqhkm4eazi5j4ieXwYGetb52jfXdesYBDXx0xUolcTvh3r4Chne4=w408-h272-k-no",
    "kgmid": "/g/1tflynbq",
    "classification": "independent",
    "is_independent": true,
    "is_compounding": false,
    "confidence": 0.9,
    "source": "perplexity",
    "method": "llm"
  },
  {
    "title": "Peoples Custom Rx",
    "price": null,
    "categoryName": "Pharmacy",
    "address": "785 E Brookhaven Cir, Memphis, TN 38117",
    "neighborhood": "East Memphis",
    "street": "785 E Brookhaven Cir",
    "city": "Memphis",
    "postalCode": "38117",
    "state": "Tennessee",
    "countryCode": "US",
    "website": "http://www.peoplescustomrx.com/",
    "phone": "(901) 682-2273",
    "phoneUnformatted": "+19016822273",
    "claimThisBusiness": false,
    "location": {
      "lat": 35.110789,
      "lng": -89.889933
    },
    "totalScore": 4.6,
    "permanentlyClosed": false,
    "temporarilyClosed": false,
    "placeId": null,
    "categories": [
      "Pharmacy",
      "Veterinary pharmacy"
    ],
    "fid": "0x887f84622eec1839:0x9a529a0bfba499ba",
    "cid": "11120119806188362170",
    "reviewsCount": 97,
    "imagesCount": 97,
    "imageCategories": [],
    "scrapedAt": "2025-06-22T06:39:06.885Z",
    "googleFoodUrl": null,
    "hotelAds": [],
    "openingHours": [
      {
        "day": "Monday",
        "hours": "9\u202fAM to 5:30\u202fPM"
      },
      {
        "day": "Tuesday",
        "hours": "9\u202fAM to 5:30\u202fPM"
      },
      {
        "day": "Wednesday",
        "hours": "9\u202fAM to 5:30\u202fPM"
      },
      {
        "day": "Thursday",
        "hours": "9\u202fAM to 5:30\u202fPM"
      },
      {
        "day": "Friday",
        "hours": "9\u202fAM to 5:30\u202fPM"
      },
      {
        "day": "Saturday",
        "hours": "Closed"
      },
      {
        "day": "Sunday",
        "hours": "Closed"
      }
    ],
    "peopleAlsoSearch": [],
    "placesTags": [],
    "reviewsTags": [],
    "additionalInfo": {
      "From the business": [
        {
          "Small business": true
        }
      ],
      "Service options": [
        {
          "Curbside pickup": true
        },
        {
          "Delivery": true
        },
        {
          "In-store pickup": true
        },
        {
          "In-store shopping": true
        },
        {
          "Same-day delivery": false
        }
      ],
      "Accessibility": [
        {
          "Wheelchair accessible entrance": true
        },
        {
          "Wheelchair accessible parking lot": true
        }
      ],
      "Payments": [
        {
          "Checks": true
        },
        {
          "Credit cards": true
        },
        {
          "Debit cards": true
        },
        {
          "NFC mobile payments": true
        },
        {
          "Credit cards": true
        }
      ]
    },
    "gasPrices": [],
    "url": "https://www.google.com/maps/search/?api=1&query=Peoples%20Custom%20Rx&query_place_id=ChIJORjsLmKEf4gRupmk-wuaUpo",
    "searchPageUrl": "https://www.google.com/maps/search/independent%20pharmacy%20Memphis%20TN/@62.75796630367604,-168.95302698266974,11z?hl=en",
    "searchString": "independent pharmacy Memphis TN",
    "language": "en",
    "rank": 3,
    "isAdvertisement": false,
    "imageUrl": "https://lh3.googleusercontent.com/p/AF1QipMZ0Fi4nW18dIx5wIuwe-VzbQ8dB9YVArbjimEW=w408-h272-k-no",
    "kgmid": "/g/1txc7sv1",
    "classification": "independent",
    "is_independent": true,
    "is_compounding": true,
    "confidence": 0.9,
    "source": "perplexity",
    "method": "llm"
  },
  {
    "title": "Plaza Pharmacy",
    "price": null,
    "categoryName": "Pharmacy",
    "address": "3024 Covington Pike # 5, Memphis, TN 38128",
    "neighborhood": null,
    "street": "3024 Covington Pike # 5",
    "city": "Memphis",
    "postalCode": "38128",
    "state": "Tennessee",
    "countryCode": "US",
    "phone": "(901) 779-7930",
    "phoneUnformatted": "+19017797930",
    "claimThisBusiness": false,
    "location": {
      "lat": 35.2080968,
      "lng": -89.8937449
    },
    "totalScore": 5,
    "permanentlyClosed": false,
    "temporarilyClosed": false,
    "placeId": null,
    "categories": [
      "Pharmacy"
    ],
    "fid": "0x887f83e1c27980dd:0x198fb700f96fcae1",
    "cid": "1841891987430558433",
    "reviewsCount": 26,
    "imagesCount": 17,
    "imageCategories": [],
    "scrapedAt": "2025-06-22T06:39:06.886Z",
    "googleFoodUrl": null,
    "hotelAds": [],
    "openingHours": [
      {
        "day": "Monday",
        "hours": "9\u202fAM to 6\u202fPM"
      },
      {
        "day": "Tuesday",
        "hours": "9\u202fAM to 6\u202fPM"
      },
      {
        "day": "Wednesday",
        "hours": "9\u202fAM to 6\u202fPM"
      },
      {
        "day": "Thursday",
        "hours": "9\u202fAM to 6\u202fPM"
      },
      {
        "day": "Friday",
        "hours": "9\u202fAM to 6\u202fPM"
      },
      {
        "day": "Saturday",
        "hours": "10\u202fAM to 3\u202fPM"
      },
      {
        "day": "Sunday",
        "hours": "Closed"
      }
    ],
    "peopleAlsoSearch": [],
    "placesTags": [],
    "reviewsTags": [],
    "additionalInfo": {
      "From the business": [
        {
          "Small business": true
        }
      ],
      "Service options": [
        {
          "Curbside pickup": true
        },
        {
          "Delivery": true
        },
        {
          "In-store pickup": true
        },
        {
          "In-store shopping": true
        },
        {
          "Same-day delivery": true
        }
      ],
      "Accessibility": [
        {
          "Wheelchair accessible entrance": true
        },
        {
          "Wheelchair accessible parking lot": true
        }
      ],
      "Planning": [
        {
          "Quick visit": true
        }
      ],
      "Payments": [
        {
          "Credit cards": true
        },
        {
          "Debit cards": true
        },
        {
          "NFC mobile payments": true
        },
        {
          "Credit cards": true
        }
      ]
    },
    "gasPrices": [],
    "url": "https://www.google.com/maps/search/?api=1&query=Plaza%20Pharmacy&query_place_id=ChIJ3YB5wuGDf4gR4cpv-QC3jxk",
    "searchPageUrl": "https://www.google.com/maps/search/independent%20pharmacy%20Memphis%20TN/@62.75796630367604,-168.95302698266974,11z?hl=en",
    "searchString": "independent pharmacy Memphis TN",
    "language": "en",
    "rank": 4,
    "isAdvertisement": false,
    "imageUrl": "https://lh3.googleusercontent.com/p/AF1QipOz006mkT8_Jn3QE4NF4JveUwIoSm5kFz5WNQfp=w408-h306-k-no",
    "kgmid": "/g/11lkh6d4qg",
    "classification": "independent",
    "is_independent": true,
    "is_compounding": false,
    "confidence": 0.85,
    "source": "perplexity",
    "method": "llm"
  },
  {
    "title": "Bensons Pharmacy (Farmacia Hispana)",
    "price": null,
    "categoryName": "Pharmacy",
    "address": "3081 S Perkins Rd, Memphis, TN 38118",
    "neighborhood": "Parkway Village",
    "street": "3081 S Perkins Rd",
    "city": "Memphis",
    "postalCode": "38118",
    "state": "Tennessee",
    "countryCode": "US",
    "website": "https://www.bensonspharmacy.com/",
    "phone": "(901) 922-6566",
    "phoneUnformatted": "+19019226566",
    "claimThisBusiness": false,
    "location": {
      "lat": 35.0651116,
      "lng": -89.9057608
    },
    "totalScore": 4.6,
    "permanentlyClosed": false,
    "temporarilyClosed": false,
    "placeId": null,
    "categories": [
      "Pharmacy"
    ],
    "fid": "0x887f85bf43d516af:0xb70386bb183e12fc",
    "cid": "13187532271994671868",
    "reviewsCount": 32,
    "imagesCount": 14,
    "imageCategories": [],
    "scrapedAt": "2025-06-22T06:39:06.886Z",
    "googleFoodUrl": null,
    "hotelAds": [],
    "openingHours": [
      {
        "day": "Monday",
        "hours": "12:30 to 6\u202fPM"
      },
      {
        "day": "Tuesday",
        "hours": "12:30 to 6\u202fPM"
      },
      {
        "day": "Wednesday",
        "hours": "12:30 to 6\u202fPM"
      },
      {
        "day": "Thursday",
        "hours": "12:30 to 6\u202fPM"
      },
      {
        "day": "Friday",
        "hours": "Closed"
      },
      {
        "day": "Saturday",
        "hours": "12:30 to 5\u202fPM"
      },
      {
        "day": "Sunday",
        "hours": "Closed"
      }
    ],
    "peopleAlsoSearch": [],
    "placesTags": [],
    "reviewsTags": [],
    "additionalInfo": {
      "Accessibility": [
        {
          "Wheelchair accessible parking lot": true
        }
      ],
      "Payments": [
        {
          "Credit cards": true
        },
        {
          "Debit cards": true
        },
        {
          "NFC mobile payments": true
        },
        {
          "Credit cards": true
        }
      ]
    },
    "gasPrices": [],
    "url": "https://www.google.com/maps/search/?api=1&query=Bensons%20Pharmacy%20(Farmacia%20Hispana)&query_place_id=ChIJrxbVQ7-Ff4gR_BI-GLuGA7c",
    "searchPageUrl": "https://www.google.com/maps/search/independent%20pharmacy%20Memphis%20TN/@62.75796630367604,-168.95302698266974,11z?hl=en",
    "searchString": "independent pharmacy Memphis TN",
    "language": "en",
    "rank": 5,
    "isAdvertisement": false,
    "imageUrl": "https://lh3.googleusercontent.com/gps-cs-s/AC9h4np8wUYEwt2vt-BI8Ar_jbJpgyJx8aI2gWnnRguyRoz1VnQbSKT1nAwNvX-iYMYS5iAEeA_eapYnqG1E59b_k6JyN-SyL2KRtYKcLFBPZLgW6T9bC74gtMu_oJ48NPFsmLxi4ZWwfw=w408-h306-k-no",
    "kgmid": "/g/11cs4gj935",
    "classification": "independent",
    "is_independent": true,
    "is_compounding": false,
    "confidence": 0.9,
    "source": "perplexity",
    "method": "llm"
  },
  {
    "title": "Good Shepherd Health",
    "price": null,
    "categoryName": "Pharmacy",
    "address": "266 S Cleveland St Suite 202, Memphis, TN 38104",
    "neighborhood": "Midtown",
    "street": "266 S Cleveland St Suite 202",
    "city": "Memphis",
    "postalCode": "38104",
    "state": "Tennessee",
    "countryCode": "US",
    "website": "http://goodsheprx.com/",
    "phone": "(877) 521-6337",
    "phoneUnformatted": "+18775216337",
    "claimThisBusiness": false,
    "location": {
      "lat": 35.1347515,
      "lng": -90.0165124
    },
    "totalScore": 5,
    "permanentlyClosed": false,
    "temporarilyClosed": false,
    "placeId": null,
    "categories": [
      "Pharmacy"
    ],
    "fid": "0x887f855b890e319d:0xad46b9339e9abf49",
    "cid": "12485870648286691145",
    "reviewsCount": 16,
    "imagesCount": 26,
    "imageCategories": [],
    "scrapedAt": "2025-06-22T06:39:06.886Z",
    "googleFoodUrl": null,
    "hotelAds": [],
    "openingHours": [
      {
        "day": "Monday",
        "hours": "9\u202fAM to 4\u202fPM"
      },
      {
        "day": "Tuesday",
        "hours": "9\u202fAM to 4\u202fPM"
      },
      {
        "day": "Wednesday",
        "hours": "9\u202fAM to 4\u202fPM"
      },
      {
        "day": "Thursday",
        "hours": "9\u202fAM to 4\u202fPM"
      },
      {
        "day": "Friday",
        "hours": "9\u202fAM to 4\u202fPM"
      },
      {
        "day": "Saturday",
        "hours": "Closed"
      },
      {
        "day": "Sunday",
        "hours": "Closed"
      }
    ],
    "peopleAlsoSearch": [],
    "placesTags": [],
    "reviewsTags": [],
    "additionalInfo": {
      "From the business": [
        {
          "Small business": true
        }
      ],
      "Service options": [
        {
          "Delivery": true
        },
        {
          "Same-day delivery": true
        }
      ],
      "Accessibility": [
        {
          "Wheelchair accessible entrance": true
        },
        {
          "Wheelchair accessible parking lot": true
        }
      ],
      "Payments": [
        {
          "Credit cards": true
        },
        {
          "Debit cards": true
        },
        {
          "Credit cards": true
        }
      ]
    },
    "gasPrices": [],
    "url": "https://www.google.com/maps/search/?api=1&query=Good%20Shepherd%20Health&query_place_id=ChIJnTEOiVuFf4gRSb-anjO5Rq0",
    "searchPageUrl": "https://www.google.com/maps/search/independent%20pharmacy%20Memphis%20TN/@62.75796630367604,-168.95302698266974,11z?hl=en",
    "searchString": "independent pharmacy Memphis TN",
    "language": "en",
    "rank": 6,
    "isAdvertisement": false,
    "imageUrl": "https://lh3.googleusercontent.com/gps-cs-s/AC9h4nrWSjoEWs0vF3CsZCjF2bGDqu3Tfnl46YpY3Qf2BsKt9ghmNA2rgagfbWyvMxdD2PPCktfGoTfl6qEZPMahMi0s27HS-PbzMueYrTN3smBWby8xFyTEDeKXnxpYSH2ZadyHKbEiZg=w426-h240-k-no",
    "kgmid": "/g/11bw4m3ptp",
    "classification": "independent",
    "is_independent": true,
    "is_compounding": false,
    "confidence": 0.85,
    "source": "perplexity",
    "method": "llm"
  },
  {
    "title": "The Medicine Shoppe Pharmacy",
    "price": null,
    "categoryName": "Pharmacy",
    "address": "Gattas Plaza Shopping Center, 4770 Knight Arnold Rd, Memphis, TN 38118",
    "neighborhood": "Parkway Village",
    "street": "Gattas Plaza Shopping Center, 4770 Knight Arnold Rd",
    "city": "Memphis",
    "postalCode": "38118",
    "state": "Tennessee",
    "countryCode": "US",
    "website": "http://www.medicineshoppe.com/pharmacy-locations/tennessee/memphis%20knight%20arnold/home",
    "phone": "(901) 363-0750",
    "phoneUnformatted": "+19013630750",
    "claimThisBusiness": false,
    "location": {
      "lat": 35.06276,
      "lng": -89.9045316
    },
    "totalScore": 4.8,
    "permanentlyClosed": false,
    "temporarilyClosed": false,
    "placeId": null,
    "categories": [
      "Pharmacy"
    ],
    "fid": "0x887f85bfbe48cedf:0xeefdd2b452c36dac",
    "cid": "17221152222059130284",
    "reviewsCount": 49,
    "imagesCount": 3,
    "imageCategories": [],
    "scrapedAt": "2025-06-22T06:39:06.886Z",
    "googleFoodUrl": null,
    "hotelAds": [],
    "openingHours": [
      {
        "day": "Monday",
        "hours": "10\u202fAM to 4\u202fPM"
      },
      {
        "day": "Tuesday",
        "hours": "10\u202fAM to 4\u202fPM"
      },
      {
        "day": "Wednesday",
        "hours": "10\u202fAM to 4\u202fPM"
      },
      {
        "day": "Thursday",
        "hours": "10\u202fAM to 4\u202fPM"
      },
      {
        "day": "Friday",
        "hours": "10\u202fAM to 4\u202fPM"
      },
      {
        "day": "Saturday",
        "hours": "10\u202fAM to 12\u202fPM"
      },
      {
        "day": "Sunday",
        "hours": "Closed"
      }
    ],
    "peopleAlsoSearch": [],
    "placesTags": [],
    "reviewsTags": [],
    "additionalInfo": {
      "Accessibility": [
        {
          "Wheelchair accessible entrance": true
        },
        {
          "Wheelchair accessible parking lot": true
        }
      ],
      "Planning": [
        {
          "Quick visit": true
        }
      ],
      "Payments": [
        {
          "Credit cards": true
        },
        {
          "Debit cards": true
        },
        {
          "NFC mobile payments": true
        },
        {
          "Credit cards": true
        }
      ]
    },
    "gasPrices": [],
    "url": "https://www.google.com/maps/search/?api=1&query=The%20Medicine%20Shoppe%20Pharmacy&query_place_id=ChIJ385Ivr-Ff4gRrG3DUrTS_e4",
    "searchPageUrl": "https://www.google.com/maps/search/independent%20pharmacy%20Memphis%20TN/@62.75796630367604,-168.95302698266974,11z?hl=en",
    "searchString": "independent pharmacy Memphis TN",
    "language": "en",
    "rank": 7,
    "isAdvertisement": false,
    "imageUrl": "https://lh3.googleusercontent.com/gps-cs-s/AC9h4nq1jXr2Rk4BfjzC2yowpNog5LnpYBGCMu0IXIP5rXo_qZVL6nA5RR7AqnAF-9sbEbjTyjjlS6ev_Z65z7Dfvx3YPKnvlVeg7tEzDedxgrz6Q-zXJZTqFbrJVzCwSAPdvjuXgWa5=w408-h723-k-no",
    "kgmid": "/g/1tj2crvb",
    "classification": "chain",
    "is_independent": false,
    "is_compounding": false,
    "confidence": 0.95,
    "source": "perplexity",
    "method": "llm"
  },
  {
    "title": "First Pharmacy Services",
    "price": null,
    "categoryName": "Pharmacy",
    "address": "364 S Front St, Memphis, TN 38103",
    "neighborhood": "Downtown Memphis",
    "street": "364 S Front St",
    "city": "Memphis",
    "postalCode": "38103",
    "state": "Tennessee",
    "countryCode": "US",
    "website": "http://www.firstpharmacyservices.com/",
    "phone": "(901) 249-5387",
    "phoneUnformatted": "+19012495387",
    "claimThisBusiness": false,
    "location": {
      "lat": 35.1369929,
      "lng": -90.0585993
    },
    "totalScore": 5,
    "permanentlyClosed": false,
    "temporarilyClosed": false,
    "placeId": "ChIJVVVVVQqcf4gR48gpvN31qgc",
    "categories": [
      "Pharmacy"
    ],
    "fid": "0x887f9c0a55555555:0x7aaf5ddbc29c8e3",
    "cid": "552524236999739619",
    "reviewsCount": 12,
    "imagesCount": 1,
    "imageCategories": [],
    "scrapedAt": "2025-06-22T06:39:06.886Z",
    "googleFoodUrl": null,
    "hotelAds": [],
    "openingHours": [
      {
        "day": "Monday",
        "hours": "9\u202fAM to 5\u202fPM"
      },
      {
        "day": "Tuesday",
        "hours": "9\u202fAM to 5\u202fPM"
      },
      {
        "day": "Wednesday",
        "hours": "9\u202fAM to 5\u202fPM"
      },
      {
        "day": "Thursday",
        "hours": "9\u202fAM to 5\u202fPM"
      },
      {
        "day": "Friday",
        "hours": "9\u202fAM to 4\u202fPM"
      },
      {
        "day": "Saturday",
        "hours": "Closed"
      },
      {
        "day": "Sunday",
        "hours": "Closed"
      }
    ],
    "peopleAlsoSearch": [],
    "placesTags": [],
    "reviewsTags": [],
    "additionalInfo": {
      "From the business": [
        {
          "Small business": true
        }
      ],
      "Accessibility": [
        {
          "Wheelchair accessible entrance": true
        },
        {
          "Wheelchair accessible parking lot": true
        }
      ],
      "Payments": [
        {
          "Credit cards": true
        }
      ]
    },
    "gasPrices": [],
    "url": "https://www.google.com/maps/search/?api=1&query=First%20Pharmacy%20Services&query_place_id=ChIJVVVVVQqcf4gR48gpvN31qgc",
    "searchPageUrl": "https://www.google.com/maps/search/independent%20pharmacy%20Memphis%20TN/@62.75796630367604,-168.95302698266974,11z?hl=en",
    "searchString": "independent pharmacy Memphis TN",
    "language": "en",
    "rank": 8,
    "isAdvertisement": false,
    "imageUrl": "https://streetviewpixels-pa.googleapis.com/v1/thumbnail?panoid=cA0gVrSXCGplQxoSBBucsg&cb_client=search.gws-prod.gps&w=408&h=240&yaw=40.719357&pitch=0&thumbfov=100",
    "kgmid": "/g/11ftnj71r1",
    "classification": "hospital",
    "is_independent": false,
    "confidence": 1.0,
    "source": "rule-based"
  },
  {
    "title": "Friends for All - Pharmacy",
    "price": null,
    "categoryName": "Pharmacy",
    "address": "806 Cooper St suite a, Memphis, TN 38104",
    "neighborhood": "Cooper-Young",
    "street": "806 Cooper St suite a",
    "city": "Memphis",
    "postalCode": "38104",
    "state": "Tennessee",
    "countryCode": "US",
    "website": "https://www.friendsforallpharmacy.org/",
    "phone": "(855) 605-2808",
    "phoneUnformatted": "+18556052808",
    "claimThisBusiness": false,
    "location": {
      "lat": 35.1237619,
      "lng": -89.9906187
    },
    "totalScore": 5,
    "permanentlyClosed": false,
    "temporarilyClosed": false,
    "placeId": null,
    "categories": [
      "Pharmacy"
    ],
    "fid": "0x887f87e42956f0ed:0x824312e565f2f89f",
    "cid": "9386366824837478559",
    "reviewsCount": 2,
    "imagesCount": 1,
    "imageCategories": [],
    "scrapedAt": "2025-06-22T06:39:06.886Z",
    "googleFoodUrl": null,
    "hotelAds": [],
    "openingHours": [
      {
        "day": "Monday",
        "hours": "12 to 8\u202fPM"
      },
      {
        "day": "Tuesday",
        "hours": "12 to 8\u202fPM"
      },
      {
        "day": "Wednesday",
        "hours": "8\u202fAM to 4\u202fPM"
      },
      {
        "day": "Thursday",
        "hours": "8\u202fAM to 4\u202fPM"
      },
      {
        "day": "Friday",
        "hours": "8\u202fAM to 3:30\u202fPM"
      },
      {
        "day": "Saturday",
        "hours": "Closed"
      },
      {
        "day": "Sunday",
        "hours": "Closed"
      }
    ],
    "peopleAlsoSearch": [],
    "placesTags": [],
    "reviewsTags": [],
    "additionalInfo": {
      "Accessibility": [
        {
          "Wheelchair accessible entrance": true
        },
        {
          "Wheelchair accessible parking lot": true
        }
      ]
    },
    "gasPrices": [],
    "url": "https://www.google.com/maps/search/?api=1&query=Friends%20for%20All%20-%20Pharmacy&query_place_id=ChIJ7fBWKeSHf4gRn_jyZeUSQ4I",
    "searchPageUrl": "https://www.google.com/maps/search/independent%20pharmacy%20Memphis%20TN/@62.75796630367604,-168.95302698266974,11z?hl=en",
    "searchString": "independent pharmacy Memphis TN",
    "language": "en",
    "rank": 9,
    "isAdvertisement": false,
    "imageUrl": "https://streetviewpixels-pa.googleapis.com/v1/thumbnail?panoid=AToh4G06jhsElWI_0th-SA&cb_client=search.gws-prod.gps&w=408&h=240&yaw=38.60334&pitch=0&thumbfov=100",
    "kgmid": "/g/11vwwqq56k",
    "classification": "independent",
    "is_independent": true,
    "is_compounding": false,
    "confidence": 0.9,
    "source": "perplexity",
    "method": "llm"
  },
  {
    "title": "FMH PHARMACY",
    "price": null,
    "categoryName": "Pharmacy",
    "address": "1687 E Brooks Rd, Memphis, TN 38116",
    "neighborhood": "Whitehaven",
    "street": "1687 E Brooks Rd",
    "city": "Memphis",
    "postalCode": "38116",
    "state": "Tennessee",
    "countryCode": "US",
    "website": "https://www.fmh-pharmacy.com/",
    "phone": "(901) 899-3641",
    "phoneUnformatted": "+19018993641",
    "claimThisBusiness": false,
    "location": {
      "lat": 35.0607052,
      "lng": -90.0076677
    },
    "totalScore": 5,
    "permanentlyClosed": false,
    "temporarilyClosed": false,
    "placeId": null,
    "categories": [
      "Pharmacy"
    ],
    "fid": "0x87d57d2066bae7e7:0xae3f71153f677cd9",
    "cid": "12555878622204230873",
    "reviewsCount": 99,
    "imagesCount": 2,
    "imageCategories": [],
    "scrapedAt": "2025-06-22T06:39:06.886Z",
    "googleFoodUrl": null,
    "hotelAds": [],
    "openingHours": [
      {
        "day": "Monday",
        "hours": "9\u202fAM to 7\u202fPM"
      },
      {
        "day": "Tuesday",
        "hours": "9\u202fAM to 7\u202fPM"
      },
      {
        "day": "Wednesday",
        "hours": "9\u202fAM to 7\u202fPM"
      },
      {
        "day": "Thursday",
        "hours": "9\u202fAM to 7\u202fPM"
      },
      {
        "day": "Friday",
        "hours": "9\u202fAM to 7\u202fPM"
      },
      {
        "day": "Saturday",
        "hours": "9\u202fAM to 2\u202fPM"
      },
      {
        "day": "Sunday",
        "hours": "Closed"
      }
    ],
    "peopleAlsoSearch": [],
    "placesTags": [],
    "reviewsTags": [],
    "additionalInfo": {
      "Service options": [
        {
          "Curbside pickup": true
        },
        {
          "Delivery": true
        },
        {
          "Drive-through": true
        },
        {
          "In-store pickup": true
        },
        {
          "Onsite services": true
        },
        {
          "Same-day delivery": true
        }
      ],
      "Accessibility": [
        {
          "Wheelchair accessible entrance": true
        },
        {
          "Wheelchair accessible parking lot": true
        },
        {
          "Wheelchair accessible restroom": true
        },
        {
          "Wheelchair accessible seating": true
        }
      ],
      "Amenities": [
        {
          "Gender-neutral restroom": true
        }
      ],
      "Planning": [
        {
          "Quick visit": true
        }
      ],
      "Payments": [
        {
          "Checks": true
        },
        {
          "Credit cards": true
        },
        {
          "NFC mobile payments": true
        }
      ],
      "Parking": [
        {
          "Free parking lot": true
        },
        {
          "On-site parking": true
        }
      ]
    },
    "gasPrices": [],
    "url": "https://www.google.com/maps/search/?api=1&query=FMH%20PHARMACY&query_place_id=ChIJ5-e6ZiB91YcR2XxnPxVxP64",
    "searchPageUrl": "https://www.google.com/maps/search/independent%20pharmacy%20Memphis%20TN/@62.75796630367604,-168.95302698266974,11z?hl=en",
    "searchString": "independent pharmacy Memphis TN",
    "language": "en",
    "rank": 10,
    "isAdvertisement": false,
    "imageUrl": "https://lh3.googleusercontent.com/p/AF1QipPT73AvpLW9dt2_k-pzUGvokpHnxrMmrSHisyFo=w408-h306-k-no",
    "kgmid": "/g/11wmj1d0sg",
    "classification": "independent",
    "is_independent": true,
    "is_compounding": false,
    "confidence": 0.9,
    "source": "perplexity",
    "method": "llm"
  },
  {
    "title": "Comprehensive Pharmacy Services",
    "price": null,
    "categoryName": "Pharmacy",
    "address": "6409 N Quail Hollow Rd, Memphis, TN 38120",
    "neighborhood": "Massey Hill",
    "street": "6409 N Quail Hollow Rd",
    "city": "Memphis",
    "postalCode": "38120",
    "state": "Tennessee",
    "countryCode": "US",
    "website": "https://cps.com/",
    "phone": "(901) 748-0470",
    "phoneUnformatted": "+19017480470",
    "claimThisBusiness": true,
    "location": {
      "lat": 35.1042692,
      "lng": -89.8495562
    },
    "totalScore": 3.7,
    "permanentlyClosed": false,
    "temporarilyClosed": false,
    "placeId": null,
    "categories": [
      "Pharmacy"
    ],
    "fid": "0x887f9b355ebc88f9:0x1ec6367226736936",
    "cid": "2217519730425817398",
    "reviewsCount": 3,
    "imagesCount": 1,
    "imageCategories": [],
    "scrapedAt": "2025-06-22T06:39:06.887Z",
    "googleFoodUrl": null,
    "hotelAds": [],
    "openingHours": [
      {
        "day": "Monday",
        "hours": "8:30\u202fAM to 5\u202fPM"
      },
      {
        "day": "Tuesday",
        "hours": "8:30\u202fAM to 5\u202fPM"
      },
      {
        "day": "Wednesday",
        "hours": "8:30\u202fAM to 5\u202fPM"
      },
      {
        "day": "Thursday",
        "hours": "8:30\u202fAM to 5\u202fPM"
      },
      {
        "day": "Friday",
        "hours": "8:30\u202fAM to 5\u202fPM"
      },
      {
        "day": "Saturday",
        "hours": "Closed"
      },
      {
        "day": "Sunday",
        "hours": "Closed"
      }
    ],
    "peopleAlsoSearch": [],
    "placesTags": [],
    "reviewsTags": [],
    "additionalInfo": {
      "Accessibility": [
        {
          "Wheelchair accessible entrance": true
        },
        {
          "Wheelchair accessible parking lot": true
        }
      ]
    },
    "gasPrices": [],
    "url": "https://www.google.com/maps/search/?api=1&query=Comprehensive%20Pharmacy%20Services&query_place_id=ChIJ-Yi8XjWbf4gRNmlzJnI2xh4",
    "searchPageUrl": "https://www.google.com/maps/search/independent%20pharmacy%20Memphis%20TN/@62.75796630367604,-168.95302698266974,11z?hl=en",
    "searchString": "independent pharmacy Memphis TN",
    "language": "en",
    "rank": 11,
    "isAdvertisement": false,
    "imageUrl": "https://streetviewpixels-pa.googleapis.com/v1/thumbnail?panoid=rav7VrBsS-EpxRgostJsMA&cb_client=search.gws-prod.gps&w=408&h=240&yaw=356.98883&pitch=0&thumbfov=100",
    "kgmid": "/g/1tct9gv9",
    "classification": "independent",
    "is_independent": true,
    "is_compounding": false,
    "confidence": 0.85,
    "source": "perplexity",
    "method": "llm"
  },
  {
    "title": "Baptist Specialty Pharmacy - Memphis",
    "price": null,
    "categoryName": "Pharmacy",
    "address": "6027 Walnut Grove Rd Suite 110, Memphis, TN 38120",
    "neighborhood": null,
    "street": "6027 Walnut Grove Rd Suite 110",
    "city": "Memphis",
    "postalCode": "38120",
    "state": "Tennessee",
    "countryCode": "US",
    "website": "https://www.baptistonline.org/locations/specialty-facilities/baptist-specialty-pharmacy?utm_source=googlemybusiness&utm_medium=organic&utm_campaign=baptist_specialty_pharmacy",
    "phone": "(844) 605-5496",
    "phoneUnformatted": "+18446055496",
    "claimThisBusiness": false,
    "location": {
      "lat": 35.1293007,
      "lng": -89.8599987
    },
    "totalScore": 4.3,
    "permanentlyClosed": false,
    "temporarilyClosed": false,
    "placeId": "ChIJf5jbLFiDf4gROQjdZV_MM6g",
    "categories": [
      "Pharmacy"
    ],
    "fid": "0x887f83582cdb987f:0xa833cc5f65dd0839",
    "cid": "12120255732287080505",
    "reviewsCount": 6,
    "imagesCount": 1,
    "imageCategories": [],
    "scrapedAt": "2025-06-22T06:39:06.887Z",
    "googleFoodUrl": null,
    "hotelAds": [],
    "openingHours": [
      {
        "day": "Monday",
        "hours": "8\u202fAM to 6\u202fPM"
      },
      {
        "day": "Tuesday",
        "hours": "8\u202fAM to 6\u202fPM"
      },
      {
        "day": "Wednesday",
        "hours": "8\u202fAM to 6\u202fPM"
      },
      {
        "day": "Thursday",
        "hours": "8\u202fAM to 6\u202fPM"
      },
      {
        "day": "Friday",
        "hours": "8\u202fAM to 6\u202fPM"
      },
      {
        "day": "Saturday",
        "hours": "Closed"
      },
      {
        "day": "Sunday",
        "hours": "Closed"
      }
    ],
    "peopleAlsoSearch": [],
    "placesTags": [],
    "reviewsTags": [],
    "additionalInfo": {
      "Service options": [
        {
          "Delivery": true
        }
      ],
      "Accessibility": [
        {
          "Wheelchair accessible entrance": true
        },
        {
          "Wheelchair accessible parking lot": true
        }
      ],
      "Payments": [
        {
          "Credit cards": true
        }
      ]
    },
    "gasPrices": [],
    "url": "https://www.google.com/maps/search/?api=1&query=Baptist%20Specialty%20Pharmacy%20-%20Memphis&query_place_id=ChIJf5jbLFiDf4gROQjdZV_MM6g",
    "searchPageUrl": "https://www.google.com/maps/search/independent%20pharmacy%20Memphis%20TN/@62.75796630367604,-168.95302698266974,11z?hl=en",
    "searchString": "independent pharmacy Memphis TN",
    "language": "en",
    "rank": 12,
    "isAdvertisement": false,
    "imageUrl": "https://streetviewpixels-pa.googleapis.com/v1/thumbnail?panoid=RIsi3-tQzKoLwnXhHrZFMQ&cb_client=search.gws-prod.gps&w=408&h=240&yaw=89.504585&pitch=0&thumbfov=100",
    "kgmid": "/g/11c67ryp45",
    "classification": "hospital",
    "is_independent": false,
    "confidence": 1.0,
    "source": "rule-based"
  },
  {
    "title": "First Pharmacy Services of Park Ave",
    "price": null,
    "categoryName": "Pharmacy",
    "address": "6005 Park Ave # 630B, Memphis, TN 38119",
    "neighborhood": null,
    "street": "6005 Park Ave # 630B",
    "city": "Memphis",
    "postalCode": "38119",
    "state": "Tennessee",
    "countryCode": "US",
    "website": "http://firstpharmacyservices.com/",
    "phone": "(901) 821-8330",
    "phoneUnformatted": "+19018218330",
    "claimThisBusiness": true,
    "location": {
      "lat": 35.0977274,
      "lng": -89.8631845
    },
    "totalScore": 5,
    "permanentlyClosed": false,
    "temporarilyClosed": false,
    "placeId": "ChIJnVHVScSEf4gRH53UZkqYqp8",
    "categories": [
      "Pharmacy"
    ],
    "fid": "0x887f84c449d5519d:0x9faa984a66d49d1f",
    "cid": "11505175643391565087",
    "reviewsCount": 9,
    "imagesCount": 1,
    "imageCategories": [],
    "scrapedAt": "2025-06-22T06:39:06.887Z",
    "googleFoodUrl": null,
    "hotelAds": [],
    "openingHours": [
      {
        "day": "Monday",
        "hours": "8:30\u202fAM to 5\u202fPM"
      },
      {
        "day": "Tuesday",
        "hours": "8:30\u202fAM to 5\u202fPM"
      },
      {
        "day": "Wednesday",
        "hours": "8:30\u202fAM to 5\u202fPM"
      },
      {
        "day": "Thursday",
        "hours": "8:30\u202fAM to 5\u202fPM"
      },
      {
        "day": "Friday",
        "hours": "8:30\u202fAM to 4\u202fPM"
      },
      {
        "day": "Saturday",
        "hours": "Closed"
      },
      {
        "day": "Sunday",
        "hours": "Closed"
      }
    ],
    "peopleAlsoSearch": [],
    "placesTags": [],
    "reviewsTags": [],
    "additionalInfo": {
      "Accessibility": [
        {
          "Wheelchair accessible entrance": true
        },
        {
          "Wheelchair accessible parking lot": true
        }
      ],
      "Payments": [
        {
          "Credit cards": true
        },
        {
          "Debit cards": true
        },
        {
          "NFC mobile payments": true
        },
        {
          "Credit cards": true
        }
      ]
    },
    "gasPrices": [],
    "url": "https://www.google.com/maps/search/?api=1&query=First%20Pharmacy%20Services%20of%20Park%20Ave&query_place_id=ChIJnVHVScSEf4gRH53UZkqYqp8",
    "searchPageUrl": "https://www.google.com/maps/search/independent%20pharmacy%20Memphis%20TN/@62.75796630367604,-168.95302698266974,11z?hl=en",
    "searchString": "independent pharmacy Memphis TN",
    "language": "en",
    "rank": 13,
    "isAdvertisement": false,
    "imageUrl": "https://streetviewpixels-pa.googleapis.com/v1/thumbnail?panoid=CSZ23SbyTNrPtunjupTDbQ&cb_client=search.gws-prod.gps&w=408&h=240&yaw=263.35153&pitch=0&thumbfov=100",
    "kgmid": "/g/1tdzxh1b",
    "classification": "hospital",
    "is_independent": false,
    "confidence": 1.0,
    "source": "rule-based"
  },
  {
    "title": "Entrustrx",
    "price": null,
    "categoryName": "Pharmacy",
    "address": "4284 New Getwell Rd, Memphis, TN 38118",
    "neighborhood": null,
    "street": "4284 New Getwell Rd",
    "city": "Memphis",
    "postalCode": "38118",
    "state": "Tennessee",
    "countryCode": "US",
    "website": "http://entrustrx.com/",
    "phone": "(855) 394-2930",
    "phoneUnformatted": "+18553942930",
    "claimThisBusiness": true,
    "location": {
      "lat": 35.0372999,
      "lng": -89.9354549
    },
    "permanentlyClosed": false,
    "temporarilyClosed": false,
    "placeId": null,
    "categories": [
      "Pharmacy"
    ],
    "fid": "0x887f88a7c239f59b:0xa9fd44eb439dea5b",
    "cid": "12249022338760043099",
    "reviewsCount": 0,
    "imagesCount": 1,
    "imageCategories": [],
    "scrapedAt": "2025-06-22T06:39:06.887Z",
    "googleFoodUrl": null,
    "hotelAds": [],
    "openingHours": [],
    "peopleAlsoSearch": [],
    "placesTags": [],
    "reviewsTags": [],
    "additionalInfo": {
      "Accessibility": [
        {
          "Wheelchair accessible entrance": true
        },
        {
          "Wheelchair accessible parking lot": true
        }
      ],
      "Payments": [
        {
          "Credit cards": true
        }
      ]
    },
    "gasPrices": [],
    "url": "https://www.google.com/maps/search/?api=1&query=Entrustrx&query_place_id=ChIJm_U5wqeIf4gRW-qdQ-tE_ak",
    "searchPageUrl": "https://www.google.com/maps/search/independent%20pharmacy%20Memphis%20TN/@62.75796630367604,-168.95302698266974,11z?hl=en",
    "searchString": "independent pharmacy Memphis TN",
    "language": "en",
    "rank": 14,
    "isAdvertisement": false,
    "imageUrl": "https://streetviewpixels-pa.googleapis.com/v1/thumbnail?panoid=NuO2lpD_II5o6qWApuVJZQ&cb_client=search.gws-prod.gps&w=408&h=240&yaw=73.21085&pitch=0&thumbfov=100",
    "kgmid": "/g/11ggvy5v1k",
    "classification": "independent",
    "is_independent": true,
    "is_compounding": false,
    "confidence": 0.9,
    "source": "perplexity",
    "method": "llm"
  },
  {
    "title": "Champion's Pharmacy and Herbs LLC",
    "price": null,
    "categoryName": "Homeopathic pharmacy",
    "address": "2369 Elvis Presley Blvd, Memphis, TN 38106",
    "neighborhood": null,
    "street": "2369 Elvis Presley Blvd",
    "city": "Memphis",
    "postalCode": "38106",
    "state": "Tennessee",
    "countryCode": "US",
    "website": "https://www.championsherbstore.com/",
    "phone": "(901) 948-6622",
    "phoneUnformatted": "+19019486622",
    "claimThisBusiness": false,
    "location": {
      "lat": 35.0806371,
      "lng": -90.0193079
    },
    "totalScore": 4.9,
    "permanentlyClosed": false,
    "temporarilyClosed": false,
    "placeId": null,
    "categories": [
      "Homeopathic pharmacy"
    ],
    "fid": "0x87d57d0ad0fcb52f:0xf7e0d08b960b2bc6",
    "cid": "17861505420087733190",
    "reviewsCount": 202,
    "imagesCount": 13,
    "imageCategories": [],
    "scrapedAt": "2025-06-22T06:39:06.887Z",
    "googleFoodUrl": null,
    "hotelAds": [],
    "openingHours": [
      {
        "day": "Monday",
        "hours": "Closed"
      },
      {
        "day": "Tuesday",
        "hours": "10\u202fAM to 2\u202fPM"
      },
      {
        "day": "Wednesday",
        "hours": "10\u202fAM to 2\u202fPM"
      },
      {
        "day": "Thursday",
        "hours": "10\u202fAM to 2\u202fPM"
      },
      {
        "day": "Friday",
        "hours": "10\u202fAM to 2\u202fPM"
      },
      {
        "day": "Saturday",
        "hours": "10\u202fAM to 2\u202fPM"
      },
      {
        "day": "Sunday",
        "hours": "Closed"
      }
    ],
    "peopleAlsoSearch": [],
    "placesTags": [],
    "reviewsTags": [],
    "additionalInfo": {
      "From the business": [
        {
          "Identifies as Black-owned": true
        },
        {
          "Identifies as women-owned": true
        },
        {
          "Small business": true
        }
      ],
      "Service options": [
        {
          "In-store pickup": true
        }
      ],
      "Accessibility": [
        {
          "Wheelchair accessible entrance": true
        },
        {
          "Wheelchair accessible parking lot": true
        }
      ],
      "Amenities": [
        {
          "Wi-Fi": true
        },
        {
          "Free Wi-Fi": true
        }
      ],
      "Planning": [
        {
          "Quick visit": true
        }
      ],
      "Payments": [
        {
          "Checks": true
        },
        {
          "Credit cards": true
        },
        {
          "Debit cards": true
        },
        {
          "Credit cards": true
        }
      ]
    },
    "gasPrices": [],
    "url": "https://www.google.com/maps/search/?api=1&query=Champion's%20Pharmacy%20and%20Herbs%20LLC&query_place_id=ChIJL7X80Ap91YcRxisLlovQ4Pc",
    "searchPageUrl": "https://www.google.com/maps/search/independent%20pharmacy%20Memphis%20TN/@62.75796630367604,-168.95302698266974,11z?hl=en",
    "searchString": "independent pharmacy Memphis TN",
    "language": "en",
    "rank": 15,
    "isAdvertisement": false,
    "imageUrl": "https://lh3.googleusercontent.com/p/AF1QipNqW2nesZ80YJ9KquPeItiAvjJLyoPPoXgAl8Xq=w408-h312-k-no",
    "kgmid": "/g/1tgcmv38",
    "classification": "independent",
    "is_independent": true,
    "is_compounding": false,
    "confidence": 0.9,
    "source": "perplexity",
    "method": "llm"
  },
  {
    "title": "Christ community pharmacy Broad Ave.",
    "price": null,
    "categoryName": "Pharmacy",
    "address": "2849 Broad Ave, Memphis, TN 38112",
    "neighborhood": "Binghampton",
    "street": "2849 Broad Ave",
    "city": "Memphis",
    "postalCode": "38112",
    "state": "Tennessee",
    "countryCode": "US",
    "website": "https://www.christcommunityhealth.org/services/pharmacy",
    "phone": "(901) 842-3181",
    "phoneUnformatted": "+19018423181",
    "claimThisBusiness": true,
    "location": {
      "lat": 35.1471094,
      "lng": -89.9656332
    },
    "totalScore": 4.3,
    "permanentlyClosed": false,
    "temporarilyClosed": false,
    "placeId": "ChIJ2ylJs9-Af4gRanUQ-We1kh4",
    "categories": [
      "Pharmacy"
    ],
    "fid": "0x887f80dfb34929db:0x1e92b567f910756a",
    "cid": "2203022625902458218",
    "reviewsCount": 9,
    "imagesCount": 4,
    "imageCategories": [],
    "scrapedAt": "2025-06-22T06:39:06.887Z",
    "googleFoodUrl": null,
    "hotelAds": [],
    "openingHours": [
      {
        "day": "Monday",
        "hours": "8:30\u202fAM to 5\u202fPM"
      },
      {
        "day": "Tuesday",
        "hours": "8:30\u202fAM to 5\u202fPM"
      },
      {
        "day": "Wednesday",
        "hours": "8:30\u202fAM to 5\u202fPM"
      },
      {
        "day": "Thursday",
        "hours": "8:30\u202fAM to 5\u202fPM"
      },
      {
        "day": "Friday",
        "hours": "8:30\u202fAM to 5\u202fPM"
      },
      {
        "day": "Saturday",
        "hours": "Closed"
      },
      {
        "day": "Sunday",
        "hours": "Closed"
      }
    ],
    "peopleAlsoSearch": [],
    "placesTags": [],
    "reviewsTags": [],
    "additionalInfo": {
      "Service options": [
        {
          "Delivery": true
        }
      ],
      "Accessibility": [
        {
          "Wheelchair accessible entrance": true
        },
        {
          "Wheelchair accessible parking lot": true
        }
      ],
      "Payments": [
        {
          "Credit cards": true
        }
      ]
    },
    "gasPrices": [],
    "url": "https://www.google.com/maps/search/?api=1&query=Christ%20community%20pharmacy%20Broad%20Ave.&query_place_id=ChIJ2ylJs9-Af4gRanUQ-We1kh4",
    "searchPageUrl": "https://www.google.com/maps/search/independent%20pharmacy%20Memphis%20TN/@62.75796630367604,-168.95302698266974,11z?hl=en",
    "searchString": "independent pharmacy Memphis TN",
    "language": "en",
    "rank": 16,
    "isAdvertisement": false,
    "imageUrl": "https://lh3.googleusercontent.com/gps-cs-s/AC9h4nqOE2ASE3ghyoiLJuBdpiQaNGrbjkYSaxtmT_knGqiT3x9WVC4A3eBOZvcimEz5V9jiJo0Zg8WF9bWwBC13WtL-RbxatW1YKFP1lQ4AMCO81a5SjzVoJ0_nrGUegEVjyu9IsHRW=w408-h306-k-no",
    "kgmid": "/g/11f3xt41sd",
    "classification": "hospital",
    "is_independent": false,
    "confidence": 1.0,
    "source": "rule-based"
  },
  {
    "title": "The Rx Shoppe",
    "price": null,
    "categoryName": "Pharmacy",
    "address": "3315 Hacks Cross Rd #111, Memphis, TN 38125",
    "neighborhood": "Buckingham Farms",
    "street": "3315 Hacks Cross Rd #111",
    "city": "Memphis",
    "postalCode": "38125",
    "state": "Tennessee",
    "countryCode": "US",
    "website": "https://www.facebook.com/The-Rx-Shoppe-152025408212108/",
    "phone": "(901) 737-9797",
    "phoneUnformatted": "+19017379797",
    "claimThisBusiness": false,
    "location": {
      "lat": 35.0591936,
      "lng": -89.7937113
    },
    "totalScore": 4.9,
    "permanentlyClosed": false,
    "temporarilyClosed": false,
    "placeId": null,
    "categories": [
      "Pharmacy"
    ],
    "fid": "0x887f9a153dca46eb:0x9c20b8ed3a17af14",
    "cid": "11250195198192889620",
    "reviewsCount": 34,
    "imagesCount": 1,
    "imageCategories": [],
    "scrapedAt": "2025-06-22T06:39:06.887Z",
    "googleFoodUrl": null,
    "hotelAds": [],
    "openingHours": [
      {
        "day": "Monday",
        "hours": "8:30\u202fAM to 6\u202fPM"
      },
      {
        "day": "Tuesday",
        "hours": "8:30\u202fAM to 6\u202fPM"
      },
      {
        "day": "Wednesday",
        "hours": "8:30\u202fAM to 6\u202fPM"
      },
      {
        "day": "Thursday",
        "hours": "8:30\u202fAM to 6\u202fPM"
      },
      {
        "day": "Friday",
        "hours": "8:30\u202fAM to 6\u202fPM"
      },
      {
        "day": "Saturday",
        "hours": "Closed"
      },
      {
        "day": "Sunday",
        "hours": "Closed"
      }
    ],
    "peopleAlsoSearch": [],
    "placesTags": [],
    "reviewsTags": [],
    "additionalInfo": {
      "From the business": [
        {
          "Small business": true
        }
      ],
      "Service options": [
        {
          "Drive-through": true
        },
        {
          "In-store pickup": true
        }
      ],
      "Accessibility": [
        {
          "Wheelchair accessible entrance": true
        },
        {
          "Wheelchair accessible parking lot": true
        }
      ],
      "Planning": [
        {
          "Quick visit": true
        }
      ],
      "Payments": [
        {
          "Credit cards": true
        },
        {
          "Debit cards": true
        },
        {
          "NFC mobile payments": true
        },
        {
          "Credit cards": true
        }
      ]
    },
    "gasPrices": [],
    "url": "https://www.google.com/maps/search/?api=1&query=The%20Rx%20Shoppe&query_place_id=ChIJ60bKPRWaf4gRFK8XOu24IJw",
    "searchPageUrl": "https://www.google.com/maps/search/independent%20pharmacy%20Memphis%20TN/@62.75796630367604,-168.95302698266974,11z?hl=en",
    "searchString": "independent pharmacy Memphis TN",
    "language": "en",
    "rank": 17,
    "isAdvertisement": false,
    "imageUrl": "https://streetviewpixels-pa.googleapis.com/v1/thumbnail?panoid=9kzrqId5rW5Kj2ux7otFrQ&cb_client=search.gws-prod.gps&w=408&h=240&yaw=285.97794&pitch=0&thumbfov=100",
    "kgmid": "/g/1tddbm09",
    "classification": "independent",
    "is_independent": true,
    "is_compounding": false,
    "confidence": 0.85,
    "source": "perplexity",
    "method": "llm"
  },
  {
    "title": "Regel Pharmalab",
    "price": null,
    "categoryName": "Pharmacy",
    "address": "1352 Cordova Cove, Germantown, TN 38138",
    "neighborhood": "Hunters Run",
    "street": "1352 Cordova Cove",
    "city": "Germantown",
    "postalCode": "38138",
    "state": "Tennessee",
    "countryCode": "US",
    "website": "http://regelpharmalab.com/",
    "phone": "(901) 757-9434",
    "phoneUnformatted": "+19017579434",
    "claimThisBusiness": false,
    "location": {
      "lat": 35.1122216,
      "lng": -89.8051142
    },
    "totalScore": 4.8,
    "permanentlyClosed": false,
    "temporarilyClosed": false,
    "placeId": null,
    "categories": [
      "Pharmacy"
    ],
    "fid": "0x887f9dcb3a4749fb:0x509ddf29d8b4d44c",
    "cid": "5809044465200190540",
    "reviewsCount": 33,
    "imagesCount": 9,
    "imageCategories": [],
    "scrapedAt": "2025-06-22T06:39:06.887Z",
    "googleFoodUrl": null,
    "hotelAds": [],
    "openingHours": [
      {
        "day": "Monday",
        "hours": "9\u202fAM to 5\u202fPM"
      },
      {
        "day": "Tuesday",
        "hours": "9\u202fAM to 5\u202fPM"
      },
      {
        "day": "Wednesday",
        "hours": "9\u202fAM to 5\u202fPM"
      },
      {
        "day": "Thursday",
        "hours": "9\u202fAM to 5\u202fPM"
      },
      {
        "day": "Friday",
        "hours": "9\u202fAM to 5\u202fPM"
      },
      {
        "day": "Saturday",
        "hours": "Closed"
      },
      {
        "day": "Sunday",
        "hours": "Closed"
      }
    ],
    "peopleAlsoSearch": [],
    "placesTags": [],
    "reviewsTags": [],
    "additionalInfo": {
      "From the business": [
        {
          "Small business": true
        }
      ],
      "Service options": [
        {
          "Delivery": true
        },
        {
          "In-store pickup": true
        }
      ],
      "Accessibility": [
        {
          "Wheelchair accessible entrance": true
        },
        {
          "Wheelchair accessible parking lot": true
        }
      ],
      "Payments": [
        {
          "Debit cards": true
        },
        {
          "NFC mobile payments": true
        },
        {
          "Credit cards": true
        }
      ]
    },
    "gasPrices": [],
    "url": "https://www.google.com/maps/search/?api=1&query=Regel%20Pharmalab&query_place_id=ChIJ-0lHOsudf4gRTNS02CnfnVA",
    "searchPageUrl": "https://www.google.com/maps/search/independent%20pharmacy%20Memphis%20TN/@62.75796630367604,-168.95302698266974,11z?hl=en",
    "searchString": "independent pharmacy Memphis TN",
    "language": "en",
    "rank": 18,
    "isAdvertisement": false,
    "imageUrl": "https://lh3.googleusercontent.com/gps-cs-s/AC9h4no0I8oc3iThRuWVAQiNnUg35tbqTEB8vYUMsD_DpcAzXSYVo3JyPbrEXDMOdp28GFcwnXiqLhRBLA-NVwiO2AIkGjyXKDTLqsi2E9lyqPg4Lg5ZzuoeCGy2VHBK1pgrLvfvOwLE=w426-h240-k-no",
    "kgmid": "/g/1tfmp4dj",
    "classification": "independent",
    "is_independent": true,
    "is_compounding": false,
    "confidence": 0.85,
    "source": "perplexity",
    "method": "llm"
  },
  {
    "title": "CVS Pharmacy",
    "price": null,
    "categoryName": "Pharmacy",
    "address": "2115 Union Ave, Memphis, TN 38104",
    "neighborhood": "Midtown",
    "street": "2115 Union Ave",
    "city": "Memphis",
    "postalCode": "38104",
    "state": "Tennessee",
    "countryCode": "US",
    "website": "https://www.cvs.com/store-locator/memphis-tn-pharmacies/2115-union-ave-memphis-tn-38104/storeid=4992?WT.mc_id=LS_GOOGLE_RX_4992",
    "phone": "(901) 274-4085",
    "phoneUnformatted": "+19012744085",
    "claimThisBusiness": false,
    "location": {
      "lat": 35.1334958,
      "lng": -89.9907462
    },
    "totalScore": 4,
    "permanentlyClosed": false,
    "temporarilyClosed": false,
    "placeId": "ChIJ--NVHq6Af4gRc1HlHe58-5U",
    "categories": [
      "Pharmacy"
    ],
    "fid": "0x887f80ae1e55e3fb:0x95fb7cee1de55173",
    "cid": "10807369092951265651",
    "reviewsCount": 76,
    "imagesCount": 40,
    "imageCategories": [],
    "scrapedAt": "2025-06-22T06:39:06.887Z",
    "googleFoodUrl": null,
    "hotelAds": [],
    "openingHours": [
      {
        "day": "Monday",
        "hours": "12\u202fAM to 1:30\u202fPM, 2\u202fPM to 12\u202fAM"
      },
      {
        "day": "Tuesday",
        "hours": "12\u202fAM to 1:30\u202fPM, 2\u202fPM to 12\u202fAM"
      },
      {
        "day": "Wednesday",
        "hours": "12\u202fAM to 1:30\u202fPM, 2\u202fPM to 12\u202fAM"
      },
      {
        "day": "Thursday",
        "hours": "12\u202fAM to 1:30\u202fPM, 2\u202fPM to 12\u202fAM"
      },
      {
        "day": "Friday",
        "hours": "12\u202fAM to 1:30\u202fPM, 2\u202fPM to 12\u202fAM"
      },
      {
        "day": "Saturday",
        "hours": "12\u202fAM to 1:30\u202fPM, 2\u202fPM to 12\u202fAM"
      },
      {
        "day": "Sunday",
        "hours": "12\u202fAM to 1:30\u202fPM, 2\u202fPM to 12\u202fAM"
      }
    ],
    "peopleAlsoSearch": [],
    "placesTags": [],
    "reviewsTags": [],
    "additionalInfo": {
      "Service options": [
        {
          "Delivery": true
        },
        {
          "Drive-through": true
        },
        {
          "In-store shopping": true
        },
        {
          "Onsite services": true
        }
      ],
      "Accessibility": [
        {
          "Wheelchair accessible entrance": true
        },
        {
          "Wheelchair accessible parking lot": true
        }
      ],
      "Offerings": [
        {
          "Medication disposal": true
        },
        {
          "Naloxone": true
        },
        {
          "Passport photos": true
        }
      ],
      "Crowd": [
        {
          "LGBTQ+ friendly": true
        },
        {
          "Transgender safespace": true
        }
      ],
      "Planning": [
        {
          "Quick visit": true
        }
      ],
      "Payments": [
        {
          "Credit cards": true
        },
        {
          "Debit cards": true
        },
        {
          "SNAP/EBT": true
        },
        {
          "Credit cards": true
        }
      ]
    },
    "gasPrices": [],
    "url": "https://www.google.com/maps/search/?api=1&query=CVS%20Pharmacy&query_place_id=ChIJ--NVHq6Af4gRc1HlHe58-5U",
    "searchPageUrl": "https://www.google.com/maps/search/independent%20pharmacy%20Memphis%20TN/@62.75796630367604,-168.95302698266974,11z?hl=en",
    "searchString": "independent pharmacy Memphis TN",
    "language": "en",
    "rank": 19,
    "isAdvertisement": false,
    "imageUrl": "https://lh3.googleusercontent.com/p/AF1QipOKlwBVpyTgadQQ24rAJExy-hQG1lQshawDnl6c=w408-h272-k-no",
    "kgmid": "/g/11c468w717",
    "classification": "chain",
    "is_independent": false,
    "confidence": 1.0,
    "source": "rule-based"
  },
  {
    "title": "Walgreens Pharmacy",
    "description": "Department of the Walgreens chain providing prescription medications & other health-related items.",
    "price": "$$",
    "categoryName": "Pharmacy",
    "address": "1863 Union Ave, Memphis, TN 38104",
    "neighborhood": "Midtown",
    "street": "1863 Union Ave",
    "city": "Memphis",
    "postalCode": "38104",
    "state": "Tennessee",
    "countryCode": "US",
    "website": "https://www.walgreens.com/locator/walgreens-1863+union+ave-memphis-tn-38104/id=3473",
    "phone": "(901) 272-2006",
    "phoneUnformatted": "+19012722006",
    "claimThisBusiness": false,
    "location": {
      "lat": 35.13464,
      "lng": -89.9993703
    },
    "totalScore": 2.3,
    "permanentlyClosed": false,
    "temporarilyClosed": false,
    "placeId": "ChIJl0muz6mAf4gRiJbtPlyFrKs",
    "categories": [
      "Pharmacy"
    ],
    "fid": "0x887f80a9cfae4997:0xabac855c3eed9688",
    "cid": "12370408907719153288",
    "reviewsCount": 42,
    "imagesCount": 3,
    "imageCategories": [],
    "scrapedAt": "2025-06-22T06:39:06.887Z",
    "googleFoodUrl": null,
    "hotelAds": [],
    "openingHours": [
      {
        "day": "Monday",
        "hours": "2\u202fAM to 1:30\u202fAM"
      },
      {
        "day": "Tuesday",
        "hours": "2\u202fAM to 1:30\u202fAM"
      },
      {
        "day": "Wednesday",
        "hours": "2\u202fAM to 1:30\u202fAM"
      },
      {
        "day": "Thursday",
        "hours": "2\u202fAM to 1:30\u202fAM"
      },
      {
        "day": "Friday",
        "hours": "2\u202fAM to 1:30\u202fAM"
      },
      {
        "day": "Saturday",
        "hours": "2\u202fAM to 1:30\u202fAM"
      },
      {
        "day": "Sunday",
        "hours": "2\u202fAM to 1:30\u202fAM"
      }
    ],
    "additionalOpeningHours": {
      "Drive through": [
        {
          "day": "Monday",
          "hours": "2\u202fAM\u20131:30\u202fAM"
        },
        {
          "day": "Tuesday",
          "hours": "2\u202fAM\u20131:30\u202fAM"
        },
        {
          "day": "Wednesday",
          "hours": "2\u202fAM\u20131:30\u202fAM"
        },
        {
          "day": "Thursday",
          "hours": "2\u202fAM\u20131:30\u202fAM"
        },
        {
          "day": "Friday",
          "hours": "2\u202fAM\u20131:30\u202fAM"
        },
        {
          "day": "Saturday",
          "hours": "2\u202fAM\u20131:30\u202fAM"
        },
        {
          "day": "Sunday",
          "hours": "2\u202fAM\u20131:30\u202fAM"
        }
      ]
    },
    "peopleAlsoSearch": [],
    "placesTags": [],
    "reviewsTags": [],
    "additionalInfo": {
      "Service options": [
        {
          "Curbside pickup": true
        },
        {
          "Delivery": true
        },
        {
          "Drive-through": true
        },
        {
          "In-store pickup": true
        },
        {
          "Onsite services": true
        }
      ],
      "Accessibility": [
        {
          "Wheelchair accessible entrance": true
        },
        {
          "Wheelchair accessible parking lot": true
        }
      ],
      "Offerings": [
        {
          "Medication disposal": true
        },
        {
          "Naloxone": true
        },
        {
          "Passport photos": true
        }
      ],
      "Planning": [
        {
          "Quick visit": true
        }
      ],
      "Payments": [
        {
          "Checks": true
        },
        {
          "Credit cards": true
        },
        {
          "Debit cards": true
        }
      ]
    },
    "gasPrices": [],
    "url": "https://www.google.com/maps/search/?api=1&query=Walgreens%20Pharmacy&query_place_id=ChIJl0muz6mAf4gRiJbtPlyFrKs",
    "searchPageUrl": "https://www.google.com/maps/search/independent%20pharmacy%20Memphis%20TN/@62.75796630367604,-168.95302698266974,11z?hl=en",
    "searchString": "independent pharmacy Memphis TN",
    "language": "en",
    "rank": 20,
    "isAdvertisement": false,
    "imageUrl": "https://lh3.googleusercontent.com/p/AF1QipNajZat4WGO5YgIejEUtsdAMkD23lmm2JiakB9t=w525-h240-k-no",
    "kgmid": "/g/11cn949vk9",
    "classification": "chain",
    "is_independent": false,
    "confidence": 1.0,
    "source": "rule-based"
  }
]