[
  {
    "title": "Midtown Pharmacy of Miami Beach, Florida",
    "price": null,
    "categoryName": "Pharmacy",
    "address": "753 Arthur Godfrey Rd, Miami Beach, FL 33140",
    "neighborhood": "Nautilus",
    "street": "753 Arthur Godfrey Rd",
    "city": "Miami Beach",
    "postalCode": "33140",
    "state": "Florida",
    "countryCode": "US",
    "phone": "(305) 531-5816",
    "phoneUnformatted": "+13055315816",
    "claimThisBusiness": true,
    "location": {
      "lat": 25.8140059,
      "lng": -80.1319908
    },
    "totalScore": 4.7,
    "permanentlyClosed": false,
    "temporarilyClosed": false,
    "placeId": null,
    "categories": [
      "Pharmacy"
    ],
    "fid": "0x88d9b37029d998ad:0xf4d87859f662c139",
    "cid": "17642983868005007673",
    "reviewsCount": 36,
    "imagesCount": 1,
    "imageCategories": [],
    "scrapedAt": "2025-06-22T04:22:08.138Z",
    "googleFoodUrl": null,
    "hotelAds": [],
    "openingHours": [
      {
        "day": "Monday",
        "hours": "9:30\u202fAM to 6\u202fPM"
      },
      {
        "day": "Tuesday",
        "hours": "9:30\u202fAM to 6\u202fPM"
      },
      {
        "day": "Wednesday",
        "hours": "9:30\u202fAM to 6\u202fPM"
      },
      {
        "day": "Thursday",
        "hours": "9:30\u202fAM to 6\u202fPM"
      },
      {
        "day": "Friday",
        "hours": "9:30\u202fAM to 6\u202fPM"
      },
      {
        "day": "Saturday",
        "hours": "Closed"
      },
      {
        "day": "Sunday",
        "hours": "Closed"
      }
    ],
    "peopleAlsoSearch": [],
    "placesTags": [],
    "reviewsTags": [],
    "additionalInfo": {
      "Service options": [
        {
          "Delivery": true
        },
        {
          "In-store pickup": true
        }
      ],
      "Accessibility": [
        {
          "Wheelchair accessible entrance": true
        },
        {
          "Wheelchair accessible parking lot": true
        }
      ],
      "Payments": [
        {
          "Credit cards": true
        },
        {
          "Debit cards": true
        },
        {
          "NFC mobile payments": true
        },
        {
          "Credit cards": true
        }
      ]
    },
    "gasPrices": [],
    "url": "https://www.google.com/maps/search/?api=1&query=Midtown%20Pharmacy%20of%20Miami%20Beach%2C%20Florida&query_place_id=ChIJrZjZKXCz2YgROcFi9ll42PQ",
    "searchPageUrl": "https://www.google.com/maps/search/independent%20pharmacy%20Miami%20FL/@52.48183889042627,-173.06656398612373,11z?hl=en",
    "searchString": "independent pharmacy Miami FL",
    "language": "en",
    "rank": 1,
    "isAdvertisement": false,
    "imageUrl": "https://streetviewpixels-pa.googleapis.com/v1/thumbnail?panoid=i71Xcj7eigYzITbo9uIeEQ&cb_client=search.gws-prod.gps&w=408&h=240&yaw=13.66699&pitch=0&thumbfov=100",
    "kgmid": "/g/1tfbtpcj",
    "classification": "independent",
    "is_independent": true,
    "is_compounding": false,
    "confidence": 0.9,
    "source": "perplexity",
    "method": "llm"
  },
  {
    "title": "SMP Pharmacy Solutions: Retail & Specialty",
    "price": null,
    "categoryName": "Pharmacy",
    "address": "7500 NW 26th St, Miami, FL 33122",
    "neighborhood": null,
    "street": "7500 NW 26th St",
    "city": "Miami",
    "postalCode": "33122",
    "state": "Florida",
    "countryCode": "US",
    "website": "https://smppharmacy.com/?utm_source=local&utm_medium=organic&utm_campaign=Googlemybusiness",
    "phone": "(855) 255-5005",
    "phoneUnformatted": "+18552555005",
    "claimThisBusiness": false,
    "location": {
      "lat": 25.7978129,
      "lng": -80.3188981
    },
    "totalScore": 4.4,
    "permanentlyClosed": false,
    "temporarilyClosed": false,
    "placeId": null,
    "categories": [
      "Pharmacy"
    ],
    "fid": "0x88d9c7ee5f2d35e7:0x72ba125cf5ce06f7",
    "cid": "8266940256462178039",
    "reviewsCount": 497,
    "imagesCount": 72,
    "imageCategories": [],
    "scrapedAt": "2025-06-22T04:22:08.140Z",
    "googleFoodUrl": null,
    "hotelAds": [],
    "openingHours": [
      {
        "day": "Monday",
        "hours": "9\u202fAM to 7\u202fPM"
      },
      {
        "day": "Tuesday",
        "hours": "9\u202fAM to 7\u202fPM"
      },
      {
        "day": "Wednesday",
        "hours": "9\u202fAM to 7\u202fPM"
      },
      {
        "day": "Thursday",
        "hours": "9\u202fAM to 7\u202fPM"
      },
      {
        "day": "Friday",
        "hours": "9\u202fAM to 7\u202fPM"
      },
      {
        "day": "Saturday",
        "hours": "10\u202fAM to 2\u202fPM"
      },
      {
        "day": "Sunday",
        "hours": "10\u202fAM to 2\u202fPM"
      }
    ],
    "peopleAlsoSearch": [],
    "placesTags": [],
    "reviewsTags": [],
    "additionalInfo": {
      "Service options": [
        {
          "Delivery": true
        },
        {
          "In-store pickup": true
        },
        {
          "Same-day delivery": true
        }
      ],
      "Accessibility": [
        {
          "Wheelchair accessible entrance": true
        },
        {
          "Wheelchair accessible parking lot": true
        }
      ],
      "Amenities": [
        {
          "Wi-Fi": true
        },
        {
          "Free Wi-Fi": true
        }
      ],
      "Crowd": [
        {
          "LGBTQ+ friendly": true
        },
        {
          "Transgender safespace": true
        }
      ],
      "Planning": [
        {
          "Quick visit": true
        }
      ],
      "Payments": [
        {
          "Checks": true
        },
        {
          "Credit cards": true
        },
        {
          "Debit cards": true
        },
        {
          "NFC mobile payments": true
        },
        {
          "Credit cards": true
        }
      ]
    },
    "gasPrices": [],
    "url": "https://www.google.com/maps/search/?api=1&query=SMP%20Pharmacy%20Solutions%3A%20Retail%20%26%20Specialty&query_place_id=ChIJ5zUtX-7H2YgR9wbO9VwSunI",
    "searchPageUrl": "https://www.google.com/maps/search/independent%20pharmacy%20Miami%20FL/@52.48183889042627,-173.06656398612373,11z?hl=en",
    "searchString": "independent pharmacy Miami FL",
    "language": "en",
    "rank": 2,
    "isAdvertisement": false,
    "imageUrl": "https://lh3.googleusercontent.com/p/AF1QipMd800CyDeXOORcdoNnQ_elNlnNGPsY426IVmc2=w480-h240-k-no",
    "kgmid": "/g/12hkl249l",
    "classification": "independent",
    "is_independent": true,
    "is_compounding": false,
    "confidence": 0.9,
    "source": "perplexity",
    "method": "llm"
  },
  {
    "title": "Marco Drugs & Compounding",
    "price": null,
    "categoryName": "Pharmacy",
    "address": "6420 SW 62nd Ave, South Miami, FL 33143",
    "neighborhood": null,
    "street": "6420 SW 62nd Ave",
    "city": "South Miami",
    "postalCode": "33143",
    "state": "Florida",
    "countryCode": "US",
    "website": "https://marcodrugs.com/",
    "phone": "(305) 665-4411",
    "phoneUnformatted": "+13056654411",
    "claimThisBusiness": false,
    "location": {
      "lat": 25.7107291,
      "lng": -80.2940274
    },
    "totalScore": 4.5,
    "permanentlyClosed": false,
    "temporarilyClosed": false,
    "placeId": null,
    "categories": [
      "Pharmacy",
      "Drug store",
      "Veterinary pharmacy"
    ],
    "fid": "0x88d9c7956f12489d:0x57030e9a51ccceb4",
    "cid": "6269871162189991604",
    "reviewsCount": 80,
    "imagesCount": 128,
    "imageCategories": [],
    "scrapedAt": "2025-06-22T04:22:08.140Z",
    "googleFoodUrl": null,
    "hotelAds": [],
    "openingHours": [
      {
        "day": "Monday",
        "hours": "10\u202fAM to 6\u202fPM"
      },
      {
        "day": "Tuesday",
        "hours": "10\u202fAM to 6\u202fPM"
      },
      {
        "day": "Wednesday",
        "hours": "10\u202fAM to 6\u202fPM"
      },
      {
        "day": "Thursday",
        "hours": "10\u202fAM to 6\u202fPM"
      },
      {
        "day": "Friday",
        "hours": "10\u202fAM to 6\u202fPM"
      },
      {
        "day": "Saturday",
        "hours": "10\u202fAM to 1\u202fPM"
      },
      {
        "day": "Sunday",
        "hours": "Closed"
      }
    ],
    "additionalOpeningHours": {
      "Drive through": [
        {
          "day": "Monday",
          "hours": "10\u202fAM\u20136\u202fPM"
        },
        {
          "day": "Tuesday",
          "hours": "10\u202fAM\u20136\u202fPM"
        },
        {
          "day": "Wednesday",
          "hours": "10\u202fAM\u20136\u202fPM"
        },
        {
          "day": "Thursday",
          "hours": "10\u202fAM\u20136\u202fPM"
        },
        {
          "day": "Friday",
          "hours": "10\u202fAM\u20136\u202fPM"
        },
        {
          "day": "Saturday",
          "hours": "10\u202fAM\u20131\u202fPM"
        },
        {
          "day": "Sunday",
          "hours": "Closed"
        }
      ]
    },
    "peopleAlsoSearch": [],
    "placesTags": [],
    "reviewsTags": [],
    "additionalInfo": {
      "From the business": [
        {
          "Identifies as Latino-owned": true
        },
        {
          "Identifies as women-owned": true
        },
        {
          "Small business": true
        }
      ],
      "Service options": [
        {
          "Curbside pickup": true
        },
        {
          "Delivery": true
        },
        {
          "Drive-through": true
        },
        {
          "In-store pickup": true
        },
        {
          "In-store shopping": true
        },
        {
          "Onsite services": true
        },
        {
          "Same-day delivery": true
        },
        {
          "Spanish": true
        }
      ],
      "Accessibility": [
        {
          "Wheelchair accessible entrance": true
        },
        {
          "Wheelchair accessible parking lot": true
        }
      ],
      "Crowd": [
        {
          "LGBTQ+ friendly": true
        }
      ],
      "Planning": [
        {
          "Quick visit": true
        }
      ],
      "Payments": [
        {
          "Credit cards": true
        },
        {
          "Debit cards": true
        },
        {
          "NFC mobile payments": true
        },
        {
          "Credit cards": true
        }
      ]
    },
    "gasPrices": [],
    "url": "https://www.google.com/maps/search/?api=1&query=Marco%20Drugs%20%26%20Compounding&query_place_id=ChIJnUgSb5XH2YgRtM7MUZoOA1c",
    "searchPageUrl": "https://www.google.com/maps/search/independent%20pharmacy%20Miami%20FL/@52.48183889042627,-173.06656398612373,11z?hl=en",
    "searchString": "independent pharmacy Miami FL",
    "language": "en",
    "rank": 3,
    "isAdvertisement": false,
    "imageUrl": "https://lh3.googleusercontent.com/p/AF1QipP_81ewzqSl8nH7eCth1xa2Fl8GvpTWwylfxu9D=w408-h271-k-no",
    "kgmid": "/g/1tdnxq89",
    "classification": "independent",
    "is_independent": true,
    "is_compounding": true,
    "confidence": 0.95,
    "source": "perplexity",
    "method": "llm"
  },
  {
    "title": "VH Pharmacy - Miami Pharmacy",
    "description": "Filling prescriptions as well as offering over-the-counter medications, health & general-use items.",
    "price": null,
    "categoryName": "Pharmacy",
    "address": "1000 SW 1st St, Miami, FL 33130",
    "neighborhood": "Little Havana",
    "street": "1000 SW 1st St",
    "city": "Miami",
    "postalCode": "33130",
    "state": "Florida",
    "countryCode": "US",
    "website": "http://www.vhpharmacyrx.com/",
    "phone": "(305) 324-8777",
    "phoneUnformatted": "+13053248777",
    "claimThisBusiness": false,
    "location": {
      "lat": 25.772461,
      "lng": -80.2115988
    },
    "totalScore": 4.6,
    "permanentlyClosed": false,
    "temporarilyClosed": false,
    "placeId": null,
    "categories": [
      "Pharmacy",
      "Convenience store"
    ],
    "fid": "0x88d9b6ed1ed29877:0xa6a3d9bafcd87176",
    "cid": "12007680428629062006",
    "reviewsCount": 12,
    "imagesCount": 3,
    "imageCategories": [],
    "scrapedAt": "2025-06-22T04:22:08.140Z",
    "googleFoodUrl": null,
    "hotelAds": [],
    "openingHours": [
      {
        "day": "Monday",
        "hours": "8:30\u202fAM to 5\u202fPM"
      },
      {
        "day": "Tuesday",
        "hours": "8:30\u202fAM to 5\u202fPM"
      },
      {
        "day": "Wednesday",
        "hours": "8:30\u202fAM to 5\u202fPM"
      },
      {
        "day": "Thursday",
        "hours": "8:30\u202fAM to 5\u202fPM"
      },
      {
        "day": "Friday",
        "hours": "8:30\u202fAM to 5\u202fPM"
      },
      {
        "day": "Saturday",
        "hours": "Closed"
      },
      {
        "day": "Sunday",
        "hours": "Closed"
      }
    ],
    "peopleAlsoSearch": [],
    "placesTags": [],
    "reviewsTags": [],
    "additionalInfo": {
      "From the business": [
        {
          "Small business": true
        }
      ],
      "Service options": [
        {
          "Delivery": true
        },
        {
          "In-store pickup": true
        },
        {
          "In-store shopping": true
        },
        {
          "Same-day delivery": true
        }
      ],
      "Accessibility": [
        {
          "Wheelchair accessible entrance": true
        },
        {
          "Wheelchair accessible parking lot": true
        }
      ],
      "Amenities": [
        {
          "Wi-Fi": true
        },
        {
          "Free Wi-Fi": true
        }
      ],
      "Payments": [
        {
          "Credit cards": true
        },
        {
          "Debit cards": true
        },
        {
          "NFC mobile payments": true
        },
        {
          "Credit cards": true
        }
      ]
    },
    "gasPrices": [],
    "url": "https://www.google.com/maps/search/?api=1&query=VH%20Pharmacy%20-%20Miami%20Pharmacy&query_place_id=ChIJd5jSHu222YgRdnHY_LrZo6Y",
    "searchPageUrl": "https://www.google.com/maps/search/independent%20pharmacy%20Miami%20FL/@52.48183889042627,-173.06656398612373,11z?hl=en",
    "searchString": "independent pharmacy Miami FL",
    "language": "en",
    "rank": 4,
    "isAdvertisement": false,
    "imageUrl": "https://lh3.googleusercontent.com/p/AF1QipOhx3mNGV0eV0BQhLM9zUxf4wOGvkFBGks9uRE=w408-h306-k-no",
    "kgmid": "/g/1tfxhh6q",
    "classification": "independent",
    "is_independent": true,
    "is_compounding": true,
    "confidence": 0.95,
    "source": "perplexity",
    "method": "llm"
  },
  {
    "title": "South Point Pharmacy",
    "price": null,
    "categoryName": "Pharmacy",
    "address": "1864 W Flagler St, Miami, FL 33135",
    "neighborhood": "Little Havana",
    "street": "1864 W Flagler St",
    "city": "Miami",
    "postalCode": "33135",
    "state": "Florida",
    "countryCode": "US",
    "phone": "(305) 541-8699",
    "phoneUnformatted": "+13055418699",
    "claimThisBusiness": true,
    "location": {
      "lat": 25.7725135,
      "lng": -80.2259587
    },
    "totalScore": 4,
    "permanentlyClosed": false,
    "temporarilyClosed": false,
    "placeId": null,
    "categories": [
      "Pharmacy"
    ],
    "fid": "0x88d9b6e490c83881:0x31a20ee2740389dd",
    "cid": "3576437419857381853",
    "reviewsCount": 4,
    "imagesCount": 1,
    "imageCategories": [],
    "scrapedAt": "2025-06-22T04:22:08.141Z",
    "googleFoodUrl": null,
    "hotelAds": [],
    "openingHours": [],
    "peopleAlsoSearch": [],
    "placesTags": [],
    "reviewsTags": [],
    "additionalInfo": {
      "Service options": [
        {
          "Delivery": true
        }
      ],
      "Accessibility": [
        {
          "Wheelchair accessible entrance": true
        },
        {
          "Wheelchair accessible parking lot": true
        }
      ],
      "Planning": [
        {
          "Quick visit": true
        }
      ],
      "Payments": [
        {
          "Credit cards": true
        }
      ]
    },
    "gasPrices": [],
    "url": "https://www.google.com/maps/search/?api=1&query=South%20Point%20Pharmacy&query_place_id=ChIJgTjIkOS22YgR3YkDdOIOojE",
    "searchPageUrl": "https://www.google.com/maps/search/independent%20pharmacy%20Miami%20FL/@52.48183889042627,-173.06656398612373,11z?hl=en",
    "searchString": "independent pharmacy Miami FL",
    "language": "en",
    "rank": 5,
    "isAdvertisement": false,
    "imageUrl": "https://streetviewpixels-pa.googleapis.com/v1/thumbnail?panoid=ts2E6aLKYhlwx_Wp2TgNGA&cb_client=search.gws-prod.gps&w=408&h=240&yaw=177.02963&pitch=0&thumbfov=100",
    "kgmid": "/g/1vrqbflb",
    "classification": "independent",
    "is_independent": true,
    "is_compounding": false,
    "confidence": 0.9,
    "source": "perplexity",
    "method": "llm"
  },
  {
    "title": "Finest Pharmacy & Compounds",
    "price": null,
    "categoryName": "Pharmacy",
    "address": "8410 W Flagler St Suite 105 B, Miami, FL 33144",
    "neighborhood": null,
    "street": "8410 W Flagler St Suite 105 B",
    "city": "Miami",
    "postalCode": "33144",
    "state": "Florida",
    "countryCode": "US",
    "phone": "(786) 536-7346",
    "phoneUnformatted": "+17865367346",
    "claimThisBusiness": false,
    "location": {
      "lat": 25.7688842,
      "lng": -80.333257
    },
    "totalScore": 5,
    "permanentlyClosed": false,
    "temporarilyClosed": false,
    "placeId": null,
    "categories": [
      "Pharmacy"
    ],
    "fid": "0x88d9b90adf4da0c9:0x313bb187dbf87fee",
    "cid": "3547624328553594862",
    "reviewsCount": 17,
    "imagesCount": 6,
    "imageCategories": [],
    "scrapedAt": "2025-06-22T04:22:08.141Z",
    "googleFoodUrl": null,
    "hotelAds": [],
    "openingHours": [
      {
        "day": "Monday",
        "hours": "9\u202fAM to 6\u202fPM"
      },
      {
        "day": "Tuesday",
        "hours": "9\u202fAM to 6\u202fPM"
      },
      {
        "day": "Wednesday",
        "hours": "9\u202fAM to 6\u202fPM"
      },
      {
        "day": "Thursday",
        "hours": "9\u202fAM to 6\u202fPM"
      },
      {
        "day": "Friday",
        "hours": "9\u202fAM to 6\u202fPM"
      },
      {
        "day": "Saturday",
        "hours": "10\u202fAM to 4\u202fPM"
      },
      {
        "day": "Sunday",
        "hours": "Closed"
      }
    ],
    "peopleAlsoSearch": [],
    "placesTags": [],
    "reviewsTags": [],
    "additionalInfo": {
      "From the business": [
        {
          "Small business": true
        }
      ],
      "Service options": [
        {
          "Delivery": true
        }
      ],
      "Accessibility": [
        {
          "Wheelchair accessible entrance": true
        },
        {
          "Wheelchair accessible parking lot": true
        }
      ],
      "Planning": [
        {
          "Quick visit": true
        }
      ],
      "Payments": [
        {
          "Credit cards": true
        },
        {
          "Debit cards": true
        },
        {
          "NFC mobile payments": true
        },
        {
          "Credit cards": true
        }
      ]
    },
    "gasPrices": [],
    "url": "https://www.google.com/maps/search/?api=1&query=Finest%20Pharmacy%20%26%20Compounds&query_place_id=ChIJyaBN3wq52YgR7n_424exOzE",
    "searchPageUrl": "https://www.google.com/maps/search/independent%20pharmacy%20Miami%20FL/@52.48183889042627,-173.06656398612373,11z?hl=en",
    "searchString": "independent pharmacy Miami FL",
    "language": "en",
    "rank": 6,
    "isAdvertisement": false,
    "imageUrl": "https://lh3.googleusercontent.com/p/AF1QipMoJNiMMycfF9tVLDrmk571GgkxVUUSl7r0gDAr=w408-h544-k-no",
    "kgmid": "/g/11nfzchgbl",
    "classification": "independent",
    "is_independent": true,
    "is_compounding": true,
    "confidence": 0.9,
    "source": "perplexity",
    "method": "llm"
  },
  {
    "title": "San Lazaro Pharmacy & Discount",
    "price": null,
    "categoryName": "Pharmacy",
    "address": "2295 NW 28th St, Miami, FL 33142",
    "neighborhood": "Allapattah",
    "street": "2295 NW 28th St",
    "city": "Miami",
    "postalCode": "33142",
    "state": "Florida",
    "countryCode": "US",
    "phone": "(305) 635-2358",
    "phoneUnformatted": "+13056352358",
    "claimThisBusiness": false,
    "location": {
      "lat": 25.8020058,
      "lng": -80.2334837
    },
    "totalScore": 4.7,
    "permanentlyClosed": false,
    "temporarilyClosed": false,
    "placeId": null,
    "categories": [
      "Pharmacy",
      "Drug store"
    ],
    "fid": "0x88d9b72a3e1e66ab:0x8dafc5aa70fa2836",
    "cid": "10209596216102758454",
    "reviewsCount": 74,
    "imagesCount": 1,
    "imageCategories": [],
    "scrapedAt": "2025-06-22T04:22:08.141Z",
    "googleFoodUrl": null,
    "hotelAds": [],
    "openingHours": [
      {
        "day": "Monday",
        "hours": "8\u202fAM to 5\u202fPM"
      },
      {
        "day": "Tuesday",
        "hours": "8\u202fAM to 5\u202fPM"
      },
      {
        "day": "Wednesday",
        "hours": "8\u202fAM to 5\u202fPM"
      },
      {
        "day": "Thursday",
        "hours": "8\u202fAM to 5\u202fPM"
      },
      {
        "day": "Friday",
        "hours": "8\u202fAM to 5\u202fPM"
      },
      {
        "day": "Saturday",
        "hours": "9\u202fAM to 5\u202fPM"
      },
      {
        "day": "Sunday",
        "hours": "Closed"
      }
    ],
    "peopleAlsoSearch": [],
    "placesTags": [],
    "reviewsTags": [],
    "additionalInfo": {
      "From the business": [
        {
          "Small business": true
        }
      ],
      "Accessibility": [
        {
          "Wheelchair accessible entrance": true
        },
        {
          "Wheelchair accessible parking lot": true
        }
      ],
      "Planning": [
        {
          "Quick visit": true
        }
      ],
      "Payments": [
        {
          "Credit cards": true
        },
        {
          "Debit cards": true
        },
        {
          "Credit cards": true
        }
      ]
    },
    "gasPrices": [],
    "url": "https://www.google.com/maps/search/?api=1&query=San%20Lazaro%20Pharmacy%20%26%20Discount&query_place_id=ChIJq2YePiq32YgRNij6cKrFr40",
    "searchPageUrl": "https://www.google.com/maps/search/independent%20pharmacy%20Miami%20FL/@52.48183889042627,-173.06656398612373,11z?hl=en",
    "searchString": "independent pharmacy Miami FL",
    "language": "en",
    "rank": 7,
    "isAdvertisement": false,
    "imageUrl": "https://streetviewpixels-pa.googleapis.com/v1/thumbnail?panoid=-PFE_L8UOgEJ4en6LUbrFg&cb_client=search.gws-prod.gps&w=408&h=240&yaw=345.4572&pitch=0&thumbfov=100",
    "kgmid": "/g/1tfvzyvb",
    "classification": "independent",
    "is_independent": true,
    "is_compounding": false,
    "confidence": 0.9,
    "source": "perplexity",
    "method": "llm"
  },
  {
    "title": "Coconut Grove Pharmacy",
    "price": null,
    "categoryName": "Pharmacy",
    "address": "3001 SW 27th Ave #102, Miami, FL 33133",
    "neighborhood": "Coconut Grove",
    "street": "3001 SW 27th Ave #102",
    "city": "Miami",
    "postalCode": "33133",
    "state": "Florida",
    "countryCode": "US",
    "phone": "(305) 442-0211",
    "phoneUnformatted": "+13054420211",
    "claimThisBusiness": false,
    "location": {
      "lat": 25.7351508,
      "lng": -80.2374652
    },
    "totalScore": 4.2,
    "permanentlyClosed": false,
    "temporarilyClosed": false,
    "placeId": null,
    "categories": [
      "Pharmacy"
    ],
    "fid": "0x88d9b7ca1e0b6705:0x29208a8ac18e8fd",
    "cid": "185220055210453245",
    "reviewsCount": 64,
    "imagesCount": 8,
    "imageCategories": [],
    "scrapedAt": "2025-06-22T04:22:08.141Z",
    "googleFoodUrl": null,
    "hotelAds": [],
    "openingHours": [
      {
        "day": "Monday",
        "hours": "10\u202fAM to 6\u202fPM"
      },
      {
        "day": "Tuesday",
        "hours": "10\u202fAM to 6\u202fPM"
      },
      {
        "day": "Wednesday",
        "hours": "10\u202fAM to 6\u202fPM"
      },
      {
        "day": "Thursday",
        "hours": "10\u202fAM to 6\u202fPM"
      },
      {
        "day": "Friday",
        "hours": "10\u202fAM to 6\u202fPM"
      },
      {
        "day": "Saturday",
        "hours": "10\u202fAM to 3\u202fPM"
      },
      {
        "day": "Sunday",
        "hours": "Closed"
      }
    ],
    "peopleAlsoSearch": [],
    "placesTags": [],
    "reviewsTags": [],
    "additionalInfo": {
      "From the business": [
        {
          "Small business": true
        }
      ],
      "Service options": [
        {
          "Delivery": true
        },
        {
          "In-store pickup": true
        },
        {
          "In-store shopping": true
        },
        {
          "Onsite services": true
        },
        {
          "Same-day delivery": true
        },
        {
          "English": true
        }
      ],
      "Accessibility": [
        {
          "Wheelchair accessible entrance": true
        },
        {
          "Wheelchair accessible parking lot": true
        }
      ],
      "Crowd": [
        {
          "LGBTQ+ friendly": true
        },
        {
          "Transgender safespace": true
        }
      ],
      "Planning": [
        {
          "Quick visit": true
        }
      ],
      "Payments": [
        {
          "Cash-only": true
        },
        {
          "Credit cards": true
        },
        {
          "Debit cards": true
        },
        {
          "Credit cards": true
        }
      ],
      "Parking": [
        {
          "Free parking garage": true
        },
        {
          "Free parking lot": true
        },
        {
          "On-site parking": true
        }
      ]
    },
    "gasPrices": [],
    "url": "https://www.google.com/maps/search/?api=1&query=Coconut%20Grove%20Pharmacy&query_place_id=ChIJBWcLHsq32YgR_egYrKgIkgI",
    "searchPageUrl": "https://www.google.com/maps/search/independent%20pharmacy%20Miami%20FL/@52.48183889042627,-173.06656398612373,11z?hl=en",
    "searchString": "independent pharmacy Miami FL",
    "language": "en",
    "rank": 8,
    "isAdvertisement": false,
    "imageUrl": "https://lh3.googleusercontent.com/p/AF1QipN4_ohTkDBItjhAhfKUPzfp-2qqA2MrVtmUJbYp=w408-h306-k-no",
    "kgmid": "/g/1260t_rts",
    "classification": "independent",
    "is_independent": true,
    "is_compounding": false,
    "confidence": 0.85,
    "source": "perplexity",
    "method": "llm"
  },
  {
    "title": "Andres Pharmacy and Discount",
    "price": null,
    "categoryName": "Pharmacy",
    "address": "7167 SW 8th St, Miami, FL 33144",
    "neighborhood": "Flagami",
    "street": "7167 SW 8th St",
    "city": "Miami",
    "postalCode": "33144",
    "state": "Florida",
    "countryCode": "US",
    "website": "https://www.mygnp.com/pharmacies/andres-pharmacy-and-discount-miami-fl-33144/?utm_source=google&utm_medium=local&utm_campaign=localmaps&utm_content=1047150",
    "phone": "(305) 261-2822",
    "phoneUnformatted": "+13052612822",
    "claimThisBusiness": false,
    "location": {
      "lat": 25.7632004,
      "lng": -80.3116488
    },
    "totalScore": 4.6,
    "permanentlyClosed": false,
    "temporarilyClosed": false,
    "placeId": null,
    "categories": [
      "Pharmacy",
      "Drug store"
    ],
    "fid": "0x88d9b852921b0d2d:0xf9fe2b5c74adfe03",
    "cid": "18013883235623108099",
    "reviewsCount": 20,
    "imagesCount": 1,
    "imageCategories": [],
    "scrapedAt": "2025-06-22T04:22:08.141Z",
    "googleFoodUrl": null,
    "hotelAds": [],
    "openingHours": [
      {
        "day": "Monday",
        "hours": "9\u202fAM to 6\u202fPM"
      },
      {
        "day": "Tuesday",
        "hours": "9\u202fAM to 6\u202fPM"
      },
      {
        "day": "Wednesday",
        "hours": "9\u202fAM to 6\u202fPM"
      },
      {
        "day": "Thursday",
        "hours": "9\u202fAM to 6\u202fPM"
      },
      {
        "day": "Friday",
        "hours": "9\u202fAM to 6\u202fPM"
      },
      {
        "day": "Saturday",
        "hours": "9\u202fAM to 1\u202fPM"
      },
      {
        "day": "Sunday",
        "hours": "Closed"
      }
    ],
    "peopleAlsoSearch": [],
    "placesTags": [],
    "reviewsTags": [],
    "additionalInfo": {
      "Service options": [
        {
          "Delivery": true
        },
        {
          "In-store pickup": true
        },
        {
          "In-store shopping": true
        },
        {
          "Onsite services": true
        }
      ],
      "Accessibility": [
        {
          "Wheelchair accessible entrance": true
        },
        {
          "Wheelchair accessible parking lot": true
        }
      ],
      "Planning": [
        {
          "Quick visit": true
        }
      ],
      "Payments": [
        {
          "Credit cards": true
        },
        {
          "Debit cards": true
        },
        {
          "NFC mobile payments": true
        },
        {
          "Credit cards": true
        }
      ]
    },
    "gasPrices": [],
    "url": "https://www.google.com/maps/search/?api=1&query=Andres%20Pharmacy%20and%20Discount&query_place_id=ChIJLQ0bklK42YgRA_6tdFwr_vk",
    "searchPageUrl": "https://www.google.com/maps/search/independent%20pharmacy%20Miami%20FL/@52.48183889042627,-173.06656398612373,11z?hl=en",
    "searchString": "independent pharmacy Miami FL",
    "language": "en",
    "rank": 9,
    "isAdvertisement": false,
    "imageUrl": "https://streetviewpixels-pa.googleapis.com/v1/thumbnail?panoid=Z1p_Wz188AkLMD5dl16bIA&cb_client=search.gws-prod.gps&w=408&h=240&yaw=353.18527&pitch=0&thumbfov=100",
    "kgmid": "/g/1tcv_6q7",
    "classification": "independent",
    "is_independent": true,
    "is_compounding": false,
    "confidence": 0.9,
    "source": "perplexity",
    "method": "llm"
  },
  {
    "title": "Pure Pharmacy",
    "price": null,
    "categoryName": "Pharmacy",
    "address": "959 West Ave #7, Miami Beach, FL 33139",
    "neighborhood": "West Avenue",
    "street": "959 West Ave #7",
    "city": "Miami Beach",
    "postalCode": "33139",
    "state": "Florida",
    "countryCode": "US",
    "website": "http://www.purepharmacysobe.com/",
    "phone": "(305) 532-1300",
    "phoneUnformatted": "+13055321300",
    "claimThisBusiness": false,
    "location": {
      "lat": 25.7798672,
      "lng": -80.1417955
    },
    "totalScore": 4.6,
    "permanentlyClosed": false,
    "temporarilyClosed": false,
    "placeId": null,
    "categories": [
      "Pharmacy"
    ],
    "fid": "0x88d9b48a61669821:0xc9973020554b4f05",
    "cid": "14526132038534909701",
    "reviewsCount": 62,
    "imagesCount": 10,
    "imageCategories": [],
    "scrapedAt": "2025-06-22T04:22:08.142Z",
    "googleFoodUrl": null,
    "hotelAds": [],
    "openingHours": [
      {
        "day": "Monday",
        "hours": "9\u202fAM to 6\u202fPM"
      },
      {
        "day": "Tuesday",
        "hours": "9\u202fAM to 6\u202fPM"
      },
      {
        "day": "Wednesday",
        "hours": "9\u202fAM to 6\u202fPM"
      },
      {
        "day": "Thursday",
        "hours": "9\u202fAM to 6\u202fPM"
      },
      {
        "day": "Friday",
        "hours": "9\u202fAM to 6\u202fPM"
      },
      {
        "day": "Saturday",
        "hours": "9\u202fAM to 1\u202fPM"
      },
      {
        "day": "Sunday",
        "hours": "Closed"
      }
    ],
    "peopleAlsoSearch": [],
    "placesTags": [],
    "reviewsTags": [],
    "additionalInfo": {
      "From the business": [
        {
          "Small business": true
        }
      ],
      "Service options": [
        {
          "Delivery": true
        },
        {
          "In-store pickup": true
        },
        {
          "Same-day delivery": true
        }
      ],
      "Accessibility": [
        {
          "Wheelchair accessible entrance": true
        },
        {
          "Wheelchair accessible parking lot": true
        }
      ],
      "Planning": [
        {
          "Quick visit": true
        }
      ],
      "Payments": [
        {
          "Credit cards": true
        },
        {
          "Debit cards": true
        },
        {
          "NFC mobile payments": true
        },
        {
          "Credit cards": true
        }
      ]
    },
    "gasPrices": [],
    "url": "https://www.google.com/maps/search/?api=1&query=Pure%20Pharmacy&query_place_id=ChIJIZhmYYq02YgRBU9LVSAwl8k",
    "searchPageUrl": "https://www.google.com/maps/search/independent%20pharmacy%20Miami%20FL/@52.48183889042627,-173.06656398612373,11z?hl=en",
    "searchString": "independent pharmacy Miami FL",
    "language": "en",
    "rank": 10,
    "isAdvertisement": false,
    "imageUrl": "https://lh3.googleusercontent.com/p/AF1QipMYpO7kbtONlvxQFXqQniELfoKHAwLJvVKEK3B1=w408-h306-k-no",
    "kgmid": "/g/1tdg8lx7",
    "classification": "independent",
    "is_independent": true,
    "is_compounding": true,
    "confidence": 0.95,
    "source": "perplexity",
    "method": "llm"
  }
]