[
  {
    "title": "Bedard Pharmacy & Medical Supplies",
    "price": null,
    "categoryName": "Pharmacy",
    "address": null,
    "website": "http://mybedard.com/",
    "phone": "(207) 784-3700",
    "phoneUnformatted": "+12077843700",
    "claimThisBusiness": false,
    "location": {
      "lat": 44.08656,
      "lng": -70.2435696
    },
    "totalScore": 5,
    "permanentlyClosed": false,
    "temporarilyClosed": false,
    "placeId": null,
    "categories": [
      "Pharmacy",
      "Service establishment"
    ],
    "fid": "0xab831428575e3a25:0x8bdec22f3bce68aa",
    "cid": "10078706524224383146",
    "reviewsCount": 1,
    "imagesCount": null,
    "imageCategories": [],
    "scrapedAt": "2025-06-22T08:12:48.673Z",
    "googleFoodUrl": null,
    "hotelAds": [],
    "openingHours": [],
    "peopleAlsoSearch": [],
    "placesTags": [],
    "reviewsTags": [],
    "additionalInfo": {
      "Service options": [
        {
          "Delivery": true
        }
      ]
    },
    "gasPrices": [],
    "url": "https://www.google.com/maps/search/?api=1&query=Bedard%20Pharmacy%20%26%20Medical%20Supplies&query_place_id=ChIJJTpeVygUg6sRqmjOOy_C3os",
    "searchPageUrl": "https://www.google.com/maps/search/independent%20pharmacy%20Auburn%20ME/@66.43262335305997,-150.80891300000008,9z?hl=en",
    "searchString": "independent pharmacy Auburn ME",
    "language": "en",
    "rank": 1,
    "isAdvertisement": false,
    "kgmid": "/g/11rmqc1bcx",
    "classification": "independent",
    "is_independent": true,
    "is_compounding": false,
    "confidence": 0.9,
    "source": "perplexity",
    "method": "llm",
    "query_location": "auburn_me"
  },
  {
    "title": "Bedard Pharmacy",
    "price": null,
    "categoryName": "Pharmacy",
    "address": "359 Minot Ave, Auburn, ME 04210",
    "neighborhood": null,
    "street": "359 Minot Ave",
    "city": "Auburn",
    "postalCode": "04210",
    "state": "Maine",
    "countryCode": "US",
    "website": "https://www.mybedard.com/pharmacy",
    "phone": "(207) 783-1410",
    "phoneUnformatted": "+12077831410",
    "claimThisBusiness": false,
    "location": {
      "lat": 44.0852695,
      "lng": -70.2419194
    },
    "locatedIn": "Bedard Senior Care",
    "totalScore": 3.2,
    "permanentlyClosed": false,
    "temporarilyClosed": false,
    "placeId": null,
    "categories": [
      "Pharmacy"
    ],
    "fid": "0x4cb2697ead1d107b:0x5066b2c289d3b4a8",
    "cid": "5793514519264474280",
    "reviewsCount": 60,
    "imagesCount": 11,
    "imageCategories": [],
    "scrapedAt": "2025-06-22T08:12:48.675Z",
    "googleFoodUrl": null,
    "hotelAds": [],
    "openingHours": [
      {
        "day": "Monday",
        "hours": "8\u202fAM to 6\u202fPM"
      },
      {
        "day": "Tuesday",
        "hours": "8\u202fAM to 6\u202fPM"
      },
      {
        "day": "Wednesday",
        "hours": "8\u202fAM to 6\u202fPM"
      },
      {
        "day": "Thursday",
        "hours": "8\u202fAM to 6\u202fPM"
      },
      {
        "day": "Friday",
        "hours": "8\u202fAM to 6\u202fPM"
      },
      {
        "day": "Saturday",
        "hours": "9\u202fAM to 1\u202fPM"
      },
      {
        "day": "Sunday",
        "hours": "Closed"
      }
    ],
    "additionalOpeningHours": {
      "Bedard Senior Care": [
        {
          "day": "Monday",
          "hours": "8\u202fAM\u20135\u202fPM"
        },
        {
          "day": "Tuesday",
          "hours": "8\u202fAM\u20135\u202fPM"
        },
        {
          "day": "Wednesday",
          "hours": "8\u202fAM\u20135\u202fPM"
        },
        {
          "day": "Thursday",
          "hours": "8\u202fAM\u20135\u202fPM"
        },
        {
          "day": "Friday",
          "hours": "8\u202fAM\u20135\u202fPM"
        },
        {
          "day": "Saturday",
          "hours": "9\u202fAM\u20131\u202fPM"
        },
        {
          "day": "Sunday",
          "hours": "9\u202fAM\u20131\u202fPM"
        }
      ]
    },
    "peopleAlsoSearch": [],
    "placesTags": [],
    "reviewsTags": [],
    "additionalInfo": {
      "Service options": [
        {
          "Delivery": true
        },
        {
          "Drive-through": true
        },
        {
          "In-store pickup": true
        },
        {
          "Onsite services": true
        },
        {
          "Same-day delivery": true
        }
      ],
      "Accessibility": [
        {
          "Wheelchair accessible entrance": true
        },
        {
          "Wheelchair accessible parking lot": true
        }
      ],
      "Planning": [
        {
          "Quick visit": true
        }
      ],
      "Payments": [
        {
          "Credit cards": true
        },
        {
          "Debit cards": true
        },
        {
          "NFC mobile payments": true
        },
        {
          "Credit cards": true
        }
      ]
    },
    "gasPrices": [],
    "url": "https://www.google.com/maps/search/?api=1&query=Bedard%20Pharmacy&query_place_id=ChIJexAdrX5pskwRqLTTicKyZlA",
    "searchPageUrl": "https://www.google.com/maps/search/independent%20pharmacy%20Auburn%20ME/@66.43262335305997,-150.80891300000008,9z?hl=en",
    "searchString": "independent pharmacy Auburn ME",
    "language": "en",
    "rank": 3,
    "isAdvertisement": false,
    "imageUrl": "https://lh3.googleusercontent.com/p/AF1QipPhOnCLs4eV0xcr0nW8nI9Ocm38FjV8yyYFP-ti=w408-h278-k-no",
    "kgmid": "/g/1tmy4nhs",
    "classification": "independent",
    "is_independent": true,
    "is_compounding": false,
    "confidence": 0.9,
    "source": "perplexity",
    "method": "llm",
    "query_location": "auburn_me"
  },
  {
    "title": "CVS Pharmacy",
    "price": null,
    "categoryName": "Pharmacy",
    "address": "8 Union St, Auburn, ME 04210",
    "neighborhood": null,
    "street": "8 Union St",
    "city": "Auburn",
    "postalCode": "04210",
    "state": "Maine",
    "countryCode": "US",
    "website": "https://www.cvs.com/store-locator/auburn-me-pharmacies/8-union-street-auburn-me-04210/storeid=2382?WT.mc_id=LS_GOOGLE_RX_2382",
    "phone": "(207) 784-9101",
    "phoneUnformatted": "+12077849101",
    "claimThisBusiness": false,
    "location": {
      "lat": 44.0985105,
      "lng": -70.2318389
    },
    "totalScore": 4.6,
    "permanentlyClosed": false,
    "temporarilyClosed": false,
    "placeId": "ChIJhyW97s1rskwREeaBLsTdkKc",
    "categories": [
      "Pharmacy"
    ],
    "fid": "0x4cb26bcdeebd2587:0xa790ddc42e81e611",
    "cid": "12074394435643893265",
    "reviewsCount": 19,
    "imagesCount": 55,
    "imageCategories": [],
    "scrapedAt": "2025-06-22T08:12:48.675Z",
    "googleFoodUrl": null,
    "hotelAds": [],
    "openingHours": [
      {
        "day": "Monday",
        "hours": "8\u202fAM to 1:30\u202fPM, 2 to 8\u202fPM"
      },
      {
        "day": "Tuesday",
        "hours": "8\u202fAM to 1:30\u202fPM, 2 to 8\u202fPM"
      },
      {
        "day": "Wednesday",
        "hours": "8\u202fAM to 1:30\u202fPM, 2 to 8\u202fPM"
      },
      {
        "day": "Thursday",
        "hours": "8\u202fAM to 1:30\u202fPM, 2 to 8\u202fPM"
      },
      {
        "day": "Friday",
        "hours": "8\u202fAM to 1:30\u202fPM, 2 to 8\u202fPM"
      },
      {
        "day": "Saturday",
        "hours": "9\u202fAM to 1:30\u202fPM, 2 to 6\u202fPM"
      },
      {
        "day": "Sunday",
        "hours": "10\u202fAM to 1:30\u202fPM, 2 to 6\u202fPM"
      }
    ],
    "peopleAlsoSearch": [],
    "placesTags": [],
    "reviewsTags": [],
    "additionalInfo": {
      "Service options": [
        {
          "Delivery": true
        },
        {
          "Drive-through": true
        },
        {
          "In-store shopping": true
        },
        {
          "Onsite services": true
        }
      ],
      "Accessibility": [
        {
          "Wheelchair accessible entrance": true
        },
        {
          "Wheelchair accessible parking lot": true
        }
      ],
      "Offerings": [
        {
          "Medication disposal": true
        },
        {
          "Naloxone": true
        }
      ],
      "Crowd": [
        {
          "LGBTQ+ friendly": true
        },
        {
          "Transgender safespace": true
        }
      ],
      "Planning": [
        {
          "Quick visit": true
        }
      ],
      "Payments": [
        {
          "Credit cards": true
        },
        {
          "Debit cards": true
        },
        {
          "NFC mobile payments": true
        },
        {
          "SNAP/EBT": true
        },
        {
          "Credit cards": true
        }
      ]
    },
    "gasPrices": [],
    "url": "https://www.google.com/maps/search/?api=1&query=CVS%20Pharmacy&query_place_id=ChIJhyW97s1rskwREeaBLsTdkKc",
    "searchPageUrl": "https://www.google.com/maps/search/independent%20pharmacy%20Auburn%20ME/@66.43262335305997,-150.80891300000008,9z?hl=en",
    "searchString": "independent pharmacy Auburn ME",
    "language": "en",
    "rank": 4,
    "isAdvertisement": false,
    "imageUrl": "https://lh3.googleusercontent.com/p/AF1QipMNHBzUIF3kSdE8mI8m49Dzg1ysYdx-x_8GWqRE=w408-h272-k-no",
    "kgmid": "/g/11c462qbgw",
    "classification": "chain",
    "is_independent": false,
    "confidence": 1.0,
    "source": "rule-based"
  },
  {
    "title": "Bedard Senior Care",
    "price": null,
    "categoryName": "Pharmacy",
    "address": "359 Minot Ave, Auburn, ME 04210",
    "neighborhood": null,
    "street": "359 Minot Ave",
    "city": "Auburn",
    "postalCode": "04210",
    "state": "Maine",
    "countryCode": "US",
    "website": "https://www.mybedard.com/senior-care",
    "phone": "(207) 786-0139",
    "phoneUnformatted": "+12077860139",
    "claimThisBusiness": false,
    "location": {
      "lat": 44.0852695,
      "lng": -70.2419194
    },
    "totalScore": 4.8,
    "permanentlyClosed": false,
    "temporarilyClosed": false,
    "placeId": null,
    "categories": [
      "Pharmacy"
    ],
    "fid": "0x4cb2697ead1d107b:0x59e8445bcf668a04",
    "cid": "6478503225084774916",
    "reviewsCount": 5,
    "imagesCount": 9,
    "imageCategories": [],
    "scrapedAt": "2025-06-22T08:12:48.675Z",
    "googleFoodUrl": null,
    "hotelAds": [],
    "openingHours": [
      {
        "day": "Monday",
        "hours": "8\u202fAM to 5\u202fPM"
      },
      {
        "day": "Tuesday",
        "hours": "8\u202fAM to 5\u202fPM"
      },
      {
        "day": "Wednesday",
        "hours": "8\u202fAM to 5\u202fPM"
      },
      {
        "day": "Thursday",
        "hours": "8\u202fAM to 5\u202fPM"
      },
      {
        "day": "Friday",
        "hours": "8\u202fAM to 5\u202fPM"
      },
      {
        "day": "Saturday",
        "hours": "9\u202fAM to 1\u202fPM"
      },
      {
        "day": "Sunday",
        "hours": "9\u202fAM to 1\u202fPM"
      }
    ],
    "peopleAlsoSearch": [],
    "placesTags": [],
    "reviewsTags": [],
    "additionalInfo": {
      "Service options": [
        {
          "Delivery": true
        },
        {
          "Drive-through": true
        }
      ],
      "Accessibility": [
        {
          "Wheelchair accessible entrance": true
        },
        {
          "Wheelchair accessible parking lot": true
        }
      ]
    },
    "gasPrices": [],
    "url": "https://www.google.com/maps/search/?api=1&query=Bedard%20Senior%20Care&query_place_id=ChIJexAdrX5pskwRBIpmz1tE6Fk",
    "searchPageUrl": "https://www.google.com/maps/search/independent%20pharmacy%20Auburn%20ME/@66.43262335305997,-150.80891300000008,9z?hl=en",
    "searchString": "independent pharmacy Auburn ME",
    "language": "en",
    "rank": 5,
    "isAdvertisement": false,
    "imageUrl": "https://lh3.googleusercontent.com/p/AF1QipMTXZSvDtDyRvtolsZXAk-u-56NX1KC6owWyXmU=w408-h407-k-no",
    "kgmid": "/g/1tj1rpb9",
    "classification": "independent",
    "is_independent": true,
    "is_compounding": false,
    "confidence": 0.9,
    "source": "perplexity",
    "method": "llm",
    "query_location": "auburn_me"
  },
  {
    "title": "Shaw's Pharmacy",
    "price": "$$",
    "categoryName": "Pharmacy",
    "address": "600 Center St, Auburn, ME 04210",
    "neighborhood": null,
    "street": "600 Center St",
    "city": "Auburn",
    "postalCode": "04210",
    "state": "Maine",
    "countryCode": "US",
    "website": "https://local.pharmacy.shaws.com/me/auburn/600-center-st.html",
    "phone": "(207) 783-8951",
    "phoneUnformatted": "+12077838951",
    "claimThisBusiness": false,
    "location": {
      "lat": 44.1239532,
      "lng": -70.2268548
    },
    "totalScore": 4,
    "permanentlyClosed": false,
    "temporarilyClosed": false,
    "placeId": "ChIJ4-weIFdqskwRSeMhXOEZOwg",
    "categories": [
      "Pharmacy",
      "Drug store",
      "Vitamin & supplements store"
    ],
    "fid": "0x4cb26a57201eece3:0x83b19e15c21e349",
    "cid": "593096231633412937",
    "reviewsCount": 5,
    "imagesCount": 2,
    "imageCategories": [],
    "scrapedAt": "2025-06-22T08:12:48.675Z",
    "googleFoodUrl": null,
    "hotelAds": [],
    "openingHours": [
      {
        "day": "Monday",
        "hours": "9\u202fAM to 2\u202fPM, 2:30 to 8\u202fPM"
      },
      {
        "day": "Tuesday",
        "hours": "9\u202fAM to 2\u202fPM, 2:30 to 8\u202fPM"
      },
      {
        "day": "Wednesday",
        "hours": "9\u202fAM to 2\u202fPM, 2:30 to 8\u202fPM"
      },
      {
        "day": "Thursday",
        "hours": "9\u202fAM to 2\u202fPM, 2:30 to 8\u202fPM"
      },
      {
        "day": "Friday",
        "hours": "9\u202fAM to 2\u202fPM, 2:30 to 8\u202fPM"
      },
      {
        "day": "Saturday",
        "hours": "9\u202fAM to 2\u202fPM, 2:30 to 5\u202fPM"
      },
      {
        "day": "Sunday",
        "hours": "10\u202fAM to 2\u202fPM, 2:30 to 5\u202fPM"
      }
    ],
    "peopleAlsoSearch": [],
    "placesTags": [],
    "reviewsTags": [],
    "additionalInfo": {
      "Service options": [
        {
          "Delivery": true
        },
        {
          "In-store pickup": true
        },
        {
          "In-store shopping": true
        },
        {
          "Same-day delivery": true
        }
      ],
      "Accessibility": [
        {
          "Wheelchair accessible entrance": true
        },
        {
          "Wheelchair accessible parking lot": true
        }
      ],
      "Amenities": [
        {
          "Wi-Fi": true
        },
        {
          "Free Wi-Fi": true
        }
      ],
      "Crowd": [
        {
          "LGBTQ+ friendly": true
        }
      ],
      "Planning": [
        {
          "Appointment required": true
        },
        {
          "Quick visit": true
        }
      ],
      "Payments": [
        {
          "Checks": true
        },
        {
          "Debit cards": true
        },
        {
          "Credit cards": true
        }
      ]
    },
    "gasPrices": [],
    "url": "https://www.google.com/maps/search/?api=1&query=Shaw's%20Pharmacy&query_place_id=ChIJ4-weIFdqskwRSeMhXOEZOwg",
    "searchPageUrl": "https://www.google.com/maps/search/independent%20pharmacy%20Auburn%20ME/@66.43262335305997,-150.80891300000008,9z?hl=en",
    "searchString": "independent pharmacy Auburn ME",
    "language": "en",
    "rank": 7,
    "isAdvertisement": false,
    "imageUrl": "https://lh3.googleusercontent.com/p/AF1QipNN6M4APXH06oV1d3kuEiegvzxB_h2PySF5Xrkn=w426-h240-k-no",
    "kgmid": "/g/1tdxkgmn",
    "classification": "chain",
    "is_independent": false,
    "confidence": 1.0,
    "source": "rule-based"
  },
  {
    "title": "CVS Pharmacy",
    "price": null,
    "categoryName": "Pharmacy",
    "address": "603 Center St, Auburn, ME 04210",
    "neighborhood": null,
    "street": "603 Center St",
    "city": "Auburn",
    "postalCode": "04210",
    "state": "Maine",
    "countryCode": "US",
    "website": "https://www.cvs.com/store-locator/auburn-me-pharmacies/603-center-street-auburn-me-04210/storeid=17844?WT.mc_id=LS_GOOGLE_RX_17844",
    "phone": "(207) 241-6635",
    "phoneUnformatted": "+12072416635",
    "claimThisBusiness": false,
    "location": {
      "lat": 44.1238636,
      "lng": -70.2229141
    },
    "totalScore": 2.1,
    "permanentlyClosed": false,
    "temporarilyClosed": false,
    "placeId": "ChIJCS-n11NrskwR4z1PpzBJ3kY",
    "categories": [
      "Pharmacy"
    ],
    "fid": "0x4cb26b53d7a72f09:0x46de4930a74f3de3",
    "cid": "5106599500798967267",
    "reviewsCount": 7,
    "imagesCount": 3,
    "imageCategories": [],
    "scrapedAt": "2025-06-22T08:12:48.676Z",
    "googleFoodUrl": null,
    "hotelAds": [],
    "openingHours": [
      {
        "day": "Monday",
        "hours": "9\u202fAM to 1:30\u202fPM, 2 to 6\u202fPM"
      },
      {
        "day": "Tuesday",
        "hours": "9\u202fAM to 1:30\u202fPM, 2 to 6\u202fPM"
      },
      {
        "day": "Wednesday",
        "hours": "9\u202fAM to 1:30\u202fPM, 2 to 6\u202fPM"
      },
      {
        "day": "Thursday",
        "hours": "9\u202fAM to 1:30\u202fPM, 2 to 6\u202fPM"
      },
      {
        "day": "Friday",
        "hours": "9\u202fAM to 1:30\u202fPM, 2 to 6\u202fPM"
      },
      {
        "day": "Saturday",
        "hours": "10\u202fAM to 1:30\u202fPM, 2 to 6\u202fPM"
      },
      {
        "day": "Sunday",
        "hours": "10\u202fAM to 1:30\u202fPM, 2 to 6\u202fPM"
      }
    ],
    "peopleAlsoSearch": [],
    "placesTags": [],
    "reviewsTags": [],
    "additionalInfo": {
      "Service options": [
        {
          "Delivery": true
        },
        {
          "In-store shopping": true
        },
        {
          "Onsite services": true
        }
      ],
      "Accessibility": [
        {
          "Wheelchair accessible entrance": true
        },
        {
          "Wheelchair accessible parking lot": true
        }
      ],
      "Crowd": [
        {
          "LGBTQ+ friendly": true
        },
        {
          "Transgender safespace": true
        }
      ],
      "Planning": [
        {
          "Quick visit": true
        }
      ],
      "Payments": [
        {
          "Credit cards": true
        },
        {
          "Debit cards": true
        },
        {
          "Credit cards": true
        }
      ]
    },
    "gasPrices": [],
    "url": "https://www.google.com/maps/search/?api=1&query=CVS%20Pharmacy&query_place_id=ChIJCS-n11NrskwR4z1PpzBJ3kY",
    "searchPageUrl": "https://www.google.com/maps/search/independent%20pharmacy%20Auburn%20ME/@66.43262335305997,-150.80891300000008,9z?hl=en",
    "searchString": "independent pharmacy Auburn ME",
    "language": "en",
    "rank": 8,
    "isAdvertisement": false,
    "imageUrl": "https://lh3.googleusercontent.com/p/AF1QipOr8nyagq6jB8glH7O2R8mCjRBPwGnEd2WQ_DUZ=w408-h272-k-no",
    "kgmid": "/g/11jzm211ls",
    "classification": "chain",
    "is_independent": false,
    "confidence": 1.0,
    "source": "rule-based"
  },
  {
    "title": "Gold Country Compounding",
    "price": null,
    "categoryName": "Pharmacy",
    "address": "11990 Heritage Oak Pl #2c, Auburn, CA 95603",
    "neighborhood": null,
    "street": "11990 Heritage Oak Pl #2c",
    "city": "Auburn",
    "postalCode": "95603",
    "state": "California",
    "countryCode": "US",
    "website": "http://goldcountrycompounding.com/",
    "phone": "(530) 368-2103",
    "phoneUnformatted": "+15303682103",
    "claimThisBusiness": false,
    "location": {
      "lat": 38.9416515,
      "lng": -121.0982753
    },
    "totalScore": 5,
    "permanentlyClosed": false,
    "temporarilyClosed": false,
    "placeId": null,
    "categories": [
      "Pharmacy"
    ],
    "fid": "0x809b11a4b3256b61:0x46b6cdccd35dcd86",
    "cid": "5095486308019457414",
    "reviewsCount": 152,
    "imagesCount": 4,
    "imageCategories": [],
    "scrapedAt": "2025-06-22T08:12:48.676Z",
    "googleFoodUrl": null,
    "hotelAds": [],
    "openingHours": [
      {
        "day": "Monday",
        "hours": "9\u202fAM to 5\u202fPM"
      },
      {
        "day": "Tuesday",
        "hours": "8:30\u202fAM to 5\u202fPM"
      },
      {
        "day": "Wednesday",
        "hours": "8:30\u202fAM to 5\u202fPM"
      },
      {
        "day": "Thursday",
        "hours": "8:30\u202fAM to 5\u202fPM"
      },
      {
        "day": "Friday",
        "hours": "8:30\u202fAM to 5\u202fPM"
      },
      {
        "day": "Saturday",
        "hours": "Closed"
      },
      {
        "day": "Sunday",
        "hours": "Closed"
      }
    ],
    "peopleAlsoSearch": [],
    "placesTags": [],
    "reviewsTags": [],
    "additionalInfo": {
      "From the business": [
        {
          "Identifies as women-owned": true
        },
        {
          "Small business": true
        }
      ],
      "Service options": [
        {
          "Curbside pickup": true
        },
        {
          "Delivery": true
        },
        {
          "In-store pickup": true
        },
        {
          "In-store shopping": true
        },
        {
          "Same-day delivery": true
        }
      ],
      "Accessibility": [
        {
          "Wheelchair accessible entrance": true
        },
        {
          "Wheelchair accessible parking lot": true
        },
        {
          "Wheelchair accessible restroom": true
        }
      ],
      "Planning": [
        {
          "Quick visit": true
        }
      ],
      "Payments": [
        {
          "Checks": true
        },
        {
          "Credit cards": true
        },
        {
          "Debit cards": true
        },
        {
          "NFC mobile payments": true
        },
        {
          "Credit cards": true
        }
      ]
    },
    "gasPrices": [],
    "url": "https://www.google.com/maps/search/?api=1&query=Gold%20Country%20Compounding&query_place_id=ChIJYWsls6QRm4ARhs1d08zNtkY",
    "searchPageUrl": "https://www.google.com/maps/search/independent%20pharmacy%20Auburn%20ME/@66.43262335305997,-150.80891300000008,9z?hl=en",
    "searchString": "independent pharmacy Auburn ME",
    "language": "en",
    "rank": 9,
    "isAdvertisement": false,
    "imageUrl": "https://lh3.googleusercontent.com/gps-cs-s/AC9h4nqx9i6IIMlJfKiPBt5hAq__pEsLUlGS6iUuLqdqJqqC87o7opRALHfBJNTAsDj0fDwNOArpYRt3GQWcac0jXkAZ5cRoVZePkw_7LHpS64rvmBo60vqkhA2rQskNQrXhrURHI4EyTg=w408-h306-k-no",
    "kgmid": "/g/11fmdwcrzx",
    "classification": "independent",
    "is_independent": true,
    "is_compounding": true,
    "confidence": 0.95,
    "source": "perplexity",
    "method": "llm",
    "query_location": "auburn_me"
  },
  {
    "title": "Hannaford Pharmacy",
    "price": "$$",
    "categoryName": "Pharmacy",
    "address": "95 Spring St, Auburn, ME 04210",
    "neighborhood": null,
    "street": "95 Spring St",
    "city": "Auburn",
    "postalCode": "04210",
    "state": "Maine",
    "countryCode": "US",
    "website": "https://stores.hannaford.com/me/auburn/8347",
    "phone": "(207) 783-0661",
    "phoneUnformatted": "+12077830661",
    "claimThisBusiness": false,
    "location": {
      "lat": 44.0961123,
      "lng": -70.2301197
    },
    "totalScore": 3.8,
    "permanentlyClosed": false,
    "temporarilyClosed": false,
    "placeId": "ChIJ09M1v9FrskwR1KY8-tmp79M",
    "categories": [
      "Pharmacy"
    ],
    "fid": "0x4cb26bd1bf35d3d3:0xd3efa9d9fa3ca6d4",
    "cid": "15271611615107917524",
    "reviewsCount": 21,
    "imagesCount": 8,
    "imageCategories": [],
    "scrapedAt": "2025-06-22T08:12:48.676Z",
    "googleFoodUrl": null,
    "hotelAds": [],
    "openingHours": [
      {
        "day": "Monday",
        "hours": "8\u202fAM to 8\u202fPM"
      },
      {
        "day": "Tuesday",
        "hours": "8\u202fAM to 8\u202fPM"
      },
      {
        "day": "Wednesday",
        "hours": "8\u202fAM to 8\u202fPM"
      },
      {
        "day": "Thursday",
        "hours": "8\u202fAM to 8\u202fPM"
      },
      {
        "day": "Friday",
        "hours": "8\u202fAM to 8\u202fPM"
      },
      {
        "day": "Saturday",
        "hours": "8\u202fAM to 6\u202fPM"
      },
      {
        "day": "Sunday",
        "hours": "8\u202fAM to 5\u202fPM"
      }
    ],
    "peopleAlsoSearch": [],
    "placesTags": [],
    "reviewsTags": [],
    "additionalInfo": {
      "Service options": [
        {
          "Curbside pickup": true
        },
        {
          "Delivery": true
        },
        {
          "In-store pickup": true
        },
        {
          "Same-day delivery": true
        }
      ],
      "Accessibility": [
        {
          "Wheelchair accessible entrance": true
        },
        {
          "Wheelchair accessible parking lot": true
        }
      ],
      "Planning": [
        {
          "Quick visit": true
        }
      ],
      "Payments": [
        {
          "Checks": true
        },
        {
          "Credit cards": true
        },
        {
          "Debit cards": true
        }
      ]
    },
    "gasPrices": [],
    "url": "https://www.google.com/maps/search/?api=1&query=Hannaford%20Pharmacy&query_place_id=ChIJ09M1v9FrskwR1KY8-tmp79M",
    "searchPageUrl": "https://www.google.com/maps/search/independent%20pharmacy%20Auburn%20ME/@66.43262335305997,-150.80891300000008,9z?hl=en",
    "searchString": "independent pharmacy Auburn ME",
    "language": "en",
    "rank": 10,
    "isAdvertisement": false,
    "imageUrl": "https://lh3.googleusercontent.com/gps-cs-s/AC9h4np_8v4EGXKhTYlCVmgv77DBTHy_qz1GwOAz95wy68gWeieqvm-ISyEoSC902KiE8URrqTD_rG6ymY4GGSnOMIP5s5A6RC1HToCh4nbasLNDD5mRZzqOF5Lb6xzP0njYEnGIe4JqLA=w408-h410-k-no",
    "kgmid": "/g/11b66c6h50",
    "classification": "chain",
    "is_independent": false,
    "confidence": 1.0,
    "source": "rule-based"
  },
  {
    "title": "Auburn Pharmacy and Compounding Center",
    "price": null,
    "categoryName": "Pharmacy",
    "address": "5645 Auburn St B, Bakersfield, CA 93306",
    "neighborhood": null,
    "street": "5645 Auburn St B",
    "city": "Bakersfield",
    "postalCode": "93306",
    "state": "California",
    "countryCode": "US",
    "phone": "(661) 871-8881",
    "phoneUnformatted": "+16618718881",
    "claimThisBusiness": false,
    "location": {
      "lat": 35.3976321,
      "lng": -118.930893
    },
    "totalScore": 4.4,
    "permanentlyClosed": false,
    "temporarilyClosed": false,
    "placeId": null,
    "categories": [
      "Pharmacy",
      "Drug store"
    ],
    "fid": "0x80ea6ea1c87fea9f:0x7219be748e55f547",
    "cid": "8221812002555032903",
    "reviewsCount": 48,
    "imagesCount": 3,
    "imageCategories": [],
    "scrapedAt": "2025-06-22T08:12:48.676Z",
    "googleFoodUrl": null,
    "hotelAds": [],
    "openingHours": [
      {
        "day": "Monday",
        "hours": "9\u202fAM to 6\u202fPM"
      },
      {
        "day": "Tuesday",
        "hours": "9\u202fAM to 6\u202fPM"
      },
      {
        "day": "Wednesday",
        "hours": "9\u202fAM to 6\u202fPM"
      },
      {
        "day": "Thursday",
        "hours": "9\u202fAM to 6\u202fPM"
      },
      {
        "day": "Friday",
        "hours": "9\u202fAM to 6\u202fPM"
      },
      {
        "day": "Saturday",
        "hours": "Closed"
      },
      {
        "day": "Sunday",
        "hours": "Closed"
      }
    ],
    "peopleAlsoSearch": [],
    "placesTags": [],
    "reviewsTags": [],
    "additionalInfo": {
      "Service options": [
        {
          "Curbside pickup": true
        },
        {
          "Delivery": true
        },
        {
          "Drive-through": true
        },
        {
          "In-store pickup": true
        },
        {
          "In-store shopping": true
        },
        {
          "Same-day delivery": true
        }
      ],
      "Accessibility": [
        {
          "Wheelchair accessible entrance": true
        },
        {
          "Wheelchair accessible parking lot": true
        }
      ],
      "Payments": [
        {
          "Credit cards": true
        },
        {
          "Debit cards": true
        },
        {
          "NFC mobile payments": true
        },
        {
          "Credit cards": true
        }
      ]
    },
    "gasPrices": [],
    "url": "https://www.google.com/maps/search/?api=1&query=Auburn%20Pharmacy%20and%20Compounding%20Center&query_place_id=ChIJn-p_yKFu6oARR_VVjnS-GXI",
    "searchPageUrl": "https://www.google.com/maps/search/independent%20pharmacy%20Auburn%20ME/@66.43262335305997,-150.80891300000008,9z?hl=en",
    "searchString": "independent pharmacy Auburn ME",
    "language": "en",
    "rank": 11,
    "isAdvertisement": false,
    "imageUrl": "https://lh3.googleusercontent.com/gps-cs-s/AC9h4npHGfAsjJ8r_BhA9Twnw1Z-d8BpG_qTVh0GxnxRAK0UDfiLwIGPEJWb6IFuvS3aKwyLDsHUA6EEtW_6AknFzuzXDyAqckpjePoJohRHWuoCdZZk1_LCRAStfyG220tqgjRqV-YD=w408-h306-k-no",
    "kgmid": "/g/1tdq6b44",
    "classification": "independent",
    "is_independent": true,
    "is_compounding": true,
    "confidence": 0.9,
    "source": "perplexity",
    "method": "llm",
    "query_location": "auburn_me"
  },
  {
    "title": "Walgreens Pharmacy",
    "description": "Department of the Walgreens chain providing prescription medications & other health-related items.",
    "price": null,
    "categoryName": "Pharmacy",
    "address": "698 Minot Ave, Auburn, ME 04210",
    "neighborhood": null,
    "street": "698 Minot Ave",
    "city": "Auburn",
    "postalCode": "04210",
    "state": "Maine",
    "countryCode": "US",
    "website": "https://www.walgreens.com/locator/walgreens-698+minot+ave-auburn-me-04210/id=19162",
    "phone": "(207) 786-5330",
    "phoneUnformatted": "+12077865330",
    "claimThisBusiness": false,
    "location": {
      "lat": 44.081539,
      "lng": -70.255712
    },
    "totalScore": 3.1,
    "permanentlyClosed": false,
    "temporarilyClosed": false,
    "placeId": "ChIJHUmamohpskwRj-oBos6WUgM",
    "categories": [
      "Pharmacy"
    ],
    "fid": "0x4cb269889a9a491d:0x35296cea201ea8f",
    "cid": "239419544429521551",
    "reviewsCount": 16,
    "imagesCount": 3,
    "imageCategories": [],
    "scrapedAt": "2025-06-22T08:12:48.676Z",
    "googleFoodUrl": null,
    "hotelAds": [],
    "openingHours": [
      {
        "day": "Monday",
        "hours": "9\u202fAM to 1:30\u202fPM, 2 to 6\u202fPM"
      },
      {
        "day": "Tuesday",
        "hours": "9\u202fAM to 1:30\u202fPM, 2 to 6\u202fPM"
      },
      {
        "day": "Wednesday",
        "hours": "9\u202fAM to 1:30\u202fPM, 2 to 6\u202fPM"
      },
      {
        "day": "Thursday",
        "hours": "9\u202fAM to 1:30\u202fPM, 2 to 6\u202fPM"
      },
      {
        "day": "Friday",
        "hours": "9\u202fAM to 1:30\u202fPM, 2 to 6\u202fPM"
      },
      {
        "day": "Saturday",
        "hours": "9\u202fAM to 1:30\u202fPM, 2 to 6\u202fPM"
      },
      {
        "day": "Sunday",
        "hours": "Closed"
      }
    ],
    "additionalOpeningHours": {
      "Drive through": [
        {
          "day": "Monday",
          "hours": "9\u202fAM\u20131:30\u202fPM"
        },
        {
          "day": "Tuesday",
          "hours": "9\u202fAM\u20131:30\u202fPM"
        },
        {
          "day": "Wednesday",
          "hours": "9\u202fAM\u20131:30\u202fPM"
        },
        {
          "day": "Thursday",
          "hours": "9\u202fAM\u20131:30\u202fPM"
        },
        {
          "day": "Friday",
          "hours": "9\u202fAM\u20131:30\u202fPM"
        },
        {
          "day": "Saturday",
          "hours": "9\u202fAM\u20131:30\u202fPM"
        },
        {
          "day": "Sunday",
          "hours": "Closed"
        }
      ]
    },
    "peopleAlsoSearch": [],
    "placesTags": [],
    "reviewsTags": [],
    "additionalInfo": {
      "Service options": [
        {
          "Drive-through": true
        },
        {
          "In-store pickup": true
        },
        {
          "Onsite services": true
        },
        {
          "Same-day delivery": false
        }
      ],
      "Accessibility": [
        {
          "Wheelchair accessible entrance": true
        },
        {
          "Wheelchair accessible parking lot": true
        }
      ],
      "Offerings": [
        {
          "Naloxone": true
        }
      ],
      "Planning": [
        {
          "Quick visit": true
        }
      ],
      "Payments": [
        {
          "Credit cards": true
        }
      ]
    },
    "gasPrices": [],
    "url": "https://www.google.com/maps/search/?api=1&query=Walgreens%20Pharmacy&query_place_id=ChIJHUmamohpskwRj-oBos6WUgM",
    "searchPageUrl": "https://www.google.com/maps/search/independent%20pharmacy%20Auburn%20ME/@66.43262335305997,-150.80891300000008,9z?hl=en",
    "searchString": "independent pharmacy Auburn ME",
    "language": "en",
    "rank": 12,
    "isAdvertisement": false,
    "imageUrl": "https://lh3.googleusercontent.com/p/AF1QipP1GUk0xFAQRBSmi363aVdLFjhrv_rYomurzDf4=w525-h240-k-no",
    "kgmid": "/g/11fmsgrqlm",
    "classification": "chain",
    "is_independent": false,
    "confidence": 1.0,
    "source": "rule-based"
  },
  {
    "title": "Auburn Pharmacy & Home Health Care",
    "price": null,
    "categoryName": "Pharmacy",
    "address": "689 Southbridge St, Auburn, MA 01501",
    "neighborhood": null,
    "street": "689 Southbridge St",
    "city": "Auburn",
    "postalCode": "01501",
    "state": "Massachusetts",
    "countryCode": "US",
    "website": "http://www.auburnrx.com/",
    "phone": "(508) 832-6511",
    "phoneUnformatted": "+15088326511",
    "claimThisBusiness": false,
    "location": {
      "lat": 42.1840227,
      "lng": -71.8575791
    },
    "totalScore": 4.9,
    "permanentlyClosed": false,
    "temporarilyClosed": false,
    "placeId": "ChIJNybqHnUD5IkRvejC0Smu010",
    "categories": [
      "Pharmacy"
    ],
    "fid": "0x89e403751eea2637:0x5dd3ae29d1c2e8bd",
    "cid": "6760938960249350333",
    "reviewsCount": 57,
    "imagesCount": 13,
    "imageCategories": [],
    "scrapedAt": "2025-06-22T08:12:48.676Z",
    "googleFoodUrl": null,
    "hotelAds": [],
    "openingHours": [
      {
        "day": "Monday",
        "hours": "8:30\u202fAM to 7\u202fPM"
      },
      {
        "day": "Tuesday",
        "hours": "8:30\u202fAM to 7\u202fPM"
      },
      {
        "day": "Wednesday",
        "hours": "8:30\u202fAM to 7\u202fPM"
      },
      {
        "day": "Thursday",
        "hours": "8:30\u202fAM to 7\u202fPM"
      },
      {
        "day": "Friday",
        "hours": "8:30\u202fAM to 7\u202fPM"
      },
      {
        "day": "Saturday",
        "hours": "9:30\u202fAM to 4:30\u202fPM"
      },
      {
        "day": "Sunday",
        "hours": "Closed"
      }
    ],
    "peopleAlsoSearch": [],
    "placesTags": [],
    "reviewsTags": [],
    "additionalInfo": {
      "From the business": [
        {
          "Small business": true
        }
      ],
      "Service options": [
        {
          "Curbside pickup": true
        },
        {
          "Delivery": true
        },
        {
          "Onsite services": true
        }
      ],
      "Accessibility": [
        {
          "Wheelchair accessible entrance": true
        },
        {
          "Wheelchair accessible parking lot": true
        }
      ],
      "Planning": [
        {
          "Quick visit": true
        }
      ],
      "Payments": [
        {
          "Credit cards": true
        },
        {
          "Debit cards": true
        },
        {
          "NFC mobile payments": true
        },
        {
          "Credit cards": true
        }
      ]
    },
    "gasPrices": [],
    "url": "https://www.google.com/maps/search/?api=1&query=Auburn%20Pharmacy%20%26%20Home%20Health%20Care&query_place_id=ChIJNybqHnUD5IkRvejC0Smu010",
    "searchPageUrl": "https://www.google.com/maps/search/independent%20pharmacy%20Auburn%20ME/@66.43262335305997,-150.80891300000008,9z?hl=en",
    "searchString": "independent pharmacy Auburn ME",
    "language": "en",
    "rank": 13,
    "isAdvertisement": false,
    "imageUrl": "https://lh3.googleusercontent.com/gps-cs-s/AC9h4nqURtb7a8oQdSdE2AQQTcyEJ9xTx4T3XUmqhvyPJPLeHg-ir2oYGYz8ASpM2CgaZMZJirlcEpVD6933yojLuLYkeVrWNKuNVqEGOkpgLC1IpRvnph1M7nq3GtWoXSqYIbnedszfrA=w408-h544-k-no",
    "kgmid": "/g/11gns8z_p5",
    "classification": "hospital",
    "is_independent": false,
    "confidence": 1.0,
    "source": "rule-based"
  },
  {
    "title": "Greater Placer Pharmacy",
    "price": null,
    "categoryName": "Pharmacy",
    "address": "3133 Professional Dr #17, Auburn, CA 95603",
    "neighborhood": null,
    "street": "3133 Professional Dr #17",
    "city": "Auburn",
    "postalCode": "95603",
    "state": "California",
    "countryCode": "US",
    "website": "http://www.gprx1.com/",
    "phone": "(530) 885-8582",
    "phoneUnformatted": "+15308858582",
    "claimThisBusiness": true,
    "location": {
      "lat": 38.9416435,
      "lng": -121.1018685
    },
    "totalScore": 4.4,
    "permanentlyClosed": false,
    "temporarilyClosed": false,
    "placeId": null,
    "categories": [
      "Pharmacy"
    ],
    "fid": "0x809b10133925c1ad:0x1aa95bead841a03b",
    "cid": "1921167780258881595",
    "reviewsCount": 25,
    "imagesCount": 1,
    "imageCategories": [],
    "scrapedAt": "2025-06-22T08:12:48.676Z",
    "googleFoodUrl": null,
    "hotelAds": [],
    "openingHours": [
      {
        "day": "Monday",
        "hours": "9\u202fAM to 5:30\u202fPM"
      },
      {
        "day": "Tuesday",
        "hours": "9\u202fAM to 5:30\u202fPM"
      },
      {
        "day": "Wednesday",
        "hours": "9\u202fAM to 5:30\u202fPM"
      },
      {
        "day": "Thursday",
        "hours": "9\u202fAM to 5:30\u202fPM"
      },
      {
        "day": "Friday",
        "hours": "9\u202fAM to 5:30\u202fPM"
      },
      {
        "day": "Saturday",
        "hours": "Closed"
      },
      {
        "day": "Sunday",
        "hours": "Closed"
      }
    ],
    "peopleAlsoSearch": [],
    "placesTags": [],
    "reviewsTags": [],
    "additionalInfo": {
      "Service options": [
        {
          "Delivery": true
        },
        {
          "In-store pickup": true
        }
      ],
      "Accessibility": [
        {
          "Wheelchair accessible entrance": true
        },
        {
          "Wheelchair accessible parking lot": true
        }
      ],
      "Planning": [
        {
          "Quick visit": true
        }
      ],
      "Payments": [
        {
          "Credit cards": true
        },
        {
          "Debit cards": true
        },
        {
          "NFC mobile payments": true
        },
        {
          "Credit cards": true
        }
      ]
    },
    "gasPrices": [],
    "url": "https://www.google.com/maps/search/?api=1&query=Greater%20Placer%20Pharmacy&query_place_id=ChIJrcElORMQm4ARO6BB2OpbqRo",
    "searchPageUrl": "https://www.google.com/maps/search/independent%20pharmacy%20Auburn%20ME/@66.43262335305997,-150.80891300000008,9z?hl=en",
    "searchString": "independent pharmacy Auburn ME",
    "language": "en",
    "rank": 14,
    "isAdvertisement": false,
    "imageUrl": "https://lh3.googleusercontent.com/gps-cs-s/AC9h4nq76yX_p_pDMXYQBKm2ny6HAw4UdUsQv4U2Mftl8t_6xKnhvwlp2JiWROxPsOc_KZ3KgOfoyRq8lSMyPyaYtx9NOO7zMVMZKu6ublProaC7c8lHHmgR7is4lWEat3xrM2waX3kysg=w408-h725-k-no",
    "kgmid": "/g/1q67jy81v",
    "classification": "independent",
    "is_independent": true,
    "is_compounding": false,
    "confidence": 0.9,
    "source": "perplexity",
    "method": "llm",
    "query_location": "auburn_me"
  },
  {
    "title": "Walmart Pharmacy",
    "price": "$",
    "categoryName": "Pharmacy",
    "address": "100 Mt Auburn Ave, Auburn, ME 04210",
    "neighborhood": null,
    "street": "100 Mt Auburn Ave",
    "city": "Auburn",
    "postalCode": "04210",
    "state": "Maine",
    "countryCode": "US",
    "website": "https://www.walmart.com/store/1868-auburn-me/pharmacy/?veh=seo_loc",
    "phone": "(207) 784-1244",
    "phoneUnformatted": "+12077841244",
    "claimThisBusiness": false,
    "location": {
      "lat": 44.1177524,
      "lng": -70.2385494
    },
    "totalScore": 3.4,
    "permanentlyClosed": false,
    "temporarilyClosed": false,
    "placeId": "ChIJm8m8b1pqskwRhA-BgvmWBFQ",
    "categories": [
      "Pharmacy",
      "Herbal medicine store",
      "Medical supply store",
      "Parapharmacy",
      "Vitamin & supplements store"
    ],
    "fid": "0x4cb26a5a6fbcc99b:0x540496f982810f84",
    "cid": "6054129797473308548",
    "reviewsCount": 33,
    "imagesCount": 6,
    "imageCategories": [],
    "scrapedAt": "2025-06-22T08:12:48.676Z",
    "googleFoodUrl": null,
    "hotelAds": [],
    "openingHours": [
      {
        "day": "Monday",
        "hours": "8\u202fAM to 7\u202fPM"
      },
      {
        "day": "Tuesday",
        "hours": "8\u202fAM to 7\u202fPM"
      },
      {
        "day": "Wednesday",
        "hours": "8\u202fAM to 7\u202fPM"
      },
      {
        "day": "Thursday",
        "hours": "8\u202fAM to 7\u202fPM"
      },
      {
        "day": "Friday",
        "hours": "8\u202fAM to 7\u202fPM"
      },
      {
        "day": "Saturday",
        "hours": "8\u202fAM to 6\u202fPM"
      },
      {
        "day": "Sunday",
        "hours": "9\u202fAM to 5\u202fPM"
      }
    ],
    "peopleAlsoSearch": [],
    "placesTags": [],
    "reviewsTags": [],
    "additionalInfo": {
      "Service options": [
        {
          "Curbside pickup": true
        },
        {
          "Delivery": true
        },
        {
          "In-store pickup": true
        },
        {
          "In-store shopping": true
        }
      ],
      "Accessibility": [
        {
          "Wheelchair accessible entrance": true
        },
        {
          "Wheelchair accessible parking lot": true
        },
        {
          "Wheelchair accessible restroom": true
        }
      ],
      "Offerings": [
        {
          "Passport photos": true
        }
      ],
      "Amenities": [
        {
          "Wi-Fi": true
        },
        {
          "Free Wi-Fi": true
        }
      ],
      "Planning": [
        {
          "Quick visit": true
        }
      ],
      "Payments": [
        {
          "Credit cards": true
        },
        {
          "Debit cards": true
        },
        {
          "Credit cards": true
        }
      ]
    },
    "gasPrices": [],
    "url": "https://www.google.com/maps/search/?api=1&query=Walmart%20Pharmacy&query_place_id=ChIJm8m8b1pqskwRhA-BgvmWBFQ",
    "searchPageUrl": "https://www.google.com/maps/search/independent%20pharmacy%20Auburn%20ME/@66.43262335305997,-150.80891300000008,9z?hl=en",
    "searchString": "independent pharmacy Auburn ME",
    "language": "en",
    "rank": 15,
    "isAdvertisement": false,
    "imageUrl": "https://lh3.googleusercontent.com/p/AF1QipNebOOPA8WRGtm4-K5WTEl18xaZNehnPxhKp9cQ=w408-h306-k-no",
    "kgmid": "/g/1tftkthz",
    "classification": "chain",
    "is_independent": false,
    "confidence": 1.0,
    "source": "rule-based"
  },
  {
    "title": "CVS",
    "description": "Drugstore chain selling a variety of beauty & health products, plus some grocery & household items.",
    "price": null,
    "categoryName": "Drug store",
    "address": "8 Union St, Auburn, ME 04210, United States",
    "neighborhood": null,
    "street": "8 Union St",
    "city": "Auburn",
    "postalCode": "04210",
    "state": "Maine",
    "countryCode": "US",
    "website": "https://www.cvs.com/store-locator/auburn-me-pharmacies/8-union-street-auburn-me-04210/storeid=2382?WT.mc_id=LS_GOOGLE_FS_2382",
    "phone": "+1 207-784-9101",
    "phoneUnformatted": "+12077849101",
    "claimThisBusiness": false,
    "location": {
      "lat": 44.0985105,
      "lng": -70.2318389
    },
    "locatedIn": "CVS Pharmacy",
    "totalScore": 2.5,
    "permanentlyClosed": false,
    "temporarilyClosed": false,
    "placeId": "ChIJKXEa7M1rskwR1oEvhSYmzmE",
    "categories": [
      "Drug store",
      "Beauty supply store",
      "Beer store",
      "Convenience store",
      "Cosmetics store",
      "Greeting card shop",
      "Perfume store",
      "Stationery store",
      "Vitamin & supplements store",
      "Wine store"
    ],
    "fid": "0x4cb26bcdec1a7129:0x61ce2626852f81d6",
    "cid": "7047612413766500822",
    "reviewsCount": 83,
    "imagesCount": 107,
    "imageCategories": [],
    "scrapedAt": "2025-06-22T08:12:51.916Z",
    "googleFoodUrl": null,
    "hotelAds": [],
    "openingHours": [
      {
        "day": "Monday",
        "hours": "8\u202fAM to 10\u202fPM"
      },
      {
        "day": "Tuesday",
        "hours": "8\u202fAM to 10\u202fPM"
      },
      {
        "day": "Wednesday",
        "hours": "8\u202fAM to 10\u202fPM"
      },
      {
        "day": "Thursday",
        "hours": "8\u202fAM to 10\u202fPM"
      },
      {
        "day": "Friday",
        "hours": "8\u202fAM to 10\u202fPM"
      },
      {
        "day": "Saturday",
        "hours": "8\u202fAM to 10\u202fPM"
      },
      {
        "day": "Sunday",
        "hours": "8\u202fAM to 10\u202fPM"
      }
    ],
    "additionalOpeningHours": {
      "CVS Pharmacy": [
        {
          "day": "Monday",
          "hours": "8\u202fam\u20131:30\u202fpm"
        },
        {
          "day": "Tuesday",
          "hours": "8\u202fam\u20131:30\u202fpm"
        },
        {
          "day": "Wednesday",
          "hours": "8\u202fam\u20131:30\u202fpm"
        },
        {
          "day": "Thursday",
          "hours": "8\u202fam\u20131:30\u202fpm"
        },
        {
          "day": "Friday",
          "hours": "8\u202fam\u20131:30\u202fpm"
        },
        {
          "day": "Saturday",
          "hours": "9\u202fam\u20131:30\u202fpm"
        },
        {
          "day": "Sunday",
          "hours": "10\u202fam\u20131:30\u202fpm"
        }
      ],
      "CVS Photo": [
        {
          "day": "Monday",
          "hours": "8\u202fam\u201310\u202fpm"
        },
        {
          "day": "Tuesday",
          "hours": "8\u202fam\u201310\u202fpm"
        },
        {
          "day": "Wednesday",
          "hours": "8\u202fam\u201310\u202fpm"
        },
        {
          "day": "Thursday",
          "hours": "8\u202fam\u201310\u202fpm"
        },
        {
          "day": "Friday",
          "hours": "8\u202fam\u201310\u202fpm"
        },
        {
          "day": "Saturday",
          "hours": "8\u202fam\u201310\u202fpm"
        },
        {
          "day": "Sunday",
          "hours": "8\u202fam\u201310\u202fpm"
        }
      ],
      "LibertyX Bitcoin ATM": [
        {
          "day": "Monday",
          "hours": "8\u202fam\u201310\u202fpm"
        },
        {
          "day": "Tuesday",
          "hours": "8\u202fam\u201310\u202fpm"
        },
        {
          "day": "Wednesday",
          "hours": "8\u202fam\u201310\u202fpm"
        },
        {
          "day": "Thursday",
          "hours": "8\u202fam\u201310\u202fpm"
        },
        {
          "day": "Friday",
          "hours": "8\u202fam\u201310\u202fpm"
        },
        {
          "day": "Saturday",
          "hours": "8\u202fam\u201310\u202fpm"
        },
        {
          "day": "Sunday",
          "hours": "8\u202fam\u201310\u202fpm"
        }
      ]
    },
    "peopleAlsoSearch": [],
    "placesTags": [],
    "reviewsTags": [],
    "additionalInfo": {
      "Service options": [
        {
          "Delivery": true
        },
        {
          "Drive-through": true
        },
        {
          "In-store shopping": true
        },
        {
          "Same-day delivery": false
        }
      ],
      "Accessibility": [
        {
          "Wheelchair-accessible car park": true
        },
        {
          "Wheelchair-accessible entrance": true
        }
      ],
      "Offerings": [
        {
          "Passport photos": true
        }
      ],
      "Crowd": [
        {
          "LGBTQ+ friendly": true
        },
        {
          "Transgender safe space": true
        }
      ],
      "Planning": [
        {
          "Quick visit": true
        }
      ],
      "Payments": [
        {
          "Credit cards": true
        },
        {
          "Debit cards": true
        }
      ]
    },
    "gasPrices": [],
    "url": "https://www.google.com/maps/search/?api=1&query=CVS&query_place_id=ChIJKXEa7M1rskwR1oEvhSYmzmE",
    "searchPageUrl": "https://www.google.com/maps/search/independent%20pharmacy%20Auburn%20ME/@62.264056934850785,-160.01530488540766,9z?hl=en",
    "searchString": "independent pharmacy Auburn ME",
    "language": "en",
    "rank": 12,
    "isAdvertisement": false,
    "imageUrl": "https://lh3.googleusercontent.com/gps-cs-s/AC9h4nrBBTqFbCrezaaeaFw5fkjXYaerOne_RQo7CXMOgScQgsKvA_IlX4wFTXJ1b8LZlz2vIMAVOODM0XGo4FDtOmPLnfHWW-h2kzIhqHlQPrtzubQc9Hla2Cg17C_IHQc8UJQQyHo=w408-h544-k-no",
    "kgmid": "/g/1tdgt_bk",
    "classification": "chain",
    "is_independent": false,
    "confidence": 1.0,
    "source": "rule-based"
  },
  {
    "title": "Our Home Pharmacy",
    "price": null,
    "categoryName": "Pharmacy",
    "address": "2154 Moores Mill Rd, Auburn, AL 36830, United States",
    "neighborhood": null,
    "street": "2154 Moores Mill Rd",
    "city": "Auburn",
    "postalCode": "36830",
    "state": "Alabama",
    "countryCode": "US",
    "website": "http://www.ourhomepharmacy.com/",
    "phone": "+1 334-887-8780",
    "phoneUnformatted": "+13348878780",
    "claimThisBusiness": false,
    "location": {
      "lat": 32.5843209,
      "lng": -85.4443642
    },
    "totalScore": 4.8,
    "permanentlyClosed": false,
    "temporarilyClosed": false,
    "placeId": null,
    "categories": [
      "Pharmacy",
      "Coffee shop",
      "Drug store",
      "Gift shop"
    ],
    "fid": "0x888cf278ce13ce2b:0xf0657a99768eab01",
    "cid": "17322386341288127233",
    "reviewsCount": 63,
    "imagesCount": 22,
    "imageCategories": [],
    "scrapedAt": "2025-06-22T08:12:51.916Z",
    "googleFoodUrl": null,
    "hotelAds": [],
    "openingHours": [
      {
        "day": "Monday",
        "hours": "8\u202fAM to 6\u202fPM"
      },
      {
        "day": "Tuesday",
        "hours": "8\u202fAM to 6\u202fPM"
      },
      {
        "day": "Wednesday",
        "hours": "8\u202fAM to 6\u202fPM"
      },
      {
        "day": "Thursday",
        "hours": "8\u202fAM to 6\u202fPM"
      },
      {
        "day": "Friday",
        "hours": "8\u202fAM to 6\u202fPM"
      },
      {
        "day": "Saturday",
        "hours": "9\u202fAM to 12\u202fPM"
      },
      {
        "day": "Sunday",
        "hours": "Closed"
      }
    ],
    "peopleAlsoSearch": [],
    "placesTags": [],
    "reviewsTags": [],
    "additionalInfo": {
      "From the business": [
        {
          "Small Business": true
        }
      ],
      "Service options": [
        {
          "Kerbside pickup": true
        },
        {
          "Delivery": true
        },
        {
          "Drive-through": true
        },
        {
          "In-store pick-up": true
        },
        {
          "In-store shopping": true
        },
        {
          "On-site services": true
        },
        {
          "Same-day delivery": true
        }
      ],
      "Accessibility": [
        {
          "Wheelchair-accessible car park": true
        },
        {
          "Wheelchair-accessible entrance": true
        }
      ],
      "Offerings": [
        {
          "Medication disposal": true
        }
      ],
      "Planning": [
        {
          "Quick visit": true
        }
      ],
      "Payments": [
        {
          "Credit cards": true
        },
        {
          "Debit cards": true
        },
        {
          "NFC mobile payments": true
        },
        {
          "Credit cards": true
        }
      ],
      "Parking": [
        {
          "Free of charge street parking": true
        },
        {
          "Free parking lot": true
        }
      ]
    },
    "gasPrices": [],
    "url": "https://www.google.com/maps/search/?api=1&query=Our%20Home%20Pharmacy&query_place_id=ChIJK84TznjyjIgRAauOdpl6ZfA",
    "searchPageUrl": "https://www.google.com/maps/search/independent%20pharmacy%20Auburn%20ME/@62.264056934850785,-160.01530488540766,9z?hl=en",
    "searchString": "independent pharmacy Auburn ME",
    "language": "en",
    "rank": 13,
    "isAdvertisement": false,
    "imageUrl": "https://lh3.googleusercontent.com/p/AF1QipO0e6GfpUYvnsfDHwqkanvFPgB8_HP7TJOTUSbv=w408-h240-k-no",
    "kgmid": "/g/1xn_p4hc",
    "classification": "independent",
    "is_independent": true,
    "is_compounding": false,
    "confidence": 0.9,
    "source": "perplexity",
    "method": "llm",
    "query_location": "auburn_me"
  },
  {
    "title": "The Drug Store",
    "price": null,
    "categoryName": "Pharmacy",
    "address": "464 N Dean Rd, Auburn, AL 36830, United States",
    "neighborhood": null,
    "street": "464 N Dean Rd",
    "city": "Auburn",
    "postalCode": "36830",
    "state": "Alabama",
    "countryCode": "US",
    "website": "https://www.mygnp.com/pharmacies/the-drug-store-auburn-al-36830/?utm_source=google&utm_medium=local&utm_campaign=localmaps&utm_content=145462",
    "phone": "+1 334-821-4493",
    "phoneUnformatted": "+13348214493",
    "claimThisBusiness": false,
    "location": {
      "lat": 32.6150223,
      "lng": -85.4639973
    },
    "totalScore": 4.9,
    "permanentlyClosed": false,
    "temporarilyClosed": false,
    "placeId": null,
    "categories": [
      "Pharmacy",
      "Drug store"
    ],
    "fid": "0x888cf2c217695a6b:0xfa94424d854bf6e2",
    "cid": "18056129706751424226",
    "reviewsCount": 51,
    "imagesCount": 3,
    "imageCategories": [],
    "scrapedAt": "2025-06-22T08:12:51.916Z",
    "googleFoodUrl": null,
    "hotelAds": [],
    "openingHours": [
      {
        "day": "Monday",
        "hours": "8\u202fAM to 6\u202fPM"
      },
      {
        "day": "Tuesday",
        "hours": "8\u202fAM to 6\u202fPM"
      },
      {
        "day": "Wednesday",
        "hours": "8\u202fAM to 6\u202fPM"
      },
      {
        "day": "Thursday",
        "hours": "8\u202fAM to 6\u202fPM"
      },
      {
        "day": "Friday",
        "hours": "8\u202fAM to 5\u202fPM"
      },
      {
        "day": "Saturday",
        "hours": "Closed"
      },
      {
        "day": "Sunday",
        "hours": "Closed"
      }
    ],
    "peopleAlsoSearch": [],
    "placesTags": [],
    "reviewsTags": [],
    "additionalInfo": {
      "From the business": [
        {
          "Small Business": true
        }
      ],
      "Service options": [
        {
          "Delivery": true
        },
        {
          "Drive-through": true
        },
        {
          "In-store pick-up": true
        },
        {
          "On-site services": true
        }
      ],
      "Accessibility": [
        {
          "Wheelchair-accessible car park": true
        },
        {
          "Wheelchair-accessible entrance": true
        }
      ],
      "Planning": [
        {
          "Quick visit": true
        }
      ],
      "Payments": [
        {
          "Credit cards": true
        },
        {
          "Debit cards": true
        },
        {
          "NFC mobile payments": true
        },
        {
          "Credit cards": true
        }
      ]
    },
    "gasPrices": [],
    "url": "https://www.google.com/maps/search/?api=1&query=The%20Drug%20Store&query_place_id=ChIJa1ppF8LyjIgR4vZLhU1ClPo",
    "searchPageUrl": "https://www.google.com/maps/search/independent%20pharmacy%20Auburn%20ME/@62.264056934850785,-160.01530488540766,9z?hl=en",
    "searchString": "independent pharmacy Auburn ME",
    "language": "en",
    "rank": 14,
    "isAdvertisement": false,
    "imageUrl": "https://lh3.googleusercontent.com/gps-cs-s/AC9h4nrDY8M41Vjm1QNInYSv0L__uTlRnRr0c1MO1RA9mV9t-tzhOYJPJOaDOY0G8VC9cd8bTCnKCfeJECEfIeSPe6UwOGEYLfNZ8ak_aT1ZRJ9IrxkDsbLym8PTegO0MAaLo4hpJUy8bg=w408-h544-k-no",
    "kgmid": "/g/1tdmfnlx",
    "classification": "independent",
    "is_independent": true,
    "is_compounding": false,
    "confidence": 0.9,
    "source": "perplexity",
    "method": "llm",
    "query_location": "auburn_me"
  },
  {
    "title": "CVS Pharmacy",
    "price": null,
    "categoryName": "Pharmacy",
    "address": "111 Auburn St, Portland, ME 04103, United States",
    "neighborhood": "North Deering",
    "street": "111 Auburn St",
    "city": "Portland",
    "postalCode": "04103",
    "state": "Maine",
    "countryCode": "US",
    "website": "https://www.cvs.com/store-locator/portland-me-pharmacies/111-auburn-st-portland-me-04103/storeid=329?WT.mc_id=LS_GOOGLE_RX_329",
    "phone": "+1 207-797-3393",
    "phoneUnformatted": "+12077973393",
    "claimThisBusiness": false,
    "location": {
      "lat": 43.7041068,
      "lng": -70.2887787
    },
    "totalScore": 2.4,
    "permanentlyClosed": false,
    "temporarilyClosed": false,
    "placeId": "ChIJC6KiKiObskwRbw_u81D9_m8",
    "categories": [
      "Pharmacy"
    ],
    "fid": "0x4cb29b232aa2a20b:0x6ffefd50f3ee0f6f",
    "cid": "8070166106426183535",
    "reviewsCount": 13,
    "imagesCount": 37,
    "imageCategories": [],
    "scrapedAt": "2025-06-22T08:12:51.917Z",
    "googleFoodUrl": null,
    "hotelAds": [],
    "openingHours": [
      {
        "day": "Monday",
        "hours": "9\u202fAM to 1:30\u202fPM, 2 to 8\u202fPM"
      },
      {
        "day": "Tuesday",
        "hours": "9\u202fAM to 1:30\u202fPM, 2 to 8\u202fPM"
      },
      {
        "day": "Wednesday",
        "hours": "9\u202fAM to 1:30\u202fPM, 2 to 8\u202fPM"
      },
      {
        "day": "Thursday",
        "hours": "9\u202fAM to 1:30\u202fPM, 2 to 8\u202fPM"
      },
      {
        "day": "Friday",
        "hours": "9\u202fAM to 1:30\u202fPM, 2 to 8\u202fPM"
      },
      {
        "day": "Saturday",
        "hours": "9\u202fAM to 1:30\u202fPM, 2 to 6\u202fPM"
      },
      {
        "day": "Sunday",
        "hours": "10\u202fAM to 1:30\u202fPM, 2 to 6\u202fPM"
      }
    ],
    "peopleAlsoSearch": [],
    "placesTags": [],
    "reviewsTags": [],
    "additionalInfo": {
      "Service options": [
        {
          "Delivery": true
        },
        {
          "Drive-through": true
        },
        {
          "In-store shopping": true
        },
        {
          "On-site services": true
        }
      ],
      "Accessibility": [
        {
          "Wheelchair-accessible car park": true
        },
        {
          "Wheelchair-accessible entrance": true
        }
      ],
      "Offerings": [
        {
          "Medication disposal": true
        },
        {
          "Naloxone": true
        },
        {
          "Passport photos": true
        }
      ],
      "Crowd": [
        {
          "LGBTQ+ friendly": true
        },
        {
          "Transgender safe space": true
        }
      ],
      "Planning": [
        {
          "Quick visit": true
        }
      ],
      "Payments": [
        {
          "Credit cards": true
        },
        {
          "Debit cards": true
        },
        {
          "NFC mobile payments": true
        },
        {
          "SNAP/EBT": true
        },
        {
          "Credit cards": true
        }
      ]
    },
    "gasPrices": [],
    "url": "https://www.google.com/maps/search/?api=1&query=CVS%20Pharmacy&query_place_id=ChIJC6KiKiObskwRbw_u81D9_m8",
    "searchPageUrl": "https://www.google.com/maps/search/independent%20pharmacy%20Auburn%20ME/@62.264056934850785,-160.01530488540766,9z?hl=en",
    "searchString": "independent pharmacy Auburn ME",
    "language": "en",
    "rank": 17,
    "isAdvertisement": false,
    "imageUrl": "https://lh3.googleusercontent.com/p/AF1QipMlUxvAqmQ3qS6X22hm3Xsl_sdGaW6auujWFTnK=w408-h272-k-no",
    "kgmid": "/g/11c468ftpt",
    "classification": "chain",
    "is_independent": false,
    "confidence": 1.0,
    "source": "rule-based"
  },
  {
    "title": "AuBurn Pharmacy",
    "price": null,
    "categoryName": "Pharmacy",
    "address": "13351 Mission Rd, Leawood, KS 66209, United States",
    "neighborhood": "Market Square Center",
    "street": "13351 Mission Rd",
    "city": "Leawood",
    "postalCode": "66209",
    "state": "Kansas",
    "countryCode": "US",
    "website": "http://auburnpharmacies.com/leawood-kansas/",
    "phone": "+1 913-469-9315",
    "phoneUnformatted": "+19134699315",
    "claimThisBusiness": false,
    "location": {
      "lat": 38.8850152,
      "lng": -94.6281101
    },
    "totalScore": 4.9,
    "permanentlyClosed": false,
    "temporarilyClosed": false,
    "placeId": null,
    "categories": [
      "Pharmacy",
      "Beauty supply store",
      "Drug store"
    ],
    "fid": "0x87c0c212738940db:0xef4802bcbbc3919f",
    "cid": "17242034183015207327",
    "reviewsCount": 19,
    "imagesCount": 8,
    "imageCategories": [],
    "scrapedAt": "2025-06-22T08:12:51.917Z",
    "googleFoodUrl": null,
    "hotelAds": [],
    "openingHours": [
      {
        "day": "Monday",
        "hours": "9\u202fAM to 7\u202fPM"
      },
      {
        "day": "Tuesday",
        "hours": "9\u202fAM to 7\u202fPM"
      },
      {
        "day": "Wednesday",
        "hours": "9\u202fAM to 7\u202fPM"
      },
      {
        "day": "Thursday",
        "hours": "9\u202fAM to 7\u202fPM"
      },
      {
        "day": "Friday",
        "hours": "9\u202fAM to 7\u202fPM"
      },
      {
        "day": "Saturday",
        "hours": "9\u202fAM to 4\u202fPM"
      },
      {
        "day": "Sunday",
        "hours": "Closed"
      }
    ],
    "peopleAlsoSearch": [],
    "placesTags": [],
    "reviewsTags": [],
    "additionalInfo": {
      "Service options": [
        {
          "Delivery": true
        },
        {
          "In-store pick-up": true
        },
        {
          "In-store shopping": true
        },
        {
          "Same-day delivery": true
        }
      ],
      "Accessibility": [
        {
          "Wheelchair-accessible car park": true
        },
        {
          "Wheelchair-accessible entrance": true
        }
      ],
      "Planning": [
        {
          "Quick visit": true
        }
      ],
      "Payments": [
        {
          "Credit cards": true
        },
        {
          "Debit cards": true
        }
      ]
    },
    "gasPrices": [],
    "url": "https://www.google.com/maps/search/?api=1&query=AuBurn%20Pharmacy&query_place_id=ChIJ20CJcxLCwIcRn5HDu7wCSO8",
    "searchPageUrl": "https://www.google.com/maps/search/independent%20pharmacy%20Auburn%20ME/@62.264056934850785,-160.01530488540766,9z?hl=en",
    "searchString": "independent pharmacy Auburn ME",
    "language": "en",
    "rank": 18,
    "isAdvertisement": false,
    "imageUrl": "https://lh3.googleusercontent.com/gps-cs-s/AC9h4nojqBCJ6fe2Z1Fw2zF1frLJpSMUcCHins3B4uPg0Gb7T-FTpk_HCfFtlCHUM2mqfQa6jvcyiA8L5c07CoxIOGWGty1xvPStf1Qo2f3LNPAzrjwn49cGvizkwR7SeUky8SZEXvsT=w408-h306-k-no",
    "kgmid": "/g/12631qn6x",
    "classification": "independent",
    "is_independent": true,
    "is_compounding": false,
    "confidence": 0.9,
    "source": "perplexity",
    "method": "llm",
    "query_location": "auburn_me"
  }
]