[
  {
    "title": "Oquirrh Mountain Pharmacy West Valley",
    "price": null,
    "categoryName": "Pharmacy",
    "address": "4133 Pioneer Pkwy Suite 130, West Valley City, UT 84120",
    "neighborhood": null,
    "street": "4133 Pioneer Pkwy Suite 130",
    "city": "West Valley City",
    "postalCode": "84120",
    "state": "Utah",
    "countryCode": "US",
    "website": "https://oquirrhmtn.com/",
    "phone": "(385) 557-6747",
    "phoneUnformatted": "+13855576747",
    "claimThisBusiness": false,
    "location": {
      "lat": 40.698026,
      "lng": -111.9895314
    },
    "totalScore": 4.6,
    "permanentlyClosed": false,
    "temporarilyClosed": false,
    "placeId": null,
    "categories": [
      "Pharmacy"
    ],
    "fid": "0x87528d49fa87c957:0x40e2401748440815",
    "cid": "4675369831904839701",
    "reviewsCount": 18,
    "imagesCount": 7,
    "imageCategories": [],
    "scrapedAt": "2025-06-22T09:55:06.453Z",
    "googleFoodUrl": null,
    "hotelAds": [],
    "openingHours": [
      {
        "day": "Monday",
        "hours": "9\u202fAM to 7\u202fPM"
      },
      {
        "day": "Tuesday",
        "hours": "9\u202fAM to 7\u202fPM"
      },
      {
        "day": "Wednesday",
        "hours": "9\u202fAM to 7\u202fPM"
      },
      {
        "day": "Thursday",
        "hours": "9\u202fAM to 7\u202fPM"
      },
      {
        "day": "Friday",
        "hours": "9\u202fAM to 7\u202fPM"
      },
      {
        "day": "Saturday",
        "hours": "Closed"
      },
      {
        "day": "Sunday",
        "hours": "Closed"
      }
    ],
    "peopleAlsoSearch": [],
    "placesTags": [],
    "reviewsTags": [],
    "additionalInfo": {
      "From the business": [
        {
          "Small business": true
        }
      ],
      "Service options": [
        {
          "Delivery": true
        },
        {
          "In-store pickup": true
        }
      ],
      "Accessibility": [
        {
          "Wheelchair accessible entrance": true
        },
        {
          "Wheelchair accessible parking lot": true
        }
      ],
      "Amenities": [
        {
          "Wi-Fi": true
        },
        {
          "Free Wi-Fi": true
        }
      ],
      "Planning": [
        {
          "Quick visit": true
        }
      ],
      "Payments": [
        {
          "Credit cards": true
        },
        {
          "Debit cards": true
        },
        {
          "NFC mobile payments": true
        },
        {
          "Credit cards": true
        }
      ]
    },
    "gasPrices": [],
    "url": "https://www.google.com/maps/search/?api=1&query=Oquirrh%20Mountain%20Pharmacy%20West%20Valley&query_place_id=ChIJV8mH-kmNUocRFQhESBdA4kA",
    "searchPageUrl": "https://www.google.com/maps/search/independent%20pharmacy%20West%20Valley%20City%20UT/@33.954544952667874,-80.15361988608069,8z?hl=en",
    "searchString": "independent pharmacy West Valley City UT",
    "language": "en",
    "rank": 1,
    "isAdvertisement": false,
    "imageUrl": "https://lh3.googleusercontent.com/p/AF1QipNp8IkLosF8eadLoj7_QWhIO6Q6QIILdfWcApwY=w408-h306-k-no",
    "kgmid": "/g/11rmwb_0xh",
    "classification": "independent",
    "is_independent": true,
    "is_compounding": false,
    "confidence": 0.9,
    "source": "perplexity",
    "method": "llm"
  },
  {
    "title": "Olive Pharmacy",
    "price": null,
    "categoryName": "Pharmacy",
    "address": "2290 S Redwood Rd, West Valley City, UT 84119",
    "neighborhood": null,
    "street": "2290 S Redwood Rd",
    "city": "West Valley City",
    "postalCode": "84119",
    "state": "Utah",
    "countryCode": "US",
    "website": "http://www.olivemeds.com/",
    "phone": "(801) 972-5155",
    "phoneUnformatted": "+18019725155",
    "claimThisBusiness": false,
    "location": {
      "lat": 40.721174,
      "lng": -111.939432
    },
    "totalScore": 4.7,
    "permanentlyClosed": false,
    "temporarilyClosed": false,
    "placeId": null,
    "categories": [
      "Pharmacy"
    ],
    "fid": "0x87528b4d909d9d31:0x42a137f3b263d498",
    "cid": "4801180197563126936",
    "reviewsCount": 60,
    "imagesCount": 5,
    "imageCategories": [],
    "scrapedAt": "2025-06-22T09:55:06.454Z",
    "googleFoodUrl": null,
    "hotelAds": [],
    "openingHours": [
      {
        "day": "Monday",
        "hours": "10\u202fAM to 6\u202fPM"
      },
      {
        "day": "Tuesday",
        "hours": "10\u202fAM to 6\u202fPM"
      },
      {
        "day": "Wednesday",
        "hours": "10\u202fAM to 6\u202fPM"
      },
      {
        "day": "Thursday",
        "hours": "10\u202fAM to 6\u202fPM"
      },
      {
        "day": "Friday",
        "hours": "10\u202fAM to 6\u202fPM"
      },
      {
        "day": "Saturday",
        "hours": "10\u202fAM to 3\u202fPM"
      },
      {
        "day": "Sunday",
        "hours": "Closed"
      }
    ],
    "peopleAlsoSearch": [],
    "placesTags": [],
    "reviewsTags": [],
    "additionalInfo": {
      "From the business": [
        {
          "Small business": true
        }
      ],
      "Service options": [
        {
          "Delivery": true
        },
        {
          "In-store pickup": true
        },
        {
          "In-store shopping": true
        },
        {
          "Same-day delivery": true
        }
      ],
      "Accessibility": [
        {
          "Wheelchair accessible entrance": true
        },
        {
          "Wheelchair accessible parking lot": true
        }
      ],
      "Planning": [
        {
          "Quick visit": true
        }
      ],
      "Payments": [
        {
          "Checks": true
        },
        {
          "Credit cards": true
        },
        {
          "Debit cards": true
        },
        {
          "NFC mobile payments": true
        },
        {
          "Credit cards": true
        }
      ]
    },
    "gasPrices": [],
    "url": "https://www.google.com/maps/search/?api=1&query=Olive%20Pharmacy&query_place_id=ChIJMZ2dkE2LUocRmNRjsvM3oUI",
    "searchPageUrl": "https://www.google.com/maps/search/independent%20pharmacy%20West%20Valley%20City%20UT/@33.954544952667874,-80.15361988608069,8z?hl=en",
    "searchString": "independent pharmacy West Valley City UT",
    "language": "en",
    "rank": 2,
    "isAdvertisement": false,
    "imageUrl": "https://lh3.googleusercontent.com/gps-cs-s/AC9h4nqZuoGC79WOVneGbVNWgza5MoFoCk5pBqTXCE6sIF84RoHt62NUsI8aaRrzcrvkNRuPhpjE-nioG4kKlTcq-7JFP80nGsRUiKrg1UShmlxcjy9HeyHXL1mZVjHntwUhg6CY-yA=w408-h544-k-no",
    "kgmid": "/g/11ydxv509",
    "classification": "independent",
    "is_independent": true,
    "is_compounding": false,
    "confidence": 0.9,
    "source": "perplexity",
    "method": "llm"
  },
  {
    "title": "View Pharmacy",
    "price": null,
    "categoryName": "Pharmacy",
    "address": "3384 S 5600 W, West Valley City, UT 84120",
    "neighborhood": null,
    "street": "3384 S 5600 W",
    "city": "West Valley City",
    "postalCode": "84120",
    "state": "Utah",
    "countryCode": "US",
    "website": "http://viewpharmacy-wv.com/",
    "phone": "(801) 960-4601",
    "phoneUnformatted": "+18019604601",
    "claimThisBusiness": false,
    "location": {
      "lat": 40.69869,
      "lng": -112.02638
    },
    "totalScore": 5,
    "permanentlyClosed": false,
    "temporarilyClosed": false,
    "placeId": null,
    "categories": [
      "Pharmacy"
    ],
    "fid": "0x2931e2eb0ad90ad1:0x7a68d047d08e68a3",
    "cid": "8820528877065365667",
    "reviewsCount": 9,
    "imagesCount": 16,
    "imageCategories": [],
    "scrapedAt": "2025-06-22T09:55:06.454Z",
    "googleFoodUrl": null,
    "hotelAds": [],
    "openingHours": [
      {
        "day": "Monday",
        "hours": "10\u202fAM to 7\u202fPM"
      },
      {
        "day": "Tuesday",
        "hours": "10\u202fAM to 7\u202fPM"
      },
      {
        "day": "Wednesday",
        "hours": "10\u202fAM to 7\u202fPM"
      },
      {
        "day": "Thursday",
        "hours": "10\u202fAM to 7\u202fPM"
      },
      {
        "day": "Friday",
        "hours": "10\u202fAM to 7\u202fPM"
      },
      {
        "day": "Saturday",
        "hours": "10\u202fAM to 2\u202fPM"
      },
      {
        "day": "Sunday",
        "hours": "Closed"
      }
    ],
    "peopleAlsoSearch": [],
    "placesTags": [],
    "reviewsTags": [],
    "additionalInfo": {
      "From the business": [
        {
          "Small business": true
        }
      ],
      "Service options": [
        {
          "Delivery": true
        },
        {
          "Onsite services": true
        }
      ],
      "Accessibility": [
        {
          "Wheelchair accessible entrance": true
        },
        {
          "Wheelchair accessible parking lot": true
        }
      ],
      "Planning": [
        {
          "Quick visit": true
        }
      ],
      "Payments": [
        {
          "Credit cards": true
        },
        {
          "Debit cards": true
        },
        {
          "NFC mobile payments": true
        },
        {
          "Credit cards": true
        }
      ]
    },
    "gasPrices": [],
    "url": "https://www.google.com/maps/search/?api=1&query=View%20Pharmacy&query_place_id=ChIJ0QrZCuviMSkRo2iO0EfQaHo",
    "searchPageUrl": "https://www.google.com/maps/search/independent%20pharmacy%20West%20Valley%20City%20UT/@33.954544952667874,-80.15361988608069,8z?hl=en",
    "searchString": "independent pharmacy West Valley City UT",
    "language": "en",
    "rank": 3,
    "isAdvertisement": false,
    "imageUrl": "https://lh3.googleusercontent.com/p/AF1QipPc9J2fTe7hjcdq27rvJVzlutS2Aa2iqVhiDKWU=w408-h306-k-no",
    "kgmid": "/g/11tjfg5xqk",
    "classification": "independent",
    "is_independent": true,
    "is_compounding": false,
    "confidence": 0.85,
    "source": "perplexity",
    "method": "llm"
  },
  {
    "title": "Valley Pharmacy",
    "price": null,
    "categoryName": "Pharmacy",
    "address": "1819 3500 S, West Valley City, UT 84119",
    "neighborhood": null,
    "street": "1819 3500 S",
    "city": "West Valley City",
    "postalCode": "84119",
    "state": "Utah",
    "countryCode": "US",
    "phone": "(801) 978-9655",
    "phoneUnformatted": "+18019789655",
    "claimThisBusiness": true,
    "location": {
      "lat": 40.6962469,
      "lng": -111.9412084
    },
    "totalScore": 4.1,
    "permanentlyClosed": false,
    "temporarilyClosed": false,
    "placeId": null,
    "categories": [
      "Pharmacy"
    ],
    "fid": "0x87528b6568e05f6d:0xdfa7ae2dcf21c113",
    "cid": "16116041303340466451",
    "reviewsCount": 21,
    "imagesCount": 5,
    "imageCategories": [],
    "scrapedAt": "2025-06-22T09:55:06.454Z",
    "googleFoodUrl": null,
    "hotelAds": [],
    "openingHours": [
      {
        "day": "Monday",
        "hours": "9:30\u202fAM to 7\u202fPM"
      },
      {
        "day": "Tuesday",
        "hours": "9:30\u202fAM to 7\u202fPM"
      },
      {
        "day": "Wednesday",
        "hours": "9:30\u202fAM to 7\u202fPM"
      },
      {
        "day": "Thursday",
        "hours": "9:30\u202fAM to 7\u202fPM"
      },
      {
        "day": "Friday",
        "hours": "9:30\u202fAM to 7\u202fPM"
      },
      {
        "day": "Saturday",
        "hours": "Closed"
      },
      {
        "day": "Sunday",
        "hours": "Closed"
      }
    ],
    "peopleAlsoSearch": [],
    "placesTags": [],
    "reviewsTags": [],
    "additionalInfo": {
      "Service options": [
        {
          "In-store pickup": true
        }
      ],
      "Accessibility": [
        {
          "Wheelchair accessible entrance": true
        },
        {
          "Wheelchair accessible parking lot": true
        }
      ],
      "Planning": [
        {
          "Quick visit": true
        }
      ],
      "Payments": [
        {
          "Credit cards": true
        },
        {
          "Debit cards": true
        },
        {
          "NFC mobile payments": true
        },
        {
          "Credit cards": true
        }
      ]
    },
    "gasPrices": [],
    "url": "https://www.google.com/maps/search/?api=1&query=Valley%20Pharmacy&query_place_id=ChIJbV_gaGWLUocRE8Ehzy2up98",
    "searchPageUrl": "https://www.google.com/maps/search/independent%20pharmacy%20West%20Valley%20City%20UT/@33.954544952667874,-80.15361988608069,8z?hl=en",
    "searchString": "independent pharmacy West Valley City UT",
    "language": "en",
    "rank": 4,
    "isAdvertisement": false,
    "imageUrl": "https://lh3.googleusercontent.com/gps-cs-s/AC9h4noNXtXj68YX4--blqUkgO1JdRvCiNs1PR7vA8Q2kXU4q8MzK_wniyDSopGKDeIbGbXO2MDbi0NSW0YUP205MB8VVHRw-4z4noA7zKRMzZN3QQe9Q4Lntp8kZLlgKHSgxtA2kJFZMA=w408-h306-k-no",
    "kgmid": "/g/1tg81yr0",
    "classification": "independent",
    "is_independent": true,
    "is_compounding": false,
    "confidence": 0.85,
    "source": "perplexity",
    "method": "llm"
  },
  {
    "title": "Granger Pharmacy",
    "price": null,
    "categoryName": "Pharmacy",
    "address": "2965 W 3500 S, West Valley City, UT 84119",
    "neighborhood": null,
    "street": "2965 W 3500 S",
    "city": "West Valley City",
    "postalCode": "84119",
    "state": "Utah",
    "countryCode": "US",
    "website": "https://www.grangerpharmacy.com/",
    "phone": "(801) 965-3639",
    "phoneUnformatted": "+18019653639",
    "claimThisBusiness": false,
    "location": {
      "lat": 40.6962898,
      "lng": -111.9626639
    },
    "totalScore": 4.4,
    "permanentlyClosed": false,
    "temporarilyClosed": false,
    "placeId": null,
    "categories": [
      "Pharmacy"
    ],
    "fid": "0x87528cf46c23f19f:0x86cbe45e51e6f2b8",
    "cid": "9713108115106755256",
    "reviewsCount": 29,
    "imagesCount": 6,
    "imageCategories": [],
    "scrapedAt": "2025-06-22T09:55:18.129Z",
    "googleFoodUrl": null,
    "hotelAds": [],
    "openingHours": [
      {
        "day": "Monday",
        "hours": "9\u202fAM to 6\u202fPM"
      },
      {
        "day": "Tuesday",
        "hours": "9\u202fAM to 6\u202fPM"
      },
      {
        "day": "Wednesday",
        "hours": "9\u202fAM to 6\u202fPM"
      },
      {
        "day": "Thursday",
        "hours": "9\u202fAM to 6\u202fPM"
      },
      {
        "day": "Friday",
        "hours": "9\u202fAM to 6\u202fPM"
      },
      {
        "day": "Saturday",
        "hours": "Closed"
      },
      {
        "day": "Sunday",
        "hours": "Closed"
      }
    ],
    "peopleAlsoSearch": [],
    "placesTags": [],
    "reviewsTags": [],
    "additionalInfo": {
      "From the business": [
        {
          "Small business": true
        }
      ],
      "Service options": [
        {
          "Delivery": true
        },
        {
          "In-store pickup": true
        },
        {
          "Same-day delivery": true
        }
      ],
      "Accessibility": [
        {
          "Wheelchair accessible entrance": true
        },
        {
          "Wheelchair accessible parking lot": true
        }
      ],
      "Payments": [
        {
          "Credit cards": true
        },
        {
          "NFC mobile payments": true
        }
      ]
    },
    "gasPrices": [],
    "url": "https://www.google.com/maps/search/?api=1&query=Granger%20Pharmacy&query_place_id=ChIJn_EjbPSMUocRuPLmUV7ky4Y",
    "searchPageUrl": "https://www.google.com/maps/search/independent%20pharmacy%20West%20Valley%20City%20UT/@33.954544952667874,-114.98210525670324,8z?hl=en",
    "searchString": "independent pharmacy West Valley City UT",
    "language": "en",
    "rank": 5,
    "isAdvertisement": false,
    "imageUrl": "https://lh3.googleusercontent.com/gps-cs-s/AC9h4npsPZEJgjsNu8n3tiqMyQlloH2ys1cGzKr3HVz3H1HqgYRQXeVxYo-yKdSOwum7IkYv6UQOgFT0xXhRhqa60bw6F0p4iE584Qo1Hz3L1hYdPW6itRtqjc6LXBmsI1FCvOpeinIg=w408-h306-k-no",
    "kgmid": "/g/1tmpk_4l",
    "classification": "independent",
    "is_independent": true,
    "is_compounding": false,
    "confidence": 0.9,
    "source": "perplexity",
    "method": "llm"
  },
  {
    "title": "Harmons Pharmacy - West Valley",
    "price": null,
    "categoryName": "Pharmacy",
    "address": "3955 W 3500 S, West Valley City, UT 84120",
    "neighborhood": null,
    "street": "3955 W 3500 S",
    "city": "West Valley City",
    "postalCode": "84120",
    "state": "Utah",
    "countryCode": "US",
    "website": "https://www.harmonsgrocery.com/pharmacy/",
    "phone": "(801) 966-1497",
    "phoneUnformatted": "+18019661497",
    "claimThisBusiness": true,
    "location": {
      "lat": 40.695673,
      "lng": -111.9852438
    },
    "totalScore": 4.5,
    "permanentlyClosed": false,
    "temporarilyClosed": false,
    "placeId": null,
    "categories": [
      "Pharmacy"
    ],
    "fid": "0x87528ce8282b73ef:0x537bf660684abf7e",
    "cid": "6015672621210451838",
    "reviewsCount": 23,
    "imagesCount": 2,
    "imageCategories": [],
    "scrapedAt": "2025-06-22T09:55:18.129Z",
    "googleFoodUrl": null,
    "hotelAds": [],
    "openingHours": [
      {
        "day": "Monday",
        "hours": "9\u202fAM to 9\u202fPM"
      },
      {
        "day": "Tuesday",
        "hours": "9\u202fAM to 9\u202fPM"
      },
      {
        "day": "Wednesday",
        "hours": "9\u202fAM to 9\u202fPM"
      },
      {
        "day": "Thursday",
        "hours": "9\u202fAM to 9\u202fPM"
      },
      {
        "day": "Friday",
        "hours": "9\u202fAM to 9\u202fPM"
      },
      {
        "day": "Saturday",
        "hours": "9\u202fAM to 7\u202fPM"
      },
      {
        "day": "Sunday",
        "hours": "9\u202fAM to 5\u202fPM"
      }
    ],
    "peopleAlsoSearch": [],
    "placesTags": [],
    "reviewsTags": [],
    "additionalInfo": {
      "Service options": [
        {
          "In-store pickup": true
        }
      ],
      "Accessibility": [
        {
          "Wheelchair accessible entrance": true
        },
        {
          "Wheelchair accessible parking lot": true
        }
      ],
      "Planning": [
        {
          "Quick visit": true
        }
      ],
      "Payments": [
        {
          "Credit cards": true
        }
      ]
    },
    "gasPrices": [],
    "url": "https://www.google.com/maps/search/?api=1&query=Harmons%20Pharmacy%20-%20West%20Valley&query_place_id=ChIJ73MrKOiMUocRfr9KaGD2e1M",
    "searchPageUrl": "https://www.google.com/maps/search/independent%20pharmacy%20West%20Valley%20City%20UT/@33.954544952667874,-114.98210525670324,8z?hl=en",
    "searchString": "independent pharmacy West Valley City UT",
    "language": "en",
    "rank": 6,
    "isAdvertisement": false,
    "imageUrl": "https://lh3.googleusercontent.com/gps-cs-s/AC9h4npO8T6p2ZPI4f7SFUUm3HJnCdBzVJjkPfh3Kw8y8EP3o6ex7AfcqAE_unHkm25IsQjsbmjLnXd7v1irjEJWrKKRISW0AKTZjM5bL1qGex9vS1gYo808hWEqgCTxfFJNP-PR3o4=w408-h306-k-no",
    "kgmid": "/g/11fx9270mg",
    "classification": "independent",
    "is_independent": true,
    "is_compounding": false,
    "confidence": 0.9,
    "source": "perplexity",
    "method": "llm"
  },
  {
    "title": "CVS Pharmacy",
    "price": null,
    "categoryName": "Pharmacy",
    "address": "5557 W 4100 S, West Valley City, UT 84120",
    "neighborhood": null,
    "street": "5557 W 4100 S",
    "city": "West Valley City",
    "postalCode": "84120",
    "state": "Utah",
    "countryCode": "US",
    "website": "https://www.cvs.com/store-locator/west-valley-city-ut-pharmacies/5557-west-4100-south-west-valley-city-ut-84120/storeid=10424?WT.mc_id=LS_GOOGLE_RX_10424",
    "phone": "(801) 966-1118",
    "phoneUnformatted": "+18019661118",
    "claimThisBusiness": false,
    "location": {
      "lat": 40.681504,
      "lng": -112.0238835
    },
    "totalScore": 3.2,
    "permanentlyClosed": false,
    "temporarilyClosed": false,
    "placeId": null,
    "categories": [
      "Pharmacy"
    ],
    "fid": "0x87528d134a56077d:0xed9669ceb5f6a648",
    "cid": "17119987370032539208",
    "reviewsCount": 46,
    "imagesCount": 35,
    "imageCategories": [],
    "scrapedAt": "2025-06-22T09:55:18.129Z",
    "googleFoodUrl": null,
    "hotelAds": [],
    "openingHours": [
      {
        "day": "Monday",
        "hours": "8\u202fAM to 1:30\u202fPM, 2 to 8\u202fPM"
      },
      {
        "day": "Tuesday",
        "hours": "8\u202fAM to 1:30\u202fPM, 2 to 8\u202fPM"
      },
      {
        "day": "Wednesday",
        "hours": "8\u202fAM to 1:30\u202fPM, 2 to 8\u202fPM"
      },
      {
        "day": "Thursday",
        "hours": "8\u202fAM to 1:30\u202fPM, 2 to 8\u202fPM"
      },
      {
        "day": "Friday",
        "hours": "8\u202fAM to 1:30\u202fPM, 2 to 8\u202fPM"
      },
      {
        "day": "Saturday",
        "hours": "9\u202fAM to 1:30\u202fPM, 2 to 6\u202fPM"
      },
      {
        "day": "Sunday",
        "hours": "10\u202fAM to 1:30\u202fPM, 2 to 6\u202fPM"
      }
    ],
    "peopleAlsoSearch": [],
    "placesTags": [],
    "reviewsTags": [],
    "additionalInfo": {
      "Service options": [
        {
          "Delivery": true
        },
        {
          "Drive-through": true
        },
        {
          "In-store shopping": true
        },
        {
          "Onsite services": true
        }
      ],
      "Accessibility": [
        {
          "Wheelchair accessible entrance": true
        },
        {
          "Wheelchair accessible parking lot": true
        }
      ],
      "Offerings": [
        {
          "Naloxone": true
        },
        {
          "Passport photos": true
        }
      ],
      "Crowd": [
        {
          "LGBTQ+ friendly": true
        },
        {
          "Transgender safespace": true
        }
      ],
      "Planning": [
        {
          "Quick visit": true
        }
      ],
      "Payments": [
        {
          "Credit cards": true
        },
        {
          "Debit cards": true
        },
        {
          "Credit cards": true
        }
      ]
    },
    "gasPrices": [],
    "url": "https://www.google.com/maps/search/?api=1&query=CVS%20Pharmacy&query_place_id=ChIJfQdWShONUocRSKb2tc5plu0",
    "searchPageUrl": "https://www.google.com/maps/search/independent%20pharmacy%20West%20Valley%20City%20UT/@33.954544952667874,-114.98210525670324,8z?hl=en",
    "searchString": "independent pharmacy West Valley City UT",
    "language": "en",
    "rank": 7,
    "isAdvertisement": false,
    "imageUrl": "https://lh3.googleusercontent.com/p/AF1QipPXjtFJ-Inn4gks-nu-KFm1P9ziGSJ0nmDJ7zN9=w408-h272-k-no",
    "kgmid": "/g/11c5svjjxw",
    "classification": "chain",
    "is_independent": false,
    "is_compounding": false,
    "confidence": 0.99,
    "source": "perplexity",
    "method": "llm"
  },
  {
    "title": "Gibsons Pharmacy & Compounding",
    "price": null,
    "categoryName": "Pharmacy",
    "address": "240 E Winchester St, Murray, UT 84107",
    "neighborhood": null,
    "street": "240 E Winchester St",
    "city": "Murray",
    "postalCode": "84107",
    "state": "Utah",
    "countryCode": "US",
    "website": "http://www.gibsonspharmacyrx.com/",
    "phone": "(801) 262-5526",
    "phoneUnformatted": "+18012625526",
    "claimThisBusiness": false,
    "location": {
      "lat": 40.6323586,
      "lng": -111.8849495
    },
    "totalScore": 4.7,
    "permanentlyClosed": false,
    "temporarilyClosed": false,
    "placeId": null,
    "categories": [
      "Pharmacy"
    ],
    "fid": "0x875289b93c87454b:0x56cd8d4912df265",
    "cid": "390925675154764389",
    "reviewsCount": 66,
    "imagesCount": 17,
    "imageCategories": [],
    "scrapedAt": "2025-06-22T09:55:18.129Z",
    "googleFoodUrl": null,
    "hotelAds": [],
    "openingHours": [
      {
        "day": "Monday",
        "hours": "9\u202fAM to 6\u202fPM"
      },
      {
        "day": "Tuesday",
        "hours": "9\u202fAM to 6\u202fPM"
      },
      {
        "day": "Wednesday",
        "hours": "9\u202fAM to 6\u202fPM"
      },
      {
        "day": "Thursday",
        "hours": "9\u202fAM to 6\u202fPM"
      },
      {
        "day": "Friday",
        "hours": "9\u202fAM to 6\u202fPM"
      },
      {
        "day": "Saturday",
        "hours": "9\u202fAM to 2\u202fPM"
      },
      {
        "day": "Sunday",
        "hours": "Closed"
      }
    ],
    "peopleAlsoSearch": [],
    "placesTags": [],
    "reviewsTags": [],
    "additionalInfo": {
      "From the business": [
        {
          "Small business": true
        }
      ],
      "Service options": [
        {
          "Curbside pickup": true
        },
        {
          "Delivery": true
        },
        {
          "In-store pickup": true
        },
        {
          "Onsite services": true
        }
      ],
      "Accessibility": [
        {
          "Wheelchair accessible entrance": true
        },
        {
          "Wheelchair accessible parking lot": true
        }
      ],
      "Planning": [
        {
          "Quick visit": true
        }
      ],
      "Payments": [
        {
          "Credit cards": true
        },
        {
          "Debit cards": true
        },
        {
          "NFC mobile payments": true
        },
        {
          "Credit cards": true
        }
      ]
    },
    "gasPrices": [],
    "url": "https://www.google.com/maps/search/?api=1&query=Gibsons%20Pharmacy%20%26%20Compounding&query_place_id=ChIJS0WHPLmJUocRZfItkdTYbAU",
    "searchPageUrl": "https://www.google.com/maps/search/independent%20pharmacy%20West%20Valley%20City%20UT/@33.954544952667874,-114.98210525670324,8z?hl=en",
    "searchString": "independent pharmacy West Valley City UT",
    "language": "en",
    "rank": 8,
    "isAdvertisement": false,
    "imageUrl": "https://lh3.googleusercontent.com/gps-cs-s/AC9h4nrEw1I6phbvLhHG9UpZ8JEUYVg3z_OPMgHBImVgjvP8YUk1RFH1sLrb8sSnOWvgC8qNK7HW5Ix-Cw72a5u0BWwv-JrybzTOQl2SFl7rykXracO6GSrPxx14qXgu465hwYyFSoDf=w408-h306-k-no",
    "kgmid": "/g/1tdpmkjs",
    "classification": "independent",
    "is_independent": true,
    "is_compounding": true,
    "confidence": 0.95,
    "source": "perplexity",
    "method": "llm"
  },
  {
    "title": "Oquirrh Mountain Pharmacy",
    "price": null,
    "categoryName": "Pharmacy",
    "address": "3665 S 8400 W, Magna, UT 84044",
    "neighborhood": null,
    "street": "3665 S 8400 W",
    "city": "Magna",
    "postalCode": "84044",
    "state": "Utah",
    "countryCode": "US",
    "website": "http://oquirrhmtn.com/",
    "phone": "(801) 252-1000",
    "phoneUnformatted": "+18012521000",
    "claimThisBusiness": false,
    "location": {
      "lat": 40.693127,
      "lng": -112.0910037
    },
    "totalScore": 4.8,
    "permanentlyClosed": false,
    "temporarilyClosed": false,
    "placeId": null,
    "categories": [
      "Pharmacy"
    ],
    "fid": "0x875292d4b87deb6f:0xa0e3cd8aee74b97e",
    "cid": "11593335862371596670",
    "reviewsCount": 97,
    "imagesCount": 9,
    "imageCategories": [],
    "scrapedAt": "2025-06-22T09:55:18.129Z",
    "googleFoodUrl": null,
    "hotelAds": [],
    "openingHours": [
      {
        "day": "Monday",
        "hours": "9\u202fAM to 7\u202fPM"
      },
      {
        "day": "Tuesday",
        "hours": "9\u202fAM to 7\u202fPM"
      },
      {
        "day": "Wednesday",
        "hours": "9\u202fAM to 7\u202fPM"
      },
      {
        "day": "Thursday",
        "hours": "9\u202fAM to 7\u202fPM"
      },
      {
        "day": "Friday",
        "hours": "9\u202fAM to 7\u202fPM"
      },
      {
        "day": "Saturday",
        "hours": "9\u202fAM to 3\u202fPM"
      },
      {
        "day": "Sunday",
        "hours": "9\u202fAM to 3\u202fPM"
      }
    ],
    "peopleAlsoSearch": [],
    "placesTags": [],
    "reviewsTags": [],
    "additionalInfo": {
      "From the business": [
        {
          "Small business": true
        }
      ],
      "Service options": [
        {
          "Delivery": true
        },
        {
          "In-store pickup": true
        },
        {
          "Same-day delivery": true
        }
      ],
      "Accessibility": [
        {
          "Wheelchair accessible entrance": true
        },
        {
          "Wheelchair accessible parking lot": true
        }
      ],
      "Planning": [
        {
          "Quick visit": true
        }
      ],
      "Payments": [
        {
          "Credit cards": true
        },
        {
          "Debit cards": true
        },
        {
          "NFC mobile payments": true
        },
        {
          "Credit cards": true
        }
      ]
    },
    "gasPrices": [],
    "url": "https://www.google.com/maps/search/?api=1&query=Oquirrh%20Mountain%20Pharmacy&query_place_id=ChIJb-t9uNSSUocRfrl07orN46A",
    "searchPageUrl": "https://www.google.com/maps/search/independent%20pharmacy%20West%20Valley%20City%20UT/@33.954544952667874,-114.98210525670324,8z?hl=en",
    "searchString": "independent pharmacy West Valley City UT",
    "language": "en",
    "rank": 9,
    "isAdvertisement": false,
    "imageUrl": "https://lh3.googleusercontent.com/p/AF1QipMnNJJtEm28dRZzoIlNmOayGP_E8gKKs44n9C6W=w408-h272-k-no",
    "kgmid": "/g/1tgj9995",
    "classification": "independent",
    "is_independent": true,
    "is_compounding": false,
    "confidence": 0.9,
    "source": "perplexity",
    "method": "llm"
  },
  {
    "title": "Pioneer Valley Pharmacy",
    "price": null,
    "categoryName": "Pharmacy",
    "address": "4052 Pioneer Pkwy, Salt Lake City, UT 84120",
    "neighborhood": null,
    "street": "4052 Pioneer Pkwy",
    "city": "Salt Lake City",
    "postalCode": "84120",
    "state": "Utah",
    "countryCode": "US",
    "website": "https://www.pioneervalleyrx.com/",
    "phone": "(801) 964-3935",
    "phoneUnformatted": "+18019643935",
    "claimThisBusiness": true,
    "location": {
      "lat": 40.6989368,
      "lng": -111.9877111
    },
    "totalScore": 5,
    "permanentlyClosed": false,
    "temporarilyClosed": false,
    "placeId": null,
    "categories": [
      "Pharmacy"
    ],
    "fid": "0x87528cc3375cc7a1:0xee8a4150bcd526bc",
    "cid": "17188622742834194108",
    "reviewsCount": 14,
    "imagesCount": 1,
    "imageCategories": [],
    "scrapedAt": "2025-06-22T09:55:18.129Z",
    "googleFoodUrl": null,
    "hotelAds": [],
    "openingHours": [
      {
        "day": "Monday",
        "hours": "9\u202fAM to 7\u202fPM"
      },
      {
        "day": "Tuesday",
        "hours": "9\u202fAM to 7\u202fPM"
      },
      {
        "day": "Wednesday",
        "hours": "9\u202fAM to 7\u202fPM"
      },
      {
        "day": "Thursday",
        "hours": "9\u202fAM to 7\u202fPM"
      },
      {
        "day": "Friday",
        "hours": "9\u202fAM to 7\u202fPM"
      },
      {
        "day": "Saturday",
        "hours": "Closed"
      },
      {
        "day": "Sunday",
        "hours": "Closed"
      }
    ],
    "peopleAlsoSearch": [],
    "placesTags": [],
    "reviewsTags": [],
    "additionalInfo": {
      "Accessibility": [
        {
          "Wheelchair accessible entrance": true
        },
        {
          "Wheelchair accessible parking lot": true
        }
      ],
      "Offerings": [
        {
          "Medication disposal": true
        }
      ],
      "Amenities": [
        {
          "Wi-Fi": true
        },
        {
          "Free Wi-Fi": true
        }
      ],
      "Payments": [
        {
          "Credit cards": true
        },
        {
          "Debit cards": true
        },
        {
          "NFC mobile payments": true
        },
        {
          "Credit cards": true
        }
      ]
    },
    "gasPrices": [],
    "url": "https://www.google.com/maps/search/?api=1&query=Pioneer%20Valley%20Pharmacy&query_place_id=ChIJocdcN8OMUocRvCbVvFBBiu4",
    "searchPageUrl": "https://www.google.com/maps/search/independent%20pharmacy%20West%20Valley%20City%20UT/@33.954544952667874,-114.98210525670324,8z?hl=en",
    "searchString": "independent pharmacy West Valley City UT",
    "language": "en",
    "rank": 10,
    "isAdvertisement": false,
    "imageUrl": "https://streetviewpixels-pa.googleapis.com/v1/thumbnail?panoid=RBAVTqrXyTyyS5NwGi2Qmg&cb_client=search.gws-prod.gps&w=408&h=240&yaw=4.927605&pitch=0&thumbfov=100",
    "kgmid": "/g/1tjrqg6c",
    "classification": "independent",
    "is_independent": true,
    "is_compounding": false,
    "confidence": 0.9,
    "source": "perplexity",
    "method": "llm"
  },
  {
    "title": "Smith's Pharmacy",
    "price": null,
    "categoryName": "Pharmacy",
    "address": "4643 S 4000 W, West Valley City, UT 84120",
    "neighborhood": null,
    "street": "4643 S 4000 W",
    "city": "West Valley City",
    "postalCode": "84120",
    "state": "Utah",
    "countryCode": "US",
    "website": "https://www.smithsfoodanddrug.com/rx/pharmacy/details/706/00137?cid=loc_70600137P_gmb",
    "phone": "(801) 968-1896",
    "phoneUnformatted": "+18019681896",
    "claimThisBusiness": false,
    "location": {
      "lat": 40.6688108,
      "lng": -111.9848776
    },
    "totalScore": 2.9,
    "permanentlyClosed": false,
    "temporarilyClosed": false,
    "placeId": null,
    "categories": [
      "Pharmacy",
      "Drug store",
      "Health counselor",
      "Home health care service"
    ],
    "fid": "0x87528c5afcfb4421:0xff9caa412fae5964",
    "cid": "18418783772988037476",
    "reviewsCount": 99,
    "imagesCount": 12,
    "imageCategories": [],
    "scrapedAt": "2025-06-22T09:55:18.129Z",
    "googleFoodUrl": null,
    "hotelAds": [],
    "openingHours": [
      {
        "day": "Monday",
        "hours": "9\u202fAM to 1\u202fPM, 1:30 to 8\u202fPM"
      },
      {
        "day": "Tuesday",
        "hours": "9\u202fAM to 1\u202fPM, 1:30 to 8\u202fPM"
      },
      {
        "day": "Wednesday",
        "hours": "9\u202fAM to 1\u202fPM, 1:30 to 8\u202fPM"
      },
      {
        "day": "Thursday",
        "hours": "9\u202fAM to 1\u202fPM, 1:30 to 8\u202fPM"
      },
      {
        "day": "Friday",
        "hours": "9\u202fAM to 1\u202fPM, 1:30 to 8\u202fPM"
      },
      {
        "day": "Saturday",
        "hours": "9\u202fAM to 1\u202fPM, 1:30 to 6\u202fPM"
      },
      {
        "day": "Sunday",
        "hours": "10\u202fAM to 1\u202fPM, 1:30 to 4\u202fPM"
      }
    ],
    "additionalOpeningHours": {
      "Drive through": [
        {
          "day": "Monday",
          "hours": "9\u202fAM\u20131\u202fPM"
        },
        {
          "day": "Tuesday",
          "hours": "9\u202fAM\u20131\u202fPM"
        },
        {
          "day": "Wednesday",
          "hours": "9\u202fAM\u20131\u202fPM"
        },
        {
          "day": "Thursday",
          "hours": "9\u202fAM\u20131\u202fPM"
        },
        {
          "day": "Friday",
          "hours": "9\u202fAM\u20131\u202fPM"
        },
        {
          "day": "Saturday",
          "hours": "9\u202fAM\u20131\u202fPM"
        },
        {
          "day": "Sunday",
          "hours": "10\u202fAM\u20131\u202fPM"
        }
      ]
    },
    "peopleAlsoSearch": [],
    "placesTags": [],
    "reviewsTags": [],
    "additionalInfo": {
      "Service options": [
        {
          "Curbside pickup": true
        },
        {
          "Delivery": true
        },
        {
          "Drive-through": true
        },
        {
          "In-store pickup": true
        },
        {
          "In-store shopping": true
        },
        {
          "Onsite services": true
        },
        {
          "Same-day delivery": true
        }
      ],
      "Accessibility": [
        {
          "Wheelchair accessible entrance": true
        },
        {
          "Wheelchair accessible parking lot": true
        },
        {
          "Wheelchair accessible restroom": true
        },
        {
          "Wheelchair accessible seating": true
        }
      ],
      "Crowd": [
        {
          "LGBTQ+ friendly": true
        },
        {
          "Transgender safespace": true
        }
      ],
      "Planning": [
        {
          "Quick visit": true
        }
      ],
      "Payments": [
        {
          "Checks": true
        },
        {
          "Credit cards": true
        },
        {
          "Debit cards": true
        },
        {
          "NFC mobile payments": true
        },
        {
          "Credit cards": true
        }
      ]
    },
    "gasPrices": [],
    "url": "https://www.google.com/maps/search/?api=1&query=Smith's%20Pharmacy&query_place_id=ChIJIUT7_FqMUocRZFmuL0GqnP8",
    "searchPageUrl": "https://www.google.com/maps/search/independent%20pharmacy%20West%20Valley%20City%20UT/@33.954544952667874,-114.98210525670324,8z?hl=en",
    "searchString": "independent pharmacy West Valley City UT",
    "language": "en",
    "rank": 11,
    "isAdvertisement": false,
    "imageUrl": "https://lh3.googleusercontent.com/p/AF1QipPAZZad7hbGWf-nrq7ks_9UD45kmmiwgVfFY33F=w426-h240-k-no",
    "kgmid": "/g/1pt_n38zd",
    "classification": "chain",
    "is_independent": false,
    "is_compounding": false,
    "confidence": 0.95,
    "source": "perplexity",
    "method": "llm"
  },
  {
    "title": "Smith's Pharmacy",
    "price": null,
    "categoryName": "Pharmacy",
    "address": "5620 W 4100 S, West Valley City, UT 84128",
    "neighborhood": null,
    "street": "5620 W 4100 S",
    "city": "West Valley City",
    "postalCode": "84128",
    "state": "Utah",
    "countryCode": "US",
    "website": "https://www.smithsfoodanddrug.com/rx/pharmacy/details/706/00147?cid=loc_70600147P_gmb",
    "phone": "(801) 966-6546",
    "phoneUnformatted": "+18019666546",
    "claimThisBusiness": false,
    "location": {
      "lat": 40.683981,
      "lng": -112.0254543
    },
    "totalScore": 2.8,
    "permanentlyClosed": false,
    "temporarilyClosed": false,
    "placeId": null,
    "categories": [
      "Pharmacy",
      "Drug store",
      "Health counselor",
      "Home health care service"
    ],
    "fid": "0x87528d6c97c10479:0x50ccc19144822a12",
    "cid": "5822241247947008530",
    "reviewsCount": 62,
    "imagesCount": 12,
    "imageCategories": [],
    "scrapedAt": "2025-06-22T09:55:18.129Z",
    "googleFoodUrl": null,
    "hotelAds": [],
    "openingHours": [
      {
        "day": "Monday",
        "hours": "9\u202fAM to 1\u202fPM, 1:30 to 8\u202fPM"
      },
      {
        "day": "Tuesday",
        "hours": "9\u202fAM to 1\u202fPM, 1:30 to 8\u202fPM"
      },
      {
        "day": "Wednesday",
        "hours": "9\u202fAM to 1\u202fPM, 1:30 to 8\u202fPM"
      },
      {
        "day": "Thursday",
        "hours": "9\u202fAM to 1\u202fPM, 1:30 to 8\u202fPM"
      },
      {
        "day": "Friday",
        "hours": "9\u202fAM to 1\u202fPM, 1:30 to 8\u202fPM"
      },
      {
        "day": "Saturday",
        "hours": "9\u202fAM to 1\u202fPM, 1:30 to 6\u202fPM"
      },
      {
        "day": "Sunday",
        "hours": "10\u202fAM to 1\u202fPM, 1:30 to 4\u202fPM"
      }
    ],
    "peopleAlsoSearch": [],
    "placesTags": [],
    "reviewsTags": [],
    "additionalInfo": {
      "Service options": [
        {
          "Curbside pickup": true
        },
        {
          "Delivery": true
        },
        {
          "In-store pickup": true
        },
        {
          "In-store shopping": true
        },
        {
          "Onsite services": true
        },
        {
          "Same-day delivery": true
        }
      ],
      "Accessibility": [
        {
          "Wheelchair accessible entrance": true
        },
        {
          "Wheelchair accessible parking lot": true
        },
        {
          "Wheelchair accessible restroom": true
        },
        {
          "Wheelchair accessible seating": true
        }
      ],
      "Offerings": [
        {
          "Passport photos": true
        }
      ],
      "Crowd": [
        {
          "LGBTQ+ friendly": true
        },
        {
          "Transgender safespace": true
        }
      ],
      "Planning": [
        {
          "Quick visit": true
        }
      ],
      "Payments": [
        {
          "Checks": true
        },
        {
          "Credit cards": true
        },
        {
          "Debit cards": true
        },
        {
          "NFC mobile payments": true
        },
        {
          "Credit cards": true
        }
      ]
    },
    "gasPrices": [],
    "url": "https://www.google.com/maps/search/?api=1&query=Smith's%20Pharmacy&query_place_id=ChIJeQTBl2yNUocREiqCRJHBzFA",
    "searchPageUrl": "https://www.google.com/maps/search/independent%20pharmacy%20West%20Valley%20City%20UT/@33.954544952667874,-114.98210525670324,8z?hl=en",
    "searchString": "independent pharmacy West Valley City UT",
    "language": "en",
    "rank": 12,
    "isAdvertisement": false,
    "imageUrl": "https://lh3.googleusercontent.com/p/AF1QipNKVsmo4Yg3tME85nCjA4I_-2OT-i_MKPmqX4aJ=w426-h240-k-no",
    "kgmid": "/g/1ptwn0smn",
    "classification": "chain",
    "is_independent": false,
    "is_compounding": false,
    "confidence": 0.95,
    "source": "perplexity",
    "method": "llm"
  },
  {
    "title": "South Valley Compounding Pharmacy",
    "price": null,
    "categoryName": "Pharmacy",
    "address": "3796 W 12600 S, Riverton, UT 84065",
    "neighborhood": null,
    "street": "3796 W 12600 S",
    "city": "Riverton",
    "postalCode": "84065",
    "state": "Utah",
    "countryCode": "US",
    "website": "http://www.southvalleypharm.com/contact-us/",
    "phone": "(801) 676-7880",
    "phoneUnformatted": "+18016767880",
    "claimThisBusiness": false,
    "location": {
      "lat": 40.5228719,
      "lng": -111.9814519
    },
    "totalScore": 4.7,
    "permanentlyClosed": false,
    "temporarilyClosed": false,
    "placeId": null,
    "categories": [
      "Pharmacy"
    ],
    "fid": "0x875285b3b59c9523:0xde54f7a0ad497ee8",
    "cid": "16020702043937799912",
    "reviewsCount": 81,
    "imagesCount": 34,
    "imageCategories": [],
    "scrapedAt": "2025-06-22T09:55:18.129Z",
    "googleFoodUrl": null,
    "hotelAds": [],
    "openingHours": [
      {
        "day": "Monday",
        "hours": "9\u202fAM to 6\u202fPM"
      },
      {
        "day": "Tuesday",
        "hours": "9\u202fAM to 6\u202fPM"
      },
      {
        "day": "Wednesday",
        "hours": "9\u202fAM to 6\u202fPM"
      },
      {
        "day": "Thursday",
        "hours": "9\u202fAM to 6\u202fPM"
      },
      {
        "day": "Friday",
        "hours": "9\u202fAM to 6\u202fPM"
      },
      {
        "day": "Saturday",
        "hours": "Closed"
      },
      {
        "day": "Sunday",
        "hours": "Closed"
      }
    ],
    "peopleAlsoSearch": [],
    "placesTags": [],
    "reviewsTags": [],
    "additionalInfo": {
      "From the business": [
        {
          "Small business": true
        }
      ],
      "Service options": [
        {
          "Curbside pickup": true
        },
        {
          "Delivery": true
        },
        {
          "Drive-through": true
        },
        {
          "In-store pickup": true
        },
        {
          "In-store shopping": true
        },
        {
          "Onsite services": true
        },
        {
          "Same-day delivery": false
        }
      ],
      "Accessibility": [
        {
          "Wheelchair accessible entrance": true
        },
        {
          "Wheelchair accessible parking lot": true
        }
      ],
      "Planning": [
        {
          "Quick visit": true
        }
      ],
      "Payments": [
        {
          "Credit cards": true
        },
        {
          "Debit cards": true
        },
        {
          "NFC mobile payments": true
        },
        {
          "Credit cards": true
        }
      ]
    },
    "gasPrices": [],
    "url": "https://www.google.com/maps/search/?api=1&query=South%20Valley%20Compounding%20Pharmacy&query_place_id=ChIJI5WctbOFUocR6H5JraD3VN4",
    "searchPageUrl": "https://www.google.com/maps/search/independent%20pharmacy%20West%20Valley%20City%20UT/@33.954544952667874,-114.98210525670324,8z?hl=en",
    "searchString": "independent pharmacy West Valley City UT",
    "language": "en",
    "rank": 13,
    "isAdvertisement": false,
    "imageUrl": "https://lh3.googleusercontent.com/gps-cs-s/AC9h4noKEtw2dG5mkeQDDz2_rbFaxl4QkwGH4BNlQNhrV3piQyBv4Zab2L2Aa4D6T72NjUDeG3ZvMPx7OVKFLHBQ0y6eE684D-vf8ivAqSzSuSdPP3larz0hIpCdhEKJ2e0OWlb9LJ2y=w408-h544-k-no",
    "kgmid": "/g/1td0g_27",
    "classification": "independent",
    "is_independent": true,
    "is_compounding": true,
    "confidence": 0.95,
    "source": "perplexity",
    "method": "llm"
  },
  {
    "title": "CVS Pharmacy",
    "description": "Drugstore chain selling a variety of beauty & health products, plus some grocery & household items.",
    "price": null,
    "categoryName": "Pharmacy",
    "address": "5518 High Market Dr, West Valley City, UT 84120",
    "neighborhood": null,
    "street": "5518 High Market Dr",
    "city": "West Valley City",
    "postalCode": "84120",
    "state": "Utah",
    "countryCode": "US",
    "website": "https://www.cvs.com/store-locator/west-valley-city-ut-pharmacies/5518-w-high-market-dr-west-valley-city-ut-84120/storeid=17590?WT.mc_id=LS_GOOGLE_RX_17590",
    "phone": "(801) 449-8023",
    "phoneUnformatted": "+18014498023",
    "claimThisBusiness": false,
    "location": {
      "lat": 40.7142543,
      "lng": -112.0228588
    },
    "totalScore": 4.2,
    "permanentlyClosed": false,
    "temporarilyClosed": false,
    "placeId": null,
    "categories": [
      "Pharmacy"
    ],
    "fid": "0x8752f2c9d1754851:0x20072c5770128c89",
    "cid": "2307862088104709257",
    "reviewsCount": 59,
    "imagesCount": 8,
    "imageCategories": [],
    "scrapedAt": "2025-06-22T09:55:18.129Z",
    "googleFoodUrl": null,
    "hotelAds": [],
    "openingHours": [
      {
        "day": "Monday",
        "hours": "9\u202fAM to 1:30\u202fPM, 2 to 7\u202fPM"
      },
      {
        "day": "Tuesday",
        "hours": "9\u202fAM to 1:30\u202fPM, 2 to 7\u202fPM"
      },
      {
        "day": "Wednesday",
        "hours": "9\u202fAM to 1:30\u202fPM, 2 to 7\u202fPM"
      },
      {
        "day": "Thursday",
        "hours": "9\u202fAM to 1:30\u202fPM, 2 to 7\u202fPM"
      },
      {
        "day": "Friday",
        "hours": "9\u202fAM to 1:30\u202fPM, 2 to 7\u202fPM"
      },
      {
        "day": "Saturday",
        "hours": "9\u202fAM to 1:30\u202fPM, 2 to 5\u202fPM"
      },
      {
        "day": "Sunday",
        "hours": "11\u202fAM to 1:30\u202fPM, 2 to 5\u202fPM"
      }
    ],
    "peopleAlsoSearch": [],
    "placesTags": [],
    "reviewsTags": [],
    "additionalInfo": {
      "Service options": [
        {
          "Delivery": true
        },
        {
          "In-store shopping": true
        },
        {
          "Onsite services": true
        }
      ],
      "Accessibility": [
        {
          "Wheelchair accessible entrance": true
        },
        {
          "Wheelchair accessible parking lot": true
        }
      ],
      "Offerings": [
        {
          "Naloxone": true
        }
      ],
      "Crowd": [
        {
          "LGBTQ+ friendly": true
        },
        {
          "Transgender safespace": true
        }
      ],
      "Planning": [
        {
          "Quick visit": true
        }
      ],
      "Payments": [
        {
          "Credit cards": true
        },
        {
          "Debit cards": true
        },
        {
          "Credit cards": true
        }
      ]
    },
    "gasPrices": [],
    "url": "https://www.google.com/maps/search/?api=1&query=CVS%20Pharmacy&query_place_id=ChIJUUh10cnyUocRiYwScFcsByA",
    "searchPageUrl": "https://www.google.com/maps/search/independent%20pharmacy%20West%20Valley%20City%20UT/@33.954544952667874,-114.98210525670324,8z?hl=en",
    "searchString": "independent pharmacy West Valley City UT",
    "language": "en",
    "rank": 14,
    "isAdvertisement": false,
    "imageUrl": "https://lh3.googleusercontent.com/p/AF1QipNt_u-42LLkqBRJGHuYt2uopsvc4EK7iBSogBxS=w408-h272-k-no",
    "kgmid": "/g/11b6c8zh21",
    "classification": "chain",
    "is_independent": false,
    "is_compounding": false,
    "confidence": 1.0,
    "source": "perplexity",
    "method": "llm"
  },
  {
    "title": "U of U Health Westridge Pharmacy",
    "price": null,
    "categoryName": "Pharmacy",
    "address": "3730 W 4700 S, West Valley City, UT 84129",
    "neighborhood": null,
    "street": "3730 W 4700 S",
    "city": "West Valley City",
    "postalCode": "84129",
    "state": "Utah",
    "countryCode": "US",
    "website": "https://healthcare.utah.edu/locations/westridge/pharmacy.php?utm_source=google&utm_medium=yext",
    "phone": "(801) 213-9250",
    "phoneUnformatted": "+18012139250",
    "claimThisBusiness": false,
    "location": {
      "lat": 40.6684185,
      "lng": -111.9797205
    },
    "totalScore": 3.9,
    "permanentlyClosed": false,
    "temporarilyClosed": false,
    "placeId": null,
    "categories": [
      "Pharmacy"
    ],
    "fid": "0x87528d8172373985:0xd45b0cd192487b19",
    "cid": "15301838253163313945",
    "reviewsCount": 18,
    "imagesCount": 4,
    "imageCategories": [],
    "scrapedAt": "2025-06-22T09:55:18.130Z",
    "googleFoodUrl": null,
    "hotelAds": [],
    "openingHours": [
      {
        "day": "Monday",
        "hours": "8\u202fAM to 8:30\u202fPM"
      },
      {
        "day": "Tuesday",
        "hours": "8\u202fAM to 8:30\u202fPM"
      },
      {
        "day": "Wednesday",
        "hours": "8\u202fAM to 8:30\u202fPM"
      },
      {
        "day": "Thursday",
        "hours": "8\u202fAM to 8:30\u202fPM"
      },
      {
        "day": "Friday",
        "hours": "8\u202fAM to 8:30\u202fPM"
      },
      {
        "day": "Saturday",
        "hours": "9\u202fAM to 8:30\u202fPM"
      },
      {
        "day": "Sunday",
        "hours": "9\u202fAM to 8:30\u202fPM"
      }
    ],
    "peopleAlsoSearch": [],
    "placesTags": [],
    "reviewsTags": [],
    "additionalInfo": {
      "Service options": [
        {
          "In-store shopping": true
        }
      ],
      "Accessibility": [
        {
          "Wheelchair accessible entrance": true
        },
        {
          "Wheelchair accessible parking lot": true
        }
      ],
      "Payments": [
        {
          "Credit cards": true
        }
      ]
    },
    "gasPrices": [],
    "url": "https://www.google.com/maps/search/?api=1&query=U%20of%20U%20Health%20Westridge%20Pharmacy&query_place_id=ChIJhTk3coGNUocRGXtIktEMW9Q",
    "searchPageUrl": "https://www.google.com/maps/search/independent%20pharmacy%20West%20Valley%20City%20UT/@33.954544952667874,-114.98210525670324,8z?hl=en",
    "searchString": "independent pharmacy West Valley City UT",
    "language": "en",
    "rank": 15,
    "isAdvertisement": false,
    "imageUrl": "https://lh3.googleusercontent.com/p/AF1QipMlS5F0fHb22jMMF84Zd0xu2Pn71OZbSvTu48WP=w408-h271-k-no",
    "kgmid": "/g/11h8fpyjjd",
    "classification": "independent",
    "is_independent": true,
    "is_compounding": false,
    "confidence": 0.9,
    "source": "perplexity",
    "method": "llm"
  },
  {
    "title": "CVS Pharmacy",
    "price": null,
    "categoryName": "Pharmacy",
    "address": "3148 W 3500 S, West Valley City, UT 84119",
    "neighborhood": null,
    "street": "3148 W 3500 S",
    "city": "West Valley City",
    "postalCode": "84119",
    "state": "Utah",
    "countryCode": "US",
    "website": "https://www.cvs.com/store-locator/west-valley-city-ut-pharmacies/3148-west-3500-south-west-valley-city-ut-84119/storeid=10332?WT.mc_id=LS_GOOGLE_RX_10332",
    "phone": "(801) 963-2389",
    "phoneUnformatted": "+18019632389",
    "claimThisBusiness": false,
    "location": {
      "lat": 40.6972892,
      "lng": -111.9664746
    },
    "totalScore": 3.5,
    "permanentlyClosed": false,
    "temporarilyClosed": false,
    "placeId": null,
    "categories": [
      "Pharmacy"
    ],
    "fid": "0x87528c97af350743:0x2b949ebda0d11410",
    "cid": "3140309377468142608",
    "reviewsCount": 90,
    "imagesCount": 10,
    "imageCategories": [],
    "scrapedAt": "2025-06-22T09:55:18.130Z",
    "googleFoodUrl": null,
    "hotelAds": [],
    "openingHours": [
      {
        "day": "Monday",
        "hours": "8\u202fAM to 1:30\u202fPM, 2 to 10\u202fPM"
      },
      {
        "day": "Tuesday",
        "hours": "8\u202fAM to 1:30\u202fPM, 2 to 10\u202fPM"
      },
      {
        "day": "Wednesday",
        "hours": "8\u202fAM to 1:30\u202fPM, 2 to 10\u202fPM"
      },
      {
        "day": "Thursday",
        "hours": "8\u202fAM to 1:30\u202fPM, 2 to 10\u202fPM"
      },
      {
        "day": "Friday",
        "hours": "8\u202fAM to 1:30\u202fPM, 2 to 10\u202fPM"
      },
      {
        "day": "Saturday",
        "hours": "10\u202fAM to 1:30\u202fPM, 2 to 8\u202fPM"
      },
      {
        "day": "Sunday",
        "hours": "10\u202fAM to 1:30\u202fPM, 2 to 8\u202fPM"
      }
    ],
    "peopleAlsoSearch": [],
    "placesTags": [],
    "reviewsTags": [],
    "additionalInfo": {
      "Service options": [
        {
          "Delivery": true
        },
        {
          "Drive-through": true
        },
        {
          "In-store pickup": true
        },
        {
          "In-store shopping": true
        },
        {
          "Onsite services": true
        }
      ],
      "Accessibility": [
        {
          "Wheelchair accessible entrance": true
        },
        {
          "Wheelchair accessible parking lot": true
        }
      ],
      "Offerings": [
        {
          "Medication disposal": true
        },
        {
          "Naloxone": true
        },
        {
          "Passport photos": true
        }
      ],
      "Crowd": [
        {
          "LGBTQ+ friendly": true
        },
        {
          "Transgender safespace": true
        }
      ],
      "Planning": [
        {
          "Quick visit": true
        }
      ],
      "Payments": [
        {
          "Credit cards": true
        },
        {
          "Debit cards": true
        },
        {
          "NFC mobile payments": true
        },
        {
          "SNAP/EBT": true
        },
        {
          "Credit cards": true
        }
      ]
    },
    "gasPrices": [],
    "url": "https://www.google.com/maps/search/?api=1&query=CVS%20Pharmacy&query_place_id=ChIJQwc1r5eMUocREBTRoL2elCs",
    "searchPageUrl": "https://www.google.com/maps/search/independent%20pharmacy%20West%20Valley%20City%20UT/@33.954544952667874,-114.98210525670324,8z?hl=en",
    "searchString": "independent pharmacy West Valley City UT",
    "language": "en",
    "rank": 16,
    "isAdvertisement": false,
    "imageUrl": "https://lh3.googleusercontent.com/p/AF1QipMLPeAODJtBrVfZaKpMsDFWvHY-bHTTvODQ_IaK=w408-h272-k-no",
    "kgmid": "/g/11c461zh6l",
    "classification": "chain",
    "is_independent": false,
    "is_compounding": false,
    "confidence": 1.0,
    "source": "perplexity",
    "method": "llm"
  },
  {
    "title": "U of U Health Midvalley Specialty Pharmacy",
    "price": null,
    "categoryName": "Pharmacy",
    "address": "6056 Fashion Square Dr Suite 1000, Murray, UT 84107",
    "neighborhood": null,
    "street": "6056 Fashion Square Dr Suite 1000",
    "city": "Murray",
    "postalCode": "84107",
    "state": "Utah",
    "countryCode": "US",
    "website": "https://healthcare.utah.edu/locations/midvalley/specialty-pharmacy/",
    "phone": "(801) 213-8650",
    "phoneUnformatted": "+18012138650",
    "claimThisBusiness": false,
    "location": {
      "lat": 40.6398584,
      "lng": -111.8851808
    },
    "totalScore": 3.9,
    "permanentlyClosed": false,
    "temporarilyClosed": false,
    "placeId": null,
    "categories": [
      "Pharmacy"
    ],
    "fid": "0x875289c933ffac85:0x991498bbcf81a341",
    "cid": "11030609319744873281",
    "reviewsCount": 21,
    "imagesCount": 4,
    "imageCategories": [],
    "scrapedAt": "2025-06-22T09:55:18.130Z",
    "googleFoodUrl": null,
    "hotelAds": [],
    "openingHours": [
      {
        "day": "Monday",
        "hours": "9\u202fAM to 3\u202fPM"
      },
      {
        "day": "Tuesday",
        "hours": "9\u202fAM to 3\u202fPM"
      },
      {
        "day": "Wednesday",
        "hours": "9\u202fAM to 3\u202fPM"
      },
      {
        "day": "Thursday",
        "hours": "9\u202fAM to 3\u202fPM"
      },
      {
        "day": "Friday",
        "hours": "9\u202fAM to 3\u202fPM"
      },
      {
        "day": "Saturday",
        "hours": "Closed"
      },
      {
        "day": "Sunday",
        "hours": "Closed"
      }
    ],
    "peopleAlsoSearch": [],
    "placesTags": [],
    "reviewsTags": [],
    "additionalInfo": {
      "Service options": [
        {
          "Delivery": true
        }
      ],
      "Accessibility": [
        {
          "Wheelchair accessible entrance": true
        },
        {
          "Wheelchair accessible parking lot": true
        }
      ],
      "Payments": [
        {
          "Credit cards": true
        },
        {
          "Debit cards": true
        },
        {
          "NFC mobile payments": true
        },
        {
          "Credit cards": true
        }
      ]
    },
    "gasPrices": [],
    "url": "https://www.google.com/maps/search/?api=1&query=U%20of%20U%20Health%20Midvalley%20Specialty%20Pharmacy&query_place_id=ChIJhaz_M8mJUocRQaOBz7uYFJk",
    "searchPageUrl": "https://www.google.com/maps/search/independent%20pharmacy%20West%20Valley%20City%20UT/@33.954544952667874,-114.98210525670324,8z?hl=en",
    "searchString": "independent pharmacy West Valley City UT",
    "language": "en",
    "rank": 17,
    "isAdvertisement": false,
    "imageUrl": "https://lh3.googleusercontent.com/p/AF1QipN-WOEQUBgYIKMnEiiYVUG9eDAkHI_XhicTJbk=w408-h311-k-no",
    "kgmid": "/g/11g1lhkrbq",
    "classification": "independent",
    "is_independent": true,
    "is_compounding": false,
    "confidence": 0.9,
    "source": "perplexity",
    "method": "llm"
  },
  {
    "title": "Family Plaza Pharmacy",
    "price": null,
    "categoryName": "Pharmacy",
    "address": "3570 W 9000 S #150, West Jordan, UT 84088",
    "neighborhood": null,
    "street": "3570 W 9000 S #150",
    "city": "West Jordan",
    "postalCode": "84088",
    "state": "Utah",
    "countryCode": "US",
    "website": "https://www.mygnp.com/pharmacies/family-plaza-pharmacy-west-jordan-ut-84088/?utm_source=google&utm_medium=local&utm_campaign=localmaps&utm_content=4607404",
    "phone": "(801) 569-0175",
    "phoneUnformatted": "+18015690175",
    "claimThisBusiness": false,
    "location": {
      "lat": 40.5907295,
      "lng": -111.9739447
    },
    "totalScore": 4.5,
    "permanentlyClosed": false,
    "temporarilyClosed": false,
    "placeId": null,
    "categories": [
      "Pharmacy",
      "Drug store"
    ],
    "fid": "0x87528f162f9d0a2d:0x7b5a45895986538",
    "cid": "555530829423994168",
    "reviewsCount": 50,
    "imagesCount": 12,
    "imageCategories": [],
    "scrapedAt": "2025-06-22T09:55:18.130Z",
    "googleFoodUrl": null,
    "hotelAds": [],
    "openingHours": [
      {
        "day": "Monday",
        "hours": "9\u202fAM to 6\u202fPM"
      },
      {
        "day": "Tuesday",
        "hours": "9\u202fAM to 6\u202fPM"
      },
      {
        "day": "Wednesday",
        "hours": "9\u202fAM to 6\u202fPM"
      },
      {
        "day": "Thursday",
        "hours": "9\u202fAM to 6\u202fPM"
      },
      {
        "day": "Friday",
        "hours": "9\u202fAM to 6\u202fPM"
      },
      {
        "day": "Saturday",
        "hours": "9\u202fAM to 1\u202fPM"
      },
      {
        "day": "Sunday",
        "hours": "Closed"
      }
    ],
    "peopleAlsoSearch": [],
    "placesTags": [],
    "reviewsTags": [],
    "additionalInfo": {
      "Service options": [
        {
          "Delivery": true
        },
        {
          "In-store pickup": true
        },
        {
          "In-store shopping": true
        },
        {
          "Same-day delivery": true
        }
      ],
      "Accessibility": [
        {
          "Wheelchair accessible entrance": true
        },
        {
          "Wheelchair accessible parking lot": true
        }
      ],
      "Amenities": [
        {
          "Wi-Fi": true
        },
        {
          "Free Wi-Fi": true
        }
      ],
      "Planning": [
        {
          "Quick visit": true
        }
      ],
      "Payments": [
        {
          "Credit cards": true
        },
        {
          "Debit cards": true
        },
        {
          "NFC mobile payments": true
        },
        {
          "Credit cards": true
        }
      ]
    },
    "gasPrices": [],
    "url": "https://www.google.com/maps/search/?api=1&query=Family%20Plaza%20Pharmacy&query_place_id=ChIJLQqdLxaPUocROGWYlViktQc",
    "searchPageUrl": "https://www.google.com/maps/search/independent%20pharmacy%20West%20Valley%20City%20UT/@33.954544952667874,-114.98210525670324,8z?hl=en",
    "searchString": "independent pharmacy West Valley City UT",
    "language": "en",
    "rank": 18,
    "isAdvertisement": false,
    "imageUrl": "https://lh3.googleusercontent.com/gps-cs-s/AC9h4npUkkBbn3qhrwcuANC_qKeI1ADSGskloE3n5Ll5l6YllVvw_6HvuzKkx3ZGHMK0VLRasC0Mo11YG0j9XzgQEE0OwyXFFT_OMycQSh8TeTs5KGBy1L8Zwjr8oQHrMPrLrUWtSrAcFw=w408-h270-k-no",
    "kgmid": "/g/1tfjws0p",
    "classification": "independent",
    "is_independent": true,
    "is_compounding": false,
    "confidence": 0.9,
    "source": "perplexity",
    "method": "llm"
  },
  {
    "title": "Medicine Market Compounding Pharmacy",
    "price": null,
    "categoryName": "Pharmacy",
    "address": "2036 E 6200 S, Holladay, UT 84121",
    "neighborhood": null,
    "street": "2036 E 6200 S",
    "city": "Holladay",
    "postalCode": "84121",
    "state": "Utah",
    "countryCode": "US",
    "website": "http://www.medicinecenterrx.com/",
    "phone": "(801) 278-2101",
    "phoneUnformatted": "+18012782101",
    "claimThisBusiness": false,
    "location": {
      "lat": 40.6380899,
      "lng": -111.832828
    },
    "totalScore": 4.9,
    "permanentlyClosed": false,
    "temporarilyClosed": false,
    "placeId": null,
    "categories": [
      "Pharmacy",
      "Vitamin & supplements store",
      "Wellness center"
    ],
    "fid": "0x87526267f899b12b:0x5c4962374c38305f",
    "cid": "6649954314430722143",
    "reviewsCount": 96,
    "imagesCount": 30,
    "imageCategories": [],
    "scrapedAt": "2025-06-22T09:55:18.130Z",
    "googleFoodUrl": null,
    "hotelAds": [],
    "openingHours": [
      {
        "day": "Monday",
        "hours": "9\u202fAM to 6\u202fPM"
      },
      {
        "day": "Tuesday",
        "hours": "9\u202fAM to 6\u202fPM"
      },
      {
        "day": "Wednesday",
        "hours": "9\u202fAM to 6\u202fPM"
      },
      {
        "day": "Thursday",
        "hours": "9\u202fAM to 6\u202fPM"
      },
      {
        "day": "Friday",
        "hours": "9\u202fAM to 6\u202fPM"
      },
      {
        "day": "Saturday",
        "hours": "9\u202fAM to 1\u202fPM"
      },
      {
        "day": "Sunday",
        "hours": "Closed"
      }
    ],
    "peopleAlsoSearch": [],
    "placesTags": [],
    "reviewsTags": [],
    "additionalInfo": {
      "From the business": [
        {
          "Small business": true
        }
      ],
      "Service options": [
        {
          "Curbside pickup": true
        },
        {
          "Delivery": true
        },
        {
          "In-store pickup": true
        },
        {
          "In-store shopping": true
        }
      ],
      "Accessibility": [
        {
          "Wheelchair accessible entrance": true
        },
        {
          "Wheelchair accessible parking lot": true
        }
      ],
      "Planning": [
        {
          "Quick visit": true
        }
      ],
      "Payments": [
        {
          "Credit cards": true
        }
      ]
    },
    "gasPrices": [],
    "url": "https://www.google.com/maps/search/?api=1&query=Medicine%20Market%20Compounding%20Pharmacy&query_place_id=ChIJK7GZ-GdiUocRXzA4TDdiSVw",
    "searchPageUrl": "https://www.google.com/maps/search/independent%20pharmacy%20West%20Valley%20City%20UT/@33.954544952667874,-114.98210525670324,8z?hl=en",
    "searchString": "independent pharmacy West Valley City UT",
    "language": "en",
    "rank": 19,
    "isAdvertisement": false,
    "imageUrl": "https://lh3.googleusercontent.com/p/AF1QipOjqJBBkeBVuZEXbWndiJwseaQMvg0ES3p0jAAZ=w408-h306-k-no",
    "kgmid": "/g/1tnhytg2",
    "classification": "independent",
    "is_independent": true,
    "is_compounding": true,
    "confidence": 0.95,
    "source": "perplexity",
    "method": "llm"
  },
  {
    "title": "Macey's Granger Pharmacy",
    "price": null,
    "categoryName": "Pharmacy",
    "address": "3555 W 3500 S, West Valley City, UT 84119",
    "neighborhood": null,
    "street": "3555 W 3500 S",
    "city": "West Valley City",
    "postalCode": "84119",
    "state": "Utah",
    "countryCode": "US",
    "website": "https://maceys.com/pharm/locations",
    "phone": "(801) 963-6870",
    "phoneUnformatted": "+18019636870",
    "claimThisBusiness": false,
    "location": {
      "lat": 40.6951757,
      "lng": -111.9759803
    },
    "totalScore": 4,
    "permanentlyClosed": false,
    "temporarilyClosed": false,
    "placeId": null,
    "categories": [
      "Pharmacy"
    ],
    "fid": "0x87528d6729bf3569:0x2b6bd8fcc4cea563",
    "cid": "3128832946284176739",
    "reviewsCount": 6,
    "imagesCount": 3,
    "imageCategories": [],
    "scrapedAt": "2025-06-22T09:55:18.130Z",
    "googleFoodUrl": null,
    "hotelAds": [],
    "openingHours": [
      {
        "day": "Monday",
        "hours": "8\u202fAM to 8\u202fPM"
      },
      {
        "day": "Tuesday",
        "hours": "8\u202fAM to 8\u202fPM"
      },
      {
        "day": "Wednesday",
        "hours": "8\u202fAM to 8\u202fPM"
      },
      {
        "day": "Thursday",
        "hours": "8\u202fAM to 8\u202fPM"
      },
      {
        "day": "Friday",
        "hours": "8\u202fAM to 8\u202fPM"
      },
      {
        "day": "Saturday",
        "hours": "9\u202fAM to 7\u202fPM"
      },
      {
        "day": "Sunday",
        "hours": "10\u202fAM to 4\u202fPM"
      }
    ],
    "peopleAlsoSearch": [],
    "placesTags": [],
    "reviewsTags": [],
    "additionalInfo": {
      "Service options": [
        {
          "Curbside pickup": true
        },
        {
          "Delivery": true
        },
        {
          "In-store pickup": true
        },
        {
          "In-store shopping": true
        },
        {
          "Same-day delivery": true
        }
      ],
      "Accessibility": [
        {
          "Wheelchair accessible entrance": true
        },
        {
          "Wheelchair accessible parking lot": true
        },
        {
          "Wheelchair accessible restroom": true
        },
        {
          "Wheelchair accessible seating": true
        }
      ],
      "Amenities": [
        {
          "Wi-Fi": true
        },
        {
          "Free Wi-Fi": true
        }
      ],
      "Planning": [
        {
          "Quick visit": true
        }
      ],
      "Payments": [
        {
          "Checks": true
        },
        {
          "Credit cards": true
        },
        {
          "Debit cards": true
        },
        {
          "NFC mobile payments": true
        },
        {
          "Credit cards": true
        }
      ]
    },
    "gasPrices": [],
    "url": "https://www.google.com/maps/search/?api=1&query=Macey's%20Granger%20Pharmacy&query_place_id=ChIJaTW_KWeNUocRY6XOxPzYays",
    "searchPageUrl": "https://www.google.com/maps/search/independent%20pharmacy%20West%20Valley%20City%20UT/@33.954544952667874,-114.98210525670324,8z?hl=en",
    "searchString": "independent pharmacy West Valley City UT",
    "language": "en",
    "rank": 20,
    "isAdvertisement": false,
    "imageUrl": "https://lh3.googleusercontent.com/gps-cs-s/AC9h4npMmsUOJf61nAsUf3ypUSsREHLBrD0E3IT_qU4UEy-96vs_O-G-HPbp2PYHQlL0K8rc1au-uS0RCrisqWCakR0MDYm8vn2LoPSz9bUrzFBKgYSGaM2tvkpLa83KYtLxq_FJ9yolhg=w408-h544-k-no",
    "kgmid": "/g/11lgp8fc6d",
    "classification": "chain",
    "is_independent": false,
    "is_compounding": false,
    "confidence": 0.95,
    "source": "perplexity",
    "method": "llm"
  }
]