[
  {
    "title": "Lexington Compounding Pharmacy",
    "price": null,
    "categoryName": "Pharmacy",
    "address": "399 Waller Ave #110, Lexington, KY 40504",
    "neighborhood": null,
    "street": "399 Waller Ave #110",
    "city": "Lexington",
    "postalCode": "40504",
    "state": "Kentucky",
    "countryCode": "US",
    "website": "http://lexingtoncompoundingpharmacy.com/",
    "phone": "(859) 276-3905",
    "phoneUnformatted": "+18592763905",
    "claimThisBusiness": false,
    "location": {
      "lat": 38.0316735,
      "lng": -84.520755
    },
    "totalScore": 4.2,
    "permanentlyClosed": false,
    "temporarilyClosed": false,
    "placeId": null,
    "categories": [
      "Pharmacy"
    ],
    "fid": "0x88424359bb7ed6c5:0xcfa484cf4a594746",
    "cid": "14962229887872091974",
    "reviewsCount": 48,
    "imagesCount": 3,
    "imageCategories": [],
    "scrapedAt": "2025-06-22T05:18:29.875Z",
    "googleFoodUrl": null,
    "hotelAds": [],
    "openingHours": [
      {
        "day": "Monday",
        "hours": "8\u202fAM to 5\u202fPM"
      },
      {
        "day": "Tuesday",
        "hours": "8\u202fAM to 5\u202fPM"
      },
      {
        "day": "Wednesday",
        "hours": "8\u202fAM to 5\u202fPM"
      },
      {
        "day": "Thursday",
        "hours": "8\u202fAM to 5\u202fPM"
      },
      {
        "day": "Friday",
        "hours": "8\u202fAM to 5\u202fPM"
      },
      {
        "day": "Saturday",
        "hours": "Closed"
      },
      {
        "day": "Sunday",
        "hours": "Closed"
      }
    ],
    "peopleAlsoSearch": [],
    "placesTags": [],
    "reviewsTags": [],
    "additionalInfo": {
      "From the business": [
        {
          "Small business": true
        }
      ],
      "Service options": [
        {
          "Delivery": true
        },
        {
          "Drive-through": true
        },
        {
          "In-store shopping": true
        },
        {
          "Same-day delivery": true
        },
        {
          "English": true
        }
      ],
      "Accessibility": [
        {
          "Wheelchair accessible entrance": true
        },
        {
          "Wheelchair accessible parking lot": true
        }
      ],
      "Payments": [
        {
          "Credit cards": true
        },
        {
          "Debit cards": true
        },
        {
          "NFC mobile payments": true
        },
        {
          "Credit cards": true
        }
      ]
    },
    "gasPrices": [],
    "url": "https://www.google.com/maps/search/?api=1&query=Lexington%20Compounding%20Pharmacy&query_place_id=ChIJxdZ-u1lDQogRRkdZSs-EpM8",
    "searchPageUrl": "https://www.google.com/maps/search/independent%20pharmacy%20Lexington%20KY/@56.01120730753697,-161.1661038710836,9z?hl=en",
    "searchString": "independent pharmacy Lexington KY",
    "language": "en",
    "rank": 1,
    "isAdvertisement": false,
    "imageUrl": "https://lh3.googleusercontent.com/p/AF1QipOI2p7R4VszORWOpcguf0sZqvNVM9yzR0-MGVH2=w447-h240-k-no",
    "kgmid": "/g/1tdy0ksj",
    "classification": "independent",
    "is_independent": true,
    "is_compounding": true,
    "confidence": 0.95,
    "source": "perplexity",
    "method": "llm"
  },
  {
    "title": "Eastland Pharmacy",
    "price": null,
    "categoryName": "Pharmacy",
    "address": "1301 Winchester Rd suite 69, Lexington, KY 40505",
    "neighborhood": null,
    "street": "1301 Winchester Rd suite 69",
    "city": "Lexington",
    "postalCode": "40505",
    "state": "Kentucky",
    "countryCode": "US",
    "website": "http://www.eastlandpharmacyky.com/",
    "phone": "(859) 309-0960",
    "phoneUnformatted": "+18593090960",
    "claimThisBusiness": false,
    "location": {
      "lat": 38.0449931,
      "lng": -84.4593107
    },
    "totalScore": 5,
    "permanentlyClosed": false,
    "temporarilyClosed": false,
    "placeId": null,
    "categories": [
      "Pharmacy"
    ],
    "fid": "0x8842458339e25e31:0xfe261a41f769004a",
    "cid": "18313353805374750794",
    "reviewsCount": 33,
    "imagesCount": 8,
    "imageCategories": [],
    "scrapedAt": "2025-06-22T05:18:29.876Z",
    "googleFoodUrl": null,
    "hotelAds": [],
    "openingHours": [
      {
        "day": "Monday",
        "hours": "8\u202fAM to 7\u202fPM"
      },
      {
        "day": "Tuesday",
        "hours": "8\u202fAM to 7\u202fPM"
      },
      {
        "day": "Wednesday",
        "hours": "8\u202fAM to 7\u202fPM"
      },
      {
        "day": "Thursday",
        "hours": "8\u202fAM to 7\u202fPM"
      },
      {
        "day": "Friday",
        "hours": "8\u202fAM to 7\u202fPM"
      },
      {
        "day": "Saturday",
        "hours": "9\u202fAM to 3\u202fPM"
      },
      {
        "day": "Sunday",
        "hours": "Closed"
      }
    ],
    "peopleAlsoSearch": [],
    "placesTags": [],
    "reviewsTags": [],
    "additionalInfo": {
      "From the business": [
        {
          "Small business": true
        }
      ],
      "Service options": [
        {
          "Delivery": true
        },
        {
          "In-store pickup": true
        },
        {
          "Same-day delivery": true
        }
      ],
      "Accessibility": [
        {
          "Wheelchair accessible entrance": true
        },
        {
          "Wheelchair accessible parking lot": true
        }
      ],
      "Planning": [
        {
          "Quick visit": true
        }
      ],
      "Payments": [
        {
          "Credit cards": true
        }
      ]
    },
    "gasPrices": [],
    "url": "https://www.google.com/maps/search/?api=1&query=Eastland%20Pharmacy&query_place_id=ChIJMV7iOYNFQogRSgBp90EaJv4",
    "searchPageUrl": "https://www.google.com/maps/search/independent%20pharmacy%20Lexington%20KY/@56.01120730753697,-161.1661038710836,9z?hl=en",
    "searchString": "independent pharmacy Lexington KY",
    "language": "en",
    "rank": 2,
    "isAdvertisement": false,
    "imageUrl": "https://lh3.googleusercontent.com/p/AF1QipOqfL8jHbAYpB0XTypH1G70xk_hZBRPHvaGXqs-=w408-h306-k-no",
    "kgmid": "/g/11q9j0j315",
    "classification": "independent",
    "is_independent": true,
    "is_compounding": false,
    "confidence": 0.9,
    "source": "perplexity",
    "method": "llm"
  },
  {
    "title": "Hubbard & Curry Pharmacy Inc",
    "price": null,
    "categoryName": "Pharmacy",
    "address": "2387 Professional Hts Dr, Lexington, KY 40503",
    "neighborhood": null,
    "street": "2387 Professional Hts Dr",
    "city": "Lexington",
    "postalCode": "40503",
    "state": "Kentucky",
    "countryCode": "US",
    "website": "https://www.medsaverxhubbardandcurry.com/",
    "phone": "(859) 278-8408",
    "phoneUnformatted": "+18592788408",
    "claimThisBusiness": false,
    "location": {
      "lat": 38.0036016,
      "lng": -84.5174773
    },
    "totalScore": 4.6,
    "permanentlyClosed": false,
    "temporarilyClosed": false,
    "placeId": null,
    "categories": [
      "Pharmacy"
    ],
    "fid": "0x88425b5ea4461481:0x6ed1c6b7ff298021",
    "cid": "7985382107866824737",
    "reviewsCount": 22,
    "imagesCount": 5,
    "imageCategories": [],
    "scrapedAt": "2025-06-22T05:18:29.876Z",
    "googleFoodUrl": null,
    "hotelAds": [],
    "openingHours": [
      {
        "day": "Monday",
        "hours": "9\u202fAM to 5:30\u202fPM"
      },
      {
        "day": "Tuesday",
        "hours": "9\u202fAM to 5:30\u202fPM"
      },
      {
        "day": "Wednesday",
        "hours": "9\u202fAM to 5:30\u202fPM"
      },
      {
        "day": "Thursday",
        "hours": "9\u202fAM to 5:30\u202fPM"
      },
      {
        "day": "Friday",
        "hours": "9\u202fAM to 5:30\u202fPM"
      },
      {
        "day": "Saturday",
        "hours": "9\u202fAM to 12\u202fPM"
      },
      {
        "day": "Sunday",
        "hours": "Closed"
      }
    ],
    "peopleAlsoSearch": [],
    "placesTags": [],
    "reviewsTags": [],
    "additionalInfo": {
      "From the business": [
        {
          "Small business": true
        }
      ],
      "Service options": [
        {
          "Delivery": true
        },
        {
          "Drive-through": true
        },
        {
          "In-store pickup": true
        },
        {
          "Same-day delivery": true
        }
      ],
      "Accessibility": [
        {
          "Wheelchair accessible entrance": true
        },
        {
          "Wheelchair accessible parking lot": true
        }
      ],
      "Planning": [
        {
          "Quick visit": true
        }
      ],
      "Payments": [
        {
          "Credit cards": true
        },
        {
          "Debit cards": true
        },
        {
          "NFC mobile payments": true
        },
        {
          "Credit cards": true
        }
      ]
    },
    "gasPrices": [],
    "url": "https://www.google.com/maps/search/?api=1&query=Hubbard%20%26%20Curry%20Pharmacy%20Inc&query_place_id=ChIJgRRGpF5bQogRIYAp_7fG0W4",
    "searchPageUrl": "https://www.google.com/maps/search/independent%20pharmacy%20Lexington%20KY/@56.01120730753697,-161.1661038710836,9z?hl=en",
    "searchString": "independent pharmacy Lexington KY",
    "language": "en",
    "rank": 3,
    "isAdvertisement": false,
    "imageUrl": "https://lh3.googleusercontent.com/gps-cs-s/AC9h4nq55xj47o1VDok9468DvW_FT9UKjTSbDz6XIYLozMUf0J-JXgmmNK-2Je_9GaxYeaPn1L_8_oufD8MQ1y6ykWnWEjtX9aDUwpF5XV0dIPEfiommvQSVF2JNWHa19MU_9lo3nhgKfQ=w408-h544-k-no",
    "kgmid": "/g/1tfry4xs",
    "classification": "independent",
    "is_independent": true,
    "is_compounding": false,
    "confidence": 0.9,
    "source": "perplexity",
    "method": "llm"
  },
  {
    "title": "Corner Pharmacy",
    "price": null,
    "categoryName": "Pharmacy",
    "address": "3149, 1701 Alexandria Dr # C, Lexington, KY 40504",
    "neighborhood": null,
    "street": "3149, 1701 Alexandria Dr # C",
    "city": "Lexington",
    "postalCode": "40504",
    "state": "KY",
    "countryCode": "US",
    "website": "https://www.facebook.com/cornerpharmacylex/",
    "phone": "(859) 309-1230",
    "phoneUnformatted": "+18593091230",
    "claimThisBusiness": false,
    "location": {
      "lat": 38.0402736,
      "lng": -84.552898
    },
    "totalScore": 4.6,
    "permanentlyClosed": false,
    "temporarilyClosed": false,
    "placeId": null,
    "categories": [
      "Pharmacy"
    ],
    "fid": "0x8842433cc8fe8c07:0xbfe60c6560ef257c",
    "cid": "13827753335445202300",
    "reviewsCount": 24,
    "imagesCount": 2,
    "imageCategories": [],
    "scrapedAt": "2025-06-22T05:18:29.876Z",
    "googleFoodUrl": null,
    "hotelAds": [],
    "openingHours": [
      {
        "day": "Monday",
        "hours": "9\u202fAM to 5:30\u202fPM"
      },
      {
        "day": "Tuesday",
        "hours": "9\u202fAM to 5:30\u202fPM"
      },
      {
        "day": "Wednesday",
        "hours": "9\u202fAM to 5:30\u202fPM"
      },
      {
        "day": "Thursday",
        "hours": "9\u202fAM to 5:30\u202fPM"
      },
      {
        "day": "Friday",
        "hours": "9\u202fAM to 5:30\u202fPM"
      },
      {
        "day": "Saturday",
        "hours": "9\u202fAM to 12\u202fPM"
      },
      {
        "day": "Sunday",
        "hours": "Closed"
      }
    ],
    "additionalOpeningHours": {
      "Drive through": [
        {
          "day": "Monday",
          "hours": "9\u202fAM\u20135:30\u202fPM"
        },
        {
          "day": "Tuesday",
          "hours": "9\u202fAM\u20135:30\u202fPM"
        },
        {
          "day": "Wednesday",
          "hours": "9\u202fAM\u20135:30\u202fPM"
        },
        {
          "day": "Thursday",
          "hours": "9\u202fAM\u20135:30\u202fPM"
        },
        {
          "day": "Friday",
          "hours": "9\u202fAM\u20135:30\u202fPM"
        },
        {
          "day": "Saturday",
          "hours": "9\u202fAM\u201312\u202fPM"
        },
        {
          "day": "Sunday",
          "hours": "Closed"
        }
      ]
    },
    "peopleAlsoSearch": [],
    "placesTags": [],
    "reviewsTags": [],
    "additionalInfo": {
      "From the business": [
        {
          "Identifies as women-owned": true
        },
        {
          "Small business": true
        }
      ],
      "Service options": [
        {
          "Drive-through": true
        },
        {
          "In-store shopping": true
        },
        {
          "English": true
        }
      ],
      "Accessibility": [
        {
          "Wheelchair accessible entrance": true
        },
        {
          "Wheelchair accessible parking lot": true
        }
      ],
      "Planning": [
        {
          "Quick visit": true
        }
      ],
      "Payments": [
        {
          "Credit cards": true
        },
        {
          "Debit cards": true
        },
        {
          "NFC mobile payments": true
        },
        {
          "Credit cards": true
        }
      ]
    },
    "gasPrices": [],
    "url": "https://www.google.com/maps/search/?api=1&query=Corner%20Pharmacy&query_place_id=ChIJB4z-yDxDQogRfCXvYGUM5r8",
    "searchPageUrl": "https://www.google.com/maps/search/independent%20pharmacy%20Lexington%20KY/@56.01120730753697,-161.1661038710836,9z?hl=en",
    "searchString": "independent pharmacy Lexington KY",
    "language": "en",
    "rank": 4,
    "isAdvertisement": false,
    "imageUrl": "https://lh3.googleusercontent.com/p/AF1QipMY5zchKuP9khC4bHIvJJLvte0WZ1SFlpSH5sz6=w408-h293-k-no",
    "kgmid": "/g/1tp8_qvk",
    "classification": "independent",
    "is_independent": true,
    "is_compounding": false,
    "confidence": 0.85,
    "source": "perplexity",
    "method": "llm"
  },
  {
    "title": "Wheeler Pharmacy",
    "price": null,
    "categoryName": "Pharmacy",
    "address": "336 Romany Rd, Lexington, KY 40502",
    "neighborhood": "Chevy Chase",
    "street": "336 Romany Rd",
    "city": "Lexington",
    "postalCode": "40502",
    "state": "Kentucky",
    "countryCode": "US",
    "website": "http://www.wheelerpharmacy.com/",
    "phone": "(859) 266-1131",
    "phoneUnformatted": "+18592661131",
    "claimThisBusiness": false,
    "location": {
      "lat": 38.0198903,
      "lng": -84.4861926
    },
    "totalScore": 4.4,
    "permanentlyClosed": false,
    "temporarilyClosed": false,
    "placeId": null,
    "categories": [
      "Pharmacy"
    ],
    "fid": "0x884244d35cd64587:0x9bf7caa5ae85e7aa",
    "cid": "11238674208072787882",
    "reviewsCount": 61,
    "imagesCount": 17,
    "imageCategories": [],
    "scrapedAt": "2025-06-22T05:18:29.876Z",
    "googleFoodUrl": null,
    "hotelAds": [],
    "openingHours": [
      {
        "day": "Monday",
        "hours": "9\u202fAM to 6\u202fPM"
      },
      {
        "day": "Tuesday",
        "hours": "9\u202fAM to 6\u202fPM"
      },
      {
        "day": "Wednesday",
        "hours": "9\u202fAM to 6\u202fPM"
      },
      {
        "day": "Thursday",
        "hours": "9\u202fAM to 6\u202fPM"
      },
      {
        "day": "Friday",
        "hours": "9\u202fAM to 6\u202fPM"
      },
      {
        "day": "Saturday",
        "hours": "9\u202fAM to 3\u202fPM"
      },
      {
        "day": "Sunday",
        "hours": "Closed"
      }
    ],
    "peopleAlsoSearch": [],
    "placesTags": [],
    "reviewsTags": [],
    "additionalInfo": {
      "From the business": [
        {
          "Small business": true
        }
      ],
      "Service options": [
        {
          "Curbside pickup": true
        },
        {
          "Delivery": true
        },
        {
          "In-store pickup": true
        },
        {
          "In-store shopping": true
        },
        {
          "Onsite services": true
        }
      ],
      "Accessibility": [
        {
          "Wheelchair accessible entrance": true
        },
        {
          "Wheelchair accessible parking lot": true
        }
      ],
      "Planning": [
        {
          "Quick visit": true
        }
      ],
      "Payments": [
        {
          "Checks": true
        },
        {
          "Credit cards": true
        },
        {
          "Debit cards": true
        },
        {
          "NFC mobile payments": true
        },
        {
          "Credit cards": true
        }
      ]
    },
    "gasPrices": [],
    "url": "https://www.google.com/maps/search/?api=1&query=Wheeler%20Pharmacy&query_place_id=ChIJh0XWXNNEQogRqueFrqXK95s",
    "searchPageUrl": "https://www.google.com/maps/search/independent%20pharmacy%20Lexington%20KY/@56.01120730753697,-161.1661038710836,9z?hl=en",
    "searchString": "independent pharmacy Lexington KY",
    "language": "en",
    "rank": 5,
    "isAdvertisement": false,
    "imageUrl": "https://lh3.googleusercontent.com/p/AF1QipOBFlwA3vXGwyoql8CsfQZCCLHgt4rXKvLRrria=w408-h306-k-no",
    "kgmid": "/g/1tk9rf_h",
    "classification": "independent",
    "is_independent": true,
    "is_compounding": false,
    "confidence": 0.9,
    "source": "perplexity",
    "method": "llm"
  },
  {
    "title": "The Pharmacy Shop",
    "price": null,
    "categoryName": "Pharmacy",
    "address": "450 Southland Dr A, Lexington, KY 40503",
    "neighborhood": "Picadome",
    "street": "450 Southland Dr A",
    "city": "Lexington",
    "postalCode": "40503",
    "state": "Kentucky",
    "countryCode": "US",
    "website": "https://www.pharmacyshoplex.com/",
    "phone": "(859) 278-7282",
    "phoneUnformatted": "+18592787282",
    "claimThisBusiness": false,
    "location": {
      "lat": 38.0189199,
      "lng": -84.5282741
    },
    "totalScore": 4.5,
    "permanentlyClosed": false,
    "temporarilyClosed": false,
    "placeId": null,
    "categories": [
      "Pharmacy"
    ],
    "fid": "0x88425cab588038d5:0xadb03bd508509ed8",
    "cid": "12515569150616182488",
    "reviewsCount": 52,
    "imagesCount": 4,
    "imageCategories": [],
    "scrapedAt": "2025-06-22T05:18:29.877Z",
    "googleFoodUrl": null,
    "hotelAds": [],
    "openingHours": [
      {
        "day": "Monday",
        "hours": "10\u202fAM to 6\u202fPM"
      },
      {
        "day": "Tuesday",
        "hours": "10\u202fAM to 6\u202fPM"
      },
      {
        "day": "Wednesday",
        "hours": "10\u202fAM to 6\u202fPM"
      },
      {
        "day": "Thursday",
        "hours": "10\u202fAM to 6\u202fPM"
      },
      {
        "day": "Friday",
        "hours": "10\u202fAM to 6\u202fPM"
      },
      {
        "day": "Saturday",
        "hours": "Closed"
      },
      {
        "day": "Sunday",
        "hours": "Closed"
      }
    ],
    "peopleAlsoSearch": [],
    "placesTags": [],
    "reviewsTags": [],
    "additionalInfo": {
      "From the business": [
        {
          "Small business": true
        }
      ],
      "Service options": [
        {
          "Delivery": true
        },
        {
          "In-store pickup": true
        },
        {
          "Same-day delivery": true
        }
      ],
      "Accessibility": [
        {
          "Wheelchair accessible entrance": true
        },
        {
          "Wheelchair accessible parking lot": true
        }
      ],
      "Planning": [
        {
          "Quick visit": true
        }
      ],
      "Payments": [
        {
          "Credit cards": true
        },
        {
          "Debit cards": true
        },
        {
          "Credit cards": true
        }
      ]
    },
    "gasPrices": [],
    "url": "https://www.google.com/maps/search/?api=1&query=The%20Pharmacy%20Shop&query_place_id=ChIJ1TiAWKtcQogR2J5QCNU7sK0",
    "searchPageUrl": "https://www.google.com/maps/search/independent%20pharmacy%20Lexington%20KY/@56.01120730753697,-161.1661038710836,9z?hl=en",
    "searchString": "independent pharmacy Lexington KY",
    "language": "en",
    "rank": 6,
    "isAdvertisement": false,
    "imageUrl": "https://lh3.googleusercontent.com/gps-cs-s/AC9h4nqLfbDTw_-CQsEJWbG8xjhXDO584XnLddacfcM9AtqY1IvVSD5eaGb9DBVMMCcc2vqb1J-wfL4cTE_H4FzXQX4osi1oIGvBk7VBPNG_NTTFmeJUbBmXu_zJDiAwlIisC78JwzyN=w408-h544-k-no",
    "kgmid": "/g/1tflbbh9",
    "classification": "independent",
    "is_independent": true,
    "is_compounding": false,
    "confidence": 0.85,
    "source": "perplexity",
    "method": "llm"
  },
  {
    "title": "Professional Pharmacy",
    "price": null,
    "categoryName": "Pharmacy",
    "address": "3050 Harrodsburg Rd STE 101, Lexington, KY 40503",
    "neighborhood": null,
    "street": "3050 Harrodsburg Rd STE 101",
    "city": "Lexington",
    "postalCode": "40503",
    "state": "Kentucky",
    "countryCode": "US",
    "website": "https://lexingtonprofessionalpharmacy.com/",
    "phone": "(859) 278-6449",
    "phoneUnformatted": "+18592786449",
    "claimThisBusiness": true,
    "location": {
      "lat": 38.0129971,
      "lng": -84.5540254
    },
    "totalScore": 3.9,
    "permanentlyClosed": false,
    "temporarilyClosed": false,
    "placeId": null,
    "categories": [
      "Pharmacy"
    ],
    "fid": "0x88425cd02679924b:0xabefb8ba1f5bc51b",
    "cid": "12389324209449059611",
    "reviewsCount": 15,
    "imagesCount": 23,
    "imageCategories": [],
    "scrapedAt": "2025-06-22T05:18:29.877Z",
    "googleFoodUrl": null,
    "hotelAds": [],
    "openingHours": [
      {
        "day": "Monday",
        "hours": "9\u202fAM to 6\u202fPM"
      },
      {
        "day": "Tuesday",
        "hours": "9\u202fAM to 6\u202fPM"
      },
      {
        "day": "Wednesday",
        "hours": "9\u202fAM to 6\u202fPM"
      },
      {
        "day": "Thursday",
        "hours": "9\u202fAM to 6\u202fPM"
      },
      {
        "day": "Friday",
        "hours": "9\u202fAM to 6\u202fPM"
      },
      {
        "day": "Saturday",
        "hours": "9\u202fAM to 12:30\u202fPM"
      },
      {
        "day": "Sunday",
        "hours": "Closed"
      }
    ],
    "peopleAlsoSearch": [],
    "placesTags": [],
    "reviewsTags": [],
    "additionalInfo": {
      "From the business": [
        {
          "Small business": true
        }
      ],
      "Service options": [
        {
          "Delivery": true
        },
        {
          "Onsite services": true
        },
        {
          "Same-day delivery": true
        }
      ],
      "Accessibility": [
        {
          "Wheelchair accessible entrance": true
        },
        {
          "Wheelchair accessible parking lot": true
        }
      ],
      "Payments": [
        {
          "Credit cards": true
        },
        {
          "Debit cards": true
        },
        {
          "NFC mobile payments": true
        },
        {
          "Credit cards": true
        }
      ]
    },
    "gasPrices": [],
    "url": "https://www.google.com/maps/search/?api=1&query=Professional%20Pharmacy&query_place_id=ChIJS5J5JtBcQogRG8VbH7q476s",
    "searchPageUrl": "https://www.google.com/maps/search/independent%20pharmacy%20Lexington%20KY/@56.01120730753697,-161.1661038710836,9z?hl=en",
    "searchString": "independent pharmacy Lexington KY",
    "language": "en",
    "rank": 7,
    "isAdvertisement": false,
    "imageUrl": "https://lh3.googleusercontent.com/gps-cs-s/AC9h4nrVyxGE49ctmOkXWqvuSsvuaDYn1iQNdR_qYT-LWo4xZBmlK3W9QpEA9pSrIQAPVhX6D6J-RehMQgaAPHLq26LCSHwrREg3RsNIWbvJW7cx9gQjY79bR2ntEW9LXSsZjgmL1kBX=w408-h544-k-no",
    "kgmid": "/g/1tv24v3b",
    "classification": "independent",
    "is_independent": true,
    "is_compounding": false,
    "confidence": 0.9,
    "source": "perplexity",
    "method": "llm"
  },
  {
    "title": "MedWiz Pharmacy",
    "price": null,
    "categoryName": "Pharmacy",
    "address": "116 Venture Ct #4, Lexington, KY 40511",
    "neighborhood": null,
    "street": "116 Venture Ct #4",
    "city": "Lexington",
    "postalCode": "40511",
    "state": "Kentucky",
    "countryCode": "US",
    "website": "http://medwizrx.com/",
    "phone": "(859) 479-3990",
    "phoneUnformatted": "+18594793990",
    "claimThisBusiness": false,
    "location": {
      "lat": 38.0810745,
      "lng": -84.5477893
    },
    "totalScore": 4.8,
    "permanentlyClosed": false,
    "temporarilyClosed": false,
    "placeId": null,
    "categories": [
      "Pharmacy"
    ],
    "fid": "0x88424394b68c3745:0xad35bb9fee061b2a",
    "cid": "12481088237894769450",
    "reviewsCount": 5,
    "imagesCount": 2,
    "imageCategories": [],
    "scrapedAt": "2025-06-22T05:18:29.877Z",
    "googleFoodUrl": null,
    "hotelAds": [],
    "openingHours": [
      {
        "day": "Monday",
        "hours": "7\u202fAM to 9\u202fPM"
      },
      {
        "day": "Tuesday",
        "hours": "7\u202fAM to 9\u202fPM"
      },
      {
        "day": "Wednesday",
        "hours": "7\u202fAM to 9\u202fPM"
      },
      {
        "day": "Thursday",
        "hours": "7\u202fAM to 9\u202fPM"
      },
      {
        "day": "Friday",
        "hours": "7\u202fAM to 9\u202fPM"
      },
      {
        "day": "Saturday",
        "hours": "9\u202fAM to 7\u202fPM"
      },
      {
        "day": "Sunday",
        "hours": "9\u202fAM to 7\u202fPM"
      }
    ],
    "peopleAlsoSearch": [],
    "placesTags": [],
    "reviewsTags": [],
    "additionalInfo": {
      "Accessibility": [
        {
          "Wheelchair accessible entrance": true
        },
        {
          "Wheelchair accessible parking lot": true
        }
      ],
      "Payments": [
        {
          "Debit cards": true
        },
        {
          "Credit cards": true
        }
      ]
    },
    "gasPrices": [],
    "url": "https://www.google.com/maps/search/?api=1&query=MedWiz%20Pharmacy&query_place_id=ChIJRTeMtpRDQogRKhsG7p-7Na0",
    "searchPageUrl": "https://www.google.com/maps/search/independent%20pharmacy%20Lexington%20KY/@56.01120730753697,-161.1661038710836,9z?hl=en",
    "searchString": "independent pharmacy Lexington KY",
    "language": "en",
    "rank": 8,
    "isAdvertisement": false,
    "imageUrl": "https://lh3.googleusercontent.com/p/AF1QipMTJLCiYcIvjfvOlxSAq_BWEaA1D3UbRtmAgEZm=w408-h299-k-no",
    "kgmid": "/g/11hfkdb4pt",
    "classification": "independent",
    "is_independent": true,
    "is_compounding": false,
    "confidence": 0.85,
    "source": "perplexity",
    "method": "llm"
  },
  {
    "title": "C & C Pharmacy",
    "price": null,
    "categoryName": "Pharmacy",
    "address": "3122 Mapleleaf Dr, Lexington, KY 40509",
    "neighborhood": null,
    "street": "3122 Mapleleaf Dr",
    "city": "Lexington",
    "postalCode": "40509",
    "state": "Kentucky",
    "countryCode": "US",
    "website": "http://www.candcrx.com/?utm_source=google-local&utm_medium=organic",
    "phone": "(859) 263-1220",
    "phoneUnformatted": "+18592631220",
    "claimThisBusiness": false,
    "location": {
      "lat": 38.0071215,
      "lng": -84.4284853
    },
    "totalScore": 4.6,
    "permanentlyClosed": false,
    "temporarilyClosed": false,
    "placeId": null,
    "categories": [
      "Pharmacy",
      "Drug store"
    ],
    "fid": "0x884250053992e605:0x5e49167efbe646be",
    "cid": "6793986247512966846",
    "reviewsCount": 62,
    "imagesCount": 26,
    "imageCategories": [],
    "scrapedAt": "2025-06-22T05:18:29.877Z",
    "googleFoodUrl": null,
    "hotelAds": [],
    "openingHours": [
      {
        "day": "Monday",
        "hours": "8\u202fAM to 7\u202fPM"
      },
      {
        "day": "Tuesday",
        "hours": "8\u202fAM to 7\u202fPM"
      },
      {
        "day": "Wednesday",
        "hours": "8\u202fAM to 7\u202fPM"
      },
      {
        "day": "Thursday",
        "hours": "8\u202fAM to 7\u202fPM"
      },
      {
        "day": "Friday",
        "hours": "8\u202fAM to 7\u202fPM"
      },
      {
        "day": "Saturday",
        "hours": "10\u202fAM to 2\u202fPM"
      },
      {
        "day": "Sunday",
        "hours": "Closed"
      }
    ],
    "peopleAlsoSearch": [],
    "placesTags": [],
    "reviewsTags": [],
    "additionalInfo": {
      "From the business": [
        {
          "Identifies as Latino-owned": true
        },
        {
          "Small business": true
        }
      ],
      "Service options": [
        {
          "Curbside pickup": true
        },
        {
          "Delivery": true
        },
        {
          "Drive-through": true
        },
        {
          "In-store pickup": true
        },
        {
          "In-store shopping": true
        },
        {
          "Same-day delivery": true
        }
      ],
      "Accessibility": [
        {
          "Wheelchair accessible entrance": true
        },
        {
          "Wheelchair accessible parking lot": true
        }
      ],
      "Planning": [
        {
          "Quick visit": true
        }
      ],
      "Payments": [
        {
          "Credit cards": true
        },
        {
          "Debit cards": true
        },
        {
          "NFC mobile payments": true
        },
        {
          "Credit cards": true
        }
      ]
    },
    "gasPrices": [],
    "url": "https://www.google.com/maps/search/?api=1&query=C%20%26%20C%20Pharmacy&query_place_id=ChIJBeaSOQVQQogRvkbm-34WSV4",
    "searchPageUrl": "https://www.google.com/maps/search/independent%20pharmacy%20Lexington%20KY/@56.01120730753697,-161.1661038710836,9z?hl=en",
    "searchString": "independent pharmacy Lexington KY",
    "language": "en",
    "rank": 9,
    "isAdvertisement": false,
    "imageUrl": "https://lh3.googleusercontent.com/p/AF1QipOzjnT_FZocTU4d0XKqPPDWxB34A4aOGaG8wOu9=w408-h306-k-no",
    "kgmid": "/g/1w112wbt",
    "classification": "independent",
    "is_independent": true,
    "is_compounding": false,
    "confidence": 0.9,
    "source": "perplexity",
    "method": "llm"
  },
  {
    "title": "UK Chandler Retail Pharmacy",
    "price": null,
    "categoryName": "Pharmacy",
    "address": "1000 S Limestone room a.01.114, Lexington, KY 40536",
    "neighborhood": null,
    "street": "1000 S Limestone room a.01.114",
    "city": "Lexington",
    "postalCode": "40536",
    "state": "Kentucky",
    "countryCode": "US",
    "website": "https://ukhealthcare.uky.edu/pharmacy-services?utm_source=local-listing&utm_medium=organic&utm_campaign=website-link",
    "phone": "(859) 218-3340",
    "phoneUnformatted": "+18592183340",
    "claimThisBusiness": false,
    "location": {
      "lat": 38.0302654,
      "lng": -84.5092338
    },
    "totalScore": 4.6,
    "permanentlyClosed": false,
    "temporarilyClosed": false,
    "placeId": null,
    "categories": [
      "Pharmacy"
    ],
    "fid": "0x884244b07ddef30d:0xdfb1b0b40ae5a016",
    "cid": "16118858828659138582",
    "reviewsCount": 39,
    "imagesCount": 4,
    "imageCategories": [],
    "scrapedAt": "2025-06-22T05:18:29.877Z",
    "googleFoodUrl": null,
    "hotelAds": [],
    "openingHours": [
      {
        "day": "Monday",
        "hours": "Open 24 hours"
      },
      {
        "day": "Tuesday",
        "hours": "Open 24 hours"
      },
      {
        "day": "Wednesday",
        "hours": "Open 24 hours"
      },
      {
        "day": "Thursday",
        "hours": "Open 24 hours"
      },
      {
        "day": "Friday",
        "hours": "Open 24 hours"
      },
      {
        "day": "Saturday",
        "hours": "Open 24 hours"
      },
      {
        "day": "Sunday",
        "hours": "Open 24 hours"
      }
    ],
    "peopleAlsoSearch": [],
    "placesTags": [],
    "reviewsTags": [],
    "additionalInfo": {
      "Service options": [
        {
          "Delivery": true
        }
      ],
      "Accessibility": [
        {
          "Wheelchair accessible entrance": true
        },
        {
          "Wheelchair accessible parking lot": true
        }
      ],
      "Payments": [
        {
          "Credit cards": true
        },
        {
          "Debit cards": true
        }
      ]
    },
    "gasPrices": [],
    "url": "https://www.google.com/maps/search/?api=1&query=UK%20Chandler%20Retail%20Pharmacy&query_place_id=ChIJDfPefbBEQogRFqDlCrSwsd8",
    "searchPageUrl": "https://www.google.com/maps/search/independent%20pharmacy%20Lexington%20KY/@56.01120730753697,-161.1661038710836,9z?hl=en",
    "searchString": "independent pharmacy Lexington KY",
    "language": "en",
    "rank": 10,
    "isAdvertisement": false,
    "imageUrl": "https://lh3.googleusercontent.com/gps-cs-s/AC9h4nqFJsonfiMKoj4SlPzyU-OnZm5GzTViOPwqpAI6lP_hJck8MuwFWBla7GQhR0N4xX2EZskMGGsbx87HmMfNUzPcT-QLc0lSnqp-Q0FwpRiZw4GaR5w193y2XiUNeAp58R88aqOdpg=w576-h240-k-no",
    "kgmid": "/g/11ddzlddb6",
    "classification": "independent",
    "is_independent": true,
    "is_compounding": false,
    "confidence": 0.9,
    "source": "perplexity",
    "method": "llm"
  },
  {
    "title": "The Medicine Shoppe Pharmacy",
    "price": null,
    "categoryName": "Pharmacy",
    "address": "208 Legends Ln, Lexington, KY 40505",
    "neighborhood": null,
    "street": "208 Legends Ln",
    "city": "Lexington",
    "postalCode": "40505",
    "state": "Kentucky",
    "countryCode": "US",
    "website": "https://www.medicineshoppe.com/find-a-pharmacy",
    "phone": "(859) 402-0000",
    "phoneUnformatted": "+18594020000",
    "claimThisBusiness": true,
    "location": {
      "lat": 38.0643367,
      "lng": -84.4798507
    },
    "totalScore": 5,
    "permanentlyClosed": false,
    "temporarilyClosed": false,
    "placeId": null,
    "categories": [
      "Pharmacy"
    ],
    "fid": "0x884245ab36bfffff:0x266a5a2035b6ad59",
    "cid": "2768124015359208793",
    "reviewsCount": 2,
    "imagesCount": 1,
    "imageCategories": [],
    "scrapedAt": "2025-06-22T05:18:29.877Z",
    "googleFoodUrl": null,
    "hotelAds": [],
    "openingHours": [],
    "peopleAlsoSearch": [],
    "placesTags": [],
    "reviewsTags": [],
    "additionalInfo": {
      "Accessibility": [
        {
          "Wheelchair accessible entrance": true
        },
        {
          "Wheelchair accessible parking lot": true
        }
      ],
      "Payments": [
        {
          "Credit cards": true
        }
      ]
    },
    "gasPrices": [],
    "url": "https://www.google.com/maps/search/?api=1&query=The%20Medicine%20Shoppe%20Pharmacy&query_place_id=ChIJ__-_NqtFQogRWa22NSBaaiY",
    "searchPageUrl": "https://www.google.com/maps/search/independent%20pharmacy%20Lexington%20KY/@56.01120730753697,-161.1661038710836,9z?hl=en",
    "searchString": "independent pharmacy Lexington KY",
    "language": "en",
    "rank": 11,
    "isAdvertisement": false,
    "imageUrl": "https://streetviewpixels-pa.googleapis.com/v1/thumbnail?panoid=26JaB7-Rn8IBvNcrRBghaA&cb_client=search.gws-prod.gps&w=408&h=240&yaw=30.130098&pitch=0&thumbfov=100",
    "kgmid": "/g/11kw2hg5jx",
    "classification": "independent",
    "is_independent": true,
    "is_compounding": false,
    "confidence": 0.9,
    "source": "perplexity",
    "method": "llm"
  },
  {
    "title": "Med-Save Pharmacy Legends",
    "price": null,
    "categoryName": "Pharmacy",
    "address": "208 Legends Ln Suite #160, Lexington, KY 40505",
    "neighborhood": null,
    "street": "208 Legends Ln Suite #160",
    "city": "Lexington",
    "postalCode": "40505",
    "state": "Kentucky",
    "countryCode": "US",
    "website": "https://www.medsaverxlexlegends.com/",
    "phone": "(859) 402-0000",
    "phoneUnformatted": "+18594020000",
    "claimThisBusiness": false,
    "location": {
      "lat": 38.0643367,
      "lng": -84.4798507
    },
    "totalScore": 4.8,
    "permanentlyClosed": false,
    "temporarilyClosed": false,
    "placeId": null,
    "categories": [
      "Pharmacy"
    ],
    "fid": "0x8842455b402401ff:0x4a203801224029cb",
    "cid": "5341330735582161355",
    "reviewsCount": 78,
    "imagesCount": 5,
    "imageCategories": [],
    "scrapedAt": "2025-06-22T05:18:29.877Z",
    "googleFoodUrl": null,
    "hotelAds": [],
    "openingHours": [
      {
        "day": "Monday",
        "hours": "8\u202fAM to 7\u202fPM"
      },
      {
        "day": "Tuesday",
        "hours": "8\u202fAM to 7\u202fPM"
      },
      {
        "day": "Wednesday",
        "hours": "8\u202fAM to 7\u202fPM"
      },
      {
        "day": "Thursday",
        "hours": "8\u202fAM to 7\u202fPM"
      },
      {
        "day": "Friday",
        "hours": "8\u202fAM to 7\u202fPM"
      },
      {
        "day": "Saturday",
        "hours": "9\u202fAM to 3\u202fPM"
      },
      {
        "day": "Sunday",
        "hours": "Closed"
      }
    ],
    "peopleAlsoSearch": [],
    "placesTags": [],
    "reviewsTags": [],
    "additionalInfo": {
      "From the business": [
        {
          "Small business": true
        }
      ],
      "Service options": [
        {
          "Delivery": true
        },
        {
          "Drive-through": true
        },
        {
          "In-store pickup": true
        },
        {
          "Same-day delivery": true
        }
      ],
      "Accessibility": [
        {
          "Wheelchair accessible entrance": true
        },
        {
          "Wheelchair accessible parking lot": true
        }
      ],
      "Planning": [
        {
          "Quick visit": true
        }
      ],
      "Payments": [
        {
          "Credit cards": true
        }
      ]
    },
    "gasPrices": [],
    "url": "https://www.google.com/maps/search/?api=1&query=Med-Save%20Pharmacy%20Legends&query_place_id=ChIJ_wEkQFtFQogRyylAIgE4IEo",
    "searchPageUrl": "https://www.google.com/maps/search/independent%20pharmacy%20Lexington%20KY/@56.01120730753697,-161.1661038710836,9z?hl=en",
    "searchString": "independent pharmacy Lexington KY",
    "language": "en",
    "rank": 12,
    "isAdvertisement": false,
    "imageUrl": "https://lh3.googleusercontent.com/p/AF1QipP9KRV-wkDcXwmr-55uveabh8e0Wird1uYPnEY3=w408-h306-k-no",
    "kgmid": "/g/11ftwp5hln",
    "classification": "independent",
    "is_independent": true,
    "is_compounding": false,
    "confidence": 0.9,
    "source": "perplexity",
    "method": "llm"
  },
  {
    "title": "Wheeler's Custom Compounding",
    "price": null,
    "categoryName": "Pharmacy",
    "address": "327 Romany Rd, Lexington, KY 40502",
    "neighborhood": "Chevy Chase",
    "street": "327 Romany Rd",
    "city": "Lexington",
    "postalCode": "40502",
    "state": "Kentucky",
    "countryCode": "US",
    "website": "http://www.wheelercompounding.com/",
    "phone": "(859) 554-2716",
    "phoneUnformatted": "+18595542716",
    "claimThisBusiness": false,
    "location": {
      "lat": 38.0195736,
      "lng": -84.4856812
    },
    "totalScore": 4.5,
    "permanentlyClosed": false,
    "temporarilyClosed": false,
    "placeId": null,
    "categories": [
      "Pharmacy"
    ],
    "fid": "0x884244d35b9a9817:0xe6261f16d7e2d9ba",
    "cid": "16583976860810140090",
    "reviewsCount": 23,
    "imagesCount": 2,
    "imageCategories": [],
    "scrapedAt": "2025-06-22T05:18:29.877Z",
    "googleFoodUrl": null,
    "hotelAds": [],
    "openingHours": [
      {
        "day": "Monday",
        "hours": "10\u202fAM to 6\u202fPM"
      },
      {
        "day": "Tuesday",
        "hours": "10\u202fAM to 6\u202fPM"
      },
      {
        "day": "Wednesday",
        "hours": "10\u202fAM to 6\u202fPM"
      },
      {
        "day": "Thursday",
        "hours": "10\u202fAM to 6\u202fPM"
      },
      {
        "day": "Friday",
        "hours": "10\u202fAM to 6\u202fPM"
      },
      {
        "day": "Saturday",
        "hours": "Closed"
      },
      {
        "day": "Sunday",
        "hours": "Closed"
      }
    ],
    "peopleAlsoSearch": [],
    "placesTags": [],
    "reviewsTags": [],
    "additionalInfo": {
      "From the business": [
        {
          "Small business": true
        }
      ],
      "Service options": [
        {
          "Curbside pickup": true
        },
        {
          "In-store pickup": true
        },
        {
          "In-store shopping": true
        }
      ],
      "Accessibility": [
        {
          "Wheelchair accessible entrance": true
        },
        {
          "Wheelchair accessible parking lot": true
        },
        {
          "Wheelchair accessible restroom": true
        },
        {
          "Wheelchair accessible seating": true
        }
      ],
      "Amenities": [
        {
          "Wi-Fi": true
        },
        {
          "Free Wi-Fi": true
        }
      ],
      "Payments": [
        {
          "Checks": true
        },
        {
          "Credit cards": true
        },
        {
          "Debit cards": true
        },
        {
          "NFC mobile payments": true
        },
        {
          "Credit cards": true
        }
      ]
    },
    "gasPrices": [],
    "url": "https://www.google.com/maps/search/?api=1&query=Wheeler's%20Custom%20Compounding&query_place_id=ChIJF5iaW9NEQogRutni1xYfJuY",
    "searchPageUrl": "https://www.google.com/maps/search/independent%20pharmacy%20Lexington%20KY/@56.01120730753697,-161.1661038710836,9z?hl=en",
    "searchString": "independent pharmacy Lexington KY",
    "language": "en",
    "rank": 13,
    "isAdvertisement": false,
    "imageUrl": "https://lh3.googleusercontent.com/p/AF1QipPjOeBco1kyAqf3huIJTpu52ZRntoF9UTTvsIAm=w408-h249-k-no",
    "kgmid": "/g/12cplyfkv",
    "classification": "independent",
    "is_independent": true,
    "is_compounding": true,
    "confidence": 0.95,
    "source": "perplexity",
    "method": "llm"
  },
  {
    "title": "Med-Save South Lexington",
    "price": null,
    "categoryName": "Pharmacy",
    "address": "3344 Partner Pl Suite 1, Lexington, KY 40503",
    "neighborhood": "Monticello",
    "street": "3344 Partner Pl Suite 1",
    "city": "Lexington",
    "postalCode": "40503",
    "state": "Kentucky",
    "countryCode": "US",
    "website": "http://www.medsaverxsouthlex.com/",
    "phone": "(859) 365-2003",
    "phoneUnformatted": "+18593652003",
    "claimThisBusiness": false,
    "location": {
      "lat": 37.9949406,
      "lng": -84.546667
    },
    "totalScore": 5,
    "permanentlyClosed": false,
    "temporarilyClosed": false,
    "placeId": null,
    "categories": [
      "Pharmacy"
    ],
    "fid": "0x88425db05e9243ad:0x84278c3289c870c3",
    "cid": "9522734085786071235",
    "reviewsCount": 21,
    "imagesCount": 9,
    "imageCategories": [],
    "scrapedAt": "2025-06-22T05:18:29.878Z",
    "googleFoodUrl": null,
    "hotelAds": [],
    "openingHours": [
      {
        "day": "Monday",
        "hours": "8:30\u202fAM to 6:30\u202fPM"
      },
      {
        "day": "Tuesday",
        "hours": "8:30\u202fAM to 6:30\u202fPM"
      },
      {
        "day": "Wednesday",
        "hours": "8:30\u202fAM to 6:30\u202fPM"
      },
      {
        "day": "Thursday",
        "hours": "8:30\u202fAM to 6:30\u202fPM"
      },
      {
        "day": "Friday",
        "hours": "8:30\u202fAM to 6:30\u202fPM"
      },
      {
        "day": "Saturday",
        "hours": "9\u202fAM to 2\u202fPM"
      },
      {
        "day": "Sunday",
        "hours": "Closed"
      }
    ],
    "peopleAlsoSearch": [],
    "placesTags": [],
    "reviewsTags": [],
    "additionalInfo": {
      "From the business": [
        {
          "Identifies as women-owned": true
        },
        {
          "Small business": true
        }
      ],
      "Service options": [
        {
          "Curbside pickup": true
        },
        {
          "Delivery": true
        },
        {
          "Drive-through": true
        },
        {
          "In-store pickup": true
        },
        {
          "In-store shopping": true
        },
        {
          "Same-day delivery": true
        }
      ],
      "Accessibility": [
        {
          "Wheelchair accessible entrance": true
        },
        {
          "Wheelchair accessible parking lot": true
        }
      ],
      "Payments": [
        {
          "Credit cards": true
        },
        {
          "Debit cards": true
        },
        {
          "NFC mobile payments": true
        },
        {
          "Credit cards": true
        }
      ]
    },
    "gasPrices": [],
    "url": "https://www.google.com/maps/search/?api=1&query=Med-Save%20South%20Lexington&query_place_id=ChIJrUOSXrBdQogRw3DIiTKMJ4Q",
    "searchPageUrl": "https://www.google.com/maps/search/independent%20pharmacy%20Lexington%20KY/@56.01120730753697,-161.1661038710836,9z?hl=en",
    "searchString": "independent pharmacy Lexington KY",
    "language": "en",
    "rank": 14,
    "isAdvertisement": false,
    "imageUrl": "https://lh3.googleusercontent.com/p/AF1QipOSHeY0jyQgnCtZ8Do-cYIsBHXSCl_bOYTNEa0=w426-h240-k-no",
    "kgmid": "/g/11jzdd09s6",
    "classification": "independent",
    "is_independent": true,
    "is_compounding": false,
    "confidence": 0.85,
    "source": "perplexity",
    "method": "llm"
  },
  {
    "title": "Hometown Pharmacy",
    "price": null,
    "categoryName": "Pharmacy",
    "address": "2860 Richmond Rd STE 190, Lexington, KY 40509",
    "neighborhood": null,
    "street": "2860 Richmond Rd STE 190",
    "city": "Lexington",
    "postalCode": "40509",
    "state": "Kentucky",
    "countryCode": "US",
    "claimThisBusiness": true,
    "location": {
      "lat": 38.0068703,
      "lng": -84.4535211
    },
    "totalScore": 4.5,
    "permanentlyClosed": false,
    "temporarilyClosed": false,
    "placeId": null,
    "categories": [
      "Pharmacy"
    ],
    "fid": "0x88425b110a35aa03:0x1c9d6df32b5f9903",
    "cid": "2061925095577721091",
    "reviewsCount": 20,
    "imagesCount": 1,
    "imageCategories": [],
    "scrapedAt": "2025-06-22T05:18:29.878Z",
    "googleFoodUrl": null,
    "hotelAds": [],
    "openingHours": [
      {
        "day": "Monday",
        "hours": "10\u202fAM to 6\u202fPM"
      },
      {
        "day": "Tuesday",
        "hours": "10\u202fAM to 6\u202fPM"
      },
      {
        "day": "Wednesday",
        "hours": "10\u202fAM to 6\u202fPM"
      },
      {
        "day": "Thursday",
        "hours": "10\u202fAM to 6\u202fPM"
      },
      {
        "day": "Friday",
        "hours": "10\u202fAM to 6\u202fPM"
      },
      {
        "day": "Saturday",
        "hours": "10\u202fAM to 6\u202fPM"
      },
      {
        "day": "Sunday",
        "hours": "11\u202fAM to 5\u202fPM"
      }
    ],
    "peopleAlsoSearch": [],
    "placesTags": [],
    "reviewsTags": [],
    "additionalInfo": {
      "Service options": [
        {
          "Delivery": true
        },
        {
          "Drive-through": true
        }
      ],
      "Accessibility": [
        {
          "Wheelchair accessible entrance": true
        },
        {
          "Wheelchair accessible parking lot": true
        }
      ],
      "Planning": [
        {
          "Quick visit": true
        }
      ],
      "Payments": [
        {
          "Credit cards": true
        },
        {
          "Debit cards": true
        },
        {
          "Credit cards": true
        }
      ]
    },
    "gasPrices": [],
    "url": "https://www.google.com/maps/search/?api=1&query=Hometown%20Pharmacy&query_place_id=ChIJA6o1ChFbQogRA5lfK_NtnRw",
    "searchPageUrl": "https://www.google.com/maps/search/independent%20pharmacy%20Lexington%20KY/@56.01120730753697,-161.1661038710836,9z?hl=en",
    "searchString": "independent pharmacy Lexington KY",
    "language": "en",
    "rank": 15,
    "isAdvertisement": false,
    "imageUrl": "https://streetviewpixels-pa.googleapis.com/v1/thumbnail?panoid=VjkvaUzCiEdNaibhUmcBTg&cb_client=search.gws-prod.gps&w=408&h=240&yaw=191.0562&pitch=0&thumbfov=100",
    "kgmid": "/g/11kg_p5mb3",
    "classification": "independent",
    "is_independent": true,
    "is_compounding": false,
    "confidence": 0.85,
    "source": "perplexity",
    "method": "llm"
  },
  {
    "title": "Versailles Independent Pharmacy",
    "price": null,
    "categoryName": "Pharmacy",
    "address": "166 Frankfort St, Versailles, KY 40383",
    "neighborhood": null,
    "street": "166 Frankfort St",
    "city": "Versailles",
    "postalCode": "40383",
    "state": "Kentucky",
    "countryCode": "US",
    "website": "http://vipharmacy.org/",
    "phone": "(859) 879-0199",
    "phoneUnformatted": "+18598790199",
    "claimThisBusiness": false,
    "location": {
      "lat": 38.0599874,
      "lng": -84.7319119
    },
    "totalScore": 5,
    "permanentlyClosed": false,
    "temporarilyClosed": false,
    "placeId": null,
    "categories": [
      "Pharmacy"
    ],
    "fid": "0x88426fa79104e175:0xedff4a52c2df2a83",
    "cid": "17149507625367317123",
    "reviewsCount": 32,
    "imagesCount": 1,
    "imageCategories": [],
    "scrapedAt": "2025-06-22T05:18:29.878Z",
    "googleFoodUrl": null,
    "hotelAds": [],
    "openingHours": [
      {
        "day": "Monday",
        "hours": "9\u202fAM to 6:30\u202fPM"
      },
      {
        "day": "Tuesday",
        "hours": "9\u202fAM to 6:30\u202fPM"
      },
      {
        "day": "Wednesday",
        "hours": "9\u202fAM to 6:30\u202fPM"
      },
      {
        "day": "Thursday",
        "hours": "9\u202fAM to 6:30\u202fPM"
      },
      {
        "day": "Friday",
        "hours": "9\u202fAM to 6:30\u202fPM"
      },
      {
        "day": "Saturday",
        "hours": "9\u202fAM to 1\u202fPM"
      },
      {
        "day": "Sunday",
        "hours": "Closed"
      }
    ],
    "peopleAlsoSearch": [],
    "placesTags": [],
    "reviewsTags": [],
    "additionalInfo": {
      "From the business": [
        {
          "Small business": true
        }
      ],
      "Service options": [
        {
          "Delivery": true
        },
        {
          "Drive-through": true
        },
        {
          "In-store pickup": true
        },
        {
          "Same-day delivery": true
        }
      ],
      "Accessibility": [
        {
          "Wheelchair accessible entrance": true
        },
        {
          "Wheelchair accessible parking lot": true
        }
      ],
      "Planning": [
        {
          "Quick visit": true
        }
      ],
      "Payments": [
        {
          "Credit cards": true
        },
        {
          "Debit cards": true
        },
        {
          "NFC mobile payments": true
        },
        {
          "Credit cards": true
        }
      ]
    },
    "gasPrices": [],
    "url": "https://www.google.com/maps/search/?api=1&query=Versailles%20Independent%20Pharmacy&query_place_id=ChIJdeEEkadvQogRgyrfwlJK_-0",
    "searchPageUrl": "https://www.google.com/maps/search/independent%20pharmacy%20Lexington%20KY/@56.01120730753697,-161.1661038710836,9z?hl=en",
    "searchString": "independent pharmacy Lexington KY",
    "language": "en",
    "rank": 16,
    "isAdvertisement": false,
    "imageUrl": "https://streetviewpixels-pa.googleapis.com/v1/thumbnail?panoid=0yFRsmbe1OvUyon29jWNFA&cb_client=search.gws-prod.gps&w=408&h=240&yaw=61.95969&pitch=0&thumbfov=100",
    "kgmid": "/g/11bbrlhh3v",
    "classification": "error",
    "is_independent": null,
    "is_compounding": null,
    "confidence": 0.0,
    "source": "error",
    "method": "api_failure"
  },
  {
    "title": "Baptist Health Lexington Pharmacy",
    "price": null,
    "categoryName": "Pharmacy",
    "address": "1700 Nicholasville Rd #1210, Lexington, KY 40503",
    "neighborhood": null,
    "street": "1700 Nicholasville Rd #1210",
    "city": "Lexington",
    "postalCode": "40503",
    "state": "Kentucky",
    "countryCode": "US",
    "website": "https://www.baptisthealth.com/locations/baptist-health-lexington/pharmacy?utm_source=google&utm_medium=organic&utm_content=gbp-website&utm_campaign=032-loc-gbp-listing",
    "phone": "(859) 639-3900",
    "phoneUnformatted": "+18596393900",
    "claimThisBusiness": false,
    "location": {
      "lat": 38.0196409,
      "lng": -84.5111586
    },
    "totalScore": 4.6,
    "permanentlyClosed": false,
    "temporarilyClosed": false,
    "placeId": null,
    "categories": [
      "Pharmacy",
      "Medical clinic"
    ],
    "fid": "0x884244ad313ac8f1:0x8715be103aa211f8",
    "cid": "9733895146543649272",
    "reviewsCount": 18,
    "imagesCount": 3,
    "imageCategories": [],
    "scrapedAt": "2025-06-22T05:18:29.878Z",
    "googleFoodUrl": null,
    "hotelAds": [],
    "openingHours": [
      {
        "day": "Monday",
        "hours": "7\u202fAM to 5:30\u202fPM"
      },
      {
        "day": "Tuesday",
        "hours": "7\u202fAM to 5:30\u202fPM"
      },
      {
        "day": "Wednesday",
        "hours": "7\u202fAM to 5:30\u202fPM"
      },
      {
        "day": "Thursday",
        "hours": "7\u202fAM to 5:30\u202fPM"
      },
      {
        "day": "Friday",
        "hours": "7\u202fAM to 5:30\u202fPM"
      },
      {
        "day": "Saturday",
        "hours": "8\u202fAM to 4:30\u202fPM"
      },
      {
        "day": "Sunday",
        "hours": "8\u202fAM to 4:30\u202fPM"
      }
    ],
    "peopleAlsoSearch": [],
    "placesTags": [],
    "reviewsTags": [],
    "additionalInfo": {
      "Service options": [
        {
          "Delivery": true
        }
      ],
      "Accessibility": [
        {
          "Wheelchair accessible parking lot": true
        }
      ],
      "Payments": [
        {
          "Credit cards": true
        }
      ]
    },
    "gasPrices": [],
    "url": "https://www.google.com/maps/search/?api=1&query=Baptist%20Health%20Lexington%20Pharmacy&query_place_id=ChIJ8cg6Ma1EQogR-BGiOhC-FYc",
    "searchPageUrl": "https://www.google.com/maps/search/independent%20pharmacy%20Lexington%20KY/@56.01120730753697,-161.1661038710836,9z?hl=en",
    "searchString": "independent pharmacy Lexington KY",
    "language": "en",
    "rank": 17,
    "isAdvertisement": false,
    "imageUrl": "https://lh3.googleusercontent.com/p/AF1QipPYYJ1I3_uzenXIBNEP3jqTpxqUQzQjZ1jhHEkm=w426-h240-k-no",
    "kgmid": "/g/11c52byr1h",
    "classification": "error",
    "is_independent": null,
    "is_compounding": null,
    "confidence": 0.0,
    "source": "error",
    "method": "api_failure"
  },
  {
    "title": "UK - The Apothecary (Retail Pharmacy)",
    "price": null,
    "categoryName": "Pharmacy",
    "address": "160 Ave of Champions Room A-151, Lexington, KY 40526",
    "neighborhood": null,
    "street": "160 Ave of Champions Room A-151",
    "city": "Lexington",
    "postalCode": "40526",
    "state": "Kentucky",
    "countryCode": "US",
    "website": "https://ukhealthcare.uky.edu/locations/uk-apothecary-retail-pharmacy",
    "phone": "(859) 562-0648",
    "phoneUnformatted": "+18595620648",
    "claimThisBusiness": false,
    "location": {
      "lat": 38.0400282,
      "lng": -84.5032844
    },
    "totalScore": 5,
    "permanentlyClosed": false,
    "temporarilyClosed": false,
    "placeId": null,
    "categories": [
      "Pharmacy"
    ],
    "fid": "0x88424526047974f3:0x852e9866e94d03ce",
    "cid": "9596775423741330382",
    "reviewsCount": 3,
    "imagesCount": 3,
    "imageCategories": [],
    "scrapedAt": "2025-06-22T05:18:29.878Z",
    "googleFoodUrl": null,
    "hotelAds": [],
    "openingHours": [
      {
        "day": "Monday",
        "hours": "7:30\u202fAM to 7\u202fPM"
      },
      {
        "day": "Tuesday",
        "hours": "7:30\u202fAM to 7\u202fPM"
      },
      {
        "day": "Wednesday",
        "hours": "7:30\u202fAM to 7\u202fPM"
      },
      {
        "day": "Thursday",
        "hours": "7:30\u202fAM to 7\u202fPM"
      },
      {
        "day": "Friday",
        "hours": "7:30\u202fAM to 7\u202fPM"
      },
      {
        "day": "Saturday",
        "hours": "Closed"
      },
      {
        "day": "Sunday",
        "hours": "Closed"
      }
    ],
    "peopleAlsoSearch": [],
    "placesTags": [],
    "reviewsTags": [],
    "additionalInfo": {
      "Service options": [
        {
          "Delivery": true
        },
        {
          "In-store pickup": true
        },
        {
          "In-store shopping": true
        }
      ],
      "Accessibility": [
        {
          "Wheelchair accessible entrance": true
        },
        {
          "Wheelchair accessible parking lot": true
        },
        {
          "Wheelchair accessible restroom": true
        },
        {
          "Wheelchair accessible seating": true
        }
      ],
      "Payments": [
        {
          "Credit cards": true
        }
      ]
    },
    "gasPrices": [],
    "url": "https://www.google.com/maps/search/?api=1&query=UK%20-%20The%20Apothecary%20(Retail%20Pharmacy)&query_place_id=ChIJ83R5BCZFQogRzgNN6WaYLoU",
    "searchPageUrl": "https://www.google.com/maps/search/independent%20pharmacy%20Lexington%20KY/@56.01120730753697,-161.1661038710836,9z?hl=en",
    "searchString": "independent pharmacy Lexington KY",
    "language": "en",
    "rank": 18,
    "isAdvertisement": false,
    "imageUrl": "https://lh3.googleusercontent.com/p/AF1QipOWA8ITNoci5rOkrmwyKhVG0qavSFc11RGpE0M=w432-h240-k-no",
    "kgmid": "/g/11tjp60zgz",
    "classification": "error",
    "is_independent": null,
    "is_compounding": null,
    "confidence": 0.0,
    "source": "error",
    "method": "api_failure"
  },
  {
    "title": "UK Good Samaritan Retail Pharmacy",
    "price": null,
    "categoryName": "Pharmacy",
    "address": "310 S. Limestone, UK Good Samaritan Hospital, Room C, 017, Lexington, KY 40508",
    "neighborhood": null,
    "street": "310 S. Limestone, UK Good Samaritan Hospital, Room C, 017",
    "city": "Lexington",
    "postalCode": "40508",
    "state": "KY",
    "countryCode": "US",
    "website": "https://ukhealthcare.uky.edu/pharmacy-services?utm_campaign=website-link&utm_medium=organic&utm_source=local-listing",
    "phone": "(859) 218-4777",
    "phoneUnformatted": "+18592184777",
    "claimThisBusiness": false,
    "location": {
      "lat": 38.0422146,
      "lng": -84.500658
    },
    "totalScore": 5,
    "permanentlyClosed": false,
    "temporarilyClosed": false,
    "placeId": null,
    "categories": [
      "Pharmacy"
    ],
    "fid": "0x884244eacf41a9f9:0x20955737ff74c121",
    "cid": "2347878678764241185",
    "reviewsCount": 9,
    "imagesCount": 3,
    "imageCategories": [],
    "scrapedAt": "2025-06-22T05:18:29.878Z",
    "googleFoodUrl": null,
    "hotelAds": [],
    "openingHours": [
      {
        "day": "Monday",
        "hours": "7\u202fAM to 9\u202fPM"
      },
      {
        "day": "Tuesday",
        "hours": "7\u202fAM to 9\u202fPM"
      },
      {
        "day": "Wednesday",
        "hours": "7\u202fAM to 9\u202fPM"
      },
      {
        "day": "Thursday",
        "hours": "7\u202fAM to 9\u202fPM"
      },
      {
        "day": "Friday",
        "hours": "7\u202fAM to 9\u202fPM"
      },
      {
        "day": "Saturday",
        "hours": "8\u202fAM to 6\u202fPM"
      },
      {
        "day": "Sunday",
        "hours": "8\u202fAM to 6\u202fPM"
      }
    ],
    "peopleAlsoSearch": [],
    "placesTags": [],
    "reviewsTags": [],
    "additionalInfo": {
      "Accessibility": [
        {
          "Wheelchair accessible entrance": true
        },
        {
          "Wheelchair accessible parking lot": true
        }
      ],
      "Payments": [
        {
          "Credit cards": true
        },
        {
          "Debit cards": true
        }
      ]
    },
    "gasPrices": [],
    "url": "https://www.google.com/maps/search/?api=1&query=UK%20Good%20Samaritan%20Retail%20Pharmacy&query_place_id=ChIJ-alBz-pEQogRIcF0_zdXlSA",
    "searchPageUrl": "https://www.google.com/maps/search/independent%20pharmacy%20Lexington%20KY/@56.01120730753697,-161.1661038710836,9z?hl=en",
    "searchString": "independent pharmacy Lexington KY",
    "language": "en",
    "rank": 19,
    "isAdvertisement": false,
    "imageUrl": "https://lh3.googleusercontent.com/p/AF1QipMbNU4GRg-wOa64XXb7ns5j1wK4fh5QDbZCeVTT=w536-h240-k-no",
    "kgmid": "/g/11g7zdv1lq",
    "classification": "error",
    "is_independent": null,
    "is_compounding": null,
    "confidence": 0.0,
    "source": "error",
    "method": "api_failure"
  },
  {
    "title": "Saint Joseph East CHI Community Pharmacy",
    "price": null,
    "categoryName": "Pharmacy",
    "address": "120 N Eagle Creek Dr # 101, Lexington, KY 40509",
    "neighborhood": null,
    "street": "120 N Eagle Creek Dr # 101",
    "city": "Lexington",
    "postalCode": "40509",
    "state": "Kentucky",
    "countryCode": "US",
    "website": "https://www.chisaintjosephhealth.org/lexington-pharmacy",
    "phone": "(859) 967-5923",
    "phoneUnformatted": "+18599675923",
    "claimThisBusiness": true,
    "location": {
      "lat": 37.9983081,
      "lng": -84.4396667
    },
    "totalScore": 5,
    "permanentlyClosed": false,
    "temporarilyClosed": false,
    "placeId": null,
    "categories": [
      "Pharmacy"
    ],
    "fid": "0x88425b296edc36fb:0x1446586547c839bf",
    "cid": "1460952321147550143",
    "reviewsCount": 4,
    "imagesCount": 1,
    "imageCategories": [],
    "scrapedAt": "2025-06-22T05:18:29.878Z",
    "googleFoodUrl": null,
    "hotelAds": [],
    "openingHours": [
      {
        "day": "Monday",
        "hours": "7\u202fAM to 5\u202fPM"
      },
      {
        "day": "Tuesday",
        "hours": "7\u202fAM to 5\u202fPM"
      },
      {
        "day": "Wednesday",
        "hours": "7\u202fAM to 5\u202fPM"
      },
      {
        "day": "Thursday",
        "hours": "7\u202fAM to 5\u202fPM"
      },
      {
        "day": "Friday",
        "hours": "7\u202fAM to 5\u202fPM"
      },
      {
        "day": "Saturday",
        "hours": "Closed"
      },
      {
        "day": "Sunday",
        "hours": "Closed"
      }
    ],
    "peopleAlsoSearch": [],
    "placesTags": [],
    "reviewsTags": [],
    "additionalInfo": {
      "Accessibility": [
        {
          "Wheelchair accessible entrance": true
        },
        {
          "Wheelchair accessible parking lot": true
        }
      ],
      "Payments": [
        {
          "Credit cards": true
        }
      ]
    },
    "gasPrices": [],
    "url": "https://www.google.com/maps/search/?api=1&query=Saint%20Joseph%20East%20CHI%20Community%20Pharmacy&query_place_id=ChIJ-zbcbilbQogRvznIR2VYRhQ",
    "searchPageUrl": "https://www.google.com/maps/search/independent%20pharmacy%20Lexington%20KY/@56.01120730753697,-161.1661038710836,9z?hl=en",
    "searchString": "independent pharmacy Lexington KY",
    "language": "en",
    "rank": 20,
    "isAdvertisement": false,
    "imageUrl": "https://streetviewpixels-pa.googleapis.com/v1/thumbnail?panoid=OP8lS3YsY7-bfRbF6ot1nw&cb_client=search.gws-prod.gps&w=408&h=240&yaw=279.3901&pitch=0&thumbfov=100",
    "kgmid": "/g/11ftl3qdvj",
    "classification": "error",
    "is_independent": null,
    "is_compounding": null,
    "confidence": 0.0,
    "source": "error",
    "method": "api_failure"
  }
]