[
  {
    "title": "Orem Family Pharmacy",
    "price": null,
    "categoryName": "Pharmacy",
    "address": "406 N State St, Orem, UT 84057",
    "neighborhood": "Sharon",
    "street": "406 N State St",
    "city": "Orem",
    "postalCode": "84057",
    "state": "Utah",
    "countryCode": "US",
    "website": "http://www.oremrx.com/",
    "phone": "(801) 434-7670",
    "phoneUnformatted": "+18014347670",
    "claimThisBusiness": false,
    "location": {
      "lat": 40.3047324,
      "lng": -111.6979431
    },
    "totalScore": 4.7,
    "permanentlyClosed": false,
    "temporarilyClosed": false,
    "placeId": null,
    "categories": [
      "Pharmacy",
      "Candy store",
      "Delivery service",
      "Gift shop",
      "Medical supply store"
    ],
    "fid": "0x874d9accebd3713f:0xb09ea30c5a8070eb",
    "cid": "12726788870448902379",
    "reviewsCount": 111,
    "imagesCount": 34,
    "imageCategories": [],
    "scrapedAt": "2025-06-22T09:58:56.936Z",
    "googleFoodUrl": null,
    "hotelAds": [],
    "openingHours": [
      {
        "day": "Monday",
        "hours": "9\u202fAM to 7\u202fPM"
      },
      {
        "day": "Tuesday",
        "hours": "9\u202fAM to 7\u202fPM"
      },
      {
        "day": "Wednesday",
        "hours": "9\u202fAM to 7\u202fPM"
      },
      {
        "day": "Thursday",
        "hours": "9\u202fAM to 7\u202fPM"
      },
      {
        "day": "Friday",
        "hours": "9\u202fAM to 7\u202fPM"
      },
      {
        "day": "Saturday",
        "hours": "9\u202fAM to 2\u202fPM"
      },
      {
        "day": "Sunday",
        "hours": "Closed"
      }
    ],
    "peopleAlsoSearch": [],
    "placesTags": [],
    "reviewsTags": [],
    "additionalInfo": {
      "From the business": [
        {
          "Small business": true
        }
      ],
      "Service options": [
        {
          "Delivery": true
        },
        {
          "Drive-through": true
        },
        {
          "In-store pickup": true
        },
        {
          "Onsite services": true
        },
        {
          "Same-day delivery": true
        }
      ],
      "Accessibility": [
        {
          "Wheelchair accessible entrance": true
        },
        {
          "Wheelchair accessible parking lot": true
        }
      ],
      "Crowd": [
        {
          "LGBTQ+ friendly": true
        },
        {
          "Transgender safespace": true
        }
      ],
      "Planning": [
        {
          "Quick visit": true
        }
      ],
      "Payments": [
        {
          "NFC mobile payments": true
        },
        {
          "Credit cards": true
        }
      ]
    },
    "gasPrices": [],
    "url": "https://www.google.com/maps/search/?api=1&query=Orem%20Family%20Pharmacy&query_place_id=ChIJP3HT68yaTYcR63CAWgyjnrA",
    "searchPageUrl": "https://www.google.com/maps/search/independent%20pharmacy%20Orem%20UT/@60.874534795447715,-150.80891300000008,9z?hl=en",
    "searchString": "independent pharmacy Orem UT",
    "language": "en",
    "rank": 1,
    "isAdvertisement": false,
    "imageUrl": "https://lh3.googleusercontent.com/p/AF1QipNAL2XXDc0UkV5z2MVxi6zzHl4K4CaPs6Ua7RGE=w408-h306-k-no",
    "kgmid": "/g/1tdxwhl7",
    "classification": "independent",
    "is_independent": true,
    "is_compounding": false,
    "confidence": 0.9,
    "source": "perplexity",
    "method": "llm",
    "query_location": "orem_ut"
  },
  {
    "title": "Salmon Pharmacy",
    "price": null,
    "categoryName": "Pharmacy",
    "address": "865 N 980 W, Orem, UT 84057",
    "neighborhood": "Bonneville",
    "street": "865 N 980 W",
    "city": "Orem",
    "postalCode": "84057",
    "state": "Utah",
    "countryCode": "US",
    "website": "http://www.salmonpharmacy.com/",
    "phone": "(801) 225-2150",
    "phoneUnformatted": "+18012252150",
    "claimThisBusiness": false,
    "location": {
      "lat": 40.3131869,
      "lng": -111.7199681
    },
    "totalScore": 4.8,
    "permanentlyClosed": false,
    "temporarilyClosed": false,
    "placeId": null,
    "categories": [
      "Pharmacy",
      "Drug store",
      "Gift shop"
    ],
    "fid": "0x874d852f5286d04f:0xef2d4d90df0f2f03",
    "cid": "17234516633629699843",
    "reviewsCount": 117,
    "imagesCount": 22,
    "imageCategories": [],
    "scrapedAt": "2025-06-22T09:58:56.938Z",
    "googleFoodUrl": null,
    "hotelAds": [],
    "openingHours": [
      {
        "day": "Monday",
        "hours": "9\u202fAM to 7\u202fPM"
      },
      {
        "day": "Tuesday",
        "hours": "9\u202fAM to 7\u202fPM"
      },
      {
        "day": "Wednesday",
        "hours": "9\u202fAM to 7\u202fPM"
      },
      {
        "day": "Thursday",
        "hours": "9\u202fAM to 7\u202fPM"
      },
      {
        "day": "Friday",
        "hours": "9\u202fAM to 7\u202fPM"
      },
      {
        "day": "Saturday",
        "hours": "9\u202fAM to 3\u202fPM"
      },
      {
        "day": "Sunday",
        "hours": "Closed"
      }
    ],
    "additionalOpeningHours": {
      "Drive through": [
        {
          "day": "Monday",
          "hours": "9\u202fAM\u20137\u202fPM"
        },
        {
          "day": "Tuesday",
          "hours": "9\u202fAM\u20137\u202fPM"
        },
        {
          "day": "Wednesday",
          "hours": "9\u202fAM\u20137\u202fPM"
        },
        {
          "day": "Thursday",
          "hours": "9\u202fAM\u20137\u202fPM"
        },
        {
          "day": "Friday",
          "hours": "9\u202fAM\u20137\u202fPM"
        },
        {
          "day": "Saturday",
          "hours": "9\u202fAM\u20133\u202fPM"
        },
        {
          "day": "Sunday",
          "hours": "Closed"
        }
      ]
    },
    "peopleAlsoSearch": [],
    "placesTags": [],
    "reviewsTags": [],
    "additionalInfo": {
      "From the business": [
        {
          "Small business": true
        }
      ],
      "Service options": [
        {
          "Curbside pickup": true
        },
        {
          "Delivery": true
        },
        {
          "Drive-through": true
        },
        {
          "In-store pickup": true
        },
        {
          "In-store shopping": true
        },
        {
          "Onsite services": true
        },
        {
          "Same-day delivery": true
        },
        {
          "Spanish": true
        }
      ],
      "Accessibility": [
        {
          "Wheelchair accessible entrance": true
        },
        {
          "Wheelchair accessible parking lot": true
        },
        {
          "Wheelchair accessible restroom": true
        },
        {
          "Wheelchair accessible seating": true
        }
      ],
      "Amenities": [
        {
          "Gender-neutral restroom": true
        },
        {
          "Wi-Fi": true
        },
        {
          "Free Wi-Fi": true
        }
      ],
      "Planning": [
        {
          "Quick visit": true
        }
      ],
      "Payments": [
        {
          "Credit cards": true
        },
        {
          "Debit cards": true
        },
        {
          "NFC mobile payments": true
        },
        {
          "Credit cards": true
        }
      ]
    },
    "gasPrices": [],
    "url": "https://www.google.com/maps/search/?api=1&query=Salmon%20Pharmacy&query_place_id=ChIJT9CGUi-FTYcRAy8P35BNLe8",
    "searchPageUrl": "https://www.google.com/maps/search/independent%20pharmacy%20Orem%20UT/@60.874534795447715,-150.80891300000008,9z?hl=en",
    "searchString": "independent pharmacy Orem UT",
    "language": "en",
    "rank": 2,
    "isAdvertisement": false,
    "imageUrl": "https://lh3.googleusercontent.com/gps-cs-s/AC9h4npcpT71gZNe_LvttuWifZxEhuR_Fw4AFxswHjoj1jdWC4U77bg3PrO8LWmIWUajsXFxT8HxmB_XTUpXD9SA74_g2-PtWxb1wZE9G6ibmppjecFaShwB5MUwRIxRFwgr_2KSLHtF=w408-h306-k-no",
    "kgmid": "/g/1tjy1zxp",
    "classification": "independent",
    "is_independent": true,
    "is_compounding": false,
    "confidence": 0.9,
    "source": "perplexity",
    "method": "llm",
    "query_location": "orem_ut"
  },
  {
    "title": "U of U Health Parkway Pharmacy",
    "price": null,
    "categoryName": "Pharmacy",
    "address": "145 W University Pkwy, Orem, UT 84058",
    "neighborhood": "Lakeview",
    "street": "145 W University Pkwy",
    "city": "Orem",
    "postalCode": "84058",
    "state": "Utah",
    "countryCode": "US",
    "website": "https://healthcare.utah.edu/locations/parkway/pharmacy.php?utm_source=google&utm_medium=yext",
    "phone": "(801) 234-8510",
    "phoneUnformatted": "+18012348510",
    "claimThisBusiness": false,
    "location": {
      "lat": 40.2727853,
      "lng": -111.698783
    },
    "totalScore": 3.1,
    "permanentlyClosed": false,
    "temporarilyClosed": false,
    "placeId": "ChIJRVqS7EabTYcRpETBUTbVgYs",
    "categories": [
      "Pharmacy"
    ],
    "fid": "0x874d9b46ec925a45:0x8b81d53651c144a4",
    "cid": "10052550272544228516",
    "reviewsCount": 13,
    "imagesCount": 9,
    "imageCategories": [],
    "scrapedAt": "2025-06-22T09:58:56.938Z",
    "googleFoodUrl": null,
    "hotelAds": [],
    "openingHours": [
      {
        "day": "Monday",
        "hours": "8\u202fAM to 6\u202fPM"
      },
      {
        "day": "Tuesday",
        "hours": "8\u202fAM to 6\u202fPM"
      },
      {
        "day": "Wednesday",
        "hours": "8\u202fAM to 6\u202fPM"
      },
      {
        "day": "Thursday",
        "hours": "8\u202fAM to 6\u202fPM"
      },
      {
        "day": "Friday",
        "hours": "8\u202fAM to 6\u202fPM"
      },
      {
        "day": "Saturday",
        "hours": "Closed"
      },
      {
        "day": "Sunday",
        "hours": "Closed"
      }
    ],
    "peopleAlsoSearch": [],
    "placesTags": [],
    "reviewsTags": [],
    "additionalInfo": {
      "Accessibility": [
        {
          "Wheelchair accessible entrance": true
        },
        {
          "Wheelchair accessible parking lot": true
        }
      ],
      "Payments": [
        {
          "Credit cards": true
        },
        {
          "Debit cards": true
        },
        {
          "NFC mobile payments": true
        },
        {
          "Credit cards": true
        }
      ]
    },
    "gasPrices": [],
    "url": "https://www.google.com/maps/search/?api=1&query=U%20of%20U%20Health%20Parkway%20Pharmacy&query_place_id=ChIJRVqS7EabTYcRpETBUTbVgYs",
    "searchPageUrl": "https://www.google.com/maps/search/independent%20pharmacy%20Orem%20UT/@60.874534795447715,-150.80891300000008,9z?hl=en",
    "searchString": "independent pharmacy Orem UT",
    "language": "en",
    "rank": 3,
    "isAdvertisement": false,
    "imageUrl": "https://lh3.googleusercontent.com/p/AF1QipMp7NMqpACJFfU_wvpq-nRAqq4nEK3ujpJpqodA=w408-h283-k-no",
    "kgmid": "/g/11j0w4fm02",
    "classification": "hospital",
    "is_independent": false,
    "confidence": 1.0,
    "source": "rule-based"
  },
  {
    "title": "Smith's Pharmacy",
    "price": null,
    "categoryName": "Pharmacy",
    "address": "45 S State St, Orem, UT 84058",
    "neighborhood": "Scera Park North",
    "street": "45 S State St",
    "city": "Orem",
    "postalCode": "84058",
    "state": "Utah",
    "countryCode": "US",
    "website": "https://www.smithsfoodanddrug.com/rx/pharmacy/details/706/00144?cid=loc_70600144P_gmb",
    "phone": "(801) 224-3332",
    "phoneUnformatted": "+18012243332",
    "claimThisBusiness": false,
    "location": {
      "lat": 40.2963886,
      "lng": -111.6913746
    },
    "totalScore": 3.8,
    "permanentlyClosed": false,
    "temporarilyClosed": false,
    "placeId": "ChIJhz7OyMeaTYcRZDqcdLyN5S0",
    "categories": [
      "Pharmacy",
      "Drug store",
      "Health counselor",
      "Home health care service"
    ],
    "fid": "0x874d9ac7c8ce3e87:0x2de58dbc749c3a64",
    "cid": "3307205341923261028",
    "reviewsCount": 87,
    "imagesCount": 13,
    "imageCategories": [],
    "scrapedAt": "2025-06-22T09:58:56.938Z",
    "googleFoodUrl": null,
    "hotelAds": [],
    "openingHours": [
      {
        "day": "Monday",
        "hours": "9\u202fAM to 1\u202fPM, 1:30 to 8\u202fPM"
      },
      {
        "day": "Tuesday",
        "hours": "9\u202fAM to 1\u202fPM, 1:30 to 8\u202fPM"
      },
      {
        "day": "Wednesday",
        "hours": "9\u202fAM to 1\u202fPM, 1:30 to 8\u202fPM"
      },
      {
        "day": "Thursday",
        "hours": "9\u202fAM to 1\u202fPM, 1:30 to 8\u202fPM"
      },
      {
        "day": "Friday",
        "hours": "9\u202fAM to 1\u202fPM, 1:30 to 8\u202fPM"
      },
      {
        "day": "Saturday",
        "hours": "9\u202fAM to 1\u202fPM, 1:30 to 6\u202fPM"
      },
      {
        "day": "Sunday",
        "hours": "10\u202fAM to 1\u202fPM, 1:30 to 4\u202fPM"
      }
    ],
    "additionalOpeningHours": {
      "Drive through": [
        {
          "day": "Monday",
          "hours": "9\u202fAM\u20131\u202fPM"
        },
        {
          "day": "Tuesday",
          "hours": "9\u202fAM\u20131\u202fPM"
        },
        {
          "day": "Wednesday",
          "hours": "9\u202fAM\u20131\u202fPM"
        },
        {
          "day": "Thursday",
          "hours": "9\u202fAM\u20131\u202fPM"
        },
        {
          "day": "Friday",
          "hours": "9\u202fAM\u20131\u202fPM"
        },
        {
          "day": "Saturday",
          "hours": "9\u202fAM\u20131\u202fPM"
        },
        {
          "day": "Sunday",
          "hours": "10\u202fAM\u20131\u202fPM"
        }
      ]
    },
    "peopleAlsoSearch": [],
    "placesTags": [],
    "reviewsTags": [],
    "additionalInfo": {
      "Service options": [
        {
          "Curbside pickup": true
        },
        {
          "Delivery": true
        },
        {
          "Drive-through": true
        },
        {
          "In-store pickup": true
        },
        {
          "In-store shopping": true
        },
        {
          "Onsite services": true
        },
        {
          "Same-day delivery": true
        }
      ],
      "Accessibility": [
        {
          "Wheelchair accessible entrance": true
        },
        {
          "Wheelchair accessible parking lot": true
        },
        {
          "Wheelchair accessible restroom": true
        },
        {
          "Wheelchair accessible seating": true
        }
      ],
      "Amenities": [
        {
          "Wi-Fi": true
        },
        {
          "Free Wi-Fi": true
        }
      ],
      "Crowd": [
        {
          "LGBTQ+ friendly": true
        },
        {
          "Transgender safespace": true
        }
      ],
      "Planning": [
        {
          "Quick visit": true
        }
      ],
      "Payments": [
        {
          "Checks": true
        },
        {
          "Credit cards": true
        },
        {
          "Debit cards": true
        },
        {
          "NFC mobile payments": true
        },
        {
          "Credit cards": true
        }
      ]
    },
    "gasPrices": [],
    "url": "https://www.google.com/maps/search/?api=1&query=Smith's%20Pharmacy&query_place_id=ChIJhz7OyMeaTYcRZDqcdLyN5S0",
    "searchPageUrl": "https://www.google.com/maps/search/independent%20pharmacy%20Orem%20UT/@60.874534795447715,-150.80891300000008,9z?hl=en",
    "searchString": "independent pharmacy Orem UT",
    "language": "en",
    "rank": 4,
    "isAdvertisement": false,
    "imageUrl": "https://lh3.googleusercontent.com/gps-cs-s/AC9h4nqZHN9e68wbx59poldp1ta2bCYoZaApSdT5NF4G9-6Z1OOFI4-NAOLI3sVLQzpTI7PGcYzFbTFQ9BdrJL1QqWQTbCxxCSg5i8QRhWJSA8F-oynMfqR9BK7AQ6rb6hFWDMkGguO5=w426-h240-k-no",
    "kgmid": "/g/1pv5tr44z",
    "classification": "chain",
    "is_independent": false,
    "confidence": 1.0,
    "source": "rule-based"
  },
  {
    "title": "Harmons Pharmacy - Orem",
    "price": null,
    "categoryName": "Pharmacy",
    "address": "870 E 800 N, Orem, UT 84097",
    "neighborhood": "Orchard South",
    "street": "870 E 800 N",
    "city": "Orem",
    "postalCode": "84097",
    "state": "Utah",
    "countryCode": "US",
    "website": "https://www.harmonsgrocery.com/pharmacy/",
    "phone": "(801) 714-4150",
    "phoneUnformatted": "+18017144150",
    "claimThisBusiness": true,
    "location": {
      "lat": 40.3108149,
      "lng": -111.6750105
    },
    "totalScore": 4.7,
    "permanentlyClosed": false,
    "temporarilyClosed": false,
    "placeId": null,
    "categories": [
      "Pharmacy"
    ],
    "fid": "0x874d8552e15a9e69:0xd7cdd449640bd4d5",
    "cid": "15550318500056388821",
    "reviewsCount": 30,
    "imagesCount": 4,
    "imageCategories": [],
    "scrapedAt": "2025-06-22T09:58:56.938Z",
    "googleFoodUrl": null,
    "hotelAds": [],
    "openingHours": [
      {
        "day": "Monday",
        "hours": "9\u202fAM to 1:30\u202fPM, 2 to 9\u202fPM"
      },
      {
        "day": "Tuesday",
        "hours": "9\u202fAM to 1:30\u202fPM, 2 to 9\u202fPM"
      },
      {
        "day": "Wednesday",
        "hours": "9\u202fAM to 1:30\u202fPM, 2 to 9\u202fPM"
      },
      {
        "day": "Thursday",
        "hours": "9\u202fAM to 1:30\u202fPM, 2 to 9\u202fPM"
      },
      {
        "day": "Friday",
        "hours": "9\u202fAM to 1:30\u202fPM, 2 to 9\u202fPM"
      },
      {
        "day": "Saturday",
        "hours": "9\u202fAM to 1:30\u202fPM, 2 to 7\u202fPM"
      },
      {
        "day": "Sunday",
        "hours": "11\u202fAM to 5\u202fPM"
      }
    ],
    "peopleAlsoSearch": [],
    "placesTags": [],
    "reviewsTags": [],
    "additionalInfo": {
      "Service options": [
        {
          "In-store pickup": true
        }
      ],
      "Accessibility": [
        {
          "Wheelchair accessible entrance": true
        },
        {
          "Wheelchair accessible parking lot": true
        }
      ],
      "Planning": [
        {
          "Quick visit": true
        }
      ],
      "Payments": [
        {
          "Credit cards": true
        },
        {
          "NFC mobile payments": true
        }
      ]
    },
    "gasPrices": [],
    "url": "https://www.google.com/maps/search/?api=1&query=Harmons%20Pharmacy%20-%20Orem&query_place_id=ChIJaZ5a4VKFTYcR1dQLZEnUzdc",
    "searchPageUrl": "https://www.google.com/maps/search/independent%20pharmacy%20Orem%20UT/@60.874534795447715,-150.80891300000008,9z?hl=en",
    "searchString": "independent pharmacy Orem UT",
    "language": "en",
    "rank": 5,
    "isAdvertisement": false,
    "imageUrl": "https://lh3.googleusercontent.com/gps-cs-s/AC9h4nrsJqKxN-8_zJIvdeuOA4SzUtKLBbwhlptSLlpX3nDzoBxjcq4n-qaW9oWDlQq393bhx0KNz-gHdZe-T7SeHsZJG0jrXjWZt8thMCgzNve5s-oJipnOxvJLXEEwYRRzq3IOEWuA=w408-h306-k-no",
    "kgmid": "/g/11cn5pl586",
    "classification": "chain",
    "is_independent": false,
    "is_compounding": false,
    "confidence": 0.95,
    "source": "perplexity",
    "method": "llm",
    "query_location": "orem_ut"
  },
  {
    "title": "Premier Care Pharmacy",
    "price": null,
    "categoryName": "Pharmacy",
    "address": "863 N 980 W, Orem, UT 84057",
    "neighborhood": "Bonneville",
    "street": "863 N 980 W",
    "city": "Orem",
    "postalCode": "84057",
    "state": "Utah",
    "countryCode": "US",
    "phone": "(801) 607-2138",
    "phoneUnformatted": "+18016072138",
    "claimThisBusiness": false,
    "location": {
      "lat": 40.3132471,
      "lng": -111.720093
    },
    "totalScore": 1,
    "permanentlyClosed": false,
    "temporarilyClosed": false,
    "placeId": null,
    "categories": [
      "Pharmacy"
    ],
    "fid": "0x874d85db2cb5d7f9:0xdffa6d711a92d9d6",
    "cid": "16139332547180157398",
    "reviewsCount": 2,
    "imagesCount": 5,
    "imageCategories": [],
    "scrapedAt": "2025-06-22T09:58:56.938Z",
    "googleFoodUrl": null,
    "hotelAds": [],
    "openingHours": [
      {
        "day": "Monday",
        "hours": "9\u202fAM to 5\u202fPM"
      },
      {
        "day": "Tuesday",
        "hours": "9\u202fAM to 5\u202fPM"
      },
      {
        "day": "Wednesday",
        "hours": "9\u202fAM to 5\u202fPM"
      },
      {
        "day": "Thursday",
        "hours": "9\u202fAM to 5\u202fPM"
      },
      {
        "day": "Friday",
        "hours": "9\u202fAM to 5\u202fPM"
      },
      {
        "day": "Saturday",
        "hours": "Closed"
      },
      {
        "day": "Sunday",
        "hours": "Closed"
      }
    ],
    "peopleAlsoSearch": [],
    "placesTags": [],
    "reviewsTags": [],
    "additionalInfo": {
      "From the business": [
        {
          "Small business": true
        }
      ],
      "Service options": [
        {
          "Delivery": true
        },
        {
          "Same-day delivery": true
        }
      ],
      "Accessibility": [
        {
          "Wheelchair accessible entrance": true
        },
        {
          "Wheelchair accessible parking lot": true
        }
      ],
      "Payments": [
        {
          "Checks": true
        },
        {
          "Debit cards": true
        },
        {
          "Credit cards": true
        }
      ]
    },
    "gasPrices": [],
    "url": "https://www.google.com/maps/search/?api=1&query=Premier%20Care%20Pharmacy&query_place_id=ChIJ-de1LNuFTYcR1tmSGnFt-t8",
    "searchPageUrl": "https://www.google.com/maps/search/independent%20pharmacy%20Orem%20UT/@60.874534795447715,-150.80891300000008,9z?hl=en",
    "searchString": "independent pharmacy Orem UT",
    "language": "en",
    "rank": 6,
    "isAdvertisement": false,
    "imageUrl": "https://lh3.googleusercontent.com/p/AF1QipOa8rfxGQvFYOLQlnxf6zefqztoLRu0k8PBAv3c=w408-h408-k-no",
    "kgmid": "/g/11ftmqkg3b",
    "classification": "independent",
    "is_independent": true,
    "is_compounding": false,
    "confidence": 0.85,
    "source": "perplexity",
    "method": "llm",
    "query_location": "orem_ut"
  },
  {
    "title": "Walgreens Pharmacy",
    "description": "Department of the Walgreens chain providing prescription medications & other health-related items.",
    "price": null,
    "categoryName": "Pharmacy",
    "address": "763 N State St, Orem, UT 84057",
    "neighborhood": "Geneva",
    "street": "763 N State St",
    "city": "Orem",
    "postalCode": "84057",
    "state": "Utah",
    "countryCode": "US",
    "website": "https://www.walgreens.com/locator/walgreens-763+n+state+st-orem-ut-84057/id=9192",
    "phone": "(801) 734-1624",
    "phoneUnformatted": "+18017341624",
    "claimThisBusiness": false,
    "location": {
      "lat": 40.3110606,
      "lng": -111.7018247
    },
    "totalScore": 2.8,
    "permanentlyClosed": false,
    "temporarilyClosed": false,
    "placeId": "ChIJlwtInhKFTYcRbFgbnwKUa0s",
    "categories": [
      "Pharmacy"
    ],
    "fid": "0x874d85129e480b97:0x4b6b94029f1b586c",
    "cid": "5434600114332850284",
    "reviewsCount": 34,
    "imagesCount": 3,
    "imageCategories": [],
    "scrapedAt": "2025-06-22T09:58:56.938Z",
    "googleFoodUrl": null,
    "hotelAds": [],
    "openingHours": [
      {
        "day": "Monday",
        "hours": "9\u202fAM to 1:30\u202fPM, 2 to 9\u202fPM"
      },
      {
        "day": "Tuesday",
        "hours": "9\u202fAM to 1:30\u202fPM, 2 to 9\u202fPM"
      },
      {
        "day": "Wednesday",
        "hours": "9\u202fAM to 1:30\u202fPM, 2 to 9\u202fPM"
      },
      {
        "day": "Thursday",
        "hours": "9\u202fAM to 1:30\u202fPM, 2 to 9\u202fPM"
      },
      {
        "day": "Friday",
        "hours": "9\u202fAM to 1:30\u202fPM, 2 to 9\u202fPM"
      },
      {
        "day": "Saturday",
        "hours": "9\u202fAM to 1:30\u202fPM, 2 to 6\u202fPM"
      },
      {
        "day": "Sunday",
        "hours": "10\u202fAM to 1:30\u202fPM, 2 to 6\u202fPM"
      }
    ],
    "additionalOpeningHours": {
      "Drive through": [
        {
          "day": "Monday",
          "hours": "9\u202fAM\u20131:30\u202fPM"
        },
        {
          "day": "Tuesday",
          "hours": "9\u202fAM\u20131:30\u202fPM"
        },
        {
          "day": "Wednesday",
          "hours": "9\u202fAM\u20131:30\u202fPM"
        },
        {
          "day": "Thursday",
          "hours": "9\u202fAM\u20131:30\u202fPM"
        },
        {
          "day": "Friday",
          "hours": "9\u202fAM\u20131:30\u202fPM"
        },
        {
          "day": "Saturday",
          "hours": "9\u202fAM\u20131:30\u202fPM"
        },
        {
          "day": "Sunday",
          "hours": "10\u202fAM\u20131:30\u202fPM"
        }
      ]
    },
    "peopleAlsoSearch": [],
    "placesTags": [],
    "reviewsTags": [],
    "additionalInfo": {
      "Service options": [
        {
          "Curbside pickup": true
        },
        {
          "Drive-through": true
        },
        {
          "In-store pickup": true
        },
        {
          "Onsite services": true
        }
      ],
      "Accessibility": [
        {
          "Wheelchair accessible entrance": true
        },
        {
          "Wheelchair accessible parking lot": true
        }
      ],
      "Offerings": [
        {
          "Passport photos": true
        }
      ],
      "Planning": [
        {
          "Quick visit": true
        }
      ],
      "Payments": [
        {
          "Checks": true
        },
        {
          "Credit cards": true
        },
        {
          "Debit cards": true
        }
      ]
    },
    "gasPrices": [],
    "url": "https://www.google.com/maps/search/?api=1&query=Walgreens%20Pharmacy&query_place_id=ChIJlwtInhKFTYcRbFgbnwKUa0s",
    "searchPageUrl": "https://www.google.com/maps/search/independent%20pharmacy%20Orem%20UT/@60.874534795447715,-150.80891300000008,9z?hl=en",
    "searchString": "independent pharmacy Orem UT",
    "language": "en",
    "rank": 7,
    "isAdvertisement": false,
    "imageUrl": "https://lh3.googleusercontent.com/p/AF1QipOkp1BxXvU3mZ9PE1lrGY6jP5sN1p6TMPvYuKdi=w525-h240-k-no",
    "kgmid": "/g/11qs869_0n",
    "classification": "chain",
    "is_independent": false,
    "confidence": 1.0,
    "source": "rule-based"
  },
  {
    "title": "CVS Pharmacy",
    "description": "Drugstore chain selling a variety of beauty & health products, plus some grocery & household items.",
    "price": null,
    "categoryName": "Pharmacy",
    "address": "175 W Center St, Orem, UT 84057",
    "neighborhood": "Orem Park",
    "street": "175 W Center St",
    "city": "Orem",
    "postalCode": "84057",
    "state": "Utah",
    "countryCode": "US",
    "website": "https://www.cvs.com/store-locator/orem-ut-pharmacies/175-w-center-st-orem-ut-84057/storeid=16881?WT.mc_id=LS_GOOGLE_RX_16881",
    "phone": "(801) 224-6510",
    "phoneUnformatted": "+18012246510",
    "claimThisBusiness": false,
    "location": {
      "lat": 40.2951487,
      "lng": -111.6992423
    },
    "totalScore": 2.6,
    "permanentlyClosed": false,
    "temporarilyClosed": false,
    "placeId": "ChIJ90c_ncWaTYcR57rMB-AhfuQ",
    "categories": [
      "Pharmacy"
    ],
    "fid": "0x874d9ac59d3f47f7:0xe47e21e007ccbae7",
    "cid": "16464634533800360679",
    "reviewsCount": 96,
    "imagesCount": 9,
    "imageCategories": [],
    "scrapedAt": "2025-06-22T09:59:35.238Z",
    "googleFoodUrl": null,
    "hotelAds": [],
    "openingHours": [
      {
        "day": "Monday",
        "hours": "9\u202fAM to 1:30\u202fPM, 2 to 8\u202fPM"
      },
      {
        "day": "Tuesday",
        "hours": "9\u202fAM to 1:30\u202fPM, 2 to 8\u202fPM"
      },
      {
        "day": "Wednesday",
        "hours": "9\u202fAM to 1:30\u202fPM, 2 to 8\u202fPM"
      },
      {
        "day": "Thursday",
        "hours": "9\u202fAM to 1:30\u202fPM, 2 to 8\u202fPM"
      },
      {
        "day": "Friday",
        "hours": "9\u202fAM to 1:30\u202fPM, 2 to 8\u202fPM"
      },
      {
        "day": "Saturday",
        "hours": "9\u202fAM to 1:30\u202fPM, 2 to 6\u202fPM"
      },
      {
        "day": "Sunday",
        "hours": "11\u202fAM to 4\u202fPM"
      }
    ],
    "peopleAlsoSearch": [],
    "placesTags": [],
    "reviewsTags": [],
    "additionalInfo": {
      "Service options": [
        {
          "Delivery": true
        },
        {
          "In-store shopping": true
        },
        {
          "Onsite services": true
        }
      ],
      "Accessibility": [
        {
          "Wheelchair accessible entrance": true
        },
        {
          "Wheelchair accessible parking lot": true
        }
      ],
      "Offerings": [
        {
          "Naloxone": true
        }
      ],
      "Crowd": [
        {
          "LGBTQ+ friendly": true
        },
        {
          "Transgender safespace": true
        }
      ],
      "Planning": [
        {
          "Quick visit": true
        }
      ],
      "Payments": [
        {
          "Credit cards": true
        },
        {
          "Debit cards": true
        },
        {
          "Credit cards": true
        }
      ]
    },
    "gasPrices": [],
    "url": "https://www.google.com/maps/search/?api=1&query=CVS%20Pharmacy&query_place_id=ChIJ90c_ncWaTYcR57rMB-AhfuQ",
    "searchPageUrl": "https://www.google.com/maps/search/independent%20pharmacy%20Orem%20UT/@39.68245004733214,-118.1483311994871,8z?hl=en",
    "searchString": "independent pharmacy Orem UT",
    "language": "en",
    "rank": 8,
    "isAdvertisement": false,
    "imageUrl": "https://lh3.googleusercontent.com/p/AF1QipOik_yuC9gn8sYXG5YYqY6xkEXKgTj1lowxNCMD=w408-h272-k-no",
    "kgmid": "/g/1thx92rm",
    "classification": "chain",
    "is_independent": false,
    "confidence": 1.0,
    "source": "rule-based"
  },
  {
    "title": "Walgreens Pharmacy",
    "description": "Department of the Walgreens chain providing prescription medications & other health-related items.",
    "price": "$$",
    "categoryName": "Pharmacy",
    "address": "850 S State St, Orem, UT 84097",
    "neighborhood": "Westmore",
    "street": "850 S State St",
    "city": "Orem",
    "postalCode": "84097",
    "state": "Utah",
    "countryCode": "US",
    "website": "https://www.walgreens.com/locator/walgreens-850+s+state+st-orem-ut-84097/id=11150",
    "phone": "(801) 616-5237",
    "phoneUnformatted": "+18016165237",
    "claimThisBusiness": false,
    "location": {
      "lat": 40.2817438,
      "lng": -111.6889912
    },
    "totalScore": 2.9,
    "permanentlyClosed": false,
    "temporarilyClosed": false,
    "placeId": "ChIJgUb-OpOaTYcR2U3am3js0_8",
    "categories": [
      "Pharmacy"
    ],
    "fid": "0x874d9a933afe4681:0xffd3ec789bda4dd9",
    "cid": "18434337702512578009",
    "reviewsCount": 33,
    "imagesCount": 3,
    "imageCategories": [],
    "scrapedAt": "2025-06-22T09:59:35.238Z",
    "googleFoodUrl": null,
    "hotelAds": [],
    "openingHours": [
      {
        "day": "Monday",
        "hours": "9\u202fAM to 1:30\u202fPM, 2 to 9\u202fPM"
      },
      {
        "day": "Tuesday",
        "hours": "9\u202fAM to 1:30\u202fPM, 2 to 9\u202fPM"
      },
      {
        "day": "Wednesday",
        "hours": "9\u202fAM to 1:30\u202fPM, 2 to 9\u202fPM"
      },
      {
        "day": "Thursday",
        "hours": "9\u202fAM to 1:30\u202fPM, 2 to 9\u202fPM"
      },
      {
        "day": "Friday",
        "hours": "9\u202fAM to 1:30\u202fPM, 2 to 9\u202fPM"
      },
      {
        "day": "Saturday",
        "hours": "9\u202fAM to 1:30\u202fPM, 2 to 5\u202fPM"
      },
      {
        "day": "Sunday",
        "hours": "9\u202fAM to 1:30\u202fPM, 2 to 5\u202fPM"
      }
    ],
    "additionalOpeningHours": {
      "Drive through": [
        {
          "day": "Monday",
          "hours": "9\u202fAM\u20131:30\u202fPM"
        },
        {
          "day": "Tuesday",
          "hours": "9\u202fAM\u20131:30\u202fPM"
        },
        {
          "day": "Wednesday",
          "hours": "9\u202fAM\u20131:30\u202fPM"
        },
        {
          "day": "Thursday",
          "hours": "9\u202fAM\u20131:30\u202fPM"
        },
        {
          "day": "Friday",
          "hours": "9\u202fAM\u20131:30\u202fPM"
        },
        {
          "day": "Saturday",
          "hours": "9\u202fAM\u20131:30\u202fPM"
        },
        {
          "day": "Sunday",
          "hours": "9\u202fAM\u20131:30\u202fPM"
        }
      ]
    },
    "peopleAlsoSearch": [],
    "placesTags": [],
    "reviewsTags": [],
    "additionalInfo": {
      "Service options": [
        {
          "Drive-through": true
        },
        {
          "In-store pickup": true
        }
      ],
      "Accessibility": [
        {
          "Wheelchair accessible entrance": true
        },
        {
          "Wheelchair accessible parking lot": true
        }
      ],
      "Offerings": [
        {
          "Naloxone": true
        }
      ],
      "Planning": [
        {
          "Quick visit": true
        }
      ],
      "Payments": [
        {
          "Checks": true
        },
        {
          "Credit cards": true
        },
        {
          "Debit cards": true
        }
      ]
    },
    "gasPrices": [],
    "url": "https://www.google.com/maps/search/?api=1&query=Walgreens%20Pharmacy&query_place_id=ChIJgUb-OpOaTYcR2U3am3js0_8",
    "searchPageUrl": "https://www.google.com/maps/search/independent%20pharmacy%20Orem%20UT/@39.68245004733214,-118.1483311994871,8z?hl=en",
    "searchString": "independent pharmacy Orem UT",
    "language": "en",
    "rank": 9,
    "isAdvertisement": false,
    "imageUrl": "https://lh3.googleusercontent.com/p/AF1QipPUo5_M2NOgM3msiw0516_kQKa_sNDzrWvL7BCt=w525-h240-k-no",
    "kgmid": "/g/11cn94nz03",
    "classification": "chain",
    "is_independent": false,
    "confidence": 1.0,
    "source": "rule-based"
  },
  {
    "title": "Taylor Drug",
    "price": null,
    "categoryName": "Pharmacy",
    "address": "265 N State St, Lindon, UT 84042",
    "neighborhood": null,
    "street": "265 N State St",
    "city": "Lindon",
    "postalCode": "84042",
    "state": "Utah",
    "countryCode": "US",
    "website": "https://taylordrugstore.com/",
    "phone": "(385) 440-1222",
    "phoneUnformatted": "+13854401222",
    "claimThisBusiness": false,
    "location": {
      "lat": 40.3422712,
      "lng": -111.721082
    },
    "totalScore": 4.6,
    "permanentlyClosed": false,
    "temporarilyClosed": false,
    "placeId": null,
    "categories": [
      "Pharmacy"
    ],
    "fid": "0x874d8542d564d0b9:0x3a6ba8a54ece9745",
    "cid": "4209643704653092677",
    "reviewsCount": 52,
    "imagesCount": 1,
    "imageCategories": [],
    "scrapedAt": "2025-06-22T09:59:35.238Z",
    "googleFoodUrl": null,
    "hotelAds": [],
    "openingHours": [
      {
        "day": "Monday",
        "hours": "9\u202fAM to 7\u202fPM"
      },
      {
        "day": "Tuesday",
        "hours": "9\u202fAM to 7\u202fPM"
      },
      {
        "day": "Wednesday",
        "hours": "9\u202fAM to 7\u202fPM"
      },
      {
        "day": "Thursday",
        "hours": "9\u202fAM to 7\u202fPM"
      },
      {
        "day": "Friday",
        "hours": "9\u202fAM to 7\u202fPM"
      },
      {
        "day": "Saturday",
        "hours": "9\u202fAM to 2\u202fPM"
      },
      {
        "day": "Sunday",
        "hours": "Closed"
      }
    ],
    "peopleAlsoSearch": [],
    "placesTags": [],
    "reviewsTags": [],
    "additionalInfo": {
      "From the business": [
        {
          "Small business": true
        }
      ],
      "Service options": [
        {
          "Delivery": true
        },
        {
          "Drive-through": true
        },
        {
          "In-store pickup": true
        },
        {
          "In-store shopping": true
        },
        {
          "Same-day delivery": true
        }
      ],
      "Accessibility": [
        {
          "Wheelchair accessible entrance": true
        },
        {
          "Wheelchair accessible parking lot": true
        }
      ],
      "Planning": [
        {
          "Quick visit": true
        }
      ],
      "Payments": [
        {
          "Credit cards": true
        },
        {
          "Debit cards": true
        },
        {
          "NFC mobile payments": true
        },
        {
          "Credit cards": true
        }
      ]
    },
    "gasPrices": [],
    "url": "https://www.google.com/maps/search/?api=1&query=Taylor%20Drug&query_place_id=ChIJudBk1UKFTYcRRZfOTqWoazo",
    "searchPageUrl": "https://www.google.com/maps/search/independent%20pharmacy%20Orem%20UT/@39.68245004733214,-118.1483311994871,8z?hl=en",
    "searchString": "independent pharmacy Orem UT",
    "language": "en",
    "rank": 10,
    "isAdvertisement": false,
    "imageUrl": "https://streetviewpixels-pa.googleapis.com/v1/thumbnail?panoid=tMAb1l0LZG1q62D1tDQqnw&cb_client=search.gws-prod.gps&w=408&h=240&yaw=185.20255&pitch=0&thumbfov=100",
    "kgmid": "/g/11h3mv1tmc",
    "classification": "independent",
    "is_independent": true,
    "is_compounding": false,
    "confidence": 0.9,
    "source": "perplexity",
    "method": "llm",
    "query_location": "orem_ut"
  },
  {
    "title": "Rock Canyon Pharmacy",
    "price": null,
    "categoryName": "Pharmacy",
    "address": "3179 N Canyon Rd, Provo, UT 84604",
    "neighborhood": "Edgemont",
    "street": "3179 N Canyon Rd",
    "city": "Provo",
    "postalCode": "84604",
    "state": "Utah",
    "countryCode": "US",
    "website": "http://www.rockcanyonpharmacy.com/",
    "phone": "(801) 377-2002",
    "phoneUnformatted": "+18013772002",
    "claimThisBusiness": false,
    "location": {
      "lat": 40.2757066,
      "lng": -111.6519333
    },
    "totalScore": 4.6,
    "permanentlyClosed": false,
    "temporarilyClosed": false,
    "placeId": null,
    "categories": [
      "Pharmacy"
    ],
    "fid": "0x874d90882f4ed21d:0x9cbdc13a4ea99f0b",
    "cid": "11294395896687075083",
    "reviewsCount": 174,
    "imagesCount": 1,
    "imageCategories": [],
    "scrapedAt": "2025-06-22T09:59:35.238Z",
    "googleFoodUrl": null,
    "hotelAds": [],
    "openingHours": [
      {
        "day": "Monday",
        "hours": "9\u202fAM to 6\u202fPM"
      },
      {
        "day": "Tuesday",
        "hours": "9\u202fAM to 6\u202fPM"
      },
      {
        "day": "Wednesday",
        "hours": "9\u202fAM to 6\u202fPM"
      },
      {
        "day": "Thursday",
        "hours": "9\u202fAM to 6\u202fPM"
      },
      {
        "day": "Friday",
        "hours": "9\u202fAM to 6\u202fPM"
      },
      {
        "day": "Saturday",
        "hours": "Closed"
      },
      {
        "day": "Sunday",
        "hours": "Closed"
      }
    ],
    "peopleAlsoSearch": [],
    "placesTags": [],
    "reviewsTags": [],
    "additionalInfo": {
      "Service options": [
        {
          "Delivery": true
        },
        {
          "In-store pickup": true
        },
        {
          "Same-day delivery": true
        }
      ],
      "Accessibility": [
        {
          "Wheelchair accessible entrance": true
        },
        {
          "Wheelchair accessible parking lot": true
        }
      ],
      "Payments": [
        {
          "Credit cards": true
        },
        {
          "Debit cards": true
        },
        {
          "NFC mobile payments": true
        },
        {
          "Credit cards": true
        }
      ]
    },
    "gasPrices": [],
    "url": "https://www.google.com/maps/search/?api=1&query=Rock%20Canyon%20Pharmacy&query_place_id=ChIJHdJOL4iQTYcRC5-pTjrBvZw",
    "searchPageUrl": "https://www.google.com/maps/search/independent%20pharmacy%20Orem%20UT/@39.68245004733214,-118.1483311994871,8z?hl=en",
    "searchString": "independent pharmacy Orem UT",
    "language": "en",
    "rank": 12,
    "isAdvertisement": false,
    "imageUrl": "https://streetviewpixels-pa.googleapis.com/v1/thumbnail?panoid=z3-VnfhcW6giRAp1Z5XQ7w&cb_client=search.gws-prod.gps&w=408&h=240&yaw=256.25287&pitch=0&thumbfov=100",
    "kgmid": "/g/1tmqgpg0",
    "classification": "independent",
    "is_independent": true,
    "is_compounding": false,
    "confidence": 0.9,
    "source": "perplexity",
    "method": "llm",
    "query_location": "orem_ut"
  },
  {
    "title": "Oak Hills Pharmacy at BYU",
    "price": null,
    "categoryName": "Pharmacy",
    "address": "1750 N Wymount Terrace Drive, Provo, UT 84604",
    "neighborhood": null,
    "street": "1750 N Wymount Terrace Drive",
    "city": "Provo",
    "postalCode": "84604",
    "state": "Utah",
    "countryCode": "US",
    "phone": "(801) 422-5171",
    "phoneUnformatted": "+18014225171",
    "claimThisBusiness": false,
    "location": {
      "lat": 40.2575636,
      "lng": -111.6427356
    },
    "totalScore": 3,
    "permanentlyClosed": false,
    "temporarilyClosed": false,
    "placeId": null,
    "categories": [
      "Pharmacy"
    ],
    "fid": "0x874d91dc6518854d:0x707c31ff3fa5d5ab",
    "cid": "8105408401714304427",
    "reviewsCount": 38,
    "imagesCount": 6,
    "imageCategories": [],
    "scrapedAt": "2025-06-22T09:59:35.238Z",
    "googleFoodUrl": null,
    "hotelAds": [],
    "openingHours": [
      {
        "day": "Monday",
        "hours": "9\u202fAM to 5:30\u202fPM"
      },
      {
        "day": "Tuesday",
        "hours": "9\u202fAM to 5:30\u202fPM"
      },
      {
        "day": "Wednesday",
        "hours": "9\u202fAM to 5:30\u202fPM"
      },
      {
        "day": "Thursday",
        "hours": "9\u202fAM to 5:30\u202fPM"
      },
      {
        "day": "Friday",
        "hours": "9\u202fAM to 5:30\u202fPM"
      },
      {
        "day": "Saturday",
        "hours": "Closed"
      },
      {
        "day": "Sunday",
        "hours": "Closed"
      }
    ],
    "peopleAlsoSearch": [],
    "placesTags": [],
    "reviewsTags": [],
    "additionalInfo": {
      "From the business": [
        {
          "Small business": true
        }
      ],
      "Service options": [
        {
          "Delivery": true
        },
        {
          "In-store pickup": true
        },
        {
          "Same-day delivery": true
        }
      ],
      "Accessibility": [
        {
          "Wheelchair accessible entrance": true
        },
        {
          "Wheelchair accessible parking lot": true
        }
      ],
      "Payments": [
        {
          "Credit cards": true
        },
        {
          "NFC mobile payments": true
        }
      ]
    },
    "gasPrices": [],
    "url": "https://www.google.com/maps/search/?api=1&query=Oak%20Hills%20Pharmacy%20at%20BYU&query_place_id=ChIJTYUYZdyRTYcRq9WlP_8xfHA",
    "searchPageUrl": "https://www.google.com/maps/search/independent%20pharmacy%20Orem%20UT/@39.68245004733214,-118.1483311994871,8z?hl=en",
    "searchString": "independent pharmacy Orem UT",
    "language": "en",
    "rank": 13,
    "isAdvertisement": false,
    "imageUrl": "https://lh3.googleusercontent.com/gps-cs-s/AC9h4nrd0P8iPej07M8PQ2h53feRrC7Dt3ePdMQW0N0Ygozpe2-UdS0V7Kvj4wcoyQbMcZMV1zwIbunOY9LEEoLUPxl7oiYR92dNPQjoWTjuOXerOVSbJ0mY20B1dk9SK-cgJOVFOKwSFg=w408-h544-k-no",
    "kgmid": "/g/11h12l3ck_",
    "classification": "hospital",
    "is_independent": false,
    "is_compounding": false,
    "confidence": 0.9,
    "source": "perplexity",
    "method": "llm",
    "query_location": "orem_ut"
  },
  {
    "title": "Walmart Pharmacy",
    "price": "$",
    "categoryName": "Pharmacy",
    "address": "1355 Sandhill Rd, Orem, UT 84058",
    "neighborhood": "Lakeview",
    "street": "1355 Sandhill Rd",
    "city": "Orem",
    "postalCode": "84058",
    "state": "Utah",
    "countryCode": "US",
    "website": "https://www.walmart.com/store/1768-orem-ut/pharmacy/?veh=seo_loc",
    "phone": "(801) 221-0700",
    "phoneUnformatted": "+18012210700",
    "claimThisBusiness": false,
    "location": {
      "lat": 40.2733602,
      "lng": -111.7102323
    },
    "totalScore": 3.3,
    "permanentlyClosed": false,
    "temporarilyClosed": false,
    "placeId": "ChIJ3SFNJB6bTYcR4bFhi1AvqdA",
    "categories": [
      "Pharmacy",
      "Herbal medicine store",
      "Medical supply store",
      "Parapharmacy",
      "Vitamin & supplements store"
    ],
    "fid": "0x874d9b1e244d21dd:0xd0a92f508b61b1e1",
    "cid": "15035600853935436257",
    "reviewsCount": 44,
    "imagesCount": 16,
    "imageCategories": [],
    "scrapedAt": "2025-06-22T09:59:35.238Z",
    "googleFoodUrl": null,
    "hotelAds": [],
    "openingHours": [
      {
        "day": "Monday",
        "hours": "9\u202fAM to 7\u202fPM"
      },
      {
        "day": "Tuesday",
        "hours": "9\u202fAM to 7\u202fPM"
      },
      {
        "day": "Wednesday",
        "hours": "9\u202fAM to 7\u202fPM"
      },
      {
        "day": "Thursday",
        "hours": "9\u202fAM to 7\u202fPM"
      },
      {
        "day": "Friday",
        "hours": "9\u202fAM to 7\u202fPM"
      },
      {
        "day": "Saturday",
        "hours": "9\u202fAM to 7\u202fPM"
      },
      {
        "day": "Sunday",
        "hours": "10\u202fAM to 4\u202fPM"
      }
    ],
    "peopleAlsoSearch": [],
    "placesTags": [],
    "reviewsTags": [],
    "additionalInfo": {
      "Service options": [
        {
          "In-store pickup": true
        },
        {
          "In-store shopping": true
        },
        {
          "Onsite services": true
        }
      ],
      "Accessibility": [
        {
          "Wheelchair accessible entrance": true
        },
        {
          "Wheelchair accessible parking lot": true
        },
        {
          "Wheelchair accessible restroom": true
        }
      ],
      "Offerings": [
        {
          "Passport photos": true
        }
      ],
      "Amenities": [
        {
          "Wi-Fi": true
        },
        {
          "Free Wi-Fi": true
        }
      ],
      "Planning": [
        {
          "Quick visit": true
        }
      ],
      "Payments": [
        {
          "Credit cards": true
        },
        {
          "Debit cards": true
        },
        {
          "Credit cards": true
        }
      ]
    },
    "gasPrices": [],
    "url": "https://www.google.com/maps/search/?api=1&query=Walmart%20Pharmacy&query_place_id=ChIJ3SFNJB6bTYcR4bFhi1AvqdA",
    "searchPageUrl": "https://www.google.com/maps/search/independent%20pharmacy%20Orem%20UT/@39.68245004733214,-118.1483311994871,8z?hl=en",
    "searchString": "independent pharmacy Orem UT",
    "language": "en",
    "rank": 14,
    "isAdvertisement": false,
    "imageUrl": "https://lh3.googleusercontent.com/p/AF1QipPqEdynGgglfuMO1SYp8J8Fus8Q3WMwi-lz2U0i=w426-h240-k-no",
    "kgmid": "/g/1hd_2mhq8",
    "classification": "chain",
    "is_independent": false,
    "confidence": 1.0,
    "source": "rule-based"
  },
  {
    "title": "Healthcare Providers",
    "price": null,
    "categoryName": "Pharmacy",
    "address": "1900 N 1st St, Hamilton, MT 59840",
    "neighborhood": null,
    "street": "1900 N 1st St",
    "city": "Hamilton",
    "postalCode": "59840",
    "state": "Montana",
    "countryCode": "US",
    "website": "http://hcpmt.com/",
    "phone": "(406) 363-6203",
    "phoneUnformatted": "+14063636203",
    "claimThisBusiness": false,
    "location": {
      "lat": 46.2702108,
      "lng": -114.1572552
    },
    "totalScore": 4.7,
    "permanentlyClosed": false,
    "temporarilyClosed": false,
    "placeId": "ChIJW7FR4gG6XlMR13q1bASY_FM",
    "categories": [
      "Pharmacy"
    ],
    "fid": "0x535eba01e251b15b:0x53fc98046cb57ad7",
    "cid": "6051879144050227927",
    "reviewsCount": 32,
    "reviewsDistribution": {
      "oneStar": 2,
      "twoStar": 0,
      "threeStar": 0,
      "fourStar": 2,
      "fiveStar": 28
    },
    "imagesCount": 2,
    "imageCategories": [],
    "scrapedAt": "2025-06-22T09:59:36.406Z",
    "googleFoodUrl": null,
    "hotelAds": [],
    "openingHours": [
      {
        "day": "Monday",
        "hours": "8:30\u202fAM to 6\u202fPM"
      },
      {
        "day": "Tuesday",
        "hours": "8:30\u202fAM to 6\u202fPM"
      },
      {
        "day": "Wednesday",
        "hours": "8:30\u202fAM to 6\u202fPM"
      },
      {
        "day": "Thursday",
        "hours": "8:30\u202fAM to 6\u202fPM"
      },
      {
        "day": "Friday",
        "hours": "8:30\u202fAM to 6\u202fPM"
      },
      {
        "day": "Saturday",
        "hours": "9\u202fAM to 4\u202fPM"
      },
      {
        "day": "Sunday",
        "hours": "9\u202fAM to 1\u202fPM"
      }
    ],
    "additionalOpeningHours": {
      "Delivery": [
        {
          "day": "Monday",
          "hours": "9\u202fAM\u20135\u202fPM"
        },
        {
          "day": "Tuesday",
          "hours": "9\u202fAM\u20135\u202fPM"
        },
        {
          "day": "Wednesday",
          "hours": "9\u202fAM\u20135\u202fPM"
        },
        {
          "day": "Thursday",
          "hours": "9\u202fAM\u20135\u202fPM"
        },
        {
          "day": "Friday",
          "hours": "9\u202fAM\u20135\u202fPM"
        },
        {
          "day": "Saturday",
          "hours": "Closed"
        },
        {
          "day": "Sunday",
          "hours": "Closed"
        }
      ],
      "Drive through": [
        {
          "day": "Monday",
          "hours": "8:30\u202fAM\u20136\u202fPM"
        },
        {
          "day": "Tuesday",
          "hours": "8:30\u202fAM\u20136\u202fPM"
        },
        {
          "day": "Wednesday",
          "hours": "8:30\u202fAM\u20136\u202fPM"
        },
        {
          "day": "Thursday",
          "hours": "8:30\u202fAM\u20136\u202fPM"
        },
        {
          "day": "Friday",
          "hours": "8:30\u202fAM\u20136\u202fPM"
        },
        {
          "day": "Saturday",
          "hours": "9\u202fAM\u20134\u202fPM"
        },
        {
          "day": "Sunday",
          "hours": "9\u202fAM\u20131\u202fPM"
        }
      ],
      "Pickup": [
        {
          "day": "Monday",
          "hours": "8:30\u202fAM\u20136\u202fPM"
        },
        {
          "day": "Tuesday",
          "hours": "8:30\u202fAM\u20136\u202fPM"
        },
        {
          "day": "Wednesday",
          "hours": "8:30\u202fAM\u20136\u202fPM"
        },
        {
          "day": "Thursday",
          "hours": "8:30\u202fAM\u20136\u202fPM"
        },
        {
          "day": "Friday",
          "hours": "8:30\u202fAM\u20136\u202fPM"
        },
        {
          "day": "Saturday",
          "hours": "9\u202fAM\u20134\u202fPM"
        },
        {
          "day": "Sunday",
          "hours": "9\u202fAM\u20131\u202fPM"
        }
      ]
    },
    "peopleAlsoSearch": [],
    "placesTags": [],
    "reviewsTags": [],
    "additionalInfo": {
      "From the business": [
        {
          "Identifies as women-owned": true
        },
        {
          "Small business": true
        }
      ],
      "Service options": [
        {
          "Curbside pickup": true
        },
        {
          "Delivery": true
        },
        {
          "Drive-through": true
        },
        {
          "In-store pickup": true
        },
        {
          "In-store shopping": true
        },
        {
          "Onsite services": true
        },
        {
          "Same-day delivery": true
        },
        {
          "English": true
        }
      ],
      "Accessibility": [
        {
          "Wheelchair accessible entrance": true
        },
        {
          "Wheelchair accessible parking lot": true
        },
        {
          "Wheelchair accessible restroom": true
        },
        {
          "Wheelchair accessible seating": true
        }
      ],
      "Amenities": [
        {
          "Gender-neutral restroom": true
        },
        {
          "Wi-Fi": true
        },
        {
          "Free Wi-Fi": true
        }
      ],
      "Planning": [
        {
          "Quick visit": true
        }
      ],
      "Payments": [
        {
          "Credit cards": true
        }
      ],
      "Children": [
        {
          "Nursing room": true
        }
      ],
      "Parking": [
        {
          "Free parking lot": true
        }
      ]
    },
    "gasPrices": [],
    "url": "https://www.google.com/maps/search/?api=1&query=Healthcare%20Providers&query_place_id=ChIJW7FR4gG6XlMR13q1bASY_FM",
    "searchPageUrl": "https://www.google.com/maps/search/independent%20pharmacy%20Orem%20UT/@45.410355141996405,-114.98210525670324,8z?hl=en",
    "searchString": "independent pharmacy Orem UT",
    "language": "en",
    "rank": 21,
    "isAdvertisement": false,
    "imageUrl": "https://lh3.googleusercontent.com/gps-cs-s/AC9h4nrYuc8u7JNCxiok5roFMr4J5nM0ip3pjN49m6V66f3WnD7c6Efne3pB9LQdpBs1hJYpGb5OXGZc5SXgZjRk2E3Sby9A7D4n_LqtcnTP7rNIs84uPP5M35hbCmSEH66N4CqIbiDeVQ=w408-h304-k-no",
    "kgmid": "/g/11bttkd8hh",
    "classification": "hospital",
    "is_independent": false,
    "confidence": 1.0,
    "source": "rule-based"
  },
  {
    "title": "Mountain View Pharmacy",
    "price": null,
    "categoryName": "Pharmacy",
    "address": "230 S Main St, Bountiful, UT 84010",
    "neighborhood": null,
    "street": "230 S Main St",
    "city": "Bountiful",
    "postalCode": "84010",
    "state": "Utah",
    "countryCode": "US",
    "website": "http://www.mtviewpharmacy.com/",
    "phone": "(801) 295-3439",
    "phoneUnformatted": "+18012953439",
    "claimThisBusiness": false,
    "location": {
      "lat": 40.8871153,
      "lng": -111.8810459
    },
    "totalScore": 4.6,
    "permanentlyClosed": false,
    "temporarilyClosed": false,
    "placeId": null,
    "categories": [
      "Pharmacy"
    ],
    "fid": "0x8752f7faf05149e1:0xc8601428ee64022",
    "cid": "902410160711286818",
    "reviewsCount": 237,
    "imagesCount": 13,
    "imageCategories": [],
    "scrapedAt": "2025-06-22T09:59:40.872Z",
    "googleFoodUrl": null,
    "hotelAds": [],
    "openingHours": [
      {
        "day": "Monday",
        "hours": "9\u202fAM to 6\u202fPM"
      },
      {
        "day": "Tuesday",
        "hours": "9\u202fAM to 6\u202fPM"
      },
      {
        "day": "Wednesday",
        "hours": "9\u202fAM to 6\u202fPM"
      },
      {
        "day": "Thursday",
        "hours": "9\u202fAM to 6\u202fPM"
      },
      {
        "day": "Friday",
        "hours": "9\u202fAM to 6\u202fPM"
      },
      {
        "day": "Saturday",
        "hours": "Closed"
      },
      {
        "day": "Sunday",
        "hours": "Closed"
      }
    ],
    "additionalOpeningHours": {
      "Delivery": [
        {
          "day": "Monday",
          "hours": "9\u202fAM\u20135\u202fPM"
        },
        {
          "day": "Tuesday",
          "hours": "9\u202fAM\u20135\u202fPM"
        },
        {
          "day": "Wednesday",
          "hours": "9\u202fAM\u20135\u202fPM"
        },
        {
          "day": "Thursday",
          "hours": "9\u202fAM\u20135\u202fPM"
        },
        {
          "day": "Friday",
          "hours": "9\u202fAM\u20135\u202fPM"
        },
        {
          "day": "Saturday",
          "hours": "Closed"
        },
        {
          "day": "Sunday",
          "hours": "Closed"
        }
      ]
    },
    "peopleAlsoSearch": [],
    "placesTags": [],
    "reviewsTags": [],
    "additionalInfo": {
      "From the business": [
        {
          "Small business": true
        }
      ],
      "Service options": [
        {
          "Delivery": true
        },
        {
          "Drive-through": true
        },
        {
          "In-store pickup": true
        },
        {
          "Onsite services": true
        },
        {
          "Same-day delivery": true
        }
      ],
      "Accessibility": [
        {
          "Wheelchair accessible entrance": true
        },
        {
          "Wheelchair accessible parking lot": true
        },
        {
          "Wheelchair accessible restroom": true
        },
        {
          "Wheelchair accessible seating": true
        }
      ],
      "Planning": [
        {
          "Quick visit": true
        }
      ],
      "Payments": [
        {
          "Credit cards": true
        },
        {
          "Debit cards": true
        },
        {
          "NFC mobile payments": true
        },
        {
          "Credit cards": true
        }
      ]
    },
    "gasPrices": [],
    "url": "https://www.google.com/maps/search/?api=1&query=Mountain%20View%20Pharmacy&query_place_id=ChIJ4UlR8Pr3UocRIkDmjkIBhgw",
    "searchPageUrl": "https://www.google.com/maps/search/independent%20pharmacy%20Orem%20UT/@39.68245004733214,-114.98210525670324,8z?hl=en",
    "searchString": "independent pharmacy Orem UT",
    "language": "en",
    "rank": 9,
    "isAdvertisement": false,
    "imageUrl": "https://lh3.googleusercontent.com/gps-cs-s/AC9h4noqs5_AIrbQWpO4-huZMiBmyoaJheunEgVXqAs9HljAYxRjmSK5VWrtJrZt25Pr1XwCgYyMpIMXytFMkzACqnwNivgsd7sxnKDkURn4foLzCL3bib48fIXauG-Mzunb-MlsVyLf=w408-h306-k-no",
    "kgmid": "/g/1v2yzbl9",
    "classification": "independent",
    "is_independent": true,
    "is_compounding": false,
    "confidence": 0.9,
    "source": "perplexity",
    "method": "llm",
    "query_location": "orem_ut"
  },
  {
    "title": "View Pharmacy",
    "price": null,
    "categoryName": "Pharmacy",
    "address": "3384 S 5600 W, West Valley City, UT 84120",
    "neighborhood": null,
    "street": "3384 S 5600 W",
    "city": "West Valley City",
    "postalCode": "84120",
    "state": "Utah",
    "countryCode": "US",
    "website": "http://viewpharmacy-wv.com/",
    "phone": "(801) 960-4601",
    "phoneUnformatted": "+18019604601",
    "claimThisBusiness": false,
    "location": {
      "lat": 40.69869,
      "lng": -112.02638
    },
    "totalScore": 5,
    "permanentlyClosed": false,
    "temporarilyClosed": false,
    "placeId": null,
    "categories": [
      "Pharmacy"
    ],
    "fid": "0x2931e2eb0ad90ad1:0x7a68d047d08e68a3",
    "cid": "8820528877065365667",
    "reviewsCount": 9,
    "imagesCount": 16,
    "imageCategories": [],
    "scrapedAt": "2025-06-22T09:59:40.873Z",
    "googleFoodUrl": null,
    "hotelAds": [],
    "openingHours": [
      {
        "day": "Monday",
        "hours": "10\u202fAM to 7\u202fPM"
      },
      {
        "day": "Tuesday",
        "hours": "10\u202fAM to 7\u202fPM"
      },
      {
        "day": "Wednesday",
        "hours": "10\u202fAM to 7\u202fPM"
      },
      {
        "day": "Thursday",
        "hours": "10\u202fAM to 7\u202fPM"
      },
      {
        "day": "Friday",
        "hours": "10\u202fAM to 7\u202fPM"
      },
      {
        "day": "Saturday",
        "hours": "10\u202fAM to 2\u202fPM"
      },
      {
        "day": "Sunday",
        "hours": "Closed"
      }
    ],
    "peopleAlsoSearch": [],
    "placesTags": [],
    "reviewsTags": [],
    "additionalInfo": {
      "From the business": [
        {
          "Small business": true
        }
      ],
      "Service options": [
        {
          "Delivery": true
        },
        {
          "Onsite services": true
        }
      ],
      "Accessibility": [
        {
          "Wheelchair accessible entrance": true
        },
        {
          "Wheelchair accessible parking lot": true
        }
      ],
      "Planning": [
        {
          "Quick visit": true
        }
      ],
      "Payments": [
        {
          "Credit cards": true
        },
        {
          "Debit cards": true
        },
        {
          "NFC mobile payments": true
        },
        {
          "Credit cards": true
        }
      ]
    },
    "gasPrices": [],
    "url": "https://www.google.com/maps/search/?api=1&query=View%20Pharmacy&query_place_id=ChIJ0QrZCuviMSkRo2iO0EfQaHo",
    "searchPageUrl": "https://www.google.com/maps/search/independent%20pharmacy%20Orem%20UT/@39.68245004733214,-114.98210525670324,8z?hl=en",
    "searchString": "independent pharmacy Orem UT",
    "language": "en",
    "rank": 12,
    "isAdvertisement": false,
    "imageUrl": "https://lh3.googleusercontent.com/p/AF1QipPc9J2fTe7hjcdq27rvJVzlutS2Aa2iqVhiDKWU=w408-h306-k-no",
    "kgmid": "/g/11tjfg5xqk",
    "classification": "independent",
    "is_independent": true,
    "is_compounding": false,
    "confidence": 0.85,
    "source": "perplexity",
    "method": "llm",
    "query_location": "orem_ut"
  },
  {
    "title": "Cedar Valley Pharmacy",
    "price": null,
    "categoryName": "Pharmacy",
    "address": "3435 Pony Express Parkway #150, Eagle Mountain, UT 84005",
    "neighborhood": null,
    "street": "3435 Pony Express Parkway #150",
    "city": "Eagle Mountain",
    "postalCode": "84005",
    "state": "Utah",
    "countryCode": "US",
    "website": "http://www.cedarvalleypharmacy.com/",
    "phone": "(801) 753-5100",
    "phoneUnformatted": "+18017535100",
    "claimThisBusiness": false,
    "location": {
      "lat": 40.3626629,
      "lng": -111.9775755
    },
    "totalScore": 4.8,
    "permanentlyClosed": false,
    "temporarilyClosed": false,
    "placeId": null,
    "categories": [
      "Pharmacy"
    ],
    "fid": "0x874d7d13b52e35a5:0x3bfa8ef0818bc2fb",
    "cid": "4321923956032127739",
    "reviewsCount": 181,
    "imagesCount": 29,
    "imageCategories": [],
    "scrapedAt": "2025-06-22T09:59:40.873Z",
    "googleFoodUrl": null,
    "hotelAds": [],
    "openingHours": [
      {
        "day": "Monday",
        "hours": "9\u202fAM to 7\u202fPM"
      },
      {
        "day": "Tuesday",
        "hours": "9\u202fAM to 7\u202fPM"
      },
      {
        "day": "Wednesday",
        "hours": "9\u202fAM to 7\u202fPM"
      },
      {
        "day": "Thursday",
        "hours": "9\u202fAM to 7\u202fPM"
      },
      {
        "day": "Friday",
        "hours": "9\u202fAM to 7\u202fPM"
      },
      {
        "day": "Saturday",
        "hours": "10\u202fAM to 2\u202fPM"
      },
      {
        "day": "Sunday",
        "hours": "Closed"
      }
    ],
    "peopleAlsoSearch": [],
    "placesTags": [],
    "reviewsTags": [],
    "additionalInfo": {
      "From the business": [
        {
          "Small business": true
        }
      ],
      "Service options": [
        {
          "Delivery": true
        },
        {
          "Drive-through": true
        },
        {
          "In-store pickup": true
        },
        {
          "In-store shopping": true
        },
        {
          "Same-day delivery": true
        }
      ],
      "Accessibility": [
        {
          "Wheelchair accessible entrance": true
        },
        {
          "Wheelchair accessible parking lot": true
        },
        {
          "Wheelchair accessible restroom": true
        }
      ],
      "Amenities": [
        {
          "Gender-neutral restroom": true
        }
      ],
      "Planning": [
        {
          "Quick visit": true
        }
      ],
      "Payments": [
        {
          "Credit cards": true
        },
        {
          "Debit cards": true
        },
        {
          "NFC mobile payments": true
        },
        {
          "Credit cards": true
        }
      ]
    },
    "gasPrices": [],
    "url": "https://www.google.com/maps/search/?api=1&query=Cedar%20Valley%20Pharmacy&query_place_id=ChIJpTUutRN9TYcR-8KLgfCO-js",
    "searchPageUrl": "https://www.google.com/maps/search/independent%20pharmacy%20Orem%20UT/@39.68245004733214,-114.98210525670324,8z?hl=en",
    "searchString": "independent pharmacy Orem UT",
    "language": "en",
    "rank": 13,
    "isAdvertisement": false,
    "imageUrl": "https://lh3.googleusercontent.com/p/AF1QipOtSFmxM8Kk-IJCdWAbuHbcmVZksUi52Pdf9A09=w408-h306-k-no",
    "kgmid": "/g/11hzlzbjy1",
    "classification": "independent",
    "is_independent": true,
    "is_compounding": false,
    "confidence": 0.9,
    "source": "perplexity",
    "method": "llm",
    "query_location": "orem_ut"
  },
  {
    "title": "B & H Pharmacy",
    "price": null,
    "categoryName": "Pharmacy",
    "address": "286 W Center St, Provo, UT 84601",
    "neighborhood": "Downtown",
    "street": "286 W Center St",
    "city": "Provo",
    "postalCode": "84601",
    "state": "Utah",
    "countryCode": "US",
    "website": "http://bandhpharmacy.com/",
    "phone": "(801) 373-7288",
    "phoneUnformatted": "+18013737288",
    "claimThisBusiness": false,
    "location": {
      "lat": 40.234001,
      "lng": -111.663648
    },
    "totalScore": 4.7,
    "permanentlyClosed": false,
    "temporarilyClosed": false,
    "placeId": null,
    "categories": [
      "Pharmacy"
    ],
    "fid": "0x874d97552365ed0b:0xcdcfea5b2b6221c8",
    "cid": "14830329775245107656",
    "reviewsCount": 65,
    "reviewsDistribution": {
      "oneStar": 3,
      "twoStar": 0,
      "threeStar": 2,
      "fourStar": 3,
      "fiveStar": 57
    },
    "imagesCount": 37,
    "imageCategories": [],
    "scrapedAt": "2025-06-22T09:59:41.876Z",
    "googleFoodUrl": null,
    "hotelAds": [],
    "openingHours": [
      {
        "day": "Monday",
        "hours": "10\u202fAM to 6\u202fPM"
      },
      {
        "day": "Tuesday",
        "hours": "10\u202fAM to 6\u202fPM"
      },
      {
        "day": "Wednesday",
        "hours": "10\u202fAM to 6\u202fPM"
      },
      {
        "day": "Thursday",
        "hours": "10\u202fAM to 6\u202fPM"
      },
      {
        "day": "Friday",
        "hours": "10\u202fAM to 6\u202fPM"
      },
      {
        "day": "Saturday",
        "hours": "Closed"
      },
      {
        "day": "Sunday",
        "hours": "Closed"
      }
    ],
    "peopleAlsoSearch": [],
    "placesTags": [],
    "reviewsTags": [],
    "additionalInfo": {
      "From the business": [
        {
          "Small business": true
        }
      ],
      "Service options": [
        {
          "Delivery": true
        },
        {
          "In-store pickup": true
        },
        {
          "In-store shopping": true
        },
        {
          "Same-day delivery": true
        }
      ],
      "Accessibility": [
        {
          "Wheelchair accessible entrance": true
        },
        {
          "Wheelchair accessible parking lot": true
        }
      ],
      "Planning": [
        {
          "Quick visit": true
        }
      ],
      "Payments": [
        {
          "Credit cards": true
        },
        {
          "Debit cards": true
        },
        {
          "NFC mobile payments": true
        },
        {
          "Credit cards": true
        }
      ]
    },
    "gasPrices": [],
    "url": "https://www.google.com/maps/search/?api=1&query=B%20%26%20H%20Pharmacy&query_place_id=ChIJC-1lI1WXTYcRyCFiK1vqz80",
    "searchPageUrl": "https://www.google.com/maps/search/independent%20pharmacy%20Orem%20UT/@39.68245004733214,-114.98210525670324,8z?hl=en",
    "searchString": "independent pharmacy Orem UT",
    "language": "en",
    "rank": 33,
    "isAdvertisement": false,
    "imageUrl": "https://lh3.googleusercontent.com/gps-cs-s/AC9h4npzHf2uOEOBGXMa3tronrBQDMSb0H2we-iZrVdffDT3VhL4yT9Q85vCdtxlX_CuzMm2kle6rmv24enUto1DuMAGC8kWO1dcxxRYlX2R4sjA7CD9Yz-NRf_BmWI2C9GUjnzJuFBl=w408-h544-k-no",
    "kgmid": "/g/1vnnjwlb",
    "classification": "independent",
    "is_independent": true,
    "is_compounding": false,
    "confidence": 0.9,
    "source": "perplexity",
    "method": "llm",
    "query_location": "orem_ut"
  },
  {
    "title": "Hurricane Family Pharmacy",
    "price": null,
    "categoryName": "Pharmacy",
    "address": "25 2000 W, Hurricane, UT 84737",
    "neighborhood": null,
    "street": "25 2000 W",
    "city": "Hurricane",
    "postalCode": "84737",
    "state": "Utah",
    "countryCode": "US",
    "website": "https://www.utahfamilypharmacy.com/",
    "phone": "(435) 635-8200",
    "phoneUnformatted": "+14356358200",
    "claimThisBusiness": false,
    "location": {
      "lat": 37.1767864,
      "lng": -113.3261804
    },
    "totalScore": 4.6,
    "permanentlyClosed": false,
    "temporarilyClosed": false,
    "placeId": null,
    "categories": [
      "Pharmacy",
      "Diabetes equipment supplier",
      "Medical supply store",
      "Vitamin & supplements store"
    ],
    "fid": "0x80caf68e854003af:0x4167c32f357b7e44",
    "cid": "4712950142594678340",
    "reviewsCount": 181,
    "imagesCount": 35,
    "imageCategories": [],
    "scrapedAt": "2025-06-22T09:59:55.638Z",
    "googleFoodUrl": null,
    "hotelAds": [],
    "openingHours": [
      {
        "day": "Monday",
        "hours": "9\u202fAM to 6:30\u202fPM"
      },
      {
        "day": "Tuesday",
        "hours": "9\u202fAM to 6:30\u202fPM"
      },
      {
        "day": "Wednesday",
        "hours": "9\u202fAM to 6:30\u202fPM"
      },
      {
        "day": "Thursday",
        "hours": "9\u202fAM to 6:30\u202fPM"
      },
      {
        "day": "Friday",
        "hours": "9\u202fAM to 6:30\u202fPM"
      },
      {
        "day": "Saturday",
        "hours": "9\u202fAM to 2\u202fPM"
      },
      {
        "day": "Sunday",
        "hours": "Closed"
      }
    ],
    "peopleAlsoSearch": [],
    "placesTags": [],
    "reviewsTags": [],
    "additionalInfo": {
      "From the business": [
        {
          "Small business": true
        }
      ],
      "Service options": [
        {
          "Curbside pickup": true
        },
        {
          "Delivery": true
        },
        {
          "Drive-through": true
        },
        {
          "In-store pickup": true
        },
        {
          "In-store shopping": true
        },
        {
          "Onsite services": true
        },
        {
          "Same-day delivery": true
        }
      ],
      "Accessibility": [
        {
          "Wheelchair accessible entrance": true
        },
        {
          "Wheelchair accessible parking lot": true
        }
      ],
      "Planning": [
        {
          "Quick visit": true
        }
      ],
      "Payments": [
        {
          "Credit cards": true
        },
        {
          "Debit cards": true
        },
        {
          "NFC mobile payments": true
        },
        {
          "Credit cards": true
        }
      ]
    },
    "gasPrices": [],
    "url": "https://www.google.com/maps/search/?api=1&query=Hurricane%20Family%20Pharmacy&query_place_id=ChIJrwNAhY72yoARRH57NS_DZ0E",
    "searchPageUrl": "https://www.google.com/maps/search/independent%20pharmacy%20Orem%20UT/@36.81849750000001,-114.98210525670324,8z?hl=en",
    "searchString": "independent pharmacy Orem UT",
    "language": "en",
    "rank": 1,
    "isAdvertisement": false,
    "imageUrl": "https://lh3.googleusercontent.com/p/AF1QipOJ4g9Nk6HWHPf9yaeNV3P8lX0oQD0TMkztOxJ_=w408-h306-k-no",
    "kgmid": "/g/1tk4rflq",
    "classification": "independent",
    "is_independent": true,
    "is_compounding": false,
    "confidence": 0.9,
    "source": "perplexity",
    "method": "llm",
    "query_location": "orem_ut"
  }
]