[
  {
    "title": "Columbus Custom Rx Pharmacy",
    "price": null,
    "categoryName": "Pharmacy",
    "address": "3290 Williams Rd Suite B and C, Columbus, GA 31909",
    "neighborhood": null,
    "street": "3290 Williams Rd Suite B and C",
    "city": "Columbus",
    "postalCode": "31909",
    "state": "Georgia",
    "countryCode": "US",
    "website": "https://www.columbuscustomrx.com/",
    "phone": "(706) 405-3277",
    "phoneUnformatted": "+17064053277",
    "claimThisBusiness": false,
    "location": {
      "lat": 32.5641816,
      "lng": -84.944739
    },
    "totalScore": 5,
    "permanentlyClosed": false,
    "temporarilyClosed": false,
    "placeId": null,
    "categories": [
      "Pharmacy",
      "Homeopathic pharmacy",
      "Medical equipment supplier",
      "Pharmaceutical lab",
      "Veterinary pharmacy",
      "Vitamin & supplements store"
    ],
    "fid": "0x888ccb3d31b961eb:0x6168b7c2497ec614",
    "cid": "7019062064341501460",
    "reviewsCount": 10,
    "imagesCount": 14,
    "imageCategories": [],
    "scrapedAt": "2025-06-22T05:02:34.789Z",
    "googleFoodUrl": null,
    "hotelAds": [],
    "openingHours": [
      {
        "day": "Monday",
        "hours": "9\u202fAM to 5\u202fPM"
      },
      {
        "day": "Tuesday",
        "hours": "9\u202fAM to 5\u202fPM"
      },
      {
        "day": "Wednesday",
        "hours": "9\u202fAM to 5\u202fPM"
      },
      {
        "day": "Thursday",
        "hours": "9\u202fAM to 5\u202fPM"
      },
      {
        "day": "Friday",
        "hours": "9\u202fAM to 5\u202fPM"
      },
      {
        "day": "Saturday",
        "hours": "Closed"
      },
      {
        "day": "Sunday",
        "hours": "Closed"
      }
    ],
    "peopleAlsoSearch": [],
    "placesTags": [],
    "reviewsTags": [],
    "additionalInfo": {
      "From the business": [
        {
          "Small business": true
        }
      ],
      "Service options": [
        {
          "Curbside pickup": true
        },
        {
          "Delivery": true
        },
        {
          "In-store shopping": true
        },
        {
          "Same-day delivery": true
        }
      ],
      "Accessibility": [
        {
          "Wheelchair accessible entrance": true
        },
        {
          "Wheelchair accessible parking lot": true
        }
      ],
      "Payments": [
        {
          "Credit cards": true
        }
      ]
    },
    "gasPrices": [],
    "url": "https://www.google.com/maps/search/?api=1&query=Columbus%20Custom%20Rx%20Pharmacy&query_place_id=ChIJ62G5MT3LjIgRFMZ-ScK3aGE",
    "searchPageUrl": "https://www.google.com/maps/search/independent%20pharmacy%20Columbus%20GA/@62.75796630367604,-170.00639511653398,11z?hl=en",
    "searchString": "independent pharmacy Columbus GA",
    "language": "en",
    "rank": 5,
    "isAdvertisement": false,
    "imageUrl": "https://lh3.googleusercontent.com/p/AF1QipMNxWC7VT0r4ahemLZQX1jSZ6NXxJOdH1oWqGSl=w408-h544-k-no",
    "kgmid": "/g/11vd8hbl64",
    "classification": "independent",
    "is_independent": true,
    "is_compounding": true,
    "confidence": 0.95,
    "source": "perplexity",
    "method": "llm"
  },
  {
    "title": "North Columbus Pharmacy",
    "price": null,
    "categoryName": "Pharmacy",
    "address": "6490 Veterans Pkwy STE B, Columbus, GA 31909",
    "neighborhood": null,
    "street": "6490 Veterans Pkwy STE B",
    "city": "Columbus",
    "postalCode": "31909",
    "state": "Georgia",
    "countryCode": "US",
    "website": "https://www.mygnp.com/pharmacies/north-columbus-pharmacy-columbus-ga-31909/?utm_source=google&utm_medium=local&utm_campaign=localmaps&utm_content=1108201",
    "phone": "(706) 327-5125",
    "phoneUnformatted": "+17063275125",
    "claimThisBusiness": false,
    "location": {
      "lat": 32.5388931,
      "lng": -84.9542575
    },
    "totalScore": 4.9,
    "permanentlyClosed": false,
    "temporarilyClosed": false,
    "placeId": null,
    "categories": [
      "Pharmacy",
      "Drug store"
    ],
    "fid": "0x888ccb44c65153ad:0xfd3e700d8ef4b0ca",
    "cid": "18248145943687114954",
    "reviewsCount": 28,
    "imagesCount": 2,
    "imageCategories": [],
    "scrapedAt": "2025-06-22T05:02:34.647Z",
    "googleFoodUrl": null,
    "hotelAds": [],
    "openingHours": [
      {
        "day": "Monday",
        "hours": "9\u202fAM to 6\u202fPM"
      },
      {
        "day": "Tuesday",
        "hours": "9\u202fAM to 6\u202fPM"
      },
      {
        "day": "Wednesday",
        "hours": "9\u202fAM to 6\u202fPM"
      },
      {
        "day": "Thursday",
        "hours": "9\u202fAM to 6\u202fPM"
      },
      {
        "day": "Friday",
        "hours": "9\u202fAM to 6\u202fPM"
      },
      {
        "day": "Saturday",
        "hours": "9\u202fAM to 2\u202fPM"
      },
      {
        "day": "Sunday",
        "hours": "Closed"
      }
    ],
    "peopleAlsoSearch": [],
    "placesTags": [],
    "reviewsTags": [],
    "additionalInfo": {
      "Service options": [
        {
          "Delivery": true
        },
        {
          "Drive-through": true
        },
        {
          "In-store pickup": true
        },
        {
          "In-store shopping": true
        },
        {
          "Onsite services": true
        },
        {
          "Same-day delivery": true
        }
      ],
      "Accessibility": [
        {
          "Wheelchair accessible entrance": true
        },
        {
          "Wheelchair accessible parking lot": true
        }
      ],
      "Planning": [
        {
          "Quick visit": true
        }
      ],
      "Payments": [
        {
          "Checks": true
        },
        {
          "Credit cards": true
        },
        {
          "Debit cards": true
        },
        {
          "NFC mobile payments": true
        },
        {
          "Credit cards": true
        }
      ]
    },
    "gasPrices": [],
    "url": "https://www.google.com/maps/search/?api=1&query=North%20Columbus%20Pharmacy&query_place_id=ChIJrVNRxkTLjIgRyrD0jg1wPv0",
    "searchPageUrl": "https://www.google.com/maps/search/independent%20pharmacy%20Columbus%20GA/@13.578075962980616,145.06224184414302,12z?hl=en",
    "searchString": "independent pharmacy Columbus GA",
    "language": "en",
    "rank": 1,
    "isAdvertisement": false,
    "imageUrl": "https://lh3.googleusercontent.com/gps-cs-s/AC9h4np74wIj-DZ_M5IN-iVs_U0_p_BX1XjAcQg2WTZGLnGp73qARXtezzDy-2R7sewbzRxqrloZIkJRofICz0LRuszB9F7YJ2G90rwrVs0wq1eCaWmmBdsj73VdtoYLSXHCJXeGHRWf=w408-h306-k-no",
    "kgmid": "/g/1tdq1xgm",
    "classification": "independent",
    "is_independent": true,
    "is_compounding": false,
    "confidence": 0.9,
    "source": "perplexity",
    "method": "llm"
  },
  {
    "title": "Midtown Pharmacy",
    "price": null,
    "categoryName": "Pharmacy",
    "address": "2660 Buena Vista Rd Ste A, Columbus, GA 31906",
    "neighborhood": null,
    "street": "2660 Buena Vista Rd Ste A",
    "city": "Columbus",
    "postalCode": "31906",
    "state": "Georgia",
    "countryCode": "US",
    "website": "https://www.mygnp.com/pharmacies/midtown-pharmacy-columbus-ga-31906/?utm_source=google&utm_medium=local&utm_campaign=localmaps&utm_content=1138088",
    "phone": "(706) 596-8871",
    "phoneUnformatted": "+17065968871",
    "claimThisBusiness": false,
    "location": {
      "lat": 32.4597972,
      "lng": -84.9526169
    },
    "totalScore": 4,
    "permanentlyClosed": false,
    "temporarilyClosed": false,
    "placeId": null,
    "categories": [
      "Pharmacy",
      "Drug store"
    ],
    "fid": "0x888ccd38648a1627:0xee6885653676475f",
    "cid": "17179127448356669279",
    "reviewsCount": 22,
    "imagesCount": 8,
    "imageCategories": [],
    "scrapedAt": "2025-06-22T05:02:34.648Z",
    "googleFoodUrl": null,
    "hotelAds": [],
    "openingHours": [
      {
        "day": "Monday",
        "hours": "9\u202fAM to 6\u202fPM"
      },
      {
        "day": "Tuesday",
        "hours": "9\u202fAM to 6\u202fPM"
      },
      {
        "day": "Wednesday",
        "hours": "9\u202fAM to 6\u202fPM"
      },
      {
        "day": "Thursday",
        "hours": "9\u202fAM to 6\u202fPM"
      },
      {
        "day": "Friday",
        "hours": "9\u202fAM to 6\u202fPM"
      },
      {
        "day": "Saturday",
        "hours": "Closed"
      },
      {
        "day": "Sunday",
        "hours": "Closed"
      }
    ],
    "peopleAlsoSearch": [],
    "placesTags": [],
    "reviewsTags": [],
    "additionalInfo": {
      "Service options": [
        {
          "Delivery": true
        },
        {
          "Drive-through": true
        },
        {
          "In-store pickup": true
        },
        {
          "In-store shopping": true
        },
        {
          "Onsite services": true
        },
        {
          "Same-day delivery": true
        }
      ],
      "Accessibility": [
        {
          "Wheelchair accessible entrance": true
        },
        {
          "Wheelchair accessible parking lot": true
        }
      ],
      "Planning": [
        {
          "Quick visit": true
        }
      ],
      "Payments": [
        {
          "Credit cards": true
        },
        {
          "Debit cards": true
        },
        {
          "NFC mobile payments": true
        },
        {
          "Credit cards": true
        }
      ]
    },
    "gasPrices": [],
    "url": "https://www.google.com/maps/search/?api=1&query=Midtown%20Pharmacy&query_place_id=ChIJJxaKZDjNjIgRX0d2NmWFaO4",
    "searchPageUrl": "https://www.google.com/maps/search/independent%20pharmacy%20Columbus%20GA/@13.578075962980616,145.06224184414302,12z?hl=en",
    "searchString": "independent pharmacy Columbus GA",
    "language": "en",
    "rank": 2,
    "isAdvertisement": false,
    "imageUrl": "https://lh3.googleusercontent.com/gps-cs-s/AC9h4nofhFOmn1ID9-uKp14d1w_o40fpD2-XLh-o8QXHo1_AOFkVS_AvIDj2xXMp4edVJTKu8ftP7_r6pQJlhu7a3YupRx0JSJinaLhlGhVDzoUQP8iaaU_u5NfSujLMxV2sqcGqAWRM=w426-h240-k-no",
    "kgmid": "/g/1vppt90z",
    "classification": "independent",
    "is_independent": true,
    "is_compounding": false,
    "confidence": 0.9,
    "source": "perplexity",
    "method": "llm"
  },
  {
    "title": "Center Pharmacy",
    "price": null,
    "categoryName": "Pharmacy",
    "address": "1005 Talbotton Rd, Columbus, GA 31904",
    "neighborhood": null,
    "street": "1005 Talbotton Rd",
    "city": "Columbus",
    "postalCode": "31904",
    "state": "Georgia",
    "countryCode": "US",
    "website": "http://www.centerpharmacy.net/",
    "phone": "(706) 327-8967",
    "phoneUnformatted": "+17063278967",
    "claimThisBusiness": false,
    "location": {
      "lat": 32.4841786,
      "lng": -84.9810621
    },
    "totalScore": 4.5,
    "permanentlyClosed": false,
    "temporarilyClosed": false,
    "placeId": null,
    "categories": [
      "Pharmacy"
    ],
    "fid": "0x888cccffed16876f:0x270e2e1fa7eee444",
    "cid": "2814237530649453636",
    "reviewsCount": 33,
    "imagesCount": 14,
    "imageCategories": [],
    "scrapedAt": "2025-06-22T05:02:34.648Z",
    "googleFoodUrl": null,
    "hotelAds": [],
    "openingHours": [
      {
        "day": "Monday",
        "hours": "9\u202fAM to 5\u202fPM"
      },
      {
        "day": "Tuesday",
        "hours": "9\u202fAM to 5\u202fPM"
      },
      {
        "day": "Wednesday",
        "hours": "9\u202fAM to 5\u202fPM"
      },
      {
        "day": "Thursday",
        "hours": "9\u202fAM to 5\u202fPM"
      },
      {
        "day": "Friday",
        "hours": "9\u202fAM to 5\u202fPM"
      },
      {
        "day": "Saturday",
        "hours": "Closed"
      },
      {
        "day": "Sunday",
        "hours": "Closed"
      }
    ],
    "peopleAlsoSearch": [],
    "placesTags": [],
    "reviewsTags": [],
    "additionalInfo": {
      "Service options": [
        {
          "Delivery": true
        },
        {
          "In-store pickup": true
        },
        {
          "Same-day delivery": true
        }
      ],
      "Accessibility": [
        {
          "Wheelchair accessible entrance": true
        },
        {
          "Wheelchair accessible parking lot": true
        }
      ],
      "Planning": [
        {
          "Quick visit": true
        }
      ],
      "Payments": [
        {
          "Credit cards": true
        },
        {
          "Debit cards": true
        },
        {
          "NFC mobile payments": true
        },
        {
          "Credit cards": true
        }
      ]
    },
    "gasPrices": [],
    "url": "https://www.google.com/maps/search/?api=1&query=Center%20Pharmacy&query_place_id=ChIJb4cW7f_MjIgRROTupx8uDic",
    "searchPageUrl": "https://www.google.com/maps/search/independent%20pharmacy%20Columbus%20GA/@13.578075962980616,145.06224184414302,12z?hl=en",
    "searchString": "independent pharmacy Columbus GA",
    "language": "en",
    "rank": 3,
    "isAdvertisement": false,
    "imageUrl": "https://lh3.googleusercontent.com/gps-cs-s/AC9h4noLA8gzUof4g0_qUJlUCsIz_lOmOl7PIn-qKKcU3L8WwC3crpHlF0vmI3cbNxmivn2N_ueMeGOd8SjcPQGDyJBKK4zkbgDPdT6THIizDX9U8vdRyj0TKXCGnQPluxKDitSZVr1u-Q=w408-h306-k-no",
    "kgmid": "/g/1tffdzjl",
    "classification": "independent",
    "is_independent": true,
    "is_compounding": false,
    "confidence": 0.9,
    "source": "perplexity",
    "method": "llm"
  },
  {
    "title": "The Village Apothecary",
    "price": null,
    "categoryName": "Pharmacy",
    "address": "6801 River Rd building 2, suite 201, Columbus, GA 31904",
    "neighborhood": null,
    "street": "6801 River Rd building 2, suite 201",
    "city": "Columbus",
    "postalCode": "31904",
    "state": "Georgia",
    "countryCode": "US",
    "website": "http://www.villageapothecary.net/",
    "phone": "(706) 327-4242",
    "phoneUnformatted": "+17063274242",
    "claimThisBusiness": false,
    "location": {
      "lat": 32.5444952,
      "lng": -84.9963543
    },
    "totalScore": 4.8,
    "permanentlyClosed": false,
    "temporarilyClosed": false,
    "placeId": null,
    "categories": [
      "Pharmacy"
    ],
    "fid": "0x888ccb96b24f27bd:0x3e86dfef540320cf",
    "cid": "4505534696230428879",
    "reviewsCount": 46,
    "imagesCount": 20,
    "imageCategories": [],
    "scrapedAt": "2025-06-22T05:02:34.648Z",
    "googleFoodUrl": null,
    "hotelAds": [],
    "openingHours": [
      {
        "day": "Monday",
        "hours": "9\u202fAM to 6\u202fPM"
      },
      {
        "day": "Tuesday",
        "hours": "9\u202fAM to 6\u202fPM"
      },
      {
        "day": "Wednesday",
        "hours": "9\u202fAM to 6\u202fPM"
      },
      {
        "day": "Thursday",
        "hours": "9\u202fAM to 6\u202fPM"
      },
      {
        "day": "Friday",
        "hours": "9\u202fAM to 6\u202fPM"
      },
      {
        "day": "Saturday",
        "hours": "9\u202fAM to 12\u202fPM"
      },
      {
        "day": "Sunday",
        "hours": "Closed"
      }
    ],
    "peopleAlsoSearch": [],
    "placesTags": [],
    "reviewsTags": [],
    "additionalInfo": {
      "From the business": [
        {
          "Small business": true
        }
      ],
      "Service options": [
        {
          "Delivery": true
        },
        {
          "Drive-through": true
        },
        {
          "In-store pickup": true
        },
        {
          "Same-day delivery": true
        }
      ],
      "Accessibility": [
        {
          "Wheelchair accessible entrance": true
        },
        {
          "Wheelchair accessible parking lot": true
        }
      ],
      "Planning": [
        {
          "Quick visit": true
        }
      ],
      "Payments": [
        {
          "Credit cards": true
        },
        {
          "Debit cards": true
        },
        {
          "NFC mobile payments": true
        },
        {
          "Credit cards": true
        }
      ]
    },
    "gasPrices": [],
    "url": "https://www.google.com/maps/search/?api=1&query=The%20Village%20Apothecary&query_place_id=ChIJvSdPspbLjIgRzyADVO_fhj4",
    "searchPageUrl": "https://www.google.com/maps/search/independent%20pharmacy%20Columbus%20GA/@13.578075962980616,145.06224184414302,12z?hl=en",
    "searchString": "independent pharmacy Columbus GA",
    "language": "en",
    "rank": 4,
    "isAdvertisement": false,
    "imageUrl": "https://lh3.googleusercontent.com/p/AF1QipP2cfMdodrZNRvmxXqTH8wPwk6EufAq13irSpYw=w426-h240-k-no",
    "kgmid": "/g/1260525_8",
    "classification": "independent",
    "is_independent": true,
    "is_compounding": false,
    "confidence": 0.9,
    "source": "perplexity",
    "method": "llm"
  },
  {
    "title": "Piedmont Pharmacy \u2013 Midtown",
    "price": null,
    "categoryName": "Pharmacy",
    "address": "710 Center St, Columbus, GA 31901",
    "neighborhood": null,
    "street": "710 Center St",
    "city": "Columbus",
    "postalCode": "31901",
    "state": "Georgia",
    "countryCode": "US",
    "website": "https://www.piedmont.org/locations/piedmont-columbus/pharmacy",
    "phone": "(706) 571-1992",
    "phoneUnformatted": "+17065711992",
    "claimThisBusiness": false,
    "location": {
      "lat": 32.4799156,
      "lng": -84.9817523
    },
    "totalScore": 3.7,
    "permanentlyClosed": false,
    "temporarilyClosed": false,
    "placeId": null,
    "categories": [
      "Pharmacy"
    ],
    "fid": "0x888ccdaaea97440d:0xf7b4e12f25817fb1",
    "cid": "17849138815785074609",
    "reviewsCount": 15,
    "imagesCount": null,
    "imageCategories": [],
    "scrapedAt": "2025-06-22T05:02:34.649Z",
    "googleFoodUrl": null,
    "hotelAds": [],
    "openingHours": [
      {
        "day": "Monday",
        "hours": "7\u202fAM to 6\u202fPM"
      },
      {
        "day": "Tuesday",
        "hours": "7\u202fAM to 6\u202fPM"
      },
      {
        "day": "Wednesday",
        "hours": "7\u202fAM to 6\u202fPM"
      },
      {
        "day": "Thursday",
        "hours": "7\u202fAM to 6\u202fPM"
      },
      {
        "day": "Friday",
        "hours": "7\u202fAM to 6\u202fPM"
      },
      {
        "day": "Saturday",
        "hours": "1 to 5\u202fPM"
      },
      {
        "day": "Sunday",
        "hours": "1 to 5\u202fPM"
      }
    ],
    "peopleAlsoSearch": [],
    "placesTags": [],
    "reviewsTags": [],
    "additionalInfo": {
      "Accessibility": [
        {
          "Wheelchair accessible entrance": true
        },
        {
          "Wheelchair accessible parking lot": true
        }
      ],
      "Payments": [
        {
          "Credit cards": true
        }
      ]
    },
    "gasPrices": [],
    "url": "https://www.google.com/maps/search/?api=1&query=Piedmont%20Pharmacy%20%E2%80%93%20Midtown&query_place_id=ChIJDUSX6qrNjIgRsX-BJS_htPc",
    "searchPageUrl": "https://www.google.com/maps/search/independent%20pharmacy%20Columbus%20GA/@13.578075962980616,145.06224184414302,12z?hl=en",
    "searchString": "independent pharmacy Columbus GA",
    "language": "en",
    "rank": 5,
    "isAdvertisement": false,
    "kgmid": "/g/1tfz0wss",
    "classification": "hospital",
    "is_independent": false,
    "is_compounding": false,
    "confidence": 0.97,
    "source": "perplexity",
    "method": "llm"
  },
  {
    "title": "Dinglewood Pharmacy",
    "price": null,
    "categoryName": "Pharmacy",
    "address": "1939 Wynnton Rd, Columbus, GA 31906",
    "neighborhood": null,
    "street": "1939 Wynnton Rd",
    "city": "Columbus",
    "postalCode": "31906",
    "state": "Georgia",
    "countryCode": "US",
    "website": "http://dinglewoodpharmacy.com/",
    "phone": "(706) 322-0616",
    "phoneUnformatted": "+17063220616",
    "claimThisBusiness": false,
    "location": {
      "lat": 32.4689543,
      "lng": -84.9640696
    },
    "totalScore": 4.3,
    "permanentlyClosed": false,
    "temporarilyClosed": false,
    "placeId": null,
    "categories": [
      "Pharmacy",
      "American restaurant",
      "Hot dog restaurant"
    ],
    "fid": "0x888ccd170e165065:0xb42f4a3649ebc15f",
    "cid": "12983677847761305951",
    "reviewsCount": 120,
    "imagesCount": 87,
    "imageCategories": [],
    "scrapedAt": "2025-06-22T05:02:34.649Z",
    "googleFoodUrl": null,
    "hotelAds": [],
    "openingHours": [
      {
        "day": "Monday",
        "hours": "9\u202fAM to 5\u202fPM"
      },
      {
        "day": "Tuesday",
        "hours": "9\u202fAM to 5\u202fPM"
      },
      {
        "day": "Wednesday",
        "hours": "9\u202fAM to 5\u202fPM"
      },
      {
        "day": "Thursday",
        "hours": "9\u202fAM to 5\u202fPM"
      },
      {
        "day": "Friday",
        "hours": "9\u202fAM to 5\u202fPM"
      },
      {
        "day": "Saturday",
        "hours": "10\u202fAM to 3\u202fPM"
      },
      {
        "day": "Sunday",
        "hours": "Closed"
      }
    ],
    "peopleAlsoSearch": [],
    "placesTags": [],
    "reviewsTags": [],
    "additionalInfo": {
      "From the business": [
        {
          "Small business": true
        }
      ],
      "Service options": [
        {
          "Delivery": true
        },
        {
          "Drive-through": true
        },
        {
          "In-store pickup": true
        },
        {
          "Onsite services": true
        }
      ],
      "Accessibility": [
        {
          "Wheelchair accessible entrance": true
        },
        {
          "Wheelchair accessible parking lot": true
        }
      ],
      "Amenities": [
        {
          "Wi-Fi": true
        },
        {
          "Free Wi-Fi": true
        }
      ],
      "Planning": [
        {
          "Quick visit": true
        }
      ],
      "Payments": [
        {
          "Credit cards": true
        },
        {
          "Debit cards": true
        },
        {
          "NFC mobile payments": true
        },
        {
          "Credit cards": true
        }
      ],
      "Parking": [
        {
          "Free parking lot": true
        },
        {
          "Free street parking": true
        }
      ]
    },
    "gasPrices": [],
    "url": "https://www.google.com/maps/search/?api=1&query=Dinglewood%20Pharmacy&query_place_id=ChIJZVAWDhfNjIgRX8HrSTZKL7Q",
    "searchPageUrl": "https://www.google.com/maps/search/independent%20pharmacy%20Columbus%20GA/@13.578075962980616,145.06224184414302,12z?hl=en",
    "searchString": "independent pharmacy Columbus GA",
    "language": "en",
    "rank": 6,
    "isAdvertisement": false,
    "imageUrl": "https://lh3.googleusercontent.com/gps-cs-s/AC9h4nrhdzF54WYb_CRVqcQHgNJmjD7PIC-JleiVbmReei7rSLbyFNYP9bHgyPiObcYoS-c-zrynO1O6nHY4sAu6_MjThjs9xxWtjt5vyjt6qst0zwh-lmounC8j-qOR4QcOCfC1LKo6iw=w408-h306-k-no",
    "kgmid": "/g/1tf9tlvj",
    "classification": "independent",
    "is_independent": true,
    "is_compounding": false,
    "confidence": 0.9,
    "source": "perplexity",
    "method": "llm"
  },
  {
    "title": "Durham's Pharmacy",
    "price": null,
    "categoryName": "Pharmacy",
    "address": "1420 17th St, Columbus, GA 31901",
    "neighborhood": null,
    "street": "1420 17th St",
    "city": "Columbus",
    "postalCode": "31901",
    "state": "Georgia",
    "countryCode": "US",
    "phone": "(706) 322-6721",
    "phoneUnformatted": "+17063226721",
    "claimThisBusiness": true,
    "location": {
      "lat": 32.4781443,
      "lng": -84.9705649
    },
    "totalScore": 4.5,
    "permanentlyClosed": false,
    "temporarilyClosed": false,
    "placeId": null,
    "categories": [
      "Pharmacy"
    ],
    "fid": "0x888ccd1cc5e1b3c1:0x9cf6885b07dfbf74",
    "cid": "11310377438743084916",
    "reviewsCount": 32,
    "imagesCount": 3,
    "imageCategories": [],
    "scrapedAt": "2025-06-22T05:02:34.649Z",
    "googleFoodUrl": null,
    "hotelAds": [],
    "openingHours": [
      {
        "day": "Monday",
        "hours": "9\u202fAM to 5\u202fPM"
      },
      {
        "day": "Tuesday",
        "hours": "9\u202fAM to 5\u202fPM"
      },
      {
        "day": "Wednesday",
        "hours": "9\u202fAM to 5\u202fPM"
      },
      {
        "day": "Thursday",
        "hours": "9\u202fAM to 5\u202fPM"
      },
      {
        "day": "Friday",
        "hours": "9\u202fAM to 5\u202fPM"
      },
      {
        "day": "Saturday",
        "hours": "Closed"
      },
      {
        "day": "Sunday",
        "hours": "Closed"
      }
    ],
    "peopleAlsoSearch": [],
    "placesTags": [],
    "reviewsTags": [],
    "additionalInfo": {
      "From the business": [
        {
          "Small business": true
        }
      ],
      "Service options": [
        {
          "Delivery": true
        },
        {
          "Same-day delivery": true
        }
      ],
      "Accessibility": [
        {
          "Wheelchair accessible entrance": true
        },
        {
          "Wheelchair accessible parking lot": true
        }
      ],
      "Planning": [
        {
          "Quick visit": true
        }
      ],
      "Payments": [
        {
          "Credit cards": true
        },
        {
          "Debit cards": true
        },
        {
          "NFC mobile payments": true
        },
        {
          "Credit cards": true
        }
      ]
    },
    "gasPrices": [],
    "url": "https://www.google.com/maps/search/?api=1&query=Durham's%20Pharmacy&query_place_id=ChIJwbPhxRzNjIgRdL_fB1uI9pw",
    "searchPageUrl": "https://www.google.com/maps/search/independent%20pharmacy%20Columbus%20GA/@13.578075962980616,145.06224184414302,12z?hl=en",
    "searchString": "independent pharmacy Columbus GA",
    "language": "en",
    "rank": 7,
    "isAdvertisement": false,
    "imageUrl": "https://lh3.googleusercontent.com/gps-cs-s/AC9h4nqtNGG3IW2p28B93NpHyMqHJ0N1ikQ1QlxGWqKVicX6AKJxbHTtiSv0ctiUoo353YQalJTgHOIsz7Cd85RCqSn4CP2hs5f4_7--I16800qXAhYVdMHuuXf3puXX_BzP_jS2e1k=w408-h544-k-no",
    "kgmid": "/g/1vpq7nsq",
    "classification": "independent",
    "is_independent": true,
    "is_compounding": false,
    "confidence": 0.85,
    "source": "perplexity",
    "method": "llm"
  },
  {
    "title": "Open Gate Pharmacy 1",
    "price": null,
    "categoryName": "Pharmacy",
    "address": "2051 10th Ave, Columbus, GA 31901, United States",
    "neighborhood": null,
    "street": "2051 10th Ave",
    "city": "Columbus",
    "postalCode": "31901",
    "state": "Georgia",
    "countryCode": "US",
    "phone": "+1 706-323-0306",
    "phoneUnformatted": "+17063230306",
    "claimThisBusiness": true,
    "location": {
      "lat": 32.4829435,
      "lng": -84.9805936
    },
    "totalScore": 4.8,
    "permanentlyClosed": false,
    "temporarilyClosed": false,
    "placeId": null,
    "categories": [
      "Pharmacy",
      "Drug store"
    ],
    "fid": "0x888cccffe0e413f9:0xf8b167e6db7cea7e",
    "cid": "17920218633506450046",
    "reviewsCount": 29,
    "imagesCount": 1,
    "imageCategories": [],
    "scrapedAt": "2025-06-22T05:02:41.485Z",
    "googleFoodUrl": null,
    "hotelAds": [],
    "openingHours": [
      {
        "day": "Monday",
        "hours": "9\u202fAM to 5\u202fPM"
      },
      {
        "day": "Tuesday",
        "hours": "9\u202fAM to 5\u202fPM"
      },
      {
        "day": "Wednesday",
        "hours": "9\u202fAM to 5\u202fPM"
      },
      {
        "day": "Thursday",
        "hours": "9\u202fAM to 5\u202fPM"
      },
      {
        "day": "Friday",
        "hours": "9\u202fAM to 5\u202fPM"
      },
      {
        "day": "Saturday",
        "hours": "Closed"
      },
      {
        "day": "Sunday",
        "hours": "Closed"
      }
    ],
    "peopleAlsoSearch": [],
    "placesTags": [],
    "reviewsTags": [],
    "additionalInfo": {
      "Service options": [
        {
          "Drive-through": true
        },
        {
          "In-store pick-up": true
        }
      ],
      "Accessibility": [
        {
          "Wheelchair-accessible car park": true
        },
        {
          "Wheelchair-accessible entrance": true
        }
      ],
      "Planning": [
        {
          "Quick visit": true
        }
      ],
      "Payments": [
        {
          "Cheques": true
        },
        {
          "Credit cards": true
        },
        {
          "Debit cards": true
        }
      ]
    },
    "gasPrices": [],
    "url": "https://www.google.com/maps/search/?api=1&query=Open%20Gate%20Pharmacy%201&query_place_id=ChIJ-RPk4P_MjIgRfup82-Znsfg",
    "searchPageUrl": "https://www.google.com/maps/search/independent%20pharmacy%20Columbus%20GA/@16.61663324755911,-169.648543091571,12z?hl=en",
    "searchString": "independent pharmacy Columbus GA",
    "language": "en",
    "rank": 8,
    "isAdvertisement": false,
    "imageUrl": "https://streetviewpixels-pa.googleapis.com/v1/thumbnail?panoid=IMFH1yPncAHCPrzRFnqNiA&cb_client=search.gws-prod.gps&w=408&h=240&yaw=255.41083&pitch=0&thumbfov=100",
    "kgmid": "/g/11clvx9f58",
    "classification": "independent",
    "is_independent": true,
    "is_compounding": false,
    "confidence": 0.85,
    "source": "perplexity",
    "method": "llm"
  },
  {
    "title": "Piedmont Pharmacy\u2013 North",
    "price": null,
    "categoryName": "Pharmacy",
    "address": "5601 Veterans Pkwy, Columbus, GA 31904, United States",
    "neighborhood": null,
    "street": "5601 Veterans Pkwy",
    "city": "Columbus",
    "postalCode": "31904",
    "state": "Georgia",
    "countryCode": "US",
    "website": "https://www.piedmont.org/locations/piedmont-columbus/pharmacy",
    "claimThisBusiness": true,
    "location": {
      "lat": 32.5249852,
      "lng": -84.963405
    },
    "totalScore": 4.8,
    "permanentlyClosed": false,
    "temporarilyClosed": false,
    "placeId": null,
    "categories": [
      "Pharmacy"
    ],
    "fid": "0x888ccdb234373781:0x1db377c38a3d6858",
    "cid": "2140185929652725848",
    "reviewsCount": 4,
    "imagesCount": 4,
    "imageCategories": [],
    "scrapedAt": "2025-06-22T05:02:41.485Z",
    "googleFoodUrl": null,
    "hotelAds": [],
    "openingHours": [
      {
        "day": "Monday",
        "hours": "8:30\u202fAM to 12:30\u202fPM, 1 to 5\u202fPM"
      },
      {
        "day": "Tuesday",
        "hours": "8:30\u202fAM to 12:30\u202fPM, 1 to 5\u202fPM"
      },
      {
        "day": "Wednesday",
        "hours": "8:30\u202fAM to 12:30\u202fPM, 1 to 5\u202fPM"
      },
      {
        "day": "Thursday",
        "hours": "8:30\u202fAM to 12:30\u202fPM, 1 to 5\u202fPM"
      },
      {
        "day": "Friday",
        "hours": "8:30\u202fAM to 12:30\u202fPM, 1 to 5\u202fPM"
      },
      {
        "day": "Saturday",
        "hours": "Closed"
      },
      {
        "day": "Sunday",
        "hours": "Closed"
      }
    ],
    "peopleAlsoSearch": [],
    "placesTags": [],
    "reviewsTags": [],
    "additionalInfo": {
      "Accessibility": [
        {
          "Wheelchair-accessible car park": true
        },
        {
          "Wheelchair-accessible entrance": true
        }
      ],
      "Payments": [
        {
          "Credit cards": true
        }
      ]
    },
    "gasPrices": [],
    "url": "https://www.google.com/maps/search/?api=1&query=Piedmont%20Pharmacy%E2%80%93%20North&query_place_id=ChIJgTc3NLLNjIgRWGg9isN3sx0",
    "searchPageUrl": "https://www.google.com/maps/search/independent%20pharmacy%20Columbus%20GA/@16.61663324755911,-169.648543091571,12z?hl=en",
    "searchString": "independent pharmacy Columbus GA",
    "language": "en",
    "rank": 9,
    "isAdvertisement": false,
    "imageUrl": "https://lh3.googleusercontent.com/gps-cs-s/AC9h4npdg9AlyFyD7JAx8UMj-_iYDAJCmXtH0M995UuMD7X6e3gBwPAr_v7V7CNMU_Y9PgqvoG62_ozYcDmPVYyu-90aemWfw6BOKFSeC157lDtGM3HOgJ4k_D0tBgZhsocfPnrgxzJx=w408-h725-k-no",
    "kgmid": "/g/11nx1k5jhn",
    "classification": "hospital",
    "is_independent": false,
    "is_compounding": false,
    "confidence": 0.98,
    "source": "perplexity",
    "method": "llm"
  },
  {
    "title": "Teasley Kathi M",
    "price": null,
    "categoryName": "Pharmacy",
    "address": "2100 Comer Ave, Columbus, GA 31904, United States",
    "neighborhood": null,
    "street": "2100 Comer Ave",
    "city": "Columbus",
    "postalCode": "31904",
    "state": "Georgia",
    "countryCode": "US",
    "phone": "+1 706-321-3700",
    "phoneUnformatted": "+17063213700",
    "claimThisBusiness": true,
    "location": {
      "lat": 32.483612,
      "lng": -84.978822
    },
    "permanentlyClosed": false,
    "temporarilyClosed": false,
    "placeId": null,
    "categories": [
      "Pharmacy"
    ],
    "fid": "0x888cccffb75fb12b:0xf0be9cf8076d7259",
    "cid": "17347475403768164953",
    "reviewsCount": 0,
    "imagesCount": 1,
    "imageCategories": [],
    "scrapedAt": "2025-06-22T05:02:52.245Z",
    "googleFoodUrl": null,
    "hotelAds": [],
    "openingHours": [],
    "peopleAlsoSearch": [],
    "placesTags": [],
    "reviewsTags": [],
    "additionalInfo": {
      "Accessibility": [
        {
          "Wheelchair-accessible car park": true
        },
        {
          "Wheelchair-accessible entrance": true
        }
      ]
    },
    "gasPrices": [],
    "url": "https://www.google.com/maps/search/?api=1&query=Teasley%20Kathi%20M&query_place_id=ChIJK7Fft__MjIgRWXJtB_icvvA",
    "searchPageUrl": "https://www.google.com/maps/search/independent%20pharmacy%20Columbus%20GA/@55.892000616786795,-157.2032917090552,13z?hl=en",
    "searchString": "independent pharmacy Columbus GA",
    "language": "en",
    "rank": 6,
    "isAdvertisement": false,
    "imageUrl": "https://streetviewpixels-pa.googleapis.com/v1/thumbnail?panoid=IpWYQHpGmHopCJC_do5UoA&cb_client=search.gws-prod.gps&w=408&h=240&yaw=105.33948&pitch=0&thumbfov=100",
    "kgmid": "/g/1v2ky5_c",
    "classification": "independent",
    "is_independent": true,
    "is_compounding": false,
    "confidence": 0.85,
    "source": "perplexity",
    "method": "llm"
  },
  {
    "title": "Emily M. Brinkman, PharmD",
    "price": null,
    "categoryName": "Pharmacy",
    "address": "1800 10th Ave, Columbus, GA 31901, United States",
    "neighborhood": null,
    "street": "1800 10th Ave",
    "city": "Columbus",
    "postalCode": "31901",
    "state": "Georgia",
    "countryCode": "US",
    "phone": "+1 706-571-1995",
    "phoneUnformatted": "+17065711995",
    "claimThisBusiness": true,
    "location": {
      "lat": 32.4802393,
      "lng": -84.9784221
    },
    "permanentlyClosed": false,
    "temporarilyClosed": false,
    "placeId": null,
    "categories": [
      "Pharmacy"
    ],
    "fid": "0x888ccd01a64a3551:0xb9784f3fe4076e09",
    "cid": "13364519030049173001",
    "reviewsCount": 0,
    "imagesCount": null,
    "imageCategories": [],
    "scrapedAt": "2025-06-22T05:02:52.245Z",
    "googleFoodUrl": null,
    "hotelAds": [],
    "openingHours": [],
    "peopleAlsoSearch": [],
    "placesTags": [],
    "reviewsTags": [],
    "gasPrices": [],
    "url": "https://www.google.com/maps/search/?api=1&query=Emily%20M.%20Brinkman%2C%20PharmD&query_place_id=ChIJUTVKpgHNjIgRCW4H5D9PeLk",
    "searchPageUrl": "https://www.google.com/maps/search/independent%20pharmacy%20Columbus%20GA/@55.892000616786795,-157.2032917090552,13z?hl=en",
    "searchString": "independent pharmacy Columbus GA",
    "language": "en",
    "rank": 7,
    "isAdvertisement": false,
    "kgmid": "/g/1w15_6d7",
    "classification": "independent",
    "is_independent": true,
    "is_compounding": false,
    "confidence": 0.85,
    "source": "perplexity",
    "method": "llm"
  },
  {
    "title": "Family Health Pharmacy",
    "price": null,
    "categoryName": "Pharmacy",
    "address": "1800 10th Ave, Columbus, GA 31901, United States",
    "neighborhood": null,
    "street": "1800 10th Ave",
    "city": "Columbus",
    "postalCode": "31901",
    "state": "Georgia",
    "countryCode": "US",
    "phone": "+1 706-571-1995",
    "phoneUnformatted": "+17065711995",
    "claimThisBusiness": true,
    "location": {
      "lat": 32.4802323,
      "lng": -84.9784862
    },
    "totalScore": 4.8,
    "permanentlyClosed": false,
    "temporarilyClosed": false,
    "placeId": null,
    "categories": [
      "Pharmacy"
    ],
    "fid": "0x888ccd01a64a3551:0x384d308e34cf010c",
    "cid": "4056952226660155660",
    "reviewsCount": 5,
    "imagesCount": null,
    "imageCategories": [],
    "scrapedAt": "2025-06-22T05:02:52.246Z",
    "googleFoodUrl": null,
    "hotelAds": [],
    "openingHours": [
      {
        "day": "Monday",
        "hours": "9\u202fAM to 5:30\u202fPM"
      },
      {
        "day": "Tuesday",
        "hours": "9\u202fAM to 5:30\u202fPM"
      },
      {
        "day": "Wednesday",
        "hours": "9\u202fAM to 5:30\u202fPM"
      },
      {
        "day": "Thursday",
        "hours": "9\u202fAM to 5:30\u202fPM"
      },
      {
        "day": "Friday",
        "hours": "9\u202fAM to 5:30\u202fPM"
      },
      {
        "day": "Saturday",
        "hours": "Closed"
      },
      {
        "day": "Sunday",
        "hours": "Closed"
      }
    ],
    "peopleAlsoSearch": [],
    "placesTags": [],
    "reviewsTags": [],
    "additionalInfo": {
      "Accessibility": [
        {
          "Wheelchair-accessible car park": true
        },
        {
          "Wheelchair-accessible entrance": true
        }
      ],
      "Payments": [
        {
          "Credit cards": true
        },
        {
          "Debit cards": true
        },
        {
          "NFC mobile payments": true
        },
        {
          "Credit cards": true
        }
      ]
    },
    "gasPrices": [],
    "url": "https://www.google.com/maps/search/?api=1&query=Family%20Health%20Pharmacy&query_place_id=ChIJUTVKpgHNjIgRDAHPNI4wTTg",
    "searchPageUrl": "https://www.google.com/maps/search/independent%20pharmacy%20Columbus%20GA/@55.892000616786795,-157.2032917090552,13z?hl=en",
    "searchString": "independent pharmacy Columbus GA",
    "language": "en",
    "rank": 10,
    "isAdvertisement": false,
    "kgmid": "/g/1vlk2b50",
    "classification": "independent",
    "is_independent": true,
    "is_compounding": false,
    "confidence": 0.8,
    "source": "perplexity",
    "method": "llm"
  },
  {
    "title": "CVS Pharmacy",
    "price": null,
    "categoryName": "Pharmacy",
    "address": "3617 Hilton Ave, Columbus, GA 31904",
    "neighborhood": null,
    "street": "3617 Hilton Ave",
    "city": "Columbus",
    "postalCode": "31904",
    "state": "Georgia",
    "countryCode": "US",
    "website": "https://www.cvs.com/store-locator/columbus-ga-pharmacies/3617-hilton-ave-columbus-ga-31904/storeid=4677?WT.mc_id=LS_GOOGLE_RX_4677",
    "phone": "(706) 324-0169",
    "phoneUnformatted": "+17063240169",
    "claimThisBusiness": false,
    "location": {
      "lat": 32.4983498,
      "lng": -84.9601951
    },
    "totalScore": 4.1,
    "permanentlyClosed": false,
    "temporarilyClosed": false,
    "placeId": "ChIJKaQSG8LMjIgRzgz_HACN7pQ",
    "categories": [
      "Pharmacy"
    ],
    "fid": "0x888cccc21b12a429:0x94ee8d001cff0cce",
    "cid": "10731669993696464078",
    "reviewsCount": 40,
    "imagesCount": 8,
    "imageCategories": [],
    "scrapedAt": "2025-06-22T05:03:06.895Z",
    "googleFoodUrl": null,
    "hotelAds": [],
    "openingHours": [
      {
        "day": "Monday",
        "hours": "8\u202fAM to 1:30\u202fPM, 2 to 11\u202fPM"
      },
      {
        "day": "Tuesday",
        "hours": "8\u202fAM to 1:30\u202fPM, 2 to 11\u202fPM"
      },
      {
        "day": "Wednesday",
        "hours": "8\u202fAM to 1:30\u202fPM, 2 to 11\u202fPM"
      },
      {
        "day": "Thursday",
        "hours": "8\u202fAM to 1:30\u202fPM, 2 to 11\u202fPM"
      },
      {
        "day": "Friday",
        "hours": "8\u202fAM to 1:30\u202fPM, 2 to 11\u202fPM"
      },
      {
        "day": "Saturday",
        "hours": "9\u202fAM to 1:30\u202fPM, 2 to 11\u202fPM"
      },
      {
        "day": "Sunday",
        "hours": "10\u202fAM to 1:30\u202fPM, 2 to 10\u202fPM"
      }
    ],
    "peopleAlsoSearch": [],
    "placesTags": [],
    "reviewsTags": [],
    "additionalInfo": {
      "Service options": [
        {
          "Delivery": true
        },
        {
          "Drive-through": true
        },
        {
          "In-store pickup": true
        },
        {
          "In-store shopping": true
        },
        {
          "Onsite services": true
        }
      ],
      "Accessibility": [
        {
          "Wheelchair accessible entrance": true
        },
        {
          "Wheelchair accessible parking lot": true
        }
      ],
      "Offerings": [
        {
          "Medication disposal": true
        },
        {
          "Naloxone": true
        },
        {
          "Passport photos": true
        }
      ],
      "Crowd": [
        {
          "LGBTQ+ friendly": true
        },
        {
          "Transgender safespace": true
        }
      ],
      "Planning": [
        {
          "Quick visit": true
        }
      ],
      "Payments": [
        {
          "Credit cards": true
        },
        {
          "Debit cards": true
        },
        {
          "SNAP/EBT": true
        },
        {
          "Credit cards": true
        }
      ]
    },
    "gasPrices": [],
    "url": "https://www.google.com/maps/search/?api=1&query=CVS%20Pharmacy&query_place_id=ChIJKaQSG8LMjIgRzgz_HACN7pQ",
    "searchPageUrl": "https://www.google.com/maps/search/independent%20pharmacy%20Columbus%20GA/@22.069109753675892,-159.91858714999995,12z?hl=en",
    "searchString": "independent pharmacy Columbus GA",
    "language": "en",
    "rank": 10,
    "isAdvertisement": false,
    "imageUrl": "https://lh3.googleusercontent.com/p/AF1QipPcoi_1Pvfmfx2ktfAN1ng8UZDUBd9NDAZLXkfe=w408-h272-k-no",
    "kgmid": "/g/11c466t_br",
    "classification": "chain",
    "is_independent": false,
    "confidence": 1.0,
    "source": "rule-based"
  },
  {
    "title": "Janus RX",
    "price": null,
    "categoryName": "Pharmacy",
    "address": "421 12th St, Columbus, GA 31901",
    "neighborhood": null,
    "street": "421 12th St",
    "city": "Columbus",
    "postalCode": "31901",
    "state": "Georgia",
    "countryCode": "US",
    "website": "https://www.januspharmacy.com/columbus-ga-contact",
    "phone": "(706) 576-5862",
    "phoneUnformatted": "+17065765862",
    "claimThisBusiness": true,
    "location": {
      "lat": 32.4688758,
      "lng": -84.98651
    },
    "totalScore": 4.2,
    "permanentlyClosed": false,
    "temporarilyClosed": false,
    "placeId": null,
    "categories": [
      "Pharmacy"
    ],
    "fid": "0x888ccda67d8fffff:0x4bd64334357eceb2",
    "cid": "5464629089375538866",
    "reviewsCount": 5,
    "imagesCount": 1,
    "imageCategories": [],
    "scrapedAt": "2025-06-22T05:03:06.895Z",
    "googleFoodUrl": null,
    "hotelAds": [],
    "openingHours": [
      {
        "day": "Monday",
        "hours": "8\u202fAM to 5\u202fPM"
      },
      {
        "day": "Tuesday",
        "hours": "8\u202fAM to 5\u202fPM"
      },
      {
        "day": "Wednesday",
        "hours": "8\u202fAM to 5\u202fPM"
      },
      {
        "day": "Thursday",
        "hours": "8\u202fAM to 5\u202fPM"
      },
      {
        "day": "Friday",
        "hours": "8\u202fAM to 5\u202fPM"
      },
      {
        "day": "Saturday",
        "hours": "Closed"
      },
      {
        "day": "Sunday",
        "hours": "Closed"
      }
    ],
    "peopleAlsoSearch": [],
    "placesTags": [],
    "reviewsTags": [],
    "additionalInfo": {
      "From the business": [
        {
          "Small business": true
        }
      ],
      "Service options": [
        {
          "Curbside pickup": true
        },
        {
          "Delivery": true
        }
      ],
      "Accessibility": [
        {
          "Wheelchair accessible entrance": true
        },
        {
          "Wheelchair accessible parking lot": true
        }
      ],
      "Payments": [
        {
          "Debit cards": true
        },
        {
          "Credit cards": true
        }
      ]
    },
    "gasPrices": [],
    "url": "https://www.google.com/maps/search/?api=1&query=Janus%20RX&query_place_id=ChIJ__-PfabNjIgRss5-NTRD1ks",
    "searchPageUrl": "https://www.google.com/maps/search/independent%20pharmacy%20Columbus%20GA/@22.069109753675892,-159.91858714999995,12z?hl=en",
    "searchString": "independent pharmacy Columbus GA",
    "language": "en",
    "rank": 11,
    "isAdvertisement": false,
    "imageUrl": "https://streetviewpixels-pa.googleapis.com/v1/thumbnail?panoid=l36Od87ifjjAZbqPpR453g&cb_client=search.gws-prod.gps&w=408&h=240&yaw=34.493168&pitch=0&thumbfov=100",
    "kgmid": "/g/11sghqcmd1",
    "classification": "independent",
    "is_independent": true,
    "is_compounding": false,
    "confidence": 0.9,
    "source": "perplexity",
    "method": "llm"
  },
  {
    "title": "Open Gate Pharmacy",
    "price": null,
    "categoryName": "Pharmacy",
    "address": "1714 Manchester Expy, Columbus, GA 31904",
    "neighborhood": null,
    "street": "1714 Manchester Expy",
    "city": "Columbus",
    "postalCode": "31904",
    "state": "Georgia",
    "countryCode": "US",
    "phone": "(706) 225-0022",
    "phoneUnformatted": "+17062250022",
    "claimThisBusiness": true,
    "location": {
      "lat": 32.5067098,
      "lng": -84.965771
    },
    "totalScore": 3.6,
    "permanentlyClosed": false,
    "temporarilyClosed": false,
    "placeId": null,
    "categories": [
      "Pharmacy",
      "Drug store"
    ],
    "fid": "0x888ccc95afd934f5:0x6b549f2787b4e6f4",
    "cid": "7733981452231304948",
    "reviewsCount": 11,
    "imagesCount": 1,
    "imageCategories": [],
    "scrapedAt": "2025-06-22T05:03:06.896Z",
    "googleFoodUrl": null,
    "hotelAds": [],
    "openingHours": [
      {
        "day": "Monday",
        "hours": "9\u202fAM to 6\u202fPM"
      },
      {
        "day": "Tuesday",
        "hours": "9\u202fAM to 6\u202fPM"
      },
      {
        "day": "Wednesday",
        "hours": "9\u202fAM to 6\u202fPM"
      },
      {
        "day": "Thursday",
        "hours": "9\u202fAM to 6\u202fPM"
      },
      {
        "day": "Friday",
        "hours": "9\u202fAM to 6\u202fPM"
      },
      {
        "day": "Saturday",
        "hours": "Closed"
      },
      {
        "day": "Sunday",
        "hours": "Closed"
      }
    ],
    "peopleAlsoSearch": [],
    "placesTags": [],
    "reviewsTags": [],
    "additionalInfo": {
      "Service options": [
        {
          "Delivery": true
        }
      ],
      "Accessibility": [
        {
          "Wheelchair accessible entrance": true
        },
        {
          "Wheelchair accessible parking lot": true
        }
      ],
      "Planning": [
        {
          "Quick visit": true
        }
      ],
      "Payments": [
        {
          "Checks": true
        },
        {
          "Credit cards": true
        },
        {
          "Debit cards": true
        },
        {
          "NFC mobile payments": true
        },
        {
          "Credit cards": true
        }
      ]
    },
    "gasPrices": [],
    "url": "https://www.google.com/maps/search/?api=1&query=Open%20Gate%20Pharmacy&query_place_id=ChIJ9TTZr5XMjIgR9Oa0hyefVGs",
    "searchPageUrl": "https://www.google.com/maps/search/independent%20pharmacy%20Columbus%20GA/@22.069109753675892,-159.91858714999995,12z?hl=en",
    "searchString": "independent pharmacy Columbus GA",
    "language": "en",
    "rank": 13,
    "isAdvertisement": false,
    "imageUrl": "https://streetviewpixels-pa.googleapis.com/v1/thumbnail?panoid=QDjhlyZB5Bobe1elp9cFDQ&cb_client=search.gws-prod.gps&w=408&h=240&yaw=189.50684&pitch=0&thumbfov=100",
    "kgmid": "/g/11cn2_gs6j",
    "classification": "independent",
    "is_independent": true,
    "is_compounding": false,
    "confidence": 0.85,
    "source": "perplexity",
    "method": "llm"
  },
  {
    "title": "Genoa Healthcare",
    "price": null,
    "categoryName": "Pharmacy",
    "address": "2100 Comer Ave Room 1164, Columbus, GA 31904",
    "neighborhood": null,
    "street": "2100 Comer Ave Room 1164",
    "city": "Columbus",
    "postalCode": "31904",
    "state": "Georgia",
    "countryCode": "US",
    "website": "http://genoahealthcare.com/",
    "phone": "(706) 405-4997",
    "phoneUnformatted": "+17064054997",
    "claimThisBusiness": false,
    "location": {
      "lat": 32.483612,
      "lng": -84.978822
    },
    "totalScore": 4.3,
    "permanentlyClosed": false,
    "temporarilyClosed": false,
    "placeId": null,
    "categories": [
      "Pharmacy"
    ],
    "fid": "0x888ccd94d691f5b9:0x450385c3b686cc99",
    "cid": "4972965489174563993",
    "reviewsCount": 9,
    "imagesCount": 1,
    "imageCategories": [],
    "scrapedAt": "2025-06-22T05:03:06.896Z",
    "googleFoodUrl": null,
    "hotelAds": [],
    "openingHours": [
      {
        "day": "Monday",
        "hours": "8\u202fAM to 5\u202fPM"
      },
      {
        "day": "Tuesday",
        "hours": "8\u202fAM to 5\u202fPM"
      },
      {
        "day": "Wednesday",
        "hours": "8\u202fAM to 5\u202fPM"
      },
      {
        "day": "Thursday",
        "hours": "8\u202fAM to 5\u202fPM"
      },
      {
        "day": "Friday",
        "hours": "8\u202fAM to 5\u202fPM"
      },
      {
        "day": "Saturday",
        "hours": "Closed"
      },
      {
        "day": "Sunday",
        "hours": "Closed"
      }
    ],
    "peopleAlsoSearch": [],
    "placesTags": [],
    "reviewsTags": [],
    "additionalInfo": {
      "Accessibility": [
        {
          "Wheelchair accessible entrance": true
        },
        {
          "Wheelchair accessible parking lot": true
        }
      ],
      "Payments": [
        {
          "Credit cards": true
        }
      ]
    },
    "gasPrices": [],
    "url": "https://www.google.com/maps/search/?api=1&query=Genoa%20Healthcare&query_place_id=ChIJufWR1pTNjIgRmcyGtsOFA0U",
    "searchPageUrl": "https://www.google.com/maps/search/independent%20pharmacy%20Columbus%20GA/@22.069109753675892,-159.91858714999995,12z?hl=en",
    "searchString": "independent pharmacy Columbus GA",
    "language": "en",
    "rank": 14,
    "isAdvertisement": false,
    "imageUrl": "https://streetviewpixels-pa.googleapis.com/v1/thumbnail?panoid=OnDnqw7OCdmf5jiZrBQp2Q&cb_client=search.gws-prod.gps&w=408&h=240&yaw=67.95533&pitch=0&thumbfov=100",
    "kgmid": "/g/11lky5pqnx",
    "classification": "not_a_pharmacy",
    "is_independent": false,
    "is_compounding": false,
    "confidence": 0.85,
    "source": "perplexity",
    "method": "llm"
  },
  {
    "title": "St. Francis Outpatient Pharmacy",
    "price": null,
    "categoryName": "Pharmacy",
    "address": "A, 2300 Manchester Expy # A, Columbus, GA 31904",
    "neighborhood": null,
    "street": "A, 2300 Manchester Expy # A",
    "city": "Columbus",
    "postalCode": "31904",
    "state": "Georgia",
    "countryCode": "US",
    "website": "https://www.mystfrancis.com/pharmacy",
    "phone": "(706) 320-3078",
    "phoneUnformatted": "+17063203078",
    "claimThisBusiness": true,
    "location": {
      "lat": 32.5060706,
      "lng": -84.9604438
    },
    "totalScore": 3.8,
    "permanentlyClosed": false,
    "temporarilyClosed": false,
    "placeId": null,
    "categories": [
      "Pharmacy"
    ],
    "fid": "0x888cccbfdcfe2053:0x97860d51fbba2d24",
    "cid": "10918428992373140772",
    "reviewsCount": 13,
    "imagesCount": 3,
    "imageCategories": [],
    "scrapedAt": "2025-06-22T05:03:06.896Z",
    "googleFoodUrl": null,
    "hotelAds": [],
    "openingHours": [
      {
        "day": "Monday",
        "hours": "9\u202fAM to 1:30\u202fPM, 2 to 5:30\u202fPM"
      },
      {
        "day": "Tuesday",
        "hours": "9\u202fAM to 1:30\u202fPM, 2 to 5:30\u202fPM"
      },
      {
        "day": "Wednesday",
        "hours": "9\u202fAM to 1:30\u202fPM, 2 to 5:30\u202fPM"
      },
      {
        "day": "Thursday",
        "hours": "9\u202fAM to 1:30\u202fPM, 2 to 5:30\u202fPM"
      },
      {
        "day": "Friday",
        "hours": "9\u202fAM to 1:30\u202fPM, 2 to 5:30\u202fPM"
      },
      {
        "day": "Saturday",
        "hours": "Closed"
      },
      {
        "day": "Sunday",
        "hours": "Closed"
      }
    ],
    "peopleAlsoSearch": [],
    "placesTags": [],
    "reviewsTags": [],
    "additionalInfo": {
      "Service options": [
        {
          "Onsite services": true
        }
      ],
      "Accessibility": [
        {
          "Wheelchair accessible entrance": true
        },
        {
          "Wheelchair accessible parking lot": true
        }
      ],
      "Payments": [
        {
          "Credit cards": true
        }
      ]
    },
    "gasPrices": [],
    "url": "https://www.google.com/maps/search/?api=1&query=St.%20Francis%20Outpatient%20Pharmacy&query_place_id=ChIJUyD-3L_MjIgRJC26-1ENhpc",
    "searchPageUrl": "https://www.google.com/maps/search/independent%20pharmacy%20Columbus%20GA/@22.069109753675892,-159.91858714999995,12z?hl=en",
    "searchString": "independent pharmacy Columbus GA",
    "language": "en",
    "rank": 15,
    "isAdvertisement": false,
    "imageUrl": "https://streetviewpixels-pa.googleapis.com/v1/thumbnail?panoid=oln7VAAA5RG1wxBgKQ6xcw&cb_client=search.gws-prod.gps&w=408&h=240&yaw=189.86063&pitch=0&thumbfov=100",
    "kgmid": "/g/11bzv1m8nb",
    "classification": "hospital",
    "is_independent": false,
    "is_compounding": false,
    "confidence": 0.98,
    "source": "perplexity",
    "method": "llm"
  },
  {
    "title": "Valley Healthcare Pharmacy",
    "price": null,
    "categoryName": "Pharmacy",
    "address": "1600 Fort Benning Rd, Columbus, GA 31903",
    "neighborhood": null,
    "street": "1600 Fort Benning Rd",
    "city": "Columbus",
    "postalCode": "31903",
    "state": "Georgia",
    "countryCode": "US",
    "website": "http://www.valleyhealthcolumbus.com/",
    "phone": "(706) 507-1850",
    "phoneUnformatted": "+17065071850",
    "claimThisBusiness": false,
    "location": {
      "lat": 32.4241079,
      "lng": -84.937254
    },
    "totalScore": 3.9,
    "permanentlyClosed": false,
    "temporarilyClosed": false,
    "placeId": "ChIJk53vg00t84gRXXmORYfADzk",
    "categories": [
      "Pharmacy"
    ],
    "fid": "0x88f32d4d83ef9d93:0x390fc087458e795d",
    "cid": "4111716672032635229",
    "reviewsCount": 15,
    "imagesCount": 1,
    "imageCategories": [],
    "scrapedAt": "2025-06-22T05:03:06.896Z",
    "googleFoodUrl": null,
    "hotelAds": [],
    "openingHours": [
      {
        "day": "Monday",
        "hours": "8:30\u202fAM to 1\u202fPM, 2 to 5:30\u202fPM"
      },
      {
        "day": "Tuesday",
        "hours": "8:30\u202fAM to 1\u202fPM, 2 to 8:30\u202fPM"
      },
      {
        "day": "Wednesday",
        "hours": "8:30\u202fAM to 1\u202fPM, 2 to 5:30\u202fPM"
      },
      {
        "day": "Thursday",
        "hours": "8:30\u202fAM to 1\u202fPM, 2 to 8:30\u202fPM"
      },
      {
        "day": "Friday",
        "hours": "8:30\u202fAM to 1\u202fPM"
      },
      {
        "day": "Saturday",
        "hours": "8\u202fAM to 12\u202fPM"
      },
      {
        "day": "Sunday",
        "hours": "Closed"
      }
    ],
    "peopleAlsoSearch": [],
    "placesTags": [],
    "reviewsTags": [],
    "additionalInfo": {
      "Service options": [
        {
          "Delivery": true
        }
      ],
      "Accessibility": [
        {
          "Wheelchair accessible entrance": true
        },
        {
          "Wheelchair accessible parking lot": true
        }
      ],
      "Payments": [
        {
          "Credit cards": true
        }
      ]
    },
    "gasPrices": [],
    "url": "https://www.google.com/maps/search/?api=1&query=Valley%20Healthcare%20Pharmacy&query_place_id=ChIJk53vg00t84gRXXmORYfADzk",
    "searchPageUrl": "https://www.google.com/maps/search/independent%20pharmacy%20Columbus%20GA/@22.069109753675892,-159.91858714999995,12z?hl=en",
    "searchString": "independent pharmacy Columbus GA",
    "language": "en",
    "rank": 17,
    "isAdvertisement": false,
    "imageUrl": "https://streetviewpixels-pa.googleapis.com/v1/thumbnail?panoid=IpsDFsVxMO_b31tcY1n3DQ&cb_client=search.gws-prod.gps&w=408&h=240&yaw=119.53969&pitch=0&thumbfov=100",
    "kgmid": "/g/11c7t1sxkr",
    "classification": "hospital",
    "is_independent": false,
    "confidence": 1.0,
    "source": "rule-based"
  },
  {
    "title": "Thomas Drugs",
    "price": null,
    "categoryName": "Pharmacy",
    "address": "4105 Buena Vista Rd C, Columbus, GA 31907",
    "neighborhood": "East Columbus",
    "street": "4105 Buena Vista Rd C",
    "city": "Columbus",
    "postalCode": "31907",
    "state": "Georgia",
    "countryCode": "US",
    "phone": "(706) 569-8680",
    "phoneUnformatted": "+17065698680",
    "claimThisBusiness": false,
    "location": {
      "lat": 32.4639256,
      "lng": -84.9258594
    },
    "totalScore": 4.1,
    "permanentlyClosed": false,
    "temporarilyClosed": false,
    "placeId": null,
    "categories": [
      "Pharmacy",
      "Drug store"
    ],
    "fid": "0x88f332c41ad52d75:0x1e8133455a3779e",
    "cid": "137380904130803614",
    "reviewsCount": 30,
    "imagesCount": 3,
    "imageCategories": [],
    "scrapedAt": "2025-06-22T05:03:06.896Z",
    "googleFoodUrl": null,
    "hotelAds": [],
    "openingHours": [
      {
        "day": "Monday",
        "hours": "9\u202fAM to 5:30\u202fPM"
      },
      {
        "day": "Tuesday",
        "hours": "9\u202fAM to 5:30\u202fPM"
      },
      {
        "day": "Wednesday",
        "hours": "9\u202fAM to 5:30\u202fPM"
      },
      {
        "day": "Thursday",
        "hours": "9\u202fAM to 5:30\u202fPM"
      },
      {
        "day": "Friday",
        "hours": "9\u202fAM to 5:30\u202fPM"
      },
      {
        "day": "Saturday",
        "hours": "9\u202fAM to 1\u202fPM"
      },
      {
        "day": "Sunday",
        "hours": "Closed"
      }
    ],
    "peopleAlsoSearch": [],
    "placesTags": [],
    "reviewsTags": [],
    "additionalInfo": {
      "Service options": [
        {
          "Delivery": true
        },
        {
          "In-store pickup": true
        },
        {
          "In-store shopping": true
        }
      ],
      "Accessibility": [
        {
          "Wheelchair accessible entrance": true
        },
        {
          "Wheelchair accessible parking lot": true
        }
      ],
      "Planning": [
        {
          "Quick visit": true
        }
      ],
      "Payments": [
        {
          "Checks": true
        },
        {
          "Credit cards": true
        },
        {
          "Debit cards": true
        },
        {
          "Credit cards": true
        }
      ]
    },
    "gasPrices": [],
    "url": "https://www.google.com/maps/search/?api=1&query=Thomas%20Drugs&query_place_id=ChIJdS3VGsQy84gRnnejVTQT6AE",
    "searchPageUrl": "https://www.google.com/maps/search/independent%20pharmacy%20Columbus%20GA/@22.069109753675892,-159.91858714999995,12z?hl=en",
    "searchString": "independent pharmacy Columbus GA",
    "language": "en",
    "rank": 18,
    "isAdvertisement": false,
    "imageUrl": "https://lh3.googleusercontent.com/gps-cs-s/AC9h4nrsEzWCcCerf2gv9EvqMCSQH2Eyuvs-n7Z-2vTU3abEvlakwGoe66U0zJvT-73rw4J7KWPmOpzaOeyn9z0ubvm6UwhMNCz1lZTPYVh-o5vdc4H3Z4iWaHy7-4lUaV6nEMbA-xrlLg=w408-h544-k-no",
    "kgmid": "/g/1tf3ccfr",
    "classification": "independent",
    "is_independent": true,
    "is_compounding": false,
    "confidence": 0.9,
    "source": "perplexity",
    "method": "llm"
  }
]