[
  {
    "title": "The Pharmacy Club",
    "price": null,
    "categoryName": "Pharmacy",
    "address": "846 St Andrews Blvd Suite A, Charleston, SC 29407",
    "neighborhood": "West Ashley",
    "street": "846 St Andrews Blvd Suite A",
    "city": "Charleston",
    "postalCode": "29407",
    "state": "South Carolina",
    "countryCode": "US",
    "website": "https://www.thepharmacyclubchs.com/",
    "phone": "(843) 718-3738",
    "phoneUnformatted": "+18437183738",
    "claimThisBusiness": false,
    "location": {
      "lat": 32.7918012,
      "lng": -79.9879767
    },
    "totalScore": 5,
    "permanentlyClosed": false,
    "temporarilyClosed": false,
    "placeId": null,
    "categories": [
      "Pharmacy"
    ],
    "fid": "0x88fe7bd8a96ecc91:0x4caf7004dcb909b0",
    "cid": "5525758433992182192",
    "reviewsCount": 30,
    "imagesCount": 38,
    "imageCategories": [],
    "scrapedAt": "2025-06-22T09:32:31.728Z",
    "googleFoodUrl": null,
    "hotelAds": [],
    "openingHours": [
      {
        "day": "Monday",
        "hours": "9\u202fAM to 6\u202fPM"
      },
      {
        "day": "Tuesday",
        "hours": "9\u202fAM to 6\u202fPM"
      },
      {
        "day": "Wednesday",
        "hours": "9\u202fAM to 6\u202fPM"
      },
      {
        "day": "Thursday",
        "hours": "9\u202fAM to 6\u202fPM"
      },
      {
        "day": "Friday",
        "hours": "9\u202fAM to 6\u202fPM"
      },
      {
        "day": "Saturday",
        "hours": "9\u202fAM to 1\u202fPM"
      },
      {
        "day": "Sunday",
        "hours": "Closed"
      }
    ],
    "peopleAlsoSearch": [],
    "placesTags": [],
    "reviewsTags": [],
    "additionalInfo": {
      "From the business": [
        {
          "Identifies as women-owned": true
        },
        {
          "Small business": true
        }
      ],
      "Service options": [
        {
          "Delivery": true
        },
        {
          "In-store shopping": true
        },
        {
          "Onsite services": true
        },
        {
          "Same-day delivery": true
        }
      ],
      "Accessibility": [
        {
          "Wheelchair accessible entrance": true
        },
        {
          "Wheelchair accessible parking lot": true
        }
      ],
      "Payments": [
        {
          "Credit cards": true
        },
        {
          "Debit cards": true
        },
        {
          "NFC mobile payments": true
        },
        {
          "Credit cards": true
        }
      ]
    },
    "gasPrices": [],
    "url": "https://www.google.com/maps/search/?api=1&query=The%20Pharmacy%20Club&query_place_id=ChIJkcxuqdh7_ogRsAm53ARwr0w",
    "searchPageUrl": "https://www.google.com/maps/search/independent%20pharmacy%20Charleston%20SC/@51.713612598141445,179.44759101927465,12z?hl=en",
    "searchString": "independent pharmacy Charleston SC",
    "language": "en",
    "rank": 1,
    "isAdvertisement": false,
    "imageUrl": "https://lh3.googleusercontent.com/p/AF1QipMw115YkKDPeLQKMUpwv5nebn0EKWMwvYsJVP9k=w408-h544-k-no",
    "kgmid": "/g/11sn_2c31h",
    "classification": "independent",
    "is_independent": true,
    "is_compounding": false,
    "confidence": 0.9,
    "source": "perplexity",
    "method": "llm"
  },
  {
    "title": "Johns Island Pharmacy and Compounding",
    "price": null,
    "categoryName": "Pharmacy",
    "address": "3133 Maybank Hwy, Johns Island, SC 29455",
    "neighborhood": null,
    "street": "3133 Maybank Hwy",
    "city": "Johns Island",
    "postalCode": "29455",
    "state": "South Carolina",
    "countryCode": "US",
    "website": "http://www.plantationpharmacy.com/",
    "phone": "(843) 789-4777",
    "phoneUnformatted": "+18437894777",
    "claimThisBusiness": false,
    "location": {
      "lat": 32.734248,
      "lng": -80.0547366
    },
    "totalScore": 4.9,
    "permanentlyClosed": false,
    "temporarilyClosed": false,
    "placeId": null,
    "categories": [
      "Pharmacy"
    ],
    "fid": "0x88fe7fb90655c2cf:0xbc9a5499087bd59c",
    "cid": "13590267841792955804",
    "reviewsCount": 17,
    "imagesCount": 1,
    "imageCategories": [],
    "scrapedAt": "2025-06-22T09:32:31.729Z",
    "googleFoodUrl": null,
    "hotelAds": [],
    "openingHours": [
      {
        "day": "Monday",
        "hours": "9\u202fAM to 6\u202fPM"
      },
      {
        "day": "Tuesday",
        "hours": "9\u202fAM to 6\u202fPM"
      },
      {
        "day": "Wednesday",
        "hours": "9\u202fAM to 6\u202fPM"
      },
      {
        "day": "Thursday",
        "hours": "9\u202fAM to 6\u202fPM"
      },
      {
        "day": "Friday",
        "hours": "9\u202fAM to 6\u202fPM"
      },
      {
        "day": "Saturday",
        "hours": "9\u202fAM to 1\u202fPM"
      },
      {
        "day": "Sunday",
        "hours": "Closed"
      }
    ],
    "peopleAlsoSearch": [],
    "placesTags": [],
    "reviewsTags": [],
    "additionalInfo": {
      "From the business": [
        {
          "Small business": true
        }
      ],
      "Service options": [
        {
          "Same-day delivery": true
        },
        {
          "Delivery": false
        }
      ],
      "Accessibility": [
        {
          "Wheelchair accessible entrance": true
        },
        {
          "Wheelchair accessible parking lot": true
        }
      ],
      "Planning": [
        {
          "Quick visit": true
        }
      ],
      "Payments": [
        {
          "Credit cards": true
        },
        {
          "Debit cards": true
        },
        {
          "NFC mobile payments": true
        }
      ]
    },
    "gasPrices": [],
    "url": "https://www.google.com/maps/search/?api=1&query=Johns%20Island%20Pharmacy%20and%20Compounding&query_place_id=ChIJz8JVBrl__ogRnNV7CJlUmrw",
    "searchPageUrl": "https://www.google.com/maps/search/independent%20pharmacy%20Charleston%20SC/@51.713612598141445,179.44759101927465,12z?hl=en",
    "searchString": "independent pharmacy Charleston SC",
    "language": "en",
    "rank": 2,
    "isAdvertisement": false,
    "imageUrl": "https://streetviewpixels-pa.googleapis.com/v1/thumbnail?panoid=Kw0OL32ZjM-BA3VMEBPIeg&cb_client=search.gws-prod.gps&w=408&h=240&yaw=149.13344&pitch=0&thumbfov=100",
    "kgmid": "/g/11spnb_d53",
    "classification": "independent",
    "is_independent": true,
    "is_compounding": true,
    "confidence": 0.95,
    "source": "perplexity",
    "method": "llm"
  },
  {
    "title": "Plantation Pharmacy",
    "price": null,
    "categoryName": "Pharmacy",
    "address": "776 Daniel Ellis Dr # 2C, Charleston, SC 29412",
    "neighborhood": null,
    "street": "776 Daniel Ellis Dr # 2C",
    "city": "Charleston",
    "postalCode": "29412",
    "state": "South Carolina",
    "countryCode": "US",
    "website": "http://plantationpharmacy.com/",
    "phone": "(843) 795-9554",
    "phoneUnformatted": "+18437959554",
    "claimThisBusiness": true,
    "location": {
      "lat": 32.7473468,
      "lng": -79.9685916
    },
    "totalScore": 4.8,
    "permanentlyClosed": false,
    "temporarilyClosed": false,
    "placeId": null,
    "categories": [
      "Pharmacy",
      "Medical supply store"
    ],
    "fid": "0x88fe79747195b861:0xd0d3c7daf4a2d655",
    "cid": "15047590523196069461",
    "reviewsCount": 40,
    "imagesCount": 3,
    "imageCategories": [],
    "scrapedAt": "2025-06-22T09:32:31.729Z",
    "googleFoodUrl": null,
    "hotelAds": [],
    "openingHours": [
      {
        "day": "Monday",
        "hours": "8:30\u202fAM to 6\u202fPM"
      },
      {
        "day": "Tuesday",
        "hours": "8:30\u202fAM to 6\u202fPM"
      },
      {
        "day": "Wednesday",
        "hours": "8:30\u202fAM to 6\u202fPM"
      },
      {
        "day": "Thursday",
        "hours": "8:30\u202fAM to 6\u202fPM"
      },
      {
        "day": "Friday",
        "hours": "8:30\u202fAM to 4:30\u202fPM"
      },
      {
        "day": "Saturday",
        "hours": "9\u202fAM to 1\u202fPM"
      },
      {
        "day": "Sunday",
        "hours": "Closed"
      }
    ],
    "peopleAlsoSearch": [],
    "placesTags": [],
    "reviewsTags": [],
    "additionalInfo": {
      "Service options": [
        {
          "Delivery": true
        },
        {
          "In-store pickup": true
        }
      ],
      "Accessibility": [
        {
          "Wheelchair accessible entrance": true
        },
        {
          "Wheelchair accessible parking lot": true
        }
      ],
      "Planning": [
        {
          "Quick visit": true
        }
      ],
      "Payments": [
        {
          "Credit cards": true
        },
        {
          "Debit cards": true
        },
        {
          "NFC mobile payments": true
        },
        {
          "Credit cards": true
        }
      ]
    },
    "gasPrices": [],
    "url": "https://www.google.com/maps/search/?api=1&query=Plantation%20Pharmacy&query_place_id=ChIJYbiVcXR5_ogRVdai9NrH09A",
    "searchPageUrl": "https://www.google.com/maps/search/independent%20pharmacy%20Charleston%20SC/@51.713612598141445,179.44759101927465,12z?hl=en",
    "searchString": "independent pharmacy Charleston SC",
    "language": "en",
    "rank": 3,
    "isAdvertisement": false,
    "imageUrl": "https://lh3.googleusercontent.com/gps-cs-s/AC9h4nohaPzHuCrRTSedM9SmRA0QAO_pyKZ5Wy_qgePX0nIYSCQsW4HDa1POkKWDSFE58J72wQD4NsHRBUCiHeOCwu6a7qra_zpwN4bV_LZp4ZXvrXKB3FXCmi9L4GtaILF9A3WlX2OE3w=w408-h544-k-no",
    "kgmid": "/g/1tjyvgbw",
    "classification": "independent",
    "is_independent": true,
    "is_compounding": false,
    "confidence": 0.9,
    "source": "perplexity",
    "method": "llm"
  },
  {
    "title": "Dottie's Pharmacy",
    "price": null,
    "categoryName": "Pharmacy",
    "address": "325 Folly Rd Suite 305, Charleston, SC 29412",
    "neighborhood": null,
    "street": "325 Folly Rd Suite 305",
    "city": "Charleston",
    "postalCode": "29412",
    "state": "South Carolina",
    "countryCode": "US",
    "website": "https://www.dotspharmacy.com/?utm_source=google&utm_medium=local&utm_campaign=localmaps&utm_content=4231863",
    "phone": "(843) 501-9500",
    "phoneUnformatted": "+18435019500",
    "claimThisBusiness": false,
    "location": {
      "lat": 32.7604488,
      "lng": -79.9754906
    },
    "totalScore": 4.7,
    "permanentlyClosed": false,
    "temporarilyClosed": false,
    "placeId": null,
    "categories": [
      "Pharmacy",
      "Drug store"
    ],
    "fid": "0x88fe797b1468474f:0x7e724004e9651af",
    "cid": "569463461622731183",
    "reviewsCount": 100,
    "imagesCount": 4,
    "imageCategories": [],
    "scrapedAt": "2025-06-22T09:32:31.729Z",
    "googleFoodUrl": null,
    "hotelAds": [],
    "openingHours": [
      {
        "day": "Monday",
        "hours": "9\u202fAM to 6\u202fPM"
      },
      {
        "day": "Tuesday",
        "hours": "9\u202fAM to 6\u202fPM"
      },
      {
        "day": "Wednesday",
        "hours": "9\u202fAM to 6\u202fPM"
      },
      {
        "day": "Thursday",
        "hours": "9\u202fAM to 6\u202fPM"
      },
      {
        "day": "Friday",
        "hours": "9\u202fAM to 6\u202fPM"
      },
      {
        "day": "Saturday",
        "hours": "9\u202fAM to 1\u202fPM"
      },
      {
        "day": "Sunday",
        "hours": "Closed"
      }
    ],
    "peopleAlsoSearch": [],
    "placesTags": [],
    "reviewsTags": [],
    "additionalInfo": {
      "Service options": [
        {
          "Delivery": true
        },
        {
          "In-store pickup": true
        },
        {
          "Same-day delivery": true
        }
      ],
      "Accessibility": [
        {
          "Wheelchair accessible entrance": true
        },
        {
          "Wheelchair accessible parking lot": true
        }
      ],
      "Planning": [
        {
          "Quick visit": true
        }
      ],
      "Payments": [
        {
          "Checks": true
        },
        {
          "Credit cards": true
        },
        {
          "Debit cards": true
        },
        {
          "NFC mobile payments": true
        },
        {
          "Credit cards": true
        }
      ]
    },
    "gasPrices": [],
    "url": "https://www.google.com/maps/search/?api=1&query=Dottie's%20Pharmacy&query_place_id=ChIJT0doFHt5_ogRr1GWTgAk5wc",
    "searchPageUrl": "https://www.google.com/maps/search/independent%20pharmacy%20Charleston%20SC/@51.713612598141445,179.44759101927465,12z?hl=en",
    "searchString": "independent pharmacy Charleston SC",
    "language": "en",
    "rank": 4,
    "isAdvertisement": false,
    "imageUrl": "https://lh3.googleusercontent.com/gps-cs-s/AC9h4np61eBIhwcqWkCOsPofgtIH6zbwztGaqt427IsWV4McAKB-YYCeQUpRcnj3xQrjU-Oar3NtLI5q1AfI5Py6a2ojSxFoHLt2bMONORSoUnLTsA7s5q1G2r2SXb4k5DFl97e8S_Q=w408-h377-k-no",
    "kgmid": "/g/1yg4d_k1g",
    "classification": "independent",
    "is_independent": true,
    "is_compounding": false,
    "confidence": 0.9,
    "source": "perplexity",
    "method": "llm"
  },
  {
    "title": "Park Circle Pharmacy",
    "price": null,
    "categoryName": "Pharmacy",
    "address": "4412 Spruill Ave Suite C, North Charleston, SC 29405",
    "neighborhood": "Park Circle",
    "street": "4412 Spruill Ave Suite C",
    "city": "North Charleston",
    "postalCode": "29405",
    "state": "South Carolina",
    "countryCode": "US",
    "website": "https://parkcirclepharmacy.com/",
    "phone": "(843) 806-1299",
    "phoneUnformatted": "+18438061299",
    "claimThisBusiness": false,
    "location": {
      "lat": 32.8754676,
      "lng": -79.9799469
    },
    "totalScore": 5,
    "permanentlyClosed": false,
    "temporarilyClosed": false,
    "placeId": null,
    "categories": [
      "Pharmacy",
      "Beer store",
      "Convenience store",
      "Drug store",
      "Greeting card shop",
      "Medical equipment supplier",
      "Soft drinks shop",
      "Sunglasses store",
      "Vitamin & supplements store",
      "Wine store"
    ],
    "fid": "0x88fe65a65f4cc567:0xa8259aabd387b01",
    "cid": "757266277205572353",
    "reviewsCount": 83,
    "imagesCount": 25,
    "imageCategories": [],
    "scrapedAt": "2025-06-22T09:32:31.729Z",
    "googleFoodUrl": null,
    "hotelAds": [],
    "openingHours": [
      {
        "day": "Monday",
        "hours": "9\u202fAM to 7\u202fPM"
      },
      {
        "day": "Tuesday",
        "hours": "9\u202fAM to 7\u202fPM"
      },
      {
        "day": "Wednesday",
        "hours": "9\u202fAM to 7\u202fPM"
      },
      {
        "day": "Thursday",
        "hours": "9\u202fAM to 7\u202fPM"
      },
      {
        "day": "Friday",
        "hours": "9\u202fAM to 7\u202fPM"
      },
      {
        "day": "Saturday",
        "hours": "10\u202fAM to 3\u202fPM"
      },
      {
        "day": "Sunday",
        "hours": "Closed"
      }
    ],
    "peopleAlsoSearch": [],
    "placesTags": [],
    "reviewsTags": [],
    "additionalInfo": {
      "From the business": [
        {
          "Small business": true
        }
      ],
      "Service options": [
        {
          "Curbside pickup": true
        },
        {
          "Delivery": true
        },
        {
          "In-store pickup": true
        },
        {
          "In-store shopping": true
        },
        {
          "Same-day delivery": true
        },
        {
          "Spanish": true
        }
      ],
      "Accessibility": [
        {
          "Wheelchair accessible entrance": true
        },
        {
          "Wheelchair accessible parking lot": true
        },
        {
          "Wheelchair accessible restroom": true
        }
      ],
      "Planning": [
        {
          "Quick visit": true
        }
      ],
      "Payments": [
        {
          "Checks": true
        },
        {
          "Credit cards": true
        },
        {
          "Debit cards": true
        },
        {
          "NFC mobile payments": true
        },
        {
          "Credit cards": true
        }
      ],
      "Parking": [
        {
          "Free parking lot": true
        }
      ]
    },
    "gasPrices": [],
    "url": "https://www.google.com/maps/search/?api=1&query=Park%20Circle%20Pharmacy&query_place_id=ChIJZ8VMX6Zl_ogRAXs4vapZggo",
    "searchPageUrl": "https://www.google.com/maps/search/independent%20pharmacy%20Charleston%20SC/@51.713612598141445,179.44759101927465,12z?hl=en",
    "searchString": "independent pharmacy Charleston SC",
    "language": "en",
    "rank": 5,
    "isAdvertisement": false,
    "imageUrl": "https://lh3.googleusercontent.com/p/AF1QipO0wA-IxUbj3CeA5j2NTEXkYLmoZQ8R9HFCENeo=w419-h240-k-no",
    "kgmid": "/g/11t9wts10w",
    "classification": "independent",
    "is_independent": true,
    "is_compounding": false,
    "confidence": 0.9,
    "source": "perplexity",
    "method": "llm"
  },
  {
    "title": "Focus: Meds Pharmacy and Wellness",
    "price": null,
    "categoryName": "Pharmacy",
    "address": "2000 Sam Rittenberg Blvd Suite 134, Charleston, SC 29407",
    "neighborhood": "West Ashley",
    "street": "2000 Sam Rittenberg Blvd Suite 134",
    "city": "Charleston",
    "postalCode": "29407",
    "state": "South Carolina",
    "countryCode": "US",
    "website": "http://www.focusmedspharmacy.com/",
    "phone": "(843) 818-4638",
    "phoneUnformatted": "+18438184638",
    "claimThisBusiness": false,
    "location": {
      "lat": 32.7947501,
      "lng": -80.0289152
    },
    "totalScore": 4.8,
    "permanentlyClosed": false,
    "temporarilyClosed": false,
    "placeId": null,
    "categories": [
      "Pharmacy"
    ],
    "fid": "0x88fe7c6ae676dba7:0xb664166cf21348a3",
    "cid": "13142654269747579043",
    "reviewsCount": 39,
    "imagesCount": 7,
    "imageCategories": [],
    "scrapedAt": "2025-06-22T09:32:31.730Z",
    "googleFoodUrl": null,
    "hotelAds": [],
    "openingHours": [
      {
        "day": "Monday",
        "hours": "8:30\u202fAM to 6:30\u202fPM"
      },
      {
        "day": "Tuesday",
        "hours": "8:30\u202fAM to 6:30\u202fPM"
      },
      {
        "day": "Wednesday",
        "hours": "8:30\u202fAM to 6:30\u202fPM"
      },
      {
        "day": "Thursday",
        "hours": "8:30\u202fAM to 6:30\u202fPM"
      },
      {
        "day": "Friday",
        "hours": "8:30\u202fAM to 6:30\u202fPM"
      },
      {
        "day": "Saturday",
        "hours": "9\u202fAM to 1\u202fPM"
      },
      {
        "day": "Sunday",
        "hours": "Closed"
      }
    ],
    "additionalOpeningHours": {
      "Delivery": [
        {
          "day": "Monday",
          "hours": "9\u202fAM\u20135\u202fPM"
        },
        {
          "day": "Tuesday",
          "hours": "9\u202fAM\u20135\u202fPM"
        },
        {
          "day": "Wednesday",
          "hours": "9\u202fAM\u20135\u202fPM"
        },
        {
          "day": "Thursday",
          "hours": "9\u202fAM\u20135\u202fPM"
        },
        {
          "day": "Friday",
          "hours": "9\u202fAM\u20135\u202fPM"
        },
        {
          "day": "Saturday",
          "hours": "Closed"
        },
        {
          "day": "Sunday",
          "hours": "Closed"
        }
      ],
      "Pickup": [
        {
          "day": "Monday",
          "hours": "8:30\u202fAM\u20136:30\u202fPM"
        },
        {
          "day": "Tuesday",
          "hours": "8:30\u202fAM\u20136:30\u202fPM"
        },
        {
          "day": "Wednesday",
          "hours": "8:30\u202fAM\u20136:30\u202fPM"
        },
        {
          "day": "Thursday",
          "hours": "8:30\u202fAM\u20136:30\u202fPM"
        },
        {
          "day": "Friday",
          "hours": "8:30\u202fAM\u20136:30\u202fPM"
        },
        {
          "day": "Saturday",
          "hours": "Closed"
        },
        {
          "day": "Sunday",
          "hours": "Closed"
        }
      ]
    },
    "peopleAlsoSearch": [],
    "placesTags": [],
    "reviewsTags": [],
    "additionalInfo": {
      "From the business": [
        {
          "Small business": true
        }
      ],
      "Service options": [
        {
          "Delivery": true
        }
      ],
      "Accessibility": [
        {
          "Wheelchair accessible entrance": true
        },
        {
          "Wheelchair accessible parking lot": true
        }
      ],
      "Amenities": [
        {
          "Wi-Fi": true
        },
        {
          "Free Wi-Fi": true
        }
      ],
      "Payments": [
        {
          "Credit cards": true
        },
        {
          "Debit cards": true
        },
        {
          "NFC mobile payments": true
        },
        {
          "Credit cards": true
        }
      ]
    },
    "gasPrices": [],
    "url": "https://www.google.com/maps/search/?api=1&query=Focus%3A%20Meds%20Pharmacy%20and%20Wellness&query_place_id=ChIJp9t25mp8_ogRo0gT8mwWZLY",
    "searchPageUrl": "https://www.google.com/maps/search/independent%20pharmacy%20Charleston%20SC/@51.713612598141445,179.44759101927465,12z?hl=en",
    "searchString": "independent pharmacy Charleston SC",
    "language": "en",
    "rank": 6,
    "isAdvertisement": false,
    "imageUrl": "https://lh3.googleusercontent.com/gps-cs-s/AC9h4nqMEw8Smxe82_3C_MMtRdrwfgblzlBioPIK8a78Gv9TQqlpdX3TEOKZeF0htvomhQZaTOyRvgde3eK9ZZIEP22bHbN-or4VU89PscR3ZAsVD4h6nok0OSvu05zLKG3pEuvO5e0=w408-h306-k-no",
    "kgmid": "/g/11g8v5qxcl",
    "classification": "independent",
    "is_independent": true,
    "is_compounding": false,
    "confidence": 0.9,
    "source": "perplexity",
    "method": "llm"
  },
  {
    "title": "Plantation Pharmacy At Wappoo",
    "price": null,
    "categoryName": "Pharmacy",
    "address": "531 Wappoo Rd #58, Charleston, SC 29407",
    "neighborhood": "West Ashley",
    "street": "531 Wappoo Rd #58",
    "city": "Charleston",
    "postalCode": "29407",
    "state": "South Carolina",
    "countryCode": "US",
    "website": "http://www.plantationpharmacy.com/locations/west-ashley",
    "phone": "(843) 556-1994",
    "phoneUnformatted": "+18435561994",
    "claimThisBusiness": true,
    "location": {
      "lat": 32.7870629,
      "lng": -80.02081
    },
    "totalScore": 4.6,
    "permanentlyClosed": false,
    "temporarilyClosed": false,
    "placeId": null,
    "categories": [
      "Pharmacy"
    ],
    "fid": "0x88fe7c121c6e5bdd:0xbaca4b00c9cfda2d",
    "cid": "13459652903108074029",
    "reviewsCount": 37,
    "imagesCount": 5,
    "imageCategories": [],
    "scrapedAt": "2025-06-22T09:32:31.730Z",
    "googleFoodUrl": null,
    "hotelAds": [],
    "openingHours": [
      {
        "day": "Monday",
        "hours": "9\u202fAM to 6\u202fPM"
      },
      {
        "day": "Tuesday",
        "hours": "9\u202fAM to 6\u202fPM"
      },
      {
        "day": "Wednesday",
        "hours": "9\u202fAM to 6\u202fPM"
      },
      {
        "day": "Thursday",
        "hours": "9\u202fAM to 6\u202fPM"
      },
      {
        "day": "Friday",
        "hours": "9\u202fAM to 6\u202fPM"
      },
      {
        "day": "Saturday",
        "hours": "9\u202fAM to 1\u202fPM"
      },
      {
        "day": "Sunday",
        "hours": "Closed"
      }
    ],
    "peopleAlsoSearch": [],
    "placesTags": [],
    "reviewsTags": [],
    "additionalInfo": {
      "Service options": [
        {
          "In-store pickup": true
        }
      ],
      "Accessibility": [
        {
          "Wheelchair accessible entrance": true
        },
        {
          "Wheelchair accessible parking lot": true
        }
      ],
      "Planning": [
        {
          "Appointment required": true
        },
        {
          "Quick visit": true
        }
      ],
      "Payments": [
        {
          "Credit cards": true
        },
        {
          "Debit cards": true
        },
        {
          "Credit cards": true
        }
      ]
    },
    "gasPrices": [],
    "url": "https://www.google.com/maps/search/?api=1&query=Plantation%20Pharmacy%20At%20Wappoo&query_place_id=ChIJ3VtuHBJ8_ogRLdrPyQBLyro",
    "searchPageUrl": "https://www.google.com/maps/search/independent%20pharmacy%20Charleston%20SC/@51.713612598141445,179.44759101927465,12z?hl=en",
    "searchString": "independent pharmacy Charleston SC",
    "language": "en",
    "rank": 7,
    "isAdvertisement": false,
    "imageUrl": "https://lh3.googleusercontent.com/gps-cs-s/AC9h4nrALeJWtpe4xK0OOr4Jo3cWtH0qxahYZM1qo3clnanx64pmdrI1WaCOAqShWRK6vkvhQZiubkLX1E4cmONmgN_2UyXhxnlDKZTLEoXal5vec4tlhb7ptKM2ITVem-NHa61yxb365A=w408-h544-k-no",
    "kgmid": "/g/1tg9n_8b",
    "classification": "independent",
    "is_independent": true,
    "is_compounding": false,
    "confidence": 0.9,
    "source": "perplexity",
    "method": "llm"
  },
  {
    "title": "Holy City Pharmacy, LLC James Island",
    "price": null,
    "categoryName": "Pharmacy",
    "address": "354 Folly Rd Bldg 1, Charleston, SC 29412",
    "neighborhood": null,
    "street": "354 Folly Rd Bldg 1",
    "city": "Charleston",
    "postalCode": "29412",
    "state": "South Carolina",
    "countryCode": "US",
    "phone": "(843) 762-8155",
    "phoneUnformatted": "+18437628155",
    "claimThisBusiness": false,
    "location": {
      "lat": 32.7591821,
      "lng": -79.9733422
    },
    "totalScore": 5,
    "permanentlyClosed": false,
    "temporarilyClosed": false,
    "placeId": null,
    "categories": [
      "Pharmacy"
    ],
    "fid": "0x88fe79a855f8e6a9:0xc6b2269478fc6488",
    "cid": "14317548584491050120",
    "reviewsCount": 20,
    "imagesCount": 6,
    "imageCategories": [],
    "scrapedAt": "2025-06-22T09:32:31.730Z",
    "googleFoodUrl": null,
    "hotelAds": [],
    "openingHours": [
      {
        "day": "Monday",
        "hours": "9\u202fAM to 6\u202fPM"
      },
      {
        "day": "Tuesday",
        "hours": "9\u202fAM to 6\u202fPM"
      },
      {
        "day": "Wednesday",
        "hours": "9\u202fAM to 6\u202fPM"
      },
      {
        "day": "Thursday",
        "hours": "9\u202fAM to 6\u202fPM"
      },
      {
        "day": "Friday",
        "hours": "9\u202fAM to 6\u202fPM"
      },
      {
        "day": "Saturday",
        "hours": "9\u202fAM to 1\u202fPM"
      },
      {
        "day": "Sunday",
        "hours": "Closed"
      }
    ],
    "peopleAlsoSearch": [],
    "placesTags": [],
    "reviewsTags": [],
    "additionalInfo": {
      "From the business": [
        {
          "Small business": true
        }
      ],
      "Service options": [
        {
          "Curbside pickup": true
        },
        {
          "In-store shopping": true
        },
        {
          "Onsite services": true
        },
        {
          "English": true
        }
      ],
      "Accessibility": [
        {
          "Wheelchair accessible entrance": true
        },
        {
          "Wheelchair accessible parking lot": true
        },
        {
          "Wheelchair accessible restroom": true
        },
        {
          "Wheelchair accessible seating": true
        }
      ],
      "Amenities": [
        {
          "Gender-neutral restroom": true
        }
      ],
      "Crowd": [
        {
          "LGBTQ+ friendly": true
        }
      ],
      "Planning": [
        {
          "Quick visit": true
        }
      ],
      "Payments": [
        {
          "Checks": true
        },
        {
          "Credit cards": true
        },
        {
          "Debit cards": true
        },
        {
          "NFC mobile payments": true
        },
        {
          "Credit cards": true
        }
      ]
    },
    "gasPrices": [],
    "url": "https://www.google.com/maps/search/?api=1&query=Holy%20City%20Pharmacy%2C%20LLC%20James%20Island&query_place_id=ChIJqeb4Vah5_ogRiGT8eJQmssY",
    "searchPageUrl": "https://www.google.com/maps/search/independent%20pharmacy%20Charleston%20SC/@51.713612598141445,179.44759101927465,12z?hl=en",
    "searchString": "independent pharmacy Charleston SC",
    "language": "en",
    "rank": 8,
    "isAdvertisement": false,
    "imageUrl": "https://lh3.googleusercontent.com/p/AF1QipNSC23lYCizUoiQjPKQjIzI63ZOk7DYbJ8a9PFy=w408-h242-k-no",
    "kgmid": "/g/11frps8q_k",
    "classification": "independent",
    "is_independent": true,
    "is_compounding": false,
    "confidence": 0.85,
    "source": "perplexity",
    "method": "llm"
  },
  {
    "title": "Herold's Pharmacy West Ashley",
    "price": null,
    "categoryName": "Pharmacy",
    "address": "2057 Charlie Hall Blvd suite c, Charleston, SC 29414",
    "neighborhood": "West Ashley",
    "street": "2057 Charlie Hall Blvd suite c",
    "city": "Charleston",
    "postalCode": "29414",
    "state": "South Carolina",
    "countryCode": "US",
    "website": "https://www.heroldspharmacy.com/",
    "phone": "(843) 637-3037",
    "phoneUnformatted": "+18436373037",
    "claimThisBusiness": false,
    "location": {
      "lat": 32.8155851,
      "lng": -80.0421773
    },
    "totalScore": 4.5,
    "permanentlyClosed": false,
    "temporarilyClosed": false,
    "placeId": "ChIJb7AXHlh8_ogRu52MHcQWWhQ",
    "categories": [
      "Pharmacy",
      "Convenience store",
      "Drug store",
      "Medical equipment supplier",
      "Medical supply store",
      "Mobility equipment supplier",
      "Soft drinks shop",
      "Sunglasses store",
      "Wine store"
    ],
    "fid": "0x88fe7c581e17b06f:0x145a16c41d8c9dbb",
    "cid": "1466509660227673531",
    "reviewsCount": 64,
    "imagesCount": 65,
    "imageCategories": [],
    "scrapedAt": "2025-06-22T09:32:31.730Z",
    "googleFoodUrl": null,
    "hotelAds": [],
    "openingHours": [
      {
        "day": "Monday",
        "hours": "8\u202fAM to 6:30\u202fPM"
      },
      {
        "day": "Tuesday",
        "hours": "8\u202fAM to 6:30\u202fPM"
      },
      {
        "day": "Wednesday",
        "hours": "8\u202fAM to 6:30\u202fPM"
      },
      {
        "day": "Thursday",
        "hours": "8\u202fAM to 6:30\u202fPM"
      },
      {
        "day": "Friday",
        "hours": "8\u202fAM to 6:30\u202fPM"
      },
      {
        "day": "Saturday",
        "hours": "10\u202fAM to 2\u202fPM"
      },
      {
        "day": "Sunday",
        "hours": "Closed"
      }
    ],
    "peopleAlsoSearch": [],
    "placesTags": [],
    "reviewsTags": [],
    "additionalInfo": {
      "From the business": [
        {
          "Small business": true
        }
      ],
      "Service options": [
        {
          "Curbside pickup": true
        },
        {
          "Delivery": true
        },
        {
          "In-store pickup": true
        },
        {
          "In-store shopping": true
        },
        {
          "Onsite services": true
        },
        {
          "Same-day delivery": true
        },
        {
          "English": true
        }
      ],
      "Accessibility": [
        {
          "Wheelchair accessible entrance": true
        },
        {
          "Wheelchair accessible parking lot": true
        },
        {
          "Wheelchair accessible restroom": true
        }
      ],
      "Planning": [
        {
          "Quick visit": true
        }
      ],
      "Payments": [
        {
          "Checks": true
        },
        {
          "Credit cards": true
        },
        {
          "Debit cards": true
        },
        {
          "NFC mobile payments": true
        },
        {
          "Credit cards": true
        }
      ],
      "Parking": [
        {
          "Free parking lot": true
        },
        {
          "Free street parking": true
        },
        {
          "On-site parking": true
        }
      ]
    },
    "gasPrices": [],
    "url": "https://www.google.com/maps/search/?api=1&query=Herold's%20Pharmacy%20West%20Ashley&query_place_id=ChIJb7AXHlh8_ogRu52MHcQWWhQ",
    "searchPageUrl": "https://www.google.com/maps/search/independent%20pharmacy%20Charleston%20SC/@51.713612598141445,179.44759101927465,12z?hl=en",
    "searchString": "independent pharmacy Charleston SC",
    "language": "en",
    "rank": 9,
    "isAdvertisement": false,
    "imageUrl": "https://lh3.googleusercontent.com/gps-cs-s/AC9h4nquqjAf2YrVY564jU1cyUw7d_Jz_OVgVqcJt4FB5SBQsdVqH5LZi2my5WthdM4oIO3oa4MMOOP3JzNq-ghX3SiPsz5XJpJrR228dCfLjL5ZZaQTH_kMrorA77SfxZkodLSQIART=w408-h272-k-no",
    "kgmid": "/g/1tf6147m",
    "classification": "hospital",
    "is_independent": false,
    "confidence": 1.0,
    "source": "rule-based"
  },
  {
    "title": "Walt's Family Pharmacy North Charleston",
    "price": null,
    "categoryName": "Pharmacy",
    "address": "8983 University Blvd, North Charleston, SC 29406",
    "neighborhood": null,
    "street": "8983 University Blvd",
    "city": "North Charleston",
    "postalCode": "29406",
    "state": "South Carolina",
    "countryCode": "US",
    "website": "https://www.waltsfamilypharmacy.com/",
    "phone": "(843) 628-3330",
    "phoneUnformatted": "+18436283330",
    "claimThisBusiness": false,
    "location": {
      "lat": 32.9743862,
      "lng": -80.0611846
    },
    "totalScore": 4.8,
    "permanentlyClosed": false,
    "temporarilyClosed": false,
    "placeId": null,
    "categories": [
      "Pharmacy",
      "Drug store",
      "Medical supply store"
    ],
    "fid": "0x88fe61a27799f821:0x851e9474eb4e96",
    "cid": "37469794868088470",
    "reviewsCount": 36,
    "imagesCount": 10,
    "imageCategories": [],
    "scrapedAt": "2025-06-22T09:32:31.730Z",
    "googleFoodUrl": null,
    "hotelAds": [],
    "openingHours": [
      {
        "day": "Monday",
        "hours": "9\u202fAM to 5\u202fPM"
      },
      {
        "day": "Tuesday",
        "hours": "9\u202fAM to 5\u202fPM"
      },
      {
        "day": "Wednesday",
        "hours": "9\u202fAM to 5\u202fPM"
      },
      {
        "day": "Thursday",
        "hours": "9\u202fAM to 5\u202fPM"
      },
      {
        "day": "Friday",
        "hours": "9\u202fAM to 4\u202fPM"
      },
      {
        "day": "Saturday",
        "hours": "Closed"
      },
      {
        "day": "Sunday",
        "hours": "Closed"
      }
    ],
    "peopleAlsoSearch": [],
    "placesTags": [],
    "reviewsTags": [],
    "additionalInfo": {
      "From the business": [
        {
          "Small business": true
        }
      ],
      "Service options": [
        {
          "Delivery": true
        },
        {
          "In-store pickup": true
        }
      ],
      "Accessibility": [
        {
          "Wheelchair accessible entrance": true
        },
        {
          "Wheelchair accessible parking lot": true
        }
      ],
      "Planning": [
        {
          "Quick visit": true
        }
      ],
      "Payments": [
        {
          "Credit cards": true
        },
        {
          "Debit cards": true
        },
        {
          "NFC mobile payments": true
        },
        {
          "Credit cards": true
        }
      ]
    },
    "gasPrices": [],
    "url": "https://www.google.com/maps/search/?api=1&query=Walt's%20Family%20Pharmacy%20North%20Charleston&query_place_id=ChIJIfiZd6Jh_ogRlk7rdJQehQA",
    "searchPageUrl": "https://www.google.com/maps/search/independent%20pharmacy%20Charleston%20SC/@51.713612598141445,179.44759101927465,12z?hl=en",
    "searchString": "independent pharmacy Charleston SC",
    "language": "en",
    "rank": 10,
    "isAdvertisement": false,
    "imageUrl": "https://lh3.googleusercontent.com/gps-cs-s/AC9h4npW0olZX1BT9zZLGJH3J58sU2BMS65hcSKCJCtBOUXqppSobzK33HbKgxyVyjtmEfj2KoPm8b2RVVYZNeZaPoaWUIMldiLnum5BE0yTpNWRcVeNplfOPKcLfHf7gTmjSkrPTV06=w425-h240-k-no",
    "kgmid": "/g/1q2wg2k8b",
    "classification": "independent",
    "is_independent": true,
    "is_compounding": false,
    "confidence": 0.9,
    "source": "perplexity",
    "method": "llm"
  },
  {
    "title": "Stride Pharmacy",
    "price": null,
    "categoryName": "Pharmacy",
    "address": "3471 W Montague Ave, North Charleston, SC 29418, United States",
    "neighborhood": null,
    "street": "3471 W Montague Ave",
    "city": "North Charleston",
    "postalCode": "29418",
    "state": "South Carolina",
    "countryCode": "US",
    "phone": "+1 843-531-5187",
    "phoneUnformatted": "+18435315187",
    "claimThisBusiness": false,
    "location": {
      "lat": 32.8630892,
      "lng": -80.0240377
    },
    "totalScore": 4.8,
    "permanentlyClosed": false,
    "temporarilyClosed": false,
    "placeId": null,
    "categories": [
      "Pharmacy"
    ],
    "fid": "0x88fe63c32c30e035:0x756f044fecceda51",
    "cid": "8461986966174358097",
    "reviewsCount": 22,
    "imagesCount": 2,
    "imageCategories": [],
    "scrapedAt": "2025-06-22T09:32:49.712Z",
    "googleFoodUrl": null,
    "hotelAds": [],
    "openingHours": [
      {
        "day": "Monday",
        "hours": "8\u202fAM to 12:30\u202fPM, 1:30 to 5\u202fPM"
      },
      {
        "day": "Tuesday",
        "hours": "8\u202fAM to 12:30\u202fPM, 1:30 to 5\u202fPM"
      },
      {
        "day": "Wednesday",
        "hours": "8\u202fAM to 12:30\u202fPM, 1:30 to 5\u202fPM"
      },
      {
        "day": "Thursday",
        "hours": "8\u202fAM to 12:30\u202fPM, 1:30 to 5\u202fPM"
      },
      {
        "day": "Friday",
        "hours": "8\u202fAM to 1\u202fPM"
      },
      {
        "day": "Saturday",
        "hours": "Closed"
      },
      {
        "day": "Sunday",
        "hours": "Closed"
      }
    ],
    "peopleAlsoSearch": [],
    "placesTags": [],
    "reviewsTags": [],
    "additionalInfo": {
      "From the business": [
        {
          "Small Business": true
        }
      ],
      "Service options": [
        {
          "Kerbside pickup": true
        },
        {
          "Delivery": true
        },
        {
          "In-store shopping": true
        },
        {
          "Same-day delivery": true
        }
      ],
      "Accessibility": [
        {
          "Wheelchair-accessible car park": true
        },
        {
          "Wheelchair-accessible entrance": true
        }
      ],
      "Planning": [
        {
          "Quick visit": true
        }
      ],
      "Payments": [
        {
          "Cheques": true
        },
        {
          "Credit cards": true
        },
        {
          "Debit cards": true
        },
        {
          "NFC mobile payments": true
        },
        {
          "Credit cards": true
        }
      ]
    },
    "gasPrices": [],
    "url": "https://www.google.com/maps/search/?api=1&query=Stride%20Pharmacy&query_place_id=ChIJNeAwLMNj_ogRUdrO7E8Eb3U",
    "searchPageUrl": "https://www.google.com/maps/search/independent%20pharmacy%20Charleston%20SC/@60.874534795447715,-162.31690285675955,9z?hl=en",
    "searchString": "independent pharmacy Charleston SC",
    "language": "en",
    "rank": 9,
    "isAdvertisement": false,
    "imageUrl": "https://lh3.googleusercontent.com/p/AF1QipO7tqOL4jQiO3qhZ1FV9PL3Ks9pzzaLht5OmiIu=w426-h240-k-no",
    "kgmid": "/g/11jlw5bh64",
    "classification": "independent",
    "is_independent": true,
    "is_compounding": false,
    "confidence": 0.85,
    "source": "perplexity",
    "method": "llm"
  },
  {
    "title": "Select Care Pharmacy #2",
    "price": null,
    "categoryName": "Pharmacy",
    "address": "480 Jessen Ln # A, Charleston, SC 29492",
    "neighborhood": null,
    "street": "480 Jessen Ln # A",
    "city": "Charleston",
    "postalCode": "29492",
    "state": "South Carolina",
    "countryCode": "US",
    "website": "http://selectcarepharmacy.com/",
    "phone": "(843) 471-2510",
    "phoneUnformatted": "+18434712510",
    "claimThisBusiness": false,
    "location": {
      "lat": 32.9049611,
      "lng": -79.9206169
    },
    "totalScore": 4,
    "permanentlyClosed": false,
    "temporarilyClosed": false,
    "placeId": null,
    "categories": [
      "Pharmacy"
    ],
    "fid": "0x88fe65cda75b3773:0xb66d7ae6fbdb8c46",
    "cid": "13145298019850882118",
    "reviewsCount": 1,
    "imagesCount": 1,
    "imageCategories": [],
    "scrapedAt": "2025-06-22T09:33:44.429Z",
    "googleFoodUrl": null,
    "hotelAds": [],
    "openingHours": [
      {
        "day": "Monday",
        "hours": "9\u202fAM to 5:30\u202fPM"
      },
      {
        "day": "Tuesday",
        "hours": "9\u202fAM to 5:30\u202fPM"
      },
      {
        "day": "Wednesday",
        "hours": "9\u202fAM to 5:30\u202fPM"
      },
      {
        "day": "Thursday",
        "hours": "9\u202fAM to 5:30\u202fPM"
      },
      {
        "day": "Friday",
        "hours": "9\u202fAM to 5:30\u202fPM"
      },
      {
        "day": "Saturday",
        "hours": "9\u202fAM to 1\u202fPM"
      },
      {
        "day": "Sunday",
        "hours": "Closed"
      }
    ],
    "peopleAlsoSearch": [],
    "placesTags": [],
    "reviewsTags": [],
    "additionalInfo": {
      "From the business": [
        {
          "Small business": true
        }
      ],
      "Service options": [
        {
          "Delivery": true
        }
      ],
      "Accessibility": [
        {
          "Wheelchair accessible entrance": true
        },
        {
          "Wheelchair accessible parking lot": true
        }
      ]
    },
    "gasPrices": [],
    "url": "https://www.google.com/maps/search/?api=1&query=Select%20Care%20Pharmacy%20%232&query_place_id=ChIJczdbp81l_ogRRozb--Z6bbY",
    "searchPageUrl": "https://www.google.com/maps/search/independent%20pharmacy%20Charleston%20SC/@39.68245004733214,-108.6496533711355,8z?hl=en",
    "searchString": "independent pharmacy Charleston SC",
    "language": "en",
    "rank": 12,
    "isAdvertisement": false,
    "imageUrl": "https://streetviewpixels-pa.googleapis.com/v1/thumbnail?panoid=02cAKwpfEqAMF_uaydO0dw&cb_client=search.gws-prod.gps&w=408&h=240&yaw=29.353409&pitch=0&thumbfov=100",
    "kgmid": "/g/11qps50vgy",
    "classification": "independent",
    "is_independent": true,
    "is_compounding": false,
    "confidence": 0.9,
    "source": "perplexity",
    "method": "llm"
  },
  {
    "title": "Tidewater Pharmacy & Compounding",
    "price": null,
    "categoryName": "Pharmacy",
    "address": "421 Johnnie Dodds Blvd, Mt Pleasant, SC 29464",
    "neighborhood": null,
    "street": "421 Johnnie Dodds Blvd",
    "city": "Mt Pleasant",
    "postalCode": "29464",
    "state": "South Carolina",
    "countryCode": "US",
    "website": "https://tidewaterpharmacy.com/",
    "phone": "(843) 375-6310",
    "phoneUnformatted": "+18433756310",
    "claimThisBusiness": false,
    "location": {
      "lat": 32.8053819,
      "lng": -79.8869861
    },
    "totalScore": 4.7,
    "permanentlyClosed": false,
    "temporarilyClosed": false,
    "placeId": null,
    "categories": [
      "Pharmacy",
      "Pharmaceutical lab",
      "Veterinary pharmacy"
    ],
    "fid": "0x88fe70583f1df69f:0x2f7c98783ddb852d",
    "cid": "3421777459096028461",
    "reviewsCount": 157,
    "imagesCount": 25,
    "imageCategories": [],
    "scrapedAt": "2025-06-22T09:33:44.429Z",
    "googleFoodUrl": null,
    "hotelAds": [],
    "openingHours": [
      {
        "day": "Monday",
        "hours": "8:30\u202fAM to 6:30\u202fPM"
      },
      {
        "day": "Tuesday",
        "hours": "8:30\u202fAM to 6:30\u202fPM"
      },
      {
        "day": "Wednesday",
        "hours": "8:30\u202fAM to 6:30\u202fPM"
      },
      {
        "day": "Thursday",
        "hours": "8:30\u202fAM to 6:30\u202fPM"
      },
      {
        "day": "Friday",
        "hours": "8:30\u202fAM to 6:30\u202fPM"
      },
      {
        "day": "Saturday",
        "hours": "8:30\u202fAM to 2\u202fPM"
      },
      {
        "day": "Sunday",
        "hours": "Closed"
      }
    ],
    "peopleAlsoSearch": [],
    "placesTags": [],
    "reviewsTags": [],
    "additionalInfo": {
      "From the business": [
        {
          "Small business": true
        }
      ],
      "Service options": [
        {
          "Curbside pickup": true
        },
        {
          "Delivery": true
        },
        {
          "In-store pickup": true
        },
        {
          "In-store shopping": true
        },
        {
          "Same-day delivery": true
        }
      ],
      "Accessibility": [
        {
          "Wheelchair accessible entrance": true
        },
        {
          "Wheelchair accessible parking lot": true
        }
      ],
      "Offerings": [
        {
          "Medication disposal": true
        }
      ],
      "Planning": [
        {
          "Quick visit": true
        }
      ],
      "Payments": [
        {
          "Credit cards": true
        },
        {
          "Debit cards": true
        },
        {
          "NFC mobile payments": true
        },
        {
          "Credit cards": true
        }
      ]
    },
    "gasPrices": [],
    "url": "https://www.google.com/maps/search/?api=1&query=Tidewater%20Pharmacy%20%26%20Compounding&query_place_id=ChIJn_YdP1hw_ogRLYXbPXiYfC8",
    "searchPageUrl": "https://www.google.com/maps/search/independent%20pharmacy%20Charleston%20SC/@39.68245004733214,-108.6496533711355,8z?hl=en",
    "searchString": "independent pharmacy Charleston SC",
    "language": "en",
    "rank": 13,
    "isAdvertisement": false,
    "imageUrl": "https://lh3.googleusercontent.com/gps-cs-s/AC9h4nqpLOggkgSwStbyMJbEBVbhWjIUdDgr-GpRmBAxPP_79-V78dwfiaDYVUvy4TRwiv7IN_eqm7uJZXkkt6xCP_xlXrgrNz7rtQIDgMU5eMFuKUljwPKWBR6RdHH-TkIa9jdsDOQ=w408-h544-k-no",
    "kgmid": "/g/11b8c35_5q",
    "classification": "independent",
    "is_independent": true,
    "is_compounding": true,
    "confidence": 0.95,
    "source": "perplexity",
    "method": "llm"
  },
  {
    "title": "Walgreens Specialty Pharmacy",
    "description": "Department of the Walgreens chain providing prescription medications & other health-related items.",
    "price": null,
    "categoryName": "Pharmacy",
    "address": "200 Rutledge Ave, Charleston, SC 29403",
    "neighborhood": "Cannonborough Elliotborough",
    "street": "200 Rutledge Ave",
    "city": "Charleston",
    "postalCode": "29403",
    "state": "South Carolina",
    "countryCode": "US",
    "website": "https://www.walgreens.com/locator/walgreens-200+rutledge+ave-charleston-sc-29403/id=21191",
    "phone": "(843) 779-3690",
    "phoneUnformatted": "+18437793690",
    "claimThisBusiness": false,
    "location": {
      "lat": 32.789009,
      "lng": -79.946151
    },
    "totalScore": 4.6,
    "permanentlyClosed": false,
    "temporarilyClosed": false,
    "placeId": "ChIJqzc21SV7_ogR6MjxLVGNEQw",
    "categories": [
      "Pharmacy"
    ],
    "fid": "0x88fe7b25d53637ab:0xc118d512df1c8e8",
    "cid": "869631582861904104",
    "reviewsCount": 9,
    "imagesCount": 1,
    "imageCategories": [],
    "scrapedAt": "2025-06-22T09:33:44.429Z",
    "googleFoodUrl": null,
    "hotelAds": [],
    "openingHours": [
      {
        "day": "Monday",
        "hours": "9\u202fAM to 1:30\u202fPM, 2 to 5\u202fPM"
      },
      {
        "day": "Tuesday",
        "hours": "9\u202fAM to 1:30\u202fPM, 2 to 5\u202fPM"
      },
      {
        "day": "Wednesday",
        "hours": "9\u202fAM to 1:30\u202fPM, 2 to 5\u202fPM"
      },
      {
        "day": "Thursday",
        "hours": "9\u202fAM to 1:30\u202fPM, 2 to 5\u202fPM"
      },
      {
        "day": "Friday",
        "hours": "9\u202fAM to 1:30\u202fPM, 2 to 5\u202fPM"
      },
      {
        "day": "Saturday",
        "hours": "Closed"
      },
      {
        "day": "Sunday",
        "hours": "Closed"
      }
    ],
    "peopleAlsoSearch": [],
    "placesTags": [],
    "reviewsTags": [],
    "additionalInfo": {
      "Service options": [
        {
          "In-store pickup": true
        }
      ],
      "Accessibility": [
        {
          "Wheelchair accessible entrance": true
        },
        {
          "Wheelchair accessible parking lot": true
        }
      ],
      "Payments": [
        {
          "Credit cards": true
        }
      ]
    },
    "gasPrices": [],
    "url": "https://www.google.com/maps/search/?api=1&query=Walgreens%20Specialty%20Pharmacy&query_place_id=ChIJqzc21SV7_ogR6MjxLVGNEQw",
    "searchPageUrl": "https://www.google.com/maps/search/independent%20pharmacy%20Charleston%20SC/@39.68245004733214,-108.6496533711355,8z?hl=en",
    "searchString": "independent pharmacy Charleston SC",
    "language": "en",
    "rank": 14,
    "isAdvertisement": false,
    "imageUrl": "https://streetviewpixels-pa.googleapis.com/v1/thumbnail?panoid=AvYNRlDsOOIeub2FpY62IQ&cb_client=search.gws-prod.gps&w=408&h=240&yaw=86.60452&pitch=0&thumbfov=100",
    "kgmid": "/g/11h57xy1h7",
    "classification": "chain",
    "is_independent": false,
    "confidence": 1.0,
    "source": "rule-based"
  },
  {
    "title": "Sweetgrass Pharmacy and Compounding Carolina Park",
    "price": null,
    "categoryName": "Pharmacy",
    "address": "3485 Park Ave Blvd, Mt Pleasant, SC 29466",
    "neighborhood": null,
    "street": "3485 Park Ave Blvd",
    "city": "Mt Pleasant",
    "postalCode": "29466",
    "state": "South Carolina",
    "countryCode": "US",
    "website": "https://www.sweetgrasspharmacy.com/?utm_source=google&utm_medium=local&utm_campaign=localmaps&utm_content=4237067",
    "phone": "(843) 800-7007",
    "phoneUnformatted": "+18438007007",
    "claimThisBusiness": false,
    "location": {
      "lat": 32.88116,
      "lng": -79.7727806
    },
    "totalScore": 4.5,
    "permanentlyClosed": false,
    "temporarilyClosed": false,
    "placeId": null,
    "categories": [
      "Pharmacy",
      "Drug store"
    ],
    "fid": "0x88fe6de3696d2b15:0x9f66098b7ca78a8a",
    "cid": "11485878394351487626",
    "reviewsCount": 56,
    "imagesCount": 9,
    "imageCategories": [],
    "scrapedAt": "2025-06-22T09:33:44.429Z",
    "googleFoodUrl": null,
    "hotelAds": [],
    "openingHours": [
      {
        "day": "Monday",
        "hours": "8:30\u202fAM to 6:30\u202fPM"
      },
      {
        "day": "Tuesday",
        "hours": "8:30\u202fAM to 6:30\u202fPM"
      },
      {
        "day": "Wednesday",
        "hours": "8:30\u202fAM to 6:30\u202fPM"
      },
      {
        "day": "Thursday",
        "hours": "8:30\u202fAM to 6:30\u202fPM"
      },
      {
        "day": "Friday",
        "hours": "8:30\u202fAM to 6:30\u202fPM"
      },
      {
        "day": "Saturday",
        "hours": "9\u202fAM to 2\u202fPM"
      },
      {
        "day": "Sunday",
        "hours": "Closed"
      }
    ],
    "peopleAlsoSearch": [],
    "placesTags": [],
    "reviewsTags": [],
    "additionalInfo": {
      "Service options": [
        {
          "Curbside pickup": true
        },
        {
          "Delivery": true
        },
        {
          "Drive-through": true
        },
        {
          "In-store pickup": true
        },
        {
          "In-store shopping": true
        }
      ],
      "Accessibility": [
        {
          "Wheelchair accessible entrance": true
        },
        {
          "Wheelchair accessible parking lot": true
        }
      ],
      "Amenities": [
        {
          "Wi-Fi": true
        },
        {
          "Free Wi-Fi": true
        }
      ],
      "Planning": [
        {
          "Quick visit": true
        }
      ],
      "Payments": [
        {
          "Credit cards": true
        },
        {
          "Debit cards": true
        },
        {
          "NFC mobile payments": true
        },
        {
          "Credit cards": true
        }
      ]
    },
    "gasPrices": [],
    "url": "https://www.google.com/maps/search/?api=1&query=Sweetgrass%20Pharmacy%20and%20Compounding%20Carolina%20Park&query_place_id=ChIJFSttaeNt_ogRioqnfIsJZp8",
    "searchPageUrl": "https://www.google.com/maps/search/independent%20pharmacy%20Charleston%20SC/@39.68245004733214,-108.6496533711355,8z?hl=en",
    "searchString": "independent pharmacy Charleston SC",
    "language": "en",
    "rank": 15,
    "isAdvertisement": false,
    "imageUrl": "https://lh3.googleusercontent.com/gps-cs-s/AC9h4noBBB7NZPl1vjW0BrcHaqokQbqQlHHHEqvE42CTt2uBoRmPLWqBoPBb3qijCyKwP4VTCs7u5AcAsYC8ObySKdKRF4KTjiXsFDHFJGfZhg3-mzUMBLS64FsKNgcz1Sti-u2jmNs=w408-h306-k-no",
    "kgmid": "/g/11nnwnfj2k",
    "classification": "independent",
    "is_independent": true,
    "is_compounding": true,
    "confidence": 0.95,
    "source": "perplexity",
    "method": "llm"
  },
  {
    "title": "Sweetgrass Pharmacy",
    "price": null,
    "categoryName": "Pharmacy",
    "address": "1477 Long Grove Dr Suite 101, Mt Pleasant, SC 29464",
    "neighborhood": null,
    "street": "1477 Long Grove Dr Suite 101",
    "city": "Mt Pleasant",
    "postalCode": "29464",
    "state": "South Carolina",
    "countryCode": "US",
    "website": "https://www.sweetgrasspharmacy.com/",
    "phone": "(843) 654-4013",
    "phoneUnformatted": "+18436544013",
    "claimThisBusiness": false,
    "location": {
      "lat": 32.8205306,
      "lng": -79.8168453
    },
    "totalScore": 4.7,
    "permanentlyClosed": false,
    "temporarilyClosed": false,
    "placeId": null,
    "categories": [
      "Pharmacy",
      "Homeopathic pharmacy",
      "Veterinary pharmacy"
    ],
    "fid": "0x88fe72178d3b7a39:0x959048753acb13f8",
    "cid": "10777193576632357880",
    "reviewsCount": 119,
    "imagesCount": 16,
    "imageCategories": [],
    "scrapedAt": "2025-06-22T09:33:44.429Z",
    "googleFoodUrl": null,
    "hotelAds": [],
    "openingHours": [
      {
        "day": "Monday",
        "hours": "8:30\u202fAM to 6:30\u202fPM"
      },
      {
        "day": "Tuesday",
        "hours": "8:30\u202fAM to 6:30\u202fPM"
      },
      {
        "day": "Wednesday",
        "hours": "8:30\u202fAM to 6:30\u202fPM"
      },
      {
        "day": "Thursday",
        "hours": "8:30\u202fAM to 6:30\u202fPM"
      },
      {
        "day": "Friday",
        "hours": "8:30\u202fAM to 6:30\u202fPM"
      },
      {
        "day": "Saturday",
        "hours": "9\u202fAM to 2\u202fPM"
      },
      {
        "day": "Sunday",
        "hours": "Closed"
      }
    ],
    "peopleAlsoSearch": [],
    "placesTags": [],
    "reviewsTags": [],
    "additionalInfo": {
      "Service options": [
        {
          "Curbside pickup": true
        },
        {
          "Delivery": true
        },
        {
          "In-store pickup": true
        },
        {
          "In-store shopping": true
        },
        {
          "Onsite services": true
        },
        {
          "Same-day delivery": true
        }
      ],
      "Accessibility": [
        {
          "Wheelchair accessible entrance": true
        },
        {
          "Wheelchair accessible parking lot": true
        }
      ],
      "Planning": [
        {
          "Quick visit": true
        }
      ],
      "Payments": [
        {
          "Checks": true
        },
        {
          "Credit cards": true
        },
        {
          "Debit cards": true
        },
        {
          "NFC mobile payments": true
        },
        {
          "Credit cards": true
        }
      ]
    },
    "gasPrices": [],
    "url": "https://www.google.com/maps/search/?api=1&query=Sweetgrass%20Pharmacy&query_place_id=ChIJOXo7jRdy_ogR-BPLOnVIkJU",
    "searchPageUrl": "https://www.google.com/maps/search/independent%20pharmacy%20Charleston%20SC/@39.68245004733214,-108.6496533711355,8z?hl=en",
    "searchString": "independent pharmacy Charleston SC",
    "language": "en",
    "rank": 16,
    "isAdvertisement": false,
    "imageUrl": "https://lh3.googleusercontent.com/p/AF1QipM5P3vkeLtJDmO79QHCu04FaM2sqxiQ9aVQ64A_=w408-h271-k-no",
    "kgmid": "/g/11b5z8z26p",
    "classification": "independent",
    "is_independent": true,
    "is_compounding": false,
    "confidence": 0.9,
    "source": "perplexity",
    "method": "llm"
  },
  {
    "title": "Pitt Street Pharmacy",
    "price": null,
    "categoryName": "Pharmacy",
    "address": "111 Pitt St, Mt Pleasant, SC 29464",
    "neighborhood": null,
    "street": "111 Pitt St",
    "city": "Mt Pleasant",
    "postalCode": "29464",
    "state": "South Carolina",
    "countryCode": "US",
    "website": "https://pittstreetpharmacy.com/",
    "phone": "(843) 884-4051",
    "phoneUnformatted": "+18438844051",
    "claimThisBusiness": true,
    "location": {
      "lat": 32.7868904,
      "lng": -79.8766412
    },
    "totalScore": 4.8,
    "permanentlyClosed": false,
    "temporarilyClosed": false,
    "placeId": null,
    "categories": [
      "Pharmacy"
    ],
    "fid": "0x88fe70e2256ac047:0x4c589fecd6d71da2",
    "cid": "5501322784398581154",
    "reviewsCount": 73,
    "imagesCount": 36,
    "imageCategories": [],
    "scrapedAt": "2025-06-22T09:33:44.429Z",
    "googleFoodUrl": null,
    "hotelAds": [],
    "openingHours": [
      {
        "day": "Monday",
        "hours": "9\u202fAM to 6\u202fPM"
      },
      {
        "day": "Tuesday",
        "hours": "9\u202fAM to 6\u202fPM"
      },
      {
        "day": "Wednesday",
        "hours": "9\u202fAM to 6\u202fPM"
      },
      {
        "day": "Thursday",
        "hours": "9\u202fAM to 6\u202fPM"
      },
      {
        "day": "Friday",
        "hours": "9\u202fAM to 6\u202fPM"
      },
      {
        "day": "Saturday",
        "hours": "9\u202fAM to 6\u202fPM"
      },
      {
        "day": "Sunday",
        "hours": "Closed"
      }
    ],
    "peopleAlsoSearch": [],
    "placesTags": [],
    "reviewsTags": [],
    "additionalInfo": {
      "Service options": [
        {
          "Delivery": true
        },
        {
          "In-store pickup": true
        },
        {
          "Onsite services": true
        }
      ],
      "Accessibility": [
        {
          "Wheelchair accessible entrance": true
        },
        {
          "Wheelchair accessible parking lot": true
        }
      ],
      "Planning": [
        {
          "Quick visit": true
        }
      ],
      "Payments": [
        {
          "Credit cards": true
        },
        {
          "Debit cards": true
        },
        {
          "NFC mobile payments": true
        },
        {
          "Credit cards": true
        }
      ]
    },
    "gasPrices": [],
    "url": "https://www.google.com/maps/search/?api=1&query=Pitt%20Street%20Pharmacy&query_place_id=ChIJR8BqJeJw_ogRoh3X1uyfWEw",
    "searchPageUrl": "https://www.google.com/maps/search/independent%20pharmacy%20Charleston%20SC/@39.68245004733214,-108.6496533711355,8z?hl=en",
    "searchString": "independent pharmacy Charleston SC",
    "language": "en",
    "rank": 17,
    "isAdvertisement": false,
    "imageUrl": "https://lh3.googleusercontent.com/gps-cs-s/AC9h4noRtWTeHUgvjmeJDZp9fnS-Vm29T_6kBdbj84pLEXAB9ccm6AGeKmi7FtrnAGwfzE6cgqQYluNwrXXjMGHfEr-Z3Y0CAQyGlF3OyviAzGPH2U0YeQsBouHkMTZbrmWhbV5qpOvhHQ=w408-h306-k-no",
    "kgmid": "/g/1tjyvgbm",
    "classification": "independent",
    "is_independent": true,
    "is_compounding": false,
    "confidence": 0.9,
    "source": "perplexity",
    "method": "llm"
  },
  {
    "title": "Long Point Pharmacy",
    "price": null,
    "categoryName": "Pharmacy",
    "address": "616 Long Point Rd H, Mt Pleasant, SC 29464",
    "neighborhood": null,
    "street": "616 Long Point Rd H",
    "city": "Mt Pleasant",
    "postalCode": "29464",
    "state": "South Carolina",
    "countryCode": "US",
    "website": "https://www.longpointpharmacy.com/",
    "phone": "(843) 884-8806",
    "phoneUnformatted": "+18438848806",
    "claimThisBusiness": false,
    "location": {
      "lat": 32.8395495,
      "lng": -79.8574221
    },
    "totalScore": 4.9,
    "permanentlyClosed": false,
    "temporarilyClosed": false,
    "placeId": null,
    "categories": [
      "Pharmacy"
    ],
    "fid": "0x88fe71d958ad658f:0xb2799be1f9b28a9f",
    "cid": "12860481605792336543",
    "reviewsCount": 28,
    "imagesCount": 2,
    "imageCategories": [],
    "scrapedAt": "2025-06-22T09:33:44.429Z",
    "googleFoodUrl": null,
    "hotelAds": [],
    "openingHours": [
      {
        "day": "Monday",
        "hours": "9\u202fAM to 6\u202fPM"
      },
      {
        "day": "Tuesday",
        "hours": "9\u202fAM to 6\u202fPM"
      },
      {
        "day": "Wednesday",
        "hours": "9\u202fAM to 6\u202fPM"
      },
      {
        "day": "Thursday",
        "hours": "9\u202fAM to 6\u202fPM"
      },
      {
        "day": "Friday",
        "hours": "9\u202fAM to 6\u202fPM"
      },
      {
        "day": "Saturday",
        "hours": "10\u202fAM to 2\u202fPM"
      },
      {
        "day": "Sunday",
        "hours": "Closed"
      }
    ],
    "peopleAlsoSearch": [],
    "placesTags": [],
    "reviewsTags": [],
    "additionalInfo": {
      "From the business": [
        {
          "Small business": true
        }
      ],
      "Service options": [
        {
          "Curbside pickup": true
        },
        {
          "In-store pickup": true
        }
      ],
      "Accessibility": [
        {
          "Wheelchair accessible entrance": true
        },
        {
          "Wheelchair accessible parking lot": true
        }
      ],
      "Planning": [
        {
          "Quick visit": true
        }
      ],
      "Payments": [
        {
          "Credit cards": true
        },
        {
          "Debit cards": true
        },
        {
          "NFC mobile payments": true
        },
        {
          "Credit cards": true
        }
      ],
      "Parking": [
        {
          "Free street parking": true
        }
      ]
    },
    "gasPrices": [],
    "url": "https://www.google.com/maps/search/?api=1&query=Long%20Point%20Pharmacy&query_place_id=ChIJj2WtWNlx_ogRn4qy-eGbebI",
    "searchPageUrl": "https://www.google.com/maps/search/independent%20pharmacy%20Charleston%20SC/@39.68245004733214,-108.6496533711355,8z?hl=en",
    "searchString": "independent pharmacy Charleston SC",
    "language": "en",
    "rank": 18,
    "isAdvertisement": false,
    "imageUrl": "https://lh3.googleusercontent.com/gps-cs-s/AC9h4nphE0KmeWYkUv97jSd16bpljvfr0DPY1t67ccXOjAHs78MINgUZeJfUWmd3a2CshOX9-4FO3RyzeGpE7XCiP6sKyeRf8XaliN_dKvoz7AWe4k2WmYUixk_lnjDGjlzbaZJE6BjW=w408-h544-k-no",
    "kgmid": "/g/1tggph8q",
    "classification": "independent",
    "is_independent": true,
    "is_compounding": false,
    "confidence": 0.9,
    "source": "perplexity",
    "method": "llm"
  },
  {
    "title": "Guerin's Pharmacy",
    "price": null,
    "categoryName": "Pharmacy",
    "address": "140 S Main St, Summerville, SC 29483",
    "neighborhood": null,
    "street": "140 S Main St",
    "city": "Summerville",
    "postalCode": "29483",
    "state": "South Carolina",
    "countryCode": "US",
    "website": "http://www.guerinspharmacy.com/?utm_source=NEXT&utm_medium=Google_website",
    "phone": "(843) 873-2531",
    "phoneUnformatted": "+18438732531",
    "claimThisBusiness": false,
    "location": {
      "lat": 33.0192929,
      "lng": -80.1762071
    },
    "totalScore": 4.6,
    "permanentlyClosed": false,
    "temporarilyClosed": false,
    "placeId": null,
    "categories": [
      "Pharmacy",
      "Candy store",
      "Convenience store",
      "Drug store",
      "Medical supply store",
      "Souvenir store",
      "Vitamin & supplements store"
    ],
    "fid": "0x88fe8b6f80ae0c83:0x90e82fea740358ae",
    "cid": "10441648420073724078",
    "reviewsCount": 67,
    "imagesCount": 105,
    "imageCategories": [],
    "scrapedAt": "2025-06-22T09:33:44.429Z",
    "googleFoodUrl": null,
    "hotelAds": [],
    "openingHours": [
      {
        "day": "Monday",
        "hours": "9\u202fAM to 6\u202fPM"
      },
      {
        "day": "Tuesday",
        "hours": "9\u202fAM to 6\u202fPM"
      },
      {
        "day": "Wednesday",
        "hours": "9\u202fAM to 7\u202fPM"
      },
      {
        "day": "Thursday",
        "hours": "9\u202fAM to 7\u202fPM"
      },
      {
        "day": "Friday",
        "hours": "9\u202fAM to 6\u202fPM"
      },
      {
        "day": "Saturday",
        "hours": "9\u202fAM to 5\u202fPM"
      },
      {
        "day": "Sunday",
        "hours": "Closed"
      }
    ],
    "peopleAlsoSearch": [],
    "placesTags": [],
    "reviewsTags": [],
    "additionalInfo": {
      "From the business": [
        {
          "Identifies as women-owned": true
        },
        {
          "Small business": true
        }
      ],
      "Service options": [
        {
          "Curbside pickup": true
        },
        {
          "Delivery": true
        },
        {
          "In-store pickup": true
        },
        {
          "In-store shopping": true
        },
        {
          "Onsite services": true
        },
        {
          "Same-day delivery": true
        }
      ],
      "Accessibility": [
        {
          "Wheelchair accessible parking lot": true
        }
      ],
      "Amenities": [
        {
          "Wi-Fi": true
        },
        {
          "Free Wi-Fi": true
        }
      ],
      "Crowd": [
        {
          "LGBTQ+ friendly": true
        },
        {
          "Transgender safespace": true
        }
      ],
      "Planning": [
        {
          "Quick visit": true
        }
      ],
      "Recycling": [
        {
          "Batteries": true
        },
        {
          "Electronics": true
        },
        {
          "Light bulbs": true
        }
      ],
      "Payments": [
        {
          "Checks": true
        },
        {
          "Credit cards": true
        },
        {
          "Debit cards": true
        },
        {
          "NFC mobile payments": true
        },
        {
          "Credit cards": true
        }
      ],
      "Parking": [
        {
          "Free street parking": true
        },
        {
          "On-site parking": true
        }
      ]
    },
    "gasPrices": [],
    "url": "https://www.google.com/maps/search/?api=1&query=Guerin's%20Pharmacy&query_place_id=ChIJgwyugG-L_ogRrlgDdOov6JA",
    "searchPageUrl": "https://www.google.com/maps/search/independent%20pharmacy%20Charleston%20SC/@39.68245004733214,-108.6496533711355,8z?hl=en",
    "searchString": "independent pharmacy Charleston SC",
    "language": "en",
    "rank": 19,
    "isAdvertisement": false,
    "imageUrl": "https://lh3.googleusercontent.com/p/AF1QipO-8w-cpgb5S1RlybU4T7nlkYNrcjH8EfGmhamK=w426-h240-k-no",
    "kgmid": "/g/1tdksnpc",
    "classification": "independent",
    "is_independent": true,
    "is_compounding": false,
    "confidence": 0.9,
    "source": "perplexity",
    "method": "llm"
  }
]