[
  {
    "title": "City Drug",
    "price": null,
    "categoryName": "Pharmacy",
    "address": "1722 Carey Ave, Cheyenne, WY 82001",
    "neighborhood": null,
    "street": "1722 Carey Ave",
    "city": "Cheyenne",
    "postalCode": "82001",
    "state": "Wyoming",
    "countryCode": "US",
    "website": "https://www.citydrugcheyenne.com/",
    "phone": "(307) 514-0200",
    "phoneUnformatted": "+13075140200",
    "claimThisBusiness": false,
    "location": {
      "lat": 41.1338161,
      "lng": -104.8176919
    },
    "totalScore": 4.9,
    "permanentlyClosed": false,
    "temporarilyClosed": false,
    "placeId": null,
    "categories": [
      "Pharmacy"
    ],
    "fid": "0x876f3b4729512b05:0x93ba63c13182dee7",
    "cid": "10644930350654086887",
    "reviewsCount": 49,
    "imagesCount": 34,
    "imageCategories": [],
    "scrapedAt": "2025-06-23T05:40:03.047Z",
    "googleFoodUrl": null,
    "hotelAds": [],
    "openingHours": [
      {
        "day": "Monday",
        "hours": "8\u202fAM to 5\u202fPM"
      },
      {
        "day": "Tuesday",
        "hours": "8\u202fAM to 5\u202fPM"
      },
      {
        "day": "Wednesday",
        "hours": "8\u202fAM to 5\u202fPM"
      },
      {
        "day": "Thursday",
        "hours": "8\u202fAM to 5\u202fPM"
      },
      {
        "day": "Friday",
        "hours": "8\u202fAM to 5\u202fPM"
      },
      {
        "day": "Saturday",
        "hours": "9\u202fAM to 12\u202fPM"
      },
      {
        "day": "Sunday",
        "hours": "Closed"
      }
    ],
    "peopleAlsoSearch": [],
    "placesTags": [],
    "reviewsTags": [],
    "additionalInfo": {
      "From the business": [
        {
          "Small business": true
        }
      ],
      "Service options": [
        {
          "Delivery": true
        },
        {
          "In-store pickup": true
        },
        {
          "In-store shopping": true
        }
      ],
      "Accessibility": [
        {
          "Wheelchair accessible entrance": true
        },
        {
          "Wheelchair accessible parking lot": true
        }
      ],
      "Amenities": [
        {
          "Wi-Fi": true
        },
        {
          "Free Wi-Fi": true
        }
      ],
      "Planning": [
        {
          "Quick visit": true
        }
      ],
      "Payments": [
        {
          "Credit cards": true
        },
        {
          "Debit cards": true
        },
        {
          "NFC mobile payments": true
        },
        {
          "Credit cards": true
        }
      ]
    },
    "gasPrices": [],
    "url": "https://www.google.com/maps/search/?api=1&query=City%20Drug&query_place_id=ChIJBStRKUc7b4cR596CMcFjupM",
    "searchPageUrl": "https://www.google.com/maps/search/independent%20pharmacy%20in%20Cheyenne,%20WY/@52.135050349406455,-179.97595653707245,14z?hl=en",
    "searchString": "independent pharmacy in Cheyenne, WY",
    "language": "en",
    "rank": 1,
    "isAdvertisement": false,
    "imageUrl": "https://lh3.googleusercontent.com/gps-cs-s/AC9h4no--QNeD29XhIi2IQM1XdF_m1adKXDg8f9OZNecpuwLs0kMmkvmXSbW1a-peJw1A2_Dc_JGtQk10cbgw9d52SVIDMcykWaVN8Z2UnF7iQNLitDVzn62YbQPdFFkB_7IFn0tZNr8=w408-h306-k-no",
    "kgmid": "/g/11s4svf29c",
    "classification": "independent",
    "is_independent": true,
    "is_compounding": false,
    "confidence": 0.9,
    "source": "perplexity",
    "method": "llm",
    "query_location": "in_cheyenne_wy"
  },
  {
    "title": "North Star Pharmacy & Infusion",
    "price": null,
    "categoryName": "Pharmacy",
    "address": "7121 Commons Dr, Cheyenne, WY 82009",
    "neighborhood": null,
    "street": "7121 Commons Dr",
    "city": "Cheyenne",
    "postalCode": "82009",
    "state": "Wyoming",
    "countryCode": "US",
    "website": "https://www.northstarinfusions.com/",
    "phone": "(307) 637-4300",
    "phoneUnformatted": "+13076374300",
    "claimThisBusiness": false,
    "location": {
      "lat": 41.1827124,
      "lng": -104.8270637
    },
    "totalScore": 4.1,
    "permanentlyClosed": false,
    "temporarilyClosed": false,
    "placeId": null,
    "categories": [
      "Pharmacy"
    ],
    "fid": "0x8644d1187882ca89:0x7e81c4f463531e93",
    "cid": "9115783674692050579",
    "reviewsCount": 106,
    "imagesCount": 3,
    "imageCategories": [],
    "scrapedAt": "2025-06-23T05:40:03.048Z",
    "googleFoodUrl": null,
    "hotelAds": [],
    "openingHours": [
      {
        "day": "Monday",
        "hours": "8\u202fAM to 6\u202fPM"
      },
      {
        "day": "Tuesday",
        "hours": "8\u202fAM to 6\u202fPM"
      },
      {
        "day": "Wednesday",
        "hours": "8\u202fAM to 6\u202fPM"
      },
      {
        "day": "Thursday",
        "hours": "8\u202fAM to 6\u202fPM"
      },
      {
        "day": "Friday",
        "hours": "8\u202fAM to 6\u202fPM"
      },
      {
        "day": "Saturday",
        "hours": "9\u202fAM to 12\u202fPM"
      },
      {
        "day": "Sunday",
        "hours": "Closed"
      }
    ],
    "peopleAlsoSearch": [],
    "placesTags": [],
    "reviewsTags": [],
    "additionalInfo": {
      "From the business": [
        {
          "Small business": true
        }
      ],
      "Service options": [
        {
          "Delivery": true
        },
        {
          "Drive-through": true
        },
        {
          "In-store pickup": true
        },
        {
          "Same-day delivery": true
        }
      ],
      "Accessibility": [
        {
          "Wheelchair accessible entrance": true
        },
        {
          "Wheelchair accessible parking lot": true
        }
      ],
      "Amenities": [
        {
          "Wi-Fi": true
        },
        {
          "Free Wi-Fi": true
        }
      ],
      "Planning": [
        {
          "Quick visit": true
        }
      ],
      "Payments": [
        {
          "Credit cards": true
        },
        {
          "Debit cards": true
        },
        {
          "NFC mobile payments": true
        },
        {
          "Credit cards": true
        }
      ]
    },
    "gasPrices": [],
    "url": "https://www.google.com/maps/search/?api=1&query=North%20Star%20Pharmacy%20%26%20Infusion&query_place_id=ChIJicqCeBjRRIYRkx5TY_TEgX4",
    "searchPageUrl": "https://www.google.com/maps/search/independent%20pharmacy%20in%20Cheyenne,%20WY/@52.135050349406455,-179.97595653707245,14z?hl=en",
    "searchString": "independent pharmacy in Cheyenne, WY",
    "language": "en",
    "rank": 2,
    "isAdvertisement": false,
    "imageUrl": "https://lh3.googleusercontent.com/gps-cs-s/AC9h4noaw3hDLXtH1lMulVkQmM8399Di9S2fpOtiEUuj9hFMLmYttOEUZwW2X5BmnBAhZ914EVdtR1ZThuZys3I8jWDkPXsXPfvpf4RmSo75k7mgjYerJWJz5gDg0vuzxBnc6Bh8N4hGuw=w408-h544-k-no",
    "kgmid": "/g/1tj2nvyn",
    "classification": "independent",
    "is_independent": true,
    "is_compounding": false,
    "confidence": 0.9,
    "source": "perplexity",
    "method": "llm",
    "query_location": "in_cheyenne_wy"
  },
  {
    "title": "Genoa Healthcare",
    "price": null,
    "categoryName": "Pharmacy",
    "address": "510 W 29th St suite p, Cheyenne, WY 82001, United States",
    "neighborhood": null,
    "street": "510 W 29th St suite p",
    "city": "Cheyenne",
    "postalCode": "82001",
    "state": "Wyoming",
    "countryCode": "US",
    "website": "http://www.genoahealthcare.com/",
    "phone": "+1 307-778-3818",
    "phoneUnformatted": "+13077783818",
    "claimThisBusiness": false,
    "location": {
      "lat": 41.1430379,
      "lng": -104.8271706
    },
    "totalScore": 4.4,
    "permanentlyClosed": false,
    "temporarilyClosed": false,
    "placeId": "ChIJzRl8B-86b4cRpKyNDoSTM2k",
    "categories": [
      "Pharmacy"
    ],
    "fid": "0x876f3aef077c19cd:0x693393840e8daca4",
    "cid": "7580564793183808676",
    "reviewsCount": 25,
    "imagesCount": 2,
    "imageCategories": [],
    "scrapedAt": "2025-06-23T05:40:25.518Z",
    "googleFoodUrl": null,
    "hotelAds": [],
    "openingHours": [
      {
        "day": "Monday",
        "hours": "8\u202fAM to 12:30\u202fPM, 1:30 to 5\u202fPM"
      },
      {
        "day": "Tuesday",
        "hours": "8\u202fAM to 12:30\u202fPM, 1:30 to 5\u202fPM"
      },
      {
        "day": "Wednesday",
        "hours": "8\u202fAM to 12:30\u202fPM, 1:30 to 5\u202fPM"
      },
      {
        "day": "Thursday",
        "hours": "8\u202fAM to 12:30\u202fPM, 1:30 to 5\u202fPM"
      },
      {
        "day": "Friday",
        "hours": "8\u202fAM to 12:30\u202fPM, 1:30 to 5\u202fPM"
      },
      {
        "day": "Saturday",
        "hours": "Closed"
      },
      {
        "day": "Sunday",
        "hours": "Closed"
      }
    ],
    "peopleAlsoSearch": [],
    "placesTags": [],
    "reviewsTags": [],
    "additionalInfo": {
      "Accessibility": [
        {
          "Wheelchair-accessible car park": true
        },
        {
          "Wheelchair-accessible entrance": true
        }
      ],
      "Payments": [
        {
          "Credit cards": true
        }
      ]
    },
    "gasPrices": [],
    "url": "https://www.google.com/maps/search/?api=1&query=Genoa%20Healthcare&query_place_id=ChIJzRl8B-86b4cRpKyNDoSTM2k",
    "searchPageUrl": "https://www.google.com/maps/search/independent%20pharmacy%20in%20Cheyenne,%20WY/@36.81849750000001,-108.6496533711355,8z?hl=en",
    "searchString": "independent pharmacy in Cheyenne, WY",
    "language": "en",
    "rank": 2,
    "isAdvertisement": false,
    "imageUrl": "https://lh3.googleusercontent.com/gps-cs-s/AC9h4nrAcnBsKGDrVngXzssoMXreRuYSkp_NZZlzN5MDQeH5OHyxZaYe9dXVezRi4Lha38rLDeboWCWVn0gm8IusOhwQ9aSkRYipOsc_8oURJMM5H2pK2VTLoYUVZg7qkLz2H_ykxHo=w408-h725-k-no",
    "kgmid": "/g/1tfzh7xl",
    "classification": "chain",
    "is_independent": false,
    "confidence": 1.0,
    "source": "rule-based"
  },
  {
    "title": "King Soopers Pharmacy",
    "price": null,
    "categoryName": "Pharmacy",
    "address": "3702 Dell Range Blvd, Cheyenne, WY 82009, United States",
    "neighborhood": null,
    "street": "3702 Dell Range Blvd",
    "city": "Cheyenne",
    "postalCode": "82009",
    "state": "Wyoming",
    "countryCode": "US",
    "website": "https://www.kingsoopers.com/rx/pharmacy/details/620/00079?cid=loc_62000079P_gmb",
    "phone": "+1 307-638-0192",
    "phoneUnformatted": "+13076380192",
    "claimThisBusiness": false,
    "location": {
      "lat": 41.1612719,
      "lng": -104.7646326
    },
    "totalScore": 4.3,
    "permanentlyClosed": false,
    "temporarilyClosed": false,
    "placeId": "ChIJFQd0o3c7b4cR9y0OLicfy-U",
    "categories": [
      "Pharmacy",
      "Drug store",
      "Health counselor",
      "Home health care service"
    ],
    "fid": "0x876f3b77a3740715:0xe5cb1f272e0e2df7",
    "cid": "16558362708094627319",
    "reviewsCount": 36,
    "imagesCount": 10,
    "imageCategories": [],
    "scrapedAt": "2025-06-23T05:40:25.519Z",
    "googleFoodUrl": null,
    "hotelAds": [],
    "openingHours": [
      {
        "day": "Monday",
        "hours": "9\u202fAM to 1\u202fPM, 1:30 to 8\u202fPM"
      },
      {
        "day": "Tuesday",
        "hours": "9\u202fAM to 1\u202fPM, 1:30 to 8\u202fPM"
      },
      {
        "day": "Wednesday",
        "hours": "9\u202fAM to 1\u202fPM, 1:30 to 8\u202fPM"
      },
      {
        "day": "Thursday",
        "hours": "9\u202fAM to 1\u202fPM, 1:30 to 8\u202fPM"
      },
      {
        "day": "Friday",
        "hours": "9\u202fAM to 1\u202fPM, 1:30 to 8\u202fPM"
      },
      {
        "day": "Saturday",
        "hours": "9\u202fAM to 1\u202fPM, 1:30 to 6\u202fPM"
      },
      {
        "day": "Sunday",
        "hours": "10\u202fAM to 1\u202fPM, 1:30 to 5\u202fPM"
      }
    ],
    "peopleAlsoSearch": [],
    "placesTags": [],
    "reviewsTags": [],
    "additionalInfo": {
      "Service options": [
        {
          "Kerbside pickup": true
        },
        {
          "Delivery": true
        },
        {
          "In-store pick-up": true
        },
        {
          "In-store shopping": true
        },
        {
          "Same-day delivery": true
        }
      ],
      "Accessibility": [
        {
          "Wheelchair-accessible car park": true
        },
        {
          "Wheelchair-accessible entrance": true
        },
        {
          "Wheelchair-accessible seating": true
        },
        {
          "Wheelchair-accessible toilet": true
        }
      ],
      "Offerings": [
        {
          "Passport photos": true
        }
      ],
      "Crowd": [
        {
          "LGBTQ+ friendly": true
        },
        {
          "Transgender safe space": true
        }
      ],
      "Planning": [
        {
          "Quick visit": true
        }
      ],
      "Payments": [
        {
          "Cheques": true
        },
        {
          "Credit cards": true
        },
        {
          "Debit cards": true
        },
        {
          "NFC mobile payments": true
        },
        {
          "Credit cards": true
        }
      ]
    },
    "gasPrices": [],
    "url": "https://www.google.com/maps/search/?api=1&query=King%20Soopers%20Pharmacy&query_place_id=ChIJFQd0o3c7b4cR9y0OLicfy-U",
    "searchPageUrl": "https://www.google.com/maps/search/independent%20pharmacy%20in%20Cheyenne,%20WY/@36.81849750000001,-108.6496533711355,8z?hl=en",
    "searchString": "independent pharmacy in Cheyenne, WY",
    "language": "en",
    "rank": 4,
    "isAdvertisement": false,
    "imageUrl": "https://lh3.googleusercontent.com/p/AF1QipOtYHOfD98aFFrGqsY-CEiMC4IVUzZADuAUUMYE=w426-h240-k-no",
    "kgmid": "/g/1yfjnst7k",
    "classification": "chain",
    "is_independent": false,
    "confidence": 1.0,
    "source": "rule-based"
  },
  {
    "title": "Walgreens Pharmacy",
    "description": "Department of the Walgreens chain providing prescription medications & other health-related items.",
    "price": "\u20ac\u20ac",
    "categoryName": "Pharmacy",
    "address": "2304 E Lincolnway, Cheyenne, WY 82001, United States",
    "neighborhood": null,
    "street": "2304 E Lincolnway",
    "city": "Cheyenne",
    "postalCode": "82001",
    "state": "Wyoming",
    "countryCode": "US",
    "website": "https://www.walgreens.com/locator/walgreens-2304+e+lincolnway-cheyenne-wy-82001/id=5838",
    "phone": "+1 307-635-0241",
    "phoneUnformatted": "+13076350241",
    "claimThisBusiness": false,
    "location": {
      "lat": 41.1389398,
      "lng": -104.789417
    },
    "totalScore": 3.7,
    "permanentlyClosed": false,
    "temporarilyClosed": false,
    "placeId": "ChIJy9eJjyI7b4cR6DIzpOiU8CQ",
    "categories": [
      "Pharmacy"
    ],
    "fid": "0x876f3b228f89d7cb:0x24f094e8a43332e8",
    "cid": "2661791106684105448",
    "reviewsCount": 36,
    "imagesCount": 3,
    "imageCategories": [],
    "scrapedAt": "2025-06-23T05:40:25.519Z",
    "googleFoodUrl": null,
    "hotelAds": [],
    "openingHours": [
      {
        "day": "Monday",
        "hours": "8\u202fAM to 1:30\u202fPM, 2 to 10\u202fPM"
      },
      {
        "day": "Tuesday",
        "hours": "8\u202fAM to 1:30\u202fPM, 2 to 10\u202fPM"
      },
      {
        "day": "Wednesday",
        "hours": "8\u202fAM to 1:30\u202fPM, 2 to 10\u202fPM"
      },
      {
        "day": "Thursday",
        "hours": "8\u202fAM to 1:30\u202fPM, 2 to 10\u202fPM"
      },
      {
        "day": "Friday",
        "hours": "8\u202fAM to 1:30\u202fPM, 2 to 10\u202fPM"
      },
      {
        "day": "Saturday",
        "hours": "9\u202fAM to 1:30\u202fPM, 2 to 6\u202fPM"
      },
      {
        "day": "Sunday",
        "hours": "10\u202fAM to 1:30\u202fPM, 2 to 6\u202fPM"
      }
    ],
    "additionalOpeningHours": {
      "Drive through": [
        {
          "day": "Monday",
          "hours": "8\u202fam\u20131:30\u202fpm"
        },
        {
          "day": "Tuesday",
          "hours": "8\u202fam\u20131:30\u202fpm"
        },
        {
          "day": "Wednesday",
          "hours": "8\u202fam\u20131:30\u202fpm"
        },
        {
          "day": "Thursday",
          "hours": "8\u202fam\u20131:30\u202fpm"
        },
        {
          "day": "Friday",
          "hours": "8\u202fam\u20131:30\u202fpm"
        },
        {
          "day": "Saturday",
          "hours": "9\u202fam\u20131:30\u202fpm"
        },
        {
          "day": "Sunday",
          "hours": "10\u202fam\u20131:30\u202fpm"
        }
      ]
    },
    "peopleAlsoSearch": [],
    "placesTags": [],
    "reviewsTags": [],
    "additionalInfo": {
      "Service options": [
        {
          "Kerbside pickup": true
        },
        {
          "Drive-through": true
        },
        {
          "In-store pick-up": true
        }
      ],
      "Accessibility": [
        {
          "Wheelchair-accessible car park": true
        },
        {
          "Wheelchair-accessible entrance": true
        }
      ],
      "Offerings": [
        {
          "Medication disposal": true
        },
        {
          "Naloxone": true
        }
      ],
      "Planning": [
        {
          "Quick visit": true
        }
      ],
      "Payments": [
        {
          "Cheques": true
        },
        {
          "Credit cards": true
        },
        {
          "Debit cards": true
        }
      ]
    },
    "gasPrices": [],
    "url": "https://www.google.com/maps/search/?api=1&query=Walgreens%20Pharmacy&query_place_id=ChIJy9eJjyI7b4cR6DIzpOiU8CQ",
    "searchPageUrl": "https://www.google.com/maps/search/independent%20pharmacy%20in%20Cheyenne,%20WY/@36.81849750000001,-108.6496533711355,8z?hl=en",
    "searchString": "independent pharmacy in Cheyenne, WY",
    "language": "en",
    "rank": 5,
    "isAdvertisement": false,
    "imageUrl": "https://lh3.googleusercontent.com/p/AF1QipO1GseqRHz6J__uqq4LRCTzICdD56WAES_a9wu9=w525-h240-k-no",
    "kgmid": "/g/11cn93pl14",
    "classification": "chain",
    "is_independent": false,
    "confidence": 1.0,
    "source": "rule-based"
  },
  {
    "title": "HealthWorks Pharmacy",
    "price": null,
    "categoryName": "Pharmacy",
    "address": "2508 E Fox Farm Rd #1b, Cheyenne, WY 82007, United States",
    "neighborhood": null,
    "street": "2508 E Fox Farm Rd #1b",
    "city": "Cheyenne",
    "postalCode": "82007",
    "state": "Wyoming",
    "countryCode": "US",
    "website": "https://www.wyhealthworks.org/",
    "phone": "+1 307-637-7000",
    "phoneUnformatted": "+13076377000",
    "claimThisBusiness": false,
    "location": {
      "lat": 41.137589,
      "lng": -104.8065716
    },
    "totalScore": 4,
    "permanentlyClosed": false,
    "temporarilyClosed": false,
    "placeId": "ChIJRwSRU7Ekb4cR0ME1tMnWM2M",
    "categories": [
      "Pharmacy"
    ],
    "fid": "0x876f24b153910447:0x6333d6c9b435c1d0",
    "cid": "7148293195367301584",
    "reviewsCount": 18,
    "imagesCount": 2,
    "imageCategories": [],
    "scrapedAt": "2025-06-23T05:40:25.520Z",
    "googleFoodUrl": null,
    "hotelAds": [],
    "openingHours": [
      {
        "day": "Monday",
        "hours": "8\u202fAM to 5\u202fPM"
      },
      {
        "day": "Tuesday",
        "hours": "8\u202fAM to 5\u202fPM"
      },
      {
        "day": "Wednesday",
        "hours": "8\u202fAM to 5\u202fPM"
      },
      {
        "day": "Thursday",
        "hours": "8\u202fAM to 5\u202fPM"
      },
      {
        "day": "Friday",
        "hours": "8\u202fAM to 5\u202fPM"
      },
      {
        "day": "Saturday",
        "hours": "Closed"
      },
      {
        "day": "Sunday",
        "hours": "Closed"
      }
    ],
    "peopleAlsoSearch": [],
    "placesTags": [],
    "reviewsTags": [],
    "additionalInfo": {
      "Accessibility": [
        {
          "Wheelchair-accessible car park": true
        },
        {
          "Wheelchair-accessible entrance": true
        },
        {
          "Wheelchair-accessible toilet": true
        }
      ],
      "Planning": [
        {
          "Appointment required": true
        }
      ],
      "Payments": [
        {
          "Credit cards": true
        },
        {
          "Debit cards": true
        },
        {
          "NFC mobile payments": true
        },
        {
          "Credit cards": true
        }
      ]
    },
    "gasPrices": [],
    "url": "https://www.google.com/maps/search/?api=1&query=HealthWorks%20Pharmacy&query_place_id=ChIJRwSRU7Ekb4cR0ME1tMnWM2M",
    "searchPageUrl": "https://www.google.com/maps/search/independent%20pharmacy%20in%20Cheyenne,%20WY/@36.81849750000001,-108.6496533711355,8z?hl=en",
    "searchString": "independent pharmacy in Cheyenne, WY",
    "language": "en",
    "rank": 6,
    "isAdvertisement": false,
    "imageUrl": "https://lh3.googleusercontent.com/p/AF1QipOy0ALHijlCY_LedPuDEFw-lbwj3-HPQTIoXkrU=w408-h408-k-no",
    "kgmid": "/g/11b620zmjs",
    "classification": "hospital",
    "is_independent": false,
    "confidence": 1.0,
    "source": "rule-based"
  },
  {
    "title": "Walgreens Pharmacy",
    "description": "Department of the Walgreens chain providing prescription medications & other health-related items.",
    "price": "\u20ac\u20ac",
    "categoryName": "Pharmacy",
    "address": "1501 Dell Range Blvd, Cheyenne, WY 82009, United States",
    "neighborhood": null,
    "street": "1501 Dell Range Blvd",
    "city": "Cheyenne",
    "postalCode": "82009",
    "state": "Wyoming",
    "countryCode": "US",
    "website": "https://www.walgreens.com/locator/walgreens-1501+dell+range+blvd-cheyenne-wy-82009/id=9548",
    "phone": "+1 307-635-5854",
    "phoneUnformatted": "+13076355854",
    "claimThisBusiness": false,
    "location": {
      "lat": 41.1597199,
      "lng": -104.8055725
    },
    "totalScore": 3.7,
    "permanentlyClosed": false,
    "temporarilyClosed": false,
    "placeId": "ChIJW3qviVY6b4cRkPK33aWu2Cw",
    "categories": [
      "Pharmacy"
    ],
    "fid": "0x876f3a5689af7a5b:0x2cd8aea5ddb7f290",
    "cid": "3231524760050987664",
    "reviewsCount": 18,
    "imagesCount": 3,
    "imageCategories": [],
    "scrapedAt": "2025-06-23T05:40:25.520Z",
    "googleFoodUrl": null,
    "hotelAds": [],
    "openingHours": [
      {
        "day": "Monday",
        "hours": "9\u202fAM to 1:30\u202fPM, 2 to 9\u202fPM"
      },
      {
        "day": "Tuesday",
        "hours": "9\u202fAM to 1:30\u202fPM, 2 to 9\u202fPM"
      },
      {
        "day": "Wednesday",
        "hours": "9\u202fAM to 1:30\u202fPM, 2 to 9\u202fPM"
      },
      {
        "day": "Thursday",
        "hours": "9\u202fAM to 1:30\u202fPM, 2 to 9\u202fPM"
      },
      {
        "day": "Friday",
        "hours": "9\u202fAM to 1:30\u202fPM, 2 to 9\u202fPM"
      },
      {
        "day": "Saturday",
        "hours": "9\u202fAM to 1:30\u202fPM, 2 to 6\u202fPM"
      },
      {
        "day": "Sunday",
        "hours": "10\u202fAM to 1:30\u202fPM, 2 to 6\u202fPM"
      }
    ],
    "additionalOpeningHours": {
      "Drive through": [
        {
          "day": "Monday",
          "hours": "9\u202fam\u20131:30\u202fpm"
        },
        {
          "day": "Tuesday",
          "hours": "9\u202fam\u20131:30\u202fpm"
        },
        {
          "day": "Wednesday",
          "hours": "9\u202fam\u20131:30\u202fpm"
        },
        {
          "day": "Thursday",
          "hours": "9\u202fam\u20131:30\u202fpm"
        },
        {
          "day": "Friday",
          "hours": "9\u202fam\u20131:30\u202fpm"
        },
        {
          "day": "Saturday",
          "hours": "9\u202fam\u20131:30\u202fpm"
        },
        {
          "day": "Sunday",
          "hours": "10\u202fam\u20131:30\u202fpm"
        }
      ]
    },
    "peopleAlsoSearch": [],
    "placesTags": [],
    "reviewsTags": [],
    "additionalInfo": {
      "Service options": [
        {
          "Drive-through": true
        },
        {
          "In-store pick-up": true
        },
        {
          "On-site services": true
        }
      ],
      "Accessibility": [
        {
          "Wheelchair-accessible car park": true
        },
        {
          "Wheelchair-accessible entrance": true
        }
      ],
      "Offerings": [
        {
          "Naloxone": true
        }
      ],
      "Planning": [
        {
          "Quick visit": true
        }
      ],
      "Payments": [
        {
          "Cheques": true
        },
        {
          "Credit cards": true
        },
        {
          "Debit cards": true
        }
      ]
    },
    "gasPrices": [],
    "url": "https://www.google.com/maps/search/?api=1&query=Walgreens%20Pharmacy&query_place_id=ChIJW3qviVY6b4cRkPK33aWu2Cw",
    "searchPageUrl": "https://www.google.com/maps/search/independent%20pharmacy%20in%20Cheyenne,%20WY/@36.81849750000001,-108.6496533711355,8z?hl=en",
    "searchString": "independent pharmacy in Cheyenne, WY",
    "language": "en",
    "rank": 7,
    "isAdvertisement": false,
    "imageUrl": "https://lh3.googleusercontent.com/p/AF1QipPkLUEC5A201gX87e7ZQQsG0LLzrpnggxGrLxDI=w525-h240-k-no",
    "kgmid": "/g/11cn976ncg",
    "classification": "chain",
    "is_independent": false,
    "confidence": 1.0,
    "source": "rule-based"
  },
  {
    "title": "Sam's Club Pharmacy",
    "price": "\u20ac",
    "categoryName": "Pharmacy",
    "address": "1948 Dell Range Blvd, Cheyenne, WY 82009, United States",
    "neighborhood": null,
    "street": "1948 Dell Range Blvd",
    "city": "Cheyenne",
    "postalCode": "82009",
    "state": "Wyoming",
    "countryCode": "US",
    "website": "https://www.samsclub.com/local/pharmacy/cheyenne-wy-sams-club/6430",
    "phone": "+1 307-274-9844",
    "phoneUnformatted": "+13072749844",
    "claimThisBusiness": false,
    "location": {
      "lat": 41.1631094,
      "lng": -104.79382
    },
    "totalScore": 4.7,
    "permanentlyClosed": false,
    "temporarilyClosed": false,
    "placeId": null,
    "categories": [
      "Pharmacy"
    ],
    "fid": "0x876f3babfa51306f:0x8f4f84524e22100c",
    "cid": "10326617959616876556",
    "reviewsCount": 12,
    "imagesCount": 8,
    "imageCategories": [],
    "scrapedAt": "2025-06-23T05:40:25.520Z",
    "googleFoodUrl": null,
    "hotelAds": [],
    "openingHours": [
      {
        "day": "Monday",
        "hours": "9\u202fAM to 7\u202fPM"
      },
      {
        "day": "Tuesday",
        "hours": "9\u202fAM to 7\u202fPM"
      },
      {
        "day": "Wednesday",
        "hours": "9\u202fAM to 7\u202fPM"
      },
      {
        "day": "Thursday",
        "hours": "9\u202fAM to 7\u202fPM"
      },
      {
        "day": "Friday",
        "hours": "9\u202fAM to 7\u202fPM"
      },
      {
        "day": "Saturday",
        "hours": "9\u202fAM to 6\u202fPM"
      },
      {
        "day": "Sunday",
        "hours": "Closed"
      }
    ],
    "peopleAlsoSearch": [],
    "placesTags": [],
    "reviewsTags": [],
    "additionalInfo": {
      "Service options": [
        {
          "Kerbside pickup": true
        },
        {
          "Delivery": true
        },
        {
          "In-store pick-up": true
        },
        {
          "In-store shopping": true
        },
        {
          "On-site services": true
        },
        {
          "Same-day delivery": true
        }
      ],
      "Accessibility": [
        {
          "Wheelchair-accessible car park": true
        },
        {
          "Wheelchair-accessible entrance": true
        }
      ],
      "Planning": [
        {
          "Quick visit": true
        }
      ],
      "Payments": [
        {
          "Credit cards": true
        },
        {
          "Debit cards": true
        },
        {
          "Credit cards": true
        }
      ]
    },
    "gasPrices": [],
    "url": "https://www.google.com/maps/search/?api=1&query=Sam's%20Club%20Pharmacy&query_place_id=ChIJbzBR-qs7b4cRDBAiTlKET48",
    "searchPageUrl": "https://www.google.com/maps/search/independent%20pharmacy%20in%20Cheyenne,%20WY/@36.81849750000001,-108.6496533711355,8z?hl=en",
    "searchString": "independent pharmacy in Cheyenne, WY",
    "language": "en",
    "rank": 8,
    "isAdvertisement": false,
    "imageUrl": "https://lh3.googleusercontent.com/p/AF1QipP1KpRTcpABFnq8XENFCZfmimpdFnN4MpsrcCOT=w408-h272-k-no",
    "kgmid": "/g/11bv2gzrnw",
    "classification": "chain",
    "is_independent": false,
    "is_compounding": false,
    "confidence": 0.99,
    "source": "perplexity",
    "method": "llm",
    "query_location": "in_cheyenne_wy"
  },
  {
    "title": "Albertsons Pharmacy",
    "price": "\u20ac\u20ac",
    "categoryName": "Pharmacy",
    "address": "3355 E Pershing Blvd, Cheyenne, WY 82001, United States",
    "neighborhood": null,
    "street": "3355 E Pershing Blvd",
    "city": "Cheyenne",
    "postalCode": "82001",
    "state": "Wyoming",
    "countryCode": "US",
    "website": "https://local.pharmacy.albertsons.com/wy/cheyenne/3355-e-pershing-blvd.html",
    "phone": "+1 307-635-1155",
    "phoneUnformatted": "+13076351155",
    "claimThisBusiness": false,
    "location": {
      "lat": 41.1441802,
      "lng": -104.7693546
    },
    "totalScore": 4.3,
    "permanentlyClosed": false,
    "temporarilyClosed": false,
    "placeId": "ChIJjaC4Kmo7b4cRKr_7_1yjmRw",
    "categories": [
      "Pharmacy",
      "Drug store",
      "Vitamin & supplements store"
    ],
    "fid": "0x876f3b6a2ab8a08d:0x1c99a35cfffbbf2a",
    "cid": "2060857924325719850",
    "reviewsCount": 12,
    "imagesCount": 5,
    "imageCategories": [],
    "scrapedAt": "2025-06-23T05:40:25.520Z",
    "googleFoodUrl": null,
    "hotelAds": [],
    "openingHours": [
      {
        "day": "Monday",
        "hours": "8\u202fAM to 1:30\u202fPM, 2 to 8\u202fPM"
      },
      {
        "day": "Tuesday",
        "hours": "8\u202fAM to 1:30\u202fPM, 2 to 8\u202fPM"
      },
      {
        "day": "Wednesday",
        "hours": "8\u202fAM to 1:30\u202fPM, 2 to 8\u202fPM"
      },
      {
        "day": "Thursday",
        "hours": "8\u202fAM to 1:30\u202fPM, 2 to 8\u202fPM"
      },
      {
        "day": "Friday",
        "hours": "8\u202fAM to 1:30\u202fPM, 2 to 8\u202fPM"
      },
      {
        "day": "Saturday",
        "hours": "9\u202fAM to 1:30\u202fPM, 2 to 6\u202fPM"
      },
      {
        "day": "Sunday",
        "hours": "10\u202fAM to 1:30\u202fPM, 2 to 6\u202fPM"
      }
    ],
    "peopleAlsoSearch": [],
    "placesTags": [],
    "reviewsTags": [],
    "additionalInfo": {
      "Service options": [
        {
          "Delivery": true
        },
        {
          "In-store pick-up": true
        },
        {
          "In-store shopping": true
        },
        {
          "Same-day delivery": true
        }
      ],
      "Accessibility": [
        {
          "Wheelchair-accessible car park": true
        },
        {
          "Wheelchair-accessible entrance": true
        }
      ],
      "Crowd": [
        {
          "LGBTQ+ friendly": true
        }
      ],
      "Planning": [
        {
          "Appointment required": true
        },
        {
          "Quick visit": true
        }
      ],
      "Payments": [
        {
          "Cheques": true
        },
        {
          "Debit cards": true
        },
        {
          "Credit cards": true
        }
      ]
    },
    "gasPrices": [],
    "url": "https://www.google.com/maps/search/?api=1&query=Albertsons%20Pharmacy&query_place_id=ChIJjaC4Kmo7b4cRKr_7_1yjmRw",
    "searchPageUrl": "https://www.google.com/maps/search/independent%20pharmacy%20in%20Cheyenne,%20WY/@36.81849750000001,-108.6496533711355,8z?hl=en",
    "searchString": "independent pharmacy in Cheyenne, WY",
    "language": "en",
    "rank": 9,
    "isAdvertisement": false,
    "imageUrl": "https://lh3.googleusercontent.com/gps-cs-s/AC9h4nqNaT85sDZVJNDyESRLhvIgtCFy5T1asVyG1JKv5UWCiO9eU6pAvSklehLMy2BpgONFJcHDQeMG9IxM6akNbZIFAg_oe-UAhZMvtn54R2STRfj_dst25XvO9dmsKelcejGeTdidrA=w426-h240-k-no",
    "kgmid": "/g/1tdrfw1f",
    "classification": "chain",
    "is_independent": false,
    "confidence": 1.0,
    "source": "rule-based"
  },
  {
    "title": "Albertsons Pharmacy",
    "price": "\u20ac\u20ac",
    "categoryName": "Pharmacy",
    "address": "5800 Yellowstone Rd, Cheyenne, WY 82009, United States",
    "neighborhood": null,
    "street": "5800 Yellowstone Rd",
    "city": "Cheyenne",
    "postalCode": "82009",
    "state": "Wyoming",
    "countryCode": "US",
    "website": "https://local.pharmacy.albertsons.com/wy/cheyenne/5800-yellowstone-rd.html",
    "phone": "+1 307-637-8361",
    "phoneUnformatted": "+13076378361",
    "claimThisBusiness": false,
    "location": {
      "lat": 41.1726296,
      "lng": -104.8299471
    },
    "totalScore": 3,
    "permanentlyClosed": false,
    "temporarilyClosed": false,
    "placeId": "ChIJLdGew2w6b4cR6SEdLAvIiZc",
    "categories": [
      "Pharmacy",
      "Drug store",
      "Vitamin & supplements store"
    ],
    "fid": "0x876f3a6cc39ed12d:0x9789c80b2c1d21e9",
    "cid": "10919478721846780393",
    "reviewsCount": 17,
    "imagesCount": 4,
    "imageCategories": [],
    "scrapedAt": "2025-06-23T05:40:25.520Z",
    "googleFoodUrl": null,
    "hotelAds": [],
    "openingHours": [
      {
        "day": "Monday",
        "hours": "8\u202fAM to 1:30\u202fPM, 2 to 8\u202fPM"
      },
      {
        "day": "Tuesday",
        "hours": "8\u202fAM to 1:30\u202fPM, 2 to 8\u202fPM"
      },
      {
        "day": "Wednesday",
        "hours": "8\u202fAM to 1:30\u202fPM, 2 to 8\u202fPM"
      },
      {
        "day": "Thursday",
        "hours": "8\u202fAM to 1:30\u202fPM, 2 to 8\u202fPM"
      },
      {
        "day": "Friday",
        "hours": "8\u202fAM to 1:30\u202fPM, 2 to 8\u202fPM"
      },
      {
        "day": "Saturday",
        "hours": "9\u202fAM to 1:30\u202fPM, 2 to 6\u202fPM"
      },
      {
        "day": "Sunday",
        "hours": "10\u202fAM to 1:30\u202fPM, 2 to 6\u202fPM"
      }
    ],
    "peopleAlsoSearch": [],
    "placesTags": [],
    "reviewsTags": [],
    "additionalInfo": {
      "Service options": [
        {
          "Delivery": true
        },
        {
          "Drive-through": true
        },
        {
          "In-store pick-up": true
        },
        {
          "In-store shopping": true
        },
        {
          "Same-day delivery": true
        }
      ],
      "Accessibility": [
        {
          "Wheelchair-accessible car park": true
        },
        {
          "Wheelchair-accessible entrance": true
        }
      ],
      "Crowd": [
        {
          "LGBTQ+ friendly": true
        }
      ],
      "Planning": [
        {
          "Appointment required": true
        },
        {
          "Quick visit": true
        }
      ],
      "Payments": [
        {
          "Cheques": true
        },
        {
          "Debit cards": true
        },
        {
          "Credit cards": true
        }
      ]
    },
    "gasPrices": [],
    "url": "https://www.google.com/maps/search/?api=1&query=Albertsons%20Pharmacy&query_place_id=ChIJLdGew2w6b4cR6SEdLAvIiZc",
    "searchPageUrl": "https://www.google.com/maps/search/independent%20pharmacy%20in%20Cheyenne,%20WY/@36.81849750000001,-108.6496533711355,8z?hl=en",
    "searchString": "independent pharmacy in Cheyenne, WY",
    "language": "en",
    "rank": 10,
    "isAdvertisement": false,
    "imageUrl": "https://lh3.googleusercontent.com/p/AF1QipPBwdIdzuzdTR0Dkm18NSJRUEDQmz3vReiIW5xG=w426-h240-k-no",
    "kgmid": "/g/11cjkv7t4n",
    "classification": "chain",
    "is_independent": false,
    "confidence": 1.0,
    "source": "rule-based"
  }
]