[
  {
    "title": "Stadium Pharmacy \u2013 Local Pharmacy in Independence",
    "price": null,
    "categoryName": "Pharmacy",
    "address": "4811 S Arrowhead Dr, Independence, MO 64055",
    "neighborhood": null,
    "street": "4811 S Arrowhead Dr",
    "city": "Independence",
    "postalCode": "64055",
    "state": "Missouri",
    "countryCode": "US",
    "website": "https://www.stadiumrx.com/",
    "phone": "(816) 356-4600",
    "phoneUnformatted": "+18163564600",
    "claimThisBusiness": false,
    "location": {
      "lat": 39.0302403,
      "lng": -94.3586442
    },
    "totalScore": 4.6,
    "permanentlyClosed": false,
    "temporarilyClosed": false,
    "placeId": null,
    "categories": [
      "Pharmacy"
    ],
    "fid": "0x87c11daa874cd7d5:0x17f60d230e2cc38f",
    "cid": "1726581951355995023",
    "reviewsCount": 43,
    "imagesCount": 7,
    "imageCategories": [],
    "scrapedAt": "2025-06-22T06:04:13.613Z",
    "googleFoodUrl": null,
    "hotelAds": [],
    "openingHours": [
      {
        "day": "Monday",
        "hours": "8\u202fAM to 5:30\u202fPM"
      },
      {
        "day": "Tuesday",
        "hours": "8\u202fAM to 5:30\u202fPM"
      },
      {
        "day": "Wednesday",
        "hours": "8\u202fAM to 7\u202fPM"
      },
      {
        "day": "Thursday",
        "hours": "8\u202fAM to 5:30\u202fPM"
      },
      {
        "day": "Friday",
        "hours": "8\u202fAM to 5:30\u202fPM"
      },
      {
        "day": "Saturday",
        "hours": "9\u202fAM to 1\u202fPM"
      },
      {
        "day": "Sunday",
        "hours": "Closed"
      }
    ],
    "additionalOpeningHours": {
      "Delivery": [
        {
          "day": "Monday",
          "hours": "8\u202fAM\u20135:30\u202fPM"
        },
        {
          "day": "Tuesday",
          "hours": "8\u202fAM\u20135:30\u202fPM"
        },
        {
          "day": "Wednesday",
          "hours": "8\u202fAM\u20137\u202fPM"
        },
        {
          "day": "Thursday",
          "hours": "8\u202fAM\u20135:30\u202fPM"
        },
        {
          "day": "Friday",
          "hours": "8\u202fAM\u20135:30\u202fPM"
        },
        {
          "day": "Saturday",
          "hours": "9\u202fAM\u20131\u202fPM"
        },
        {
          "day": "Sunday",
          "hours": "Closed"
        }
      ]
    },
    "peopleAlsoSearch": [],
    "placesTags": [],
    "reviewsTags": [],
    "additionalInfo": {
      "From the business": [
        {
          "Small business": true
        }
      ],
      "Service options": [
        {
          "Delivery": true
        },
        {
          "In-store pickup": true
        },
        {
          "In-store shopping": true
        },
        {
          "Onsite services": true
        },
        {
          "Same-day delivery": true
        }
      ],
      "Accessibility": [
        {
          "Wheelchair accessible entrance": true
        },
        {
          "Wheelchair accessible parking lot": true
        }
      ],
      "Planning": [
        {
          "Quick visit": true
        }
      ],
      "Payments": [
        {
          "Credit cards": true
        },
        {
          "Debit cards": true
        },
        {
          "NFC mobile payments": true
        },
        {
          "Credit cards": true
        }
      ]
    },
    "gasPrices": [],
    "url": "https://www.google.com/maps/search/?api=1&query=Stadium%20Pharmacy%20%E2%80%93%20Local%20Pharmacy%20in%20Independence&query_place_id=ChIJ1ddMh6odwYcRj8MsDiMN9hc",
    "searchPageUrl": "https://www.google.com/maps/search/independent%20pharmacy%20Independence%20MO/@55.7381509944044,-157.61151869094473,13z?hl=en",
    "searchString": "independent pharmacy Independence MO",
    "language": "en",
    "rank": 1,
    "isAdvertisement": false,
    "imageUrl": "https://lh3.googleusercontent.com/p/AF1QipMpBD9kZZNGE9sLGmtot5h1dxusy7RQlU8_tz8T=w408-h306-k-no",
    "kgmid": "/g/1wyc4w01",
    "classification": "independent",
    "is_independent": true,
    "is_compounding": false,
    "confidence": 0.9,
    "source": "perplexity",
    "method": "llm"
  },
  {
    "title": "Spalitto's Pharmacy",
    "price": null,
    "categoryName": "Pharmacy",
    "address": "3801 Independence Ave, Kansas City, MO 64124",
    "neighborhood": "Northeast Kansas City",
    "street": "3801 Independence Ave",
    "city": "Kansas City",
    "postalCode": "64124",
    "state": "Missouri",
    "countryCode": "US",
    "website": "http://www.spalittospharmacy.com/",
    "phone": "(816) 231-4717",
    "phoneUnformatted": "+18162314717",
    "claimThisBusiness": false,
    "location": {
      "lat": 39.1055003,
      "lng": -94.5369434
    },
    "totalScore": 4.8,
    "permanentlyClosed": false,
    "temporarilyClosed": false,
    "placeId": null,
    "categories": [
      "Pharmacy",
      "Drug store"
    ],
    "fid": "0x87c0faf5d4746e19:0x49553a14f01b882e",
    "cid": "5284193599391238190",
    "reviewsCount": 115,
    "imagesCount": 13,
    "imageCategories": [],
    "scrapedAt": "2025-06-22T06:04:13.614Z",
    "googleFoodUrl": null,
    "hotelAds": [],
    "openingHours": [
      {
        "day": "Monday",
        "hours": "8\u202fAM to 6\u202fPM"
      },
      {
        "day": "Tuesday",
        "hours": "8\u202fAM to 6\u202fPM"
      },
      {
        "day": "Wednesday",
        "hours": "8\u202fAM to 6\u202fPM"
      },
      {
        "day": "Thursday",
        "hours": "8\u202fAM to 6\u202fPM"
      },
      {
        "day": "Friday",
        "hours": "8\u202fAM to 6\u202fPM"
      },
      {
        "day": "Saturday",
        "hours": "Closed"
      },
      {
        "day": "Sunday",
        "hours": "Closed"
      }
    ],
    "peopleAlsoSearch": [],
    "placesTags": [],
    "reviewsTags": [],
    "additionalInfo": {
      "From the business": [
        {
          "Small business": true
        }
      ],
      "Service options": [
        {
          "Delivery": true
        },
        {
          "In-store pickup": true
        },
        {
          "Same-day delivery": true
        }
      ],
      "Accessibility": [
        {
          "Wheelchair accessible entrance": true
        },
        {
          "Wheelchair accessible parking lot": true
        }
      ],
      "Planning": [
        {
          "Quick visit": true
        }
      ],
      "Payments": [
        {
          "Checks": true
        },
        {
          "Credit cards": true
        },
        {
          "Debit cards": true
        },
        {
          "Credit cards": true
        }
      ]
    },
    "gasPrices": [],
    "url": "https://www.google.com/maps/search/?api=1&query=Spalitto's%20Pharmacy&query_place_id=ChIJGW501PX6wIcRLogb8BQ6VUk",
    "searchPageUrl": "https://www.google.com/maps/search/independent%20pharmacy%20Independence%20MO/@55.7381509944044,-157.61151869094473,13z?hl=en",
    "searchString": "independent pharmacy Independence MO",
    "language": "en",
    "rank": 2,
    "isAdvertisement": false,
    "imageUrl": "https://lh3.googleusercontent.com/gps-cs-s/AC9h4nonvAnzi3a234K9bNsK7hNXrbvq4Nx1WUraz-hQbATWMjZXrv45YuYRyv8FX3RiznwtxFoMlk1yDVIYFjyvoh_Z65Frg1wBMlWyUNd_XSfgKJ4wuth2ZR9HTlbFJVTbylByz61g=w426-h240-k-no",
    "kgmid": "/g/1tj85c8p",
    "classification": "independent",
    "is_independent": true,
    "is_compounding": false,
    "confidence": 0.9,
    "source": "perplexity",
    "method": "llm"
  },
  {
    "title": "Hy-Vee Pharmacy",
    "price": "$$",
    "categoryName": "Pharmacy",
    "address": "4545 S Noland Rd, Independence, MO 64055",
    "neighborhood": null,
    "street": "4545 S Noland Rd",
    "city": "Independence",
    "postalCode": "64055",
    "state": "Missouri",
    "countryCode": "US",
    "website": "https://www.hy-vee.com/my-pharmacy/pharmacy-finder/independence-2-4545-s-noland-rd-independence-mo/1261?utm_source=google&utm_medium=organic&utm_campaign=gmb-listing",
    "phone": "(816) 478-1968",
    "phoneUnformatted": "+18164781968",
    "claimThisBusiness": false,
    "location": {
      "lat": 39.037397,
      "lng": -94.4140774
    },
    "totalScore": 2.9,
    "permanentlyClosed": false,
    "temporarilyClosed": false,
    "placeId": null,
    "categories": [
      "Pharmacy",
      "Drug store",
      "Herbal medicine store",
      "Homeopathic pharmacy",
      "Local medical services",
      "Medical Center",
      "Organic drug store",
      "Pharmaceutical company",
      "Pharmaceutical lab",
      "Toiletries store"
    ],
    "fid": "0x87c0e28c34f1f593:0xa4f0e1366f62110e",
    "cid": "11885247040543920398",
    "reviewsCount": 41,
    "imagesCount": 12,
    "imageCategories": [],
    "scrapedAt": "2025-06-22T06:04:13.615Z",
    "googleFoodUrl": null,
    "hotelAds": [],
    "openingHours": [
      {
        "day": "Monday",
        "hours": "8\u202fAM to 8\u202fPM"
      },
      {
        "day": "Tuesday",
        "hours": "8\u202fAM to 8\u202fPM"
      },
      {
        "day": "Wednesday",
        "hours": "8\u202fAM to 8\u202fPM"
      },
      {
        "day": "Thursday",
        "hours": "8\u202fAM to 8\u202fPM"
      },
      {
        "day": "Friday",
        "hours": "8\u202fAM to 8\u202fPM"
      },
      {
        "day": "Saturday",
        "hours": "9\u202fAM to 5\u202fPM"
      },
      {
        "day": "Sunday",
        "hours": "10\u202fAM to 5\u202fPM"
      }
    ],
    "peopleAlsoSearch": [],
    "placesTags": [],
    "reviewsTags": [],
    "additionalInfo": {
      "Service options": [
        {
          "Delivery": true
        },
        {
          "Drive-through": true
        },
        {
          "In-store pickup": true
        },
        {
          "Same-day delivery": true
        }
      ],
      "Accessibility": [
        {
          "Wheelchair accessible entrance": true
        },
        {
          "Wheelchair accessible parking lot": true
        },
        {
          "Wheelchair accessible restroom": true
        },
        {
          "Wheelchair accessible seating": true
        }
      ],
      "Planning": [
        {
          "Quick visit": true
        }
      ],
      "Payments": [
        {
          "Credit cards": true
        },
        {
          "Debit cards": true
        },
        {
          "Credit cards": true
        }
      ]
    },
    "gasPrices": [],
    "url": "https://www.google.com/maps/search/?api=1&query=Hy-Vee%20Pharmacy&query_place_id=ChIJk_XxNIziwIcRDhFibzbh8KQ",
    "searchPageUrl": "https://www.google.com/maps/search/independent%20pharmacy%20Independence%20MO/@55.7381509944044,-157.61151869094473,13z?hl=en",
    "searchString": "independent pharmacy Independence MO",
    "language": "en",
    "rank": 3,
    "isAdvertisement": false,
    "imageUrl": "https://lh3.googleusercontent.com/gps-cs-s/AC9h4nrdkSsudgU2V6mzKkLGJwhCb0SADhHp9B4HrnC5yu-dQOAFCPolH8ZUkmySnThx-US7onlwslaoWzvQmoRItSm2k6vidB9U_PMdyRVY8MSXbWlXBzaOTbZS78-WNwBiEh_PO-sL=w426-h240-k-no",
    "kgmid": "/g/1hdzvq6zs",
    "classification": "chain",
    "is_independent": false,
    "is_compounding": false,
    "confidence": 0.95,
    "source": "perplexity",
    "method": "llm"
  },
  {
    "title": "AuBurn Pharmacy",
    "price": null,
    "categoryName": "Pharmacy",
    "address": "16611 East 23rd St S, Independence, MO 64055",
    "neighborhood": null,
    "street": "16611 East 23rd St S",
    "city": "Independence",
    "postalCode": "64055",
    "state": "Missouri",
    "countryCode": "US",
    "website": "http://auburnpharmacies.com/independence-missouri-23rd/",
    "phone": "(816) 833-8629",
    "phoneUnformatted": "+18168338629",
    "claimThisBusiness": false,
    "location": {
      "lat": 39.0762878,
      "lng": -94.3823164
    },
    "totalScore": 4.3,
    "permanentlyClosed": false,
    "temporarilyClosed": false,
    "placeId": null,
    "categories": [
      "Pharmacy",
      "Beauty supply store",
      "Drug store"
    ],
    "fid": "0x87c102b153377725:0xbb020eba9138a563",
    "cid": "13475349229509059939",
    "reviewsCount": 18,
    "imagesCount": 8,
    "imageCategories": [],
    "scrapedAt": "2025-06-22T06:04:13.615Z",
    "googleFoodUrl": null,
    "hotelAds": [],
    "openingHours": [
      {
        "day": "Monday",
        "hours": "9\u202fAM to 7\u202fPM"
      },
      {
        "day": "Tuesday",
        "hours": "9\u202fAM to 7\u202fPM"
      },
      {
        "day": "Wednesday",
        "hours": "9\u202fAM to 7\u202fPM"
      },
      {
        "day": "Thursday",
        "hours": "9\u202fAM to 7\u202fPM"
      },
      {
        "day": "Friday",
        "hours": "9\u202fAM to 7\u202fPM"
      },
      {
        "day": "Saturday",
        "hours": "9\u202fAM to 1\u202fPM"
      },
      {
        "day": "Sunday",
        "hours": "Closed"
      }
    ],
    "peopleAlsoSearch": [],
    "placesTags": [],
    "reviewsTags": [],
    "additionalInfo": {
      "Service options": [
        {
          "Delivery": true
        },
        {
          "In-store pickup": true
        },
        {
          "In-store shopping": true
        },
        {
          "Same-day delivery": true
        }
      ],
      "Accessibility": [
        {
          "Wheelchair accessible entrance": true
        },
        {
          "Wheelchair accessible parking lot": true
        }
      ],
      "Planning": [
        {
          "Quick visit": true
        }
      ],
      "Payments": [
        {
          "Credit cards": true
        },
        {
          "Debit cards": true
        },
        {
          "Credit cards": true
        }
      ]
    },
    "gasPrices": [],
    "url": "https://www.google.com/maps/search/?api=1&query=AuBurn%20Pharmacy&query_place_id=ChIJJXc3U7ECwYcRY6U4kboOArs",
    "searchPageUrl": "https://www.google.com/maps/search/independent%20pharmacy%20Independence%20MO/@55.7381509944044,-157.61151869094473,13z?hl=en",
    "searchString": "independent pharmacy Independence MO",
    "language": "en",
    "rank": 4,
    "isAdvertisement": false,
    "imageUrl": "https://lh3.googleusercontent.com/gps-cs-s/AC9h4noJjli-NRLF6GORw7ybTe0lS-WUeX1oTdywYlmV3Ofe2hPRKUoKzF5pi4cRRGRnulzEe-_sqCTZ99Xkmw0s0re30TzuNhY05JS1C5aGhMKAJO4-_KSI-xTFasFxebE5BeSuqeRn=w426-h240-k-no",
    "kgmid": "/g/12605vl7m",
    "classification": "independent",
    "is_independent": true,
    "is_compounding": false,
    "confidence": 0.85,
    "source": "perplexity",
    "method": "llm"
  },
  {
    "title": "Independence Pharmacy",
    "price": null,
    "categoryName": "Pharmacy",
    "address": "5350 Independence Pkwy #110a, Frisco, TX 75035",
    "neighborhood": null,
    "street": "5350 Independence Pkwy #110a",
    "city": "Frisco",
    "postalCode": "75035",
    "state": "Texas",
    "countryCode": "US",
    "phone": "(469) 885-9100",
    "phoneUnformatted": "+14698859100",
    "claimThisBusiness": false,
    "location": {
      "lat": 33.1218295,
      "lng": -96.7500183
    },
    "totalScore": 4.6,
    "permanentlyClosed": false,
    "temporarilyClosed": false,
    "placeId": null,
    "categories": [
      "Pharmacy"
    ],
    "fid": "0x864c3d2399d0aef5:0x2c3fe62dcf5a7c20",
    "cid": "3188520145628331040",
    "reviewsCount": 20,
    "imagesCount": 28,
    "imageCategories": [],
    "scrapedAt": "2025-06-22T06:04:13.615Z",
    "googleFoodUrl": null,
    "hotelAds": [],
    "openingHours": [
      {
        "day": "Monday",
        "hours": "8\u202fAM to 6\u202fPM"
      },
      {
        "day": "Tuesday",
        "hours": "8\u202fAM to 6\u202fPM"
      },
      {
        "day": "Wednesday",
        "hours": "8\u202fAM to 6\u202fPM"
      },
      {
        "day": "Thursday",
        "hours": "8\u202fAM to 6\u202fPM"
      },
      {
        "day": "Friday",
        "hours": "8\u202fAM to 6\u202fPM"
      },
      {
        "day": "Saturday",
        "hours": "9\u202fAM to 2\u202fPM"
      },
      {
        "day": "Sunday",
        "hours": "Closed"
      }
    ],
    "peopleAlsoSearch": [],
    "placesTags": [],
    "reviewsTags": [],
    "additionalInfo": {
      "From the business": [
        {
          "Small business": true
        }
      ],
      "Service options": [
        {
          "Delivery": true
        },
        {
          "In-store pickup": true
        },
        {
          "Same-day delivery": true
        }
      ],
      "Accessibility": [
        {
          "Wheelchair accessible entrance": true
        },
        {
          "Wheelchair accessible parking lot": true
        }
      ],
      "Planning": [
        {
          "Quick visit": true
        }
      ],
      "Payments": [
        {
          "Credit cards": true
        },
        {
          "Debit cards": true
        },
        {
          "NFC mobile payments": true
        },
        {
          "Credit cards": true
        }
      ],
      "Parking": [
        {
          "On-site parking": true
        }
      ]
    },
    "gasPrices": [],
    "url": "https://www.google.com/maps/search/?api=1&query=Independence%20Pharmacy&query_place_id=ChIJ9a7QmSM9TIYRIHxazy3mPyw",
    "searchPageUrl": "https://www.google.com/maps/search/independent%20pharmacy%20Independence%20MO/@55.7381509944044,-157.61151869094473,13z?hl=en",
    "searchString": "independent pharmacy Independence MO",
    "language": "en",
    "rank": 5,
    "isAdvertisement": false,
    "imageUrl": "https://lh3.googleusercontent.com/p/AF1QipMC2sivECTLxhoaNEIwWe6nikxryIHp_DtJTgas=w408-h355-k-no",
    "kgmid": "/g/11sfdksp9q",
    "classification": "independent",
    "is_independent": true,
    "is_compounding": false,
    "confidence": 0.9,
    "source": "perplexity",
    "method": "llm"
  },
  {
    "title": "Iman's Pharmacy",
    "price": null,
    "categoryName": "Pharmacy",
    "address": "2360 E 12th St, Kansas City, MO 64127",
    "neighborhood": "Northeast Kansas City",
    "street": "2360 E 12th St",
    "city": "Kansas City",
    "postalCode": "64127",
    "state": "Missouri",
    "countryCode": "US",
    "phone": "(816) 569-6310",
    "phoneUnformatted": "+18165696310",
    "claimThisBusiness": false,
    "location": {
      "lat": 39.0991903,
      "lng": -94.5540803
    },
    "totalScore": 4.9,
    "permanentlyClosed": false,
    "temporarilyClosed": false,
    "placeId": null,
    "categories": [
      "Pharmacy"
    ],
    "fid": "0x87c0fbc8b1e2a299:0x81fceb9e25d69ecd",
    "cid": "9366620389495971533",
    "reviewsCount": 28,
    "imagesCount": 4,
    "imageCategories": [],
    "scrapedAt": "2025-06-22T06:04:13.615Z",
    "googleFoodUrl": null,
    "hotelAds": [],
    "openingHours": [
      {
        "day": "Monday",
        "hours": "10\u202fAM to 6\u202fPM"
      },
      {
        "day": "Tuesday",
        "hours": "10\u202fAM to 6\u202fPM"
      },
      {
        "day": "Wednesday",
        "hours": "10\u202fAM to 6\u202fPM"
      },
      {
        "day": "Thursday",
        "hours": "10\u202fAM to 6\u202fPM"
      },
      {
        "day": "Friday",
        "hours": "10\u202fAM to 1\u202fPM, 2:30 to 6\u202fPM"
      },
      {
        "day": "Saturday",
        "hours": "11\u202fAM to 4\u202fPM"
      },
      {
        "day": "Sunday",
        "hours": "Closed"
      }
    ],
    "peopleAlsoSearch": [],
    "placesTags": [],
    "reviewsTags": [],
    "additionalInfo": {
      "From the business": [
        {
          "Small business": true
        }
      ],
      "Service options": [
        {
          "Curbside pickup": true
        },
        {
          "Delivery": true
        },
        {
          "In-store pickup": true
        },
        {
          "In-store shopping": true
        },
        {
          "Onsite services": true
        },
        {
          "Same-day delivery": true
        }
      ],
      "Accessibility": [
        {
          "Wheelchair accessible entrance": true
        },
        {
          "Wheelchair accessible parking lot": true
        }
      ],
      "Planning": [
        {
          "Quick visit": true
        }
      ],
      "Payments": [
        {
          "Credit cards": true
        },
        {
          "Debit cards": true
        },
        {
          "NFC mobile payments": true
        },
        {
          "Credit cards": true
        }
      ]
    },
    "gasPrices": [],
    "url": "https://www.google.com/maps/search/?api=1&query=Iman's%20Pharmacy&query_place_id=ChIJmaLiscj7wIcRzZ7WJZ7r_IE",
    "searchPageUrl": "https://www.google.com/maps/search/independent%20pharmacy%20Independence%20MO/@55.7381509944044,-157.61151869094473,13z?hl=en",
    "searchString": "independent pharmacy Independence MO",
    "language": "en",
    "rank": 6,
    "isAdvertisement": false,
    "imageUrl": "https://lh3.googleusercontent.com/p/AF1QipMJfpUdUa5CCZQiLI6-IGCeLnLccDckGcTku3iH=w408-h306-k-no",
    "kgmid": "/g/11hdp7ry7x",
    "classification": "independent",
    "is_independent": true,
    "is_compounding": false,
    "confidence": 0.85,
    "source": "perplexity",
    "method": "llm"
  },
  {
    "title": "CVS Pharmacy",
    "price": null,
    "categoryName": "Pharmacy",
    "address": "3825 S Noland Rd, Independence, MO 64055",
    "neighborhood": null,
    "street": "3825 S Noland Rd",
    "city": "Independence",
    "postalCode": "64055",
    "state": "Missouri",
    "countryCode": "US",
    "website": "https://www.cvs.com/store-locator/independence-mo-pharmacies/3825-s-noland-rd-independence-mo-64055/storeid=8430?WT.mc_id=LS_GOOGLE_RX_8430",
    "phone": "(816) 254-6002",
    "phoneUnformatted": "+18162546002",
    "claimThisBusiness": false,
    "location": {
      "lat": 39.0506595,
      "lng": -94.4144328
    },
    "totalScore": 3,
    "permanentlyClosed": false,
    "temporarilyClosed": false,
    "placeId": null,
    "categories": [
      "Pharmacy"
    ],
    "fid": "0x87c0e2be2268e87f:0x2886afd6f5dc3778",
    "cid": "2920214746179057528",
    "reviewsCount": 29,
    "imagesCount": 36,
    "imageCategories": [],
    "scrapedAt": "2025-06-22T06:04:13.615Z",
    "googleFoodUrl": null,
    "hotelAds": [],
    "openingHours": [
      {
        "day": "Monday",
        "hours": "9\u202fAM to 1:30\u202fPM, 2 to 9\u202fPM"
      },
      {
        "day": "Tuesday",
        "hours": "9\u202fAM to 1:30\u202fPM, 2 to 9\u202fPM"
      },
      {
        "day": "Wednesday",
        "hours": "9\u202fAM to 1:30\u202fPM, 2 to 9\u202fPM"
      },
      {
        "day": "Thursday",
        "hours": "9\u202fAM to 1:30\u202fPM, 2 to 9\u202fPM"
      },
      {
        "day": "Friday",
        "hours": "9\u202fAM to 1:30\u202fPM, 2 to 9\u202fPM"
      },
      {
        "day": "Saturday",
        "hours": "9\u202fAM to 1:30\u202fPM, 2 to 6\u202fPM"
      },
      {
        "day": "Sunday",
        "hours": "9\u202fAM to 1:30\u202fPM, 2 to 6\u202fPM"
      }
    ],
    "peopleAlsoSearch": [],
    "placesTags": [],
    "reviewsTags": [],
    "additionalInfo": {
      "Service options": [
        {
          "Delivery": true
        },
        {
          "Drive-through": true
        },
        {
          "In-store shopping": true
        },
        {
          "Onsite services": true
        }
      ],
      "Accessibility": [
        {
          "Wheelchair accessible entrance": true
        },
        {
          "Wheelchair accessible parking lot": true
        }
      ],
      "Offerings": [
        {
          "Medication disposal": true
        },
        {
          "Naloxone": true
        },
        {
          "Passport photos": true
        }
      ],
      "Crowd": [
        {
          "LGBTQ+ friendly": true
        },
        {
          "Transgender safespace": true
        }
      ],
      "Planning": [
        {
          "Quick visit": true
        }
      ],
      "Payments": [
        {
          "Credit cards": true
        },
        {
          "Debit cards": true
        },
        {
          "NFC mobile payments": true
        },
        {
          "SNAP/EBT": true
        },
        {
          "Credit cards": true
        }
      ]
    },
    "gasPrices": [],
    "url": "https://www.google.com/maps/search/?api=1&query=CVS%20Pharmacy&query_place_id=ChIJf-hoIr7iwIcReDfc9davhig",
    "searchPageUrl": "https://www.google.com/maps/search/independent%20pharmacy%20Independence%20MO/@55.7381509944044,-157.61151869094473,13z?hl=en",
    "searchString": "independent pharmacy Independence MO",
    "language": "en",
    "rank": 7,
    "isAdvertisement": false,
    "imageUrl": "https://lh3.googleusercontent.com/p/AF1QipOmStw0Xqr1PB3AKIpoKuQJoGXIbFyttM8232c4=w408-h272-k-no",
    "kgmid": "/g/11c467qb4t",
    "classification": "chain",
    "is_independent": false,
    "is_compounding": false,
    "confidence": 1.0,
    "source": "perplexity",
    "method": "llm"
  },
  {
    "title": "CVS Pharmacy",
    "price": null,
    "categoryName": "Pharmacy",
    "address": "17301 E US Hwy 24, Independence, MO 64056",
    "neighborhood": null,
    "street": "17301 E US Hwy 24",
    "city": "Independence",
    "postalCode": "64056",
    "state": "Missouri",
    "countryCode": "US",
    "website": "https://www.cvs.com/store-locator/independence-mo-pharmacies/17301-e-us-24th-hwy-independence-mo-64056/storeid=8564?WT.mc_id=LS_GOOGLE_RX_8564",
    "phone": "(816) 796-8769",
    "phoneUnformatted": "+18167968769",
    "claimThisBusiness": false,
    "location": {
      "lat": 39.1189509,
      "lng": -94.3737727
    },
    "totalScore": 3.8,
    "permanentlyClosed": false,
    "temporarilyClosed": false,
    "placeId": null,
    "categories": [
      "Pharmacy"
    ],
    "fid": "0x87c1025e9b5b3043:0xeb858b068577f147",
    "cid": "16971123630940877127",
    "reviewsCount": 36,
    "imagesCount": 35,
    "imageCategories": [],
    "scrapedAt": "2025-06-22T06:04:13.615Z",
    "googleFoodUrl": null,
    "hotelAds": [],
    "openingHours": [
      {
        "day": "Monday",
        "hours": "9\u202fAM to 1:30\u202fPM, 2 to 9\u202fPM"
      },
      {
        "day": "Tuesday",
        "hours": "9\u202fAM to 1:30\u202fPM, 2 to 9\u202fPM"
      },
      {
        "day": "Wednesday",
        "hours": "9\u202fAM to 1:30\u202fPM, 2 to 9\u202fPM"
      },
      {
        "day": "Thursday",
        "hours": "9\u202fAM to 1:30\u202fPM, 2 to 9\u202fPM"
      },
      {
        "day": "Friday",
        "hours": "9\u202fAM to 1:30\u202fPM, 2 to 9\u202fPM"
      },
      {
        "day": "Saturday",
        "hours": "9\u202fAM to 1:30\u202fPM, 2 to 6\u202fPM"
      },
      {
        "day": "Sunday",
        "hours": "10\u202fAM to 1:30\u202fPM, 2 to 6\u202fPM"
      }
    ],
    "peopleAlsoSearch": [],
    "placesTags": [],
    "reviewsTags": [],
    "additionalInfo": {
      "Service options": [
        {
          "Delivery": true
        },
        {
          "Drive-through": true
        },
        {
          "In-store pickup": true
        },
        {
          "In-store shopping": true
        },
        {
          "Onsite services": true
        }
      ],
      "Accessibility": [
        {
          "Wheelchair accessible entrance": true
        },
        {
          "Wheelchair accessible parking lot": true
        }
      ],
      "Offerings": [
        {
          "Naloxone": true
        },
        {
          "Passport photos": true
        }
      ],
      "Crowd": [
        {
          "LGBTQ+ friendly": true
        },
        {
          "Transgender safespace": true
        }
      ],
      "Planning": [
        {
          "Quick visit": true
        }
      ],
      "Payments": [
        {
          "Credit cards": true
        },
        {
          "Debit cards": true
        },
        {
          "NFC mobile payments": true
        },
        {
          "SNAP/EBT": true
        },
        {
          "Credit cards": true
        }
      ]
    },
    "gasPrices": [],
    "url": "https://www.google.com/maps/search/?api=1&query=CVS%20Pharmacy&query_place_id=ChIJQzBbm14CwYcRR_F3hQaLhes",
    "searchPageUrl": "https://www.google.com/maps/search/independent%20pharmacy%20Independence%20MO/@55.7381509944044,-157.61151869094473,13z?hl=en",
    "searchString": "independent pharmacy Independence MO",
    "language": "en",
    "rank": 8,
    "isAdvertisement": false,
    "imageUrl": "https://lh3.googleusercontent.com/p/AF1QipPXRSex4Rd1P4Cp1UGpC3Pd9FiDqiJM_u6AzSiO=w408-h272-k-no",
    "kgmid": "/g/11c46bfj8m",
    "classification": "chain",
    "is_independent": false,
    "is_compounding": false,
    "confidence": 1.0,
    "source": "perplexity",
    "method": "llm"
  },
  {
    "title": "Walgreens Pharmacy",
    "description": "Department of the Walgreens chain providing prescription medications & other health-related items.",
    "price": "$$",
    "categoryName": "Pharmacy",
    "address": "3915 S Noland Rd, Independence, MO 64055",
    "neighborhood": null,
    "street": "3915 S Noland Rd",
    "city": "Independence",
    "postalCode": "64055",
    "state": "Missouri",
    "countryCode": "US",
    "website": "https://www.walgreens.com/locator/walgreens-3915+s+noland+rd-independence-mo-64055/id=5247",
    "phone": "(816) 254-8748",
    "phoneUnformatted": "+18162548748",
    "claimThisBusiness": false,
    "location": {
      "lat": 39.049348,
      "lng": -94.414444
    },
    "totalScore": 3.4,
    "permanentlyClosed": false,
    "temporarilyClosed": false,
    "placeId": null,
    "categories": [
      "Pharmacy"
    ],
    "fid": "0x87c0e295930d6329:0x9b6e6dcc25d256fa",
    "cid": "11200010046892300026",
    "reviewsCount": 25,
    "imagesCount": 3,
    "imageCategories": [],
    "scrapedAt": "2025-06-22T06:04:13.615Z",
    "googleFoodUrl": null,
    "hotelAds": [],
    "openingHours": [
      {
        "day": "Monday",
        "hours": "8\u202fAM to 1:30\u202fPM, 2 to 10\u202fPM"
      },
      {
        "day": "Tuesday",
        "hours": "8\u202fAM to 1:30\u202fPM, 2 to 10\u202fPM"
      },
      {
        "day": "Wednesday",
        "hours": "8\u202fAM to 1:30\u202fPM, 2 to 10\u202fPM"
      },
      {
        "day": "Thursday",
        "hours": "8\u202fAM to 1:30\u202fPM, 2 to 10\u202fPM"
      },
      {
        "day": "Friday",
        "hours": "8\u202fAM to 1:30\u202fPM, 2 to 10\u202fPM"
      },
      {
        "day": "Saturday",
        "hours": "9\u202fAM to 1:30\u202fPM, 2 to 6\u202fPM"
      },
      {
        "day": "Sunday",
        "hours": "10\u202fAM to 1:30\u202fPM, 2 to 6\u202fPM"
      }
    ],
    "additionalOpeningHours": {
      "Drive through": [
        {
          "day": "Monday",
          "hours": "8\u202fAM\u20131:30\u202fPM"
        },
        {
          "day": "Tuesday",
          "hours": "8\u202fAM\u20131:30\u202fPM"
        },
        {
          "day": "Wednesday",
          "hours": "8\u202fAM\u20131:30\u202fPM"
        },
        {
          "day": "Thursday",
          "hours": "8\u202fAM\u20131:30\u202fPM"
        },
        {
          "day": "Friday",
          "hours": "8\u202fAM\u20131:30\u202fPM"
        },
        {
          "day": "Saturday",
          "hours": "9\u202fAM\u20131:30\u202fPM"
        },
        {
          "day": "Sunday",
          "hours": "10\u202fAM\u20131:30\u202fPM"
        }
      ]
    },
    "peopleAlsoSearch": [],
    "placesTags": [],
    "reviewsTags": [],
    "additionalInfo": {
      "Service options": [
        {
          "Drive-through": true
        },
        {
          "In-store pickup": true
        }
      ],
      "Accessibility": [
        {
          "Wheelchair accessible entrance": true
        },
        {
          "Wheelchair accessible parking lot": true
        }
      ],
      "Offerings": [
        {
          "Naloxone": true
        },
        {
          "Passport photos": true
        }
      ],
      "Planning": [
        {
          "Quick visit": true
        }
      ],
      "Payments": [
        {
          "Credit cards": true
        },
        {
          "Debit cards": true
        }
      ]
    },
    "gasPrices": [],
    "url": "https://www.google.com/maps/search/?api=1&query=Walgreens%20Pharmacy&query_place_id=ChIJKWMNk5XiwIcR-lbSJcxtbps",
    "searchPageUrl": "https://www.google.com/maps/search/independent%20pharmacy%20Independence%20MO/@55.7381509944044,-157.61151869094473,13z?hl=en",
    "searchString": "independent pharmacy Independence MO",
    "language": "en",
    "rank": 9,
    "isAdvertisement": false,
    "imageUrl": "https://lh3.googleusercontent.com/p/AF1QipMujX9hInndHEsE7XmG401IK9AgWdXdZ1vCEDuN=w525-h240-k-no",
    "kgmid": "/g/11cn96r_f7",
    "classification": "chain",
    "is_independent": false,
    "is_compounding": false,
    "confidence": 1.0,
    "source": "perplexity",
    "method": "llm"
  },
  {
    "title": "Sterling Pharmacy",
    "price": null,
    "categoryName": "Pharmacy",
    "address": "3338 NE Ralph Powell Rd Suite E, Lee's Summit, MO 64064",
    "neighborhood": null,
    "street": "3338 NE Ralph Powell Rd Suite E",
    "city": "Lee's Summit",
    "postalCode": "64064",
    "state": "Missouri",
    "countryCode": "US",
    "website": "https://www.mygnp.com/pharmacies/sterling-retail-kc-lees-summit-mo-64064/?utm_source=google&utm_medium=local&utm_campaign=localmaps&utm_content=2648131",
    "phone": "(816) 788-7928",
    "phoneUnformatted": "+18167887928",
    "claimThisBusiness": false,
    "location": {
      "lat": 38.972508,
      "lng": -94.360654
    },
    "totalScore": 4.2,
    "permanentlyClosed": false,
    "temporarilyClosed": false,
    "placeId": null,
    "categories": [
      "Pharmacy",
      "Drug store"
    ],
    "fid": "0x87c11c5521f2afef:0xbe62106037b3d3b0",
    "cid": "13718545420361388976",
    "reviewsCount": 15,
    "imagesCount": 6,
    "imageCategories": [],
    "scrapedAt": "2025-06-22T06:04:13.616Z",
    "googleFoodUrl": null,
    "hotelAds": [],
    "openingHours": [
      {
        "day": "Monday",
        "hours": "9\u202fAM to 5\u202fPM"
      },
      {
        "day": "Tuesday",
        "hours": "9\u202fAM to 5\u202fPM"
      },
      {
        "day": "Wednesday",
        "hours": "9\u202fAM to 5\u202fPM"
      },
      {
        "day": "Thursday",
        "hours": "9\u202fAM to 5\u202fPM"
      },
      {
        "day": "Friday",
        "hours": "9\u202fAM to 5\u202fPM"
      },
      {
        "day": "Saturday",
        "hours": "Closed"
      },
      {
        "day": "Sunday",
        "hours": "Closed"
      }
    ],
    "peopleAlsoSearch": [],
    "placesTags": [],
    "reviewsTags": [],
    "additionalInfo": {
      "Service options": [
        {
          "Delivery": true
        },
        {
          "In-store pickup": true
        }
      ],
      "Accessibility": [
        {
          "Wheelchair accessible entrance": true
        },
        {
          "Wheelchair accessible parking lot": true
        }
      ],
      "Payments": [
        {
          "Credit cards": true
        }
      ]
    },
    "gasPrices": [],
    "url": "https://www.google.com/maps/search/?api=1&query=Sterling%20Pharmacy&query_place_id=ChIJ76_yIVUcwYcRsNOzN2AQYr4",
    "searchPageUrl": "https://www.google.com/maps/search/independent%20pharmacy%20Independence%20MO/@55.7381509944044,-157.61151869094473,13z?hl=en",
    "searchString": "independent pharmacy Independence MO",
    "language": "en",
    "rank": 10,
    "isAdvertisement": false,
    "imageUrl": "https://lh3.googleusercontent.com/gps-cs-s/AC9h4nrgb6iIkCrPWq13tKpdhksTWxTlfV9FX-LnpSuPGDhIZN7a2uQD4iBYkkkYvRUOFoCK66er5kw843a1IPEBf0aOlTE3sfiBz-rP81OxW_r9DCT9a0uVjnGISfq8fqFVnvINEOvx=w408-h725-k-no",
    "kgmid": "/g/11gfgpg04z",
    "classification": "independent",
    "is_independent": true,
    "is_compounding": false,
    "confidence": 0.9,
    "source": "perplexity",
    "method": "llm"
  },
  {
    "title": "Sam's Club Pharmacy",
    "price": "$",
    "categoryName": "Pharmacy",
    "address": "4100 S Bolger Rd, Independence, MO 64055",
    "neighborhood": null,
    "street": "4100 S Bolger Rd",
    "city": "Independence",
    "postalCode": "64055",
    "state": "Missouri",
    "countryCode": "US",
    "website": "https://www.samsclub.com/local/pharmacy/independence-mo-sams-club/8293",
    "phone": "(816) 350-2931",
    "phoneUnformatted": "+18163502931",
    "claimThisBusiness": false,
    "location": {
      "lat": 39.044039,
      "lng": -94.3673948
    },
    "totalScore": 4.1,
    "permanentlyClosed": false,
    "temporarilyClosed": false,
    "placeId": null,
    "categories": [
      "Pharmacy"
    ],
    "fid": "0x87c11d1a81c6e4c3:0x560a486334d86ca0",
    "cid": "6199847427954470048",
    "reviewsCount": 9,
    "imagesCount": 8,
    "imageCategories": [],
    "scrapedAt": "2025-06-22T06:04:13.616Z",
    "googleFoodUrl": null,
    "hotelAds": [],
    "openingHours": [
      {
        "day": "Monday",
        "hours": "9\u202fAM to 7\u202fPM"
      },
      {
        "day": "Tuesday",
        "hours": "9\u202fAM to 7\u202fPM"
      },
      {
        "day": "Wednesday",
        "hours": "9\u202fAM to 7\u202fPM"
      },
      {
        "day": "Thursday",
        "hours": "9\u202fAM to 7\u202fPM"
      },
      {
        "day": "Friday",
        "hours": "9\u202fAM to 7\u202fPM"
      },
      {
        "day": "Saturday",
        "hours": "9\u202fAM to 6\u202fPM"
      },
      {
        "day": "Sunday",
        "hours": "Closed"
      }
    ],
    "peopleAlsoSearch": [],
    "placesTags": [],
    "reviewsTags": [],
    "additionalInfo": {
      "Service options": [
        {
          "Curbside pickup": true
        },
        {
          "Delivery": true
        },
        {
          "In-store pickup": true
        },
        {
          "In-store shopping": true
        },
        {
          "Onsite services": true
        },
        {
          "Same-day delivery": true
        }
      ],
      "Accessibility": [
        {
          "Wheelchair accessible entrance": true
        },
        {
          "Wheelchair accessible parking lot": true
        }
      ],
      "Payments": [
        {
          "Credit cards": true
        },
        {
          "Debit cards": true
        },
        {
          "Credit cards": true
        }
      ]
    },
    "gasPrices": [],
    "url": "https://www.google.com/maps/search/?api=1&query=Sam's%20Club%20Pharmacy&query_place_id=ChIJw-TGgRodwYcRoGzYNGNIClY",
    "searchPageUrl": "https://www.google.com/maps/search/independent%20pharmacy%20Independence%20MO/@55.7381509944044,-157.61151869094473,13z?hl=en",
    "searchString": "independent pharmacy Independence MO",
    "language": "en",
    "rank": 11,
    "isAdvertisement": false,
    "imageUrl": "https://lh3.googleusercontent.com/p/AF1QipOp-ifoSpT3mn-ZWnCQnBB1Ke_pJVfTog1IVJER=w408-h272-k-no",
    "kgmid": "/g/1pv0y5pqf",
    "classification": "chain",
    "is_independent": false,
    "is_compounding": false,
    "confidence": 0.98,
    "source": "perplexity",
    "method": "llm"
  },
  {
    "title": "CVS Pharmacy",
    "description": "Drugstore chain selling a variety of beauty & health products, plus some grocery & household items.",
    "price": null,
    "categoryName": "Pharmacy",
    "address": "17810 East 39th St S, Independence, MO 64055",
    "neighborhood": null,
    "street": "17810 East 39th St S",
    "city": "Independence",
    "postalCode": "64055",
    "state": "Missouri",
    "countryCode": "US",
    "website": "https://www.cvs.com/store-locator/independence-mo-pharmacies/17810-e-39th-st-s-independence-mo-64055/storeid=16558?WT.mc_id=LS_GOOGLE_RX_16558",
    "phone": "(816) 478-3645",
    "phoneUnformatted": "+18164783645",
    "claimThisBusiness": false,
    "location": {
      "lat": 39.0511202,
      "lng": -94.369521
    },
    "totalScore": 3.2,
    "permanentlyClosed": false,
    "temporarilyClosed": false,
    "placeId": null,
    "categories": [
      "Pharmacy"
    ],
    "fid": "0x87c11d164a3958f1:0x89d6dfb578ebe2f7",
    "cid": "9932371998723007223",
    "reviewsCount": 23,
    "imagesCount": 5,
    "imageCategories": [],
    "scrapedAt": "2025-06-22T06:04:13.616Z",
    "googleFoodUrl": null,
    "hotelAds": [],
    "openingHours": [
      {
        "day": "Monday",
        "hours": "9\u202fAM to 1:30\u202fPM, 2 to 7\u202fPM"
      },
      {
        "day": "Tuesday",
        "hours": "9\u202fAM to 1:30\u202fPM, 2 to 7\u202fPM"
      },
      {
        "day": "Wednesday",
        "hours": "9\u202fAM to 1:30\u202fPM, 2 to 7\u202fPM"
      },
      {
        "day": "Thursday",
        "hours": "9\u202fAM to 1:30\u202fPM, 2 to 7\u202fPM"
      },
      {
        "day": "Friday",
        "hours": "9\u202fAM to 1:30\u202fPM, 2 to 7\u202fPM"
      },
      {
        "day": "Saturday",
        "hours": "9\u202fAM to 1:30\u202fPM, 2 to 5\u202fPM"
      },
      {
        "day": "Sunday",
        "hours": "11\u202fAM to 1:30\u202fPM, 2 to 5\u202fPM"
      }
    ],
    "peopleAlsoSearch": [],
    "placesTags": [],
    "reviewsTags": [],
    "additionalInfo": {
      "Service options": [
        {
          "Delivery": true
        },
        {
          "In-store shopping": true
        },
        {
          "Onsite services": true
        }
      ],
      "Accessibility": [
        {
          "Wheelchair accessible entrance": true
        },
        {
          "Wheelchair accessible parking lot": true
        }
      ],
      "Offerings": [
        {
          "Naloxone": true
        }
      ],
      "Crowd": [
        {
          "LGBTQ+ friendly": true
        },
        {
          "Transgender safespace": true
        }
      ],
      "Planning": [
        {
          "Quick visit": true
        }
      ],
      "Payments": [
        {
          "Credit cards": true
        },
        {
          "Debit cards": true
        },
        {
          "Credit cards": true
        }
      ]
    },
    "gasPrices": [],
    "url": "https://www.google.com/maps/search/?api=1&query=CVS%20Pharmacy&query_place_id=ChIJ8Vg5ShYdwYcR9-LreLXf1ok",
    "searchPageUrl": "https://www.google.com/maps/search/independent%20pharmacy%20Independence%20MO/@55.7381509944044,-157.61151869094473,13z?hl=en",
    "searchString": "independent pharmacy Independence MO",
    "language": "en",
    "rank": 12,
    "isAdvertisement": false,
    "imageUrl": "https://lh3.googleusercontent.com/p/AF1QipPcrnq7NJ_K4mHGjytWtRT3f2xfGnCJEjxSPN7l=w408-h272-k-no",
    "kgmid": "/g/1td4kn2g",
    "classification": "chain",
    "is_independent": false,
    "is_compounding": false,
    "confidence": 1.0,
    "source": "perplexity",
    "method": "llm"
  },
  {
    "title": "Price Chopper Pharmacy",
    "price": null,
    "categoryName": "Pharmacy",
    "address": "16611 East 23rd St S, Independence, MO 64055",
    "neighborhood": null,
    "street": "16611 East 23rd St S",
    "city": "Independence",
    "postalCode": "64055",
    "state": "Missouri",
    "countryCode": "US",
    "website": "http://mypricechopper.com/shop-save/store-info/store-locator",
    "phone": "(816) 833-8629",
    "phoneUnformatted": "+18168338629",
    "claimThisBusiness": true,
    "location": {
      "lat": 39.0764069,
      "lng": -94.3824221
    },
    "totalScore": 4.2,
    "permanentlyClosed": false,
    "temporarilyClosed": false,
    "placeId": null,
    "categories": [
      "Pharmacy"
    ],
    "fid": "0x89e41f2e9a93d0f1:0xe2e24a1152ae1d95",
    "cid": "16348711035570363797",
    "reviewsCount": 11,
    "imagesCount": 4,
    "imageCategories": [],
    "scrapedAt": "2025-06-22T06:04:13.616Z",
    "googleFoodUrl": null,
    "hotelAds": [],
    "openingHours": [
      {
        "day": "Monday",
        "hours": "9\u202fAM to 7\u202fPM"
      },
      {
        "day": "Tuesday",
        "hours": "9\u202fAM to 7\u202fPM"
      },
      {
        "day": "Wednesday",
        "hours": "9\u202fAM to 7\u202fPM"
      },
      {
        "day": "Thursday",
        "hours": "9\u202fAM to 7\u202fPM"
      },
      {
        "day": "Friday",
        "hours": "9\u202fAM to 7\u202fPM"
      },
      {
        "day": "Saturday",
        "hours": "9\u202fAM to 1\u202fPM"
      },
      {
        "day": "Sunday",
        "hours": "Closed"
      }
    ],
    "peopleAlsoSearch": [],
    "placesTags": [],
    "reviewsTags": [],
    "additionalInfo": {
      "Service options": [
        {
          "In-store pickup": true
        },
        {
          "Delivery": false
        },
        {
          "Same-day delivery": false
        }
      ],
      "Accessibility": [
        {
          "Wheelchair accessible entrance": true
        },
        {
          "Wheelchair accessible parking lot": true
        }
      ],
      "Planning": [
        {
          "Quick visit": true
        }
      ],
      "Payments": [
        {
          "Credit cards": true
        }
      ]
    },
    "gasPrices": [],
    "url": "https://www.google.com/maps/search/?api=1&query=Price%20Chopper%20Pharmacy&query_place_id=ChIJ8dCTmi4f5IkRlR2uUhFK4uI",
    "searchPageUrl": "https://www.google.com/maps/search/independent%20pharmacy%20Independence%20MO/@55.7381509944044,-157.61151869094473,13z?hl=en",
    "searchString": "independent pharmacy Independence MO",
    "language": "en",
    "rank": 13,
    "isAdvertisement": false,
    "imageUrl": "https://lh3.googleusercontent.com/gps-cs-s/AC9h4nqquY9mQ7MkN5Pmakc56YYHkZzpRGLeEOQEU5g4NvRLWPIv1Qrq0yycKYRD6i08Ei2pvaiuGe-_rE_MRt0zGB5HcSXQ-_Duf6HsO3sKYVB0b08IVph61cGF5bWPWbUJOXtERB9iBQ=w426-h240-k-no",
    "kgmid": "/g/11b6cj0cj5",
    "classification": "chain",
    "is_independent": false,
    "is_compounding": false,
    "confidence": 0.95,
    "source": "perplexity",
    "method": "llm"
  },
  {
    "title": "CVS Pharmacy",
    "price": null,
    "categoryName": "Pharmacy",
    "address": "1315 West 23rd St S, Independence, MO 64050, United States",
    "neighborhood": null,
    "street": "1315 West 23rd St S",
    "city": "Independence",
    "postalCode": "64050",
    "state": "Missouri",
    "countryCode": "US",
    "website": "https://www.cvs.com/store-locator/independence-mo-pharmacies/1315-west-23rd-st-independence-mo-64050/storeid=10241?WT.mc_id=LS_GOOGLE_RX_10241",
    "phone": "+1 816-833-8790",
    "phoneUnformatted": "+18168338790",
    "claimThisBusiness": false,
    "location": {
      "lat": 39.0792706,
      "lng": -94.4334948
    },
    "totalScore": 4.2,
    "permanentlyClosed": false,
    "temporarilyClosed": false,
    "placeId": null,
    "categories": [
      "Pharmacy"
    ],
    "fid": "0x87c0fd2f356a1d45:0xcd7d5a6a33029f53",
    "cid": "14807090562032901971",
    "reviewsCount": 46,
    "imagesCount": 8,
    "imageCategories": [],
    "scrapedAt": "2025-06-22T06:04:16.414Z",
    "googleFoodUrl": null,
    "hotelAds": [],
    "openingHours": [
      {
        "day": "Monday",
        "hours": "9\u202fAM to 1:30\u202fPM, 2 to 8\u202fPM"
      },
      {
        "day": "Tuesday",
        "hours": "9\u202fAM to 1:30\u202fPM, 2 to 8\u202fPM"
      },
      {
        "day": "Wednesday",
        "hours": "9\u202fAM to 1:30\u202fPM, 2 to 8\u202fPM"
      },
      {
        "day": "Thursday",
        "hours": "9\u202fAM to 1:30\u202fPM, 2 to 8\u202fPM"
      },
      {
        "day": "Friday",
        "hours": "9\u202fAM to 1:30\u202fPM, 2 to 8\u202fPM"
      },
      {
        "day": "Saturday",
        "hours": "9\u202fAM to 1:30\u202fPM, 2 to 6\u202fPM"
      },
      {
        "day": "Sunday",
        "hours": "10\u202fAM to 1:30\u202fPM, 2 to 6\u202fPM"
      }
    ],
    "peopleAlsoSearch": [],
    "placesTags": [],
    "reviewsTags": [],
    "additionalInfo": {
      "Service options": [
        {
          "Delivery": true
        },
        {
          "Drive-through": true
        },
        {
          "In-store shopping": true
        }
      ],
      "Accessibility": [
        {
          "Wheelchair-accessible car park": true
        },
        {
          "Wheelchair-accessible entrance": true
        }
      ],
      "Offerings": [
        {
          "Naloxone": true
        },
        {
          "Passport photos": true
        }
      ],
      "Crowd": [
        {
          "LGBTQ+ friendly": true
        },
        {
          "Transgender safe space": true
        }
      ],
      "Planning": [
        {
          "Quick visit": true
        }
      ],
      "Payments": [
        {
          "Credit cards": true
        },
        {
          "Debit cards": true
        },
        {
          "NFC mobile payments": true
        },
        {
          "Credit cards": true
        }
      ]
    },
    "gasPrices": [],
    "url": "https://www.google.com/maps/search/?api=1&query=CVS%20Pharmacy&query_place_id=ChIJRR1qNS_9wIcRU58CM2pafc0",
    "searchPageUrl": "https://www.google.com/maps/search/independent%20pharmacy%20Independence%20MO/@57.40072944694004,-158.8645058997317,9z?hl=en",
    "searchString": "independent pharmacy Independence MO",
    "language": "en",
    "rank": 6,
    "isAdvertisement": false,
    "imageUrl": "https://lh3.googleusercontent.com/p/AF1QipODmCdCv-_gLiughb644Ie-ldUwxe_l7NppuFEP=w408-h272-k-no",
    "kgmid": "/g/11c468k1jn",
    "classification": "chain",
    "is_independent": false,
    "is_compounding": false,
    "confidence": 1.0,
    "source": "perplexity",
    "method": "llm"
  },
  {
    "title": "Hy-Vee Pharmacy",
    "price": "$$",
    "categoryName": "Pharmacy",
    "address": "1525 East 23rd St S, Independence, MO 64055, United States",
    "neighborhood": null,
    "street": "1525 East 23rd St S",
    "city": "Independence",
    "postalCode": "64055",
    "state": "Missouri",
    "countryCode": "US",
    "website": "https://www.hy-vee.com/my-pharmacy/pharmacy-finder/independence-1-1525-e-23rd-st-s-independence-mo/1260?utm_source=google&utm_medium=organic&utm_campaign=gmb-listing",
    "phone": "+1 816-836-9918",
    "phoneUnformatted": "+18168369918",
    "claimThisBusiness": false,
    "location": {
      "lat": 39.076879,
      "lng": -94.3938171
    },
    "totalScore": 3.5,
    "permanentlyClosed": false,
    "temporarilyClosed": false,
    "placeId": null,
    "categories": [
      "Pharmacy",
      "Drug store",
      "Herbal medicine store",
      "Homeopathic pharmacy",
      "Local medical services",
      "Medical Center",
      "Organic drug store",
      "Pharmaceutical company",
      "Pharmaceutical lab",
      "Toiletries store"
    ],
    "fid": "0x87c102a915499193:0x168e58482a2cc6f0",
    "cid": "1625333582495794928",
    "reviewsCount": 33,
    "imagesCount": 10,
    "imageCategories": [],
    "scrapedAt": "2025-06-22T06:04:16.414Z",
    "googleFoodUrl": null,
    "hotelAds": [],
    "openingHours": [
      {
        "day": "Monday",
        "hours": "8\u202fAM to 8\u202fPM"
      },
      {
        "day": "Tuesday",
        "hours": "8\u202fAM to 8\u202fPM"
      },
      {
        "day": "Wednesday",
        "hours": "8\u202fAM to 8\u202fPM"
      },
      {
        "day": "Thursday",
        "hours": "8\u202fAM to 8\u202fPM"
      },
      {
        "day": "Friday",
        "hours": "8\u202fAM to 8\u202fPM"
      },
      {
        "day": "Saturday",
        "hours": "9\u202fAM to 5\u202fPM"
      },
      {
        "day": "Sunday",
        "hours": "10\u202fAM to 5\u202fPM"
      }
    ],
    "peopleAlsoSearch": [],
    "placesTags": [],
    "reviewsTags": [],
    "additionalInfo": {
      "Service options": [
        {
          "Delivery": true
        },
        {
          "Drive-through": true
        },
        {
          "In-store pick-up": true
        },
        {
          "Same-day delivery": true
        }
      ],
      "Accessibility": [
        {
          "Wheelchair-accessible car park": true
        },
        {
          "Wheelchair-accessible entrance": true
        },
        {
          "Wheelchair-accessible seating": true
        },
        {
          "Wheelchair-accessible toilet": true
        }
      ],
      "Amenities": [
        {
          "Wi-Fi": true
        }
      ],
      "Planning": [
        {
          "Quick visit": true
        }
      ],
      "Payments": [
        {
          "Credit cards": true
        },
        {
          "Debit cards": true
        },
        {
          "Credit cards": true
        }
      ]
    },
    "gasPrices": [],
    "url": "https://www.google.com/maps/search/?api=1&query=Hy-Vee%20Pharmacy&query_place_id=ChIJk5FJFakCwYcR8MYsKkhYjhY",
    "searchPageUrl": "https://www.google.com/maps/search/independent%20pharmacy%20Independence%20MO/@57.40072944694004,-158.8645058997317,9z?hl=en",
    "searchString": "independent pharmacy Independence MO",
    "language": "en",
    "rank": 10,
    "isAdvertisement": false,
    "imageUrl": "https://lh3.googleusercontent.com/p/AF1QipPGaTVcvQtVBi6UUw4aa6F9KtZlq9mEg6zdO3dc=w408-h408-k-no",
    "kgmid": "/g/1hdz67z0_",
    "classification": "chain",
    "is_independent": false,
    "is_compounding": false,
    "confidence": 0.95,
    "source": "perplexity",
    "method": "llm"
  },
  {
    "title": "Walgreens Pharmacy",
    "description": "Department of the Walgreens chain providing prescription medications & other health-related items.",
    "price": "$$",
    "categoryName": "Pharmacy",
    "address": "1536 East 23rd St S, Independence, MO 64055, United States",
    "neighborhood": null,
    "street": "1536 East 23rd St S",
    "city": "Independence",
    "postalCode": "64055",
    "state": "Missouri",
    "countryCode": "US",
    "website": "https://www.walgreens.com/locator/walgreens-1536+e+23rd+st+s-independence-mo-64055/id=4224",
    "phone": "+1 816-252-0752",
    "phoneUnformatted": "+18162520752",
    "claimThisBusiness": false,
    "location": {
      "lat": 39.0790851,
      "lng": -94.391157
    },
    "totalScore": 3.3,
    "permanentlyClosed": false,
    "temporarilyClosed": false,
    "placeId": null,
    "categories": [
      "Pharmacy"
    ],
    "fid": "0x87c102aee80815b9:0x7acdf6c92cf318a",
    "cid": "553062511672242570",
    "reviewsCount": 23,
    "imagesCount": 4,
    "imageCategories": [],
    "scrapedAt": "2025-06-22T06:04:16.415Z",
    "googleFoodUrl": null,
    "hotelAds": [],
    "openingHours": [
      {
        "day": "Monday",
        "hours": "8\u202fAM to 1:30\u202fPM, 2 to 8\u202fPM"
      },
      {
        "day": "Tuesday",
        "hours": "8\u202fAM to 1:30\u202fPM, 2 to 8\u202fPM"
      },
      {
        "day": "Wednesday",
        "hours": "8\u202fAM to 1:30\u202fPM, 2 to 8\u202fPM"
      },
      {
        "day": "Thursday",
        "hours": "8\u202fAM to 1:30\u202fPM, 2 to 8\u202fPM"
      },
      {
        "day": "Friday",
        "hours": "8\u202fAM to 1:30\u202fPM, 2 to 8\u202fPM"
      },
      {
        "day": "Saturday",
        "hours": "9\u202fAM to 1:30\u202fPM, 2 to 6\u202fPM"
      },
      {
        "day": "Sunday",
        "hours": "10\u202fAM to 1:30\u202fPM, 2 to 6\u202fPM"
      }
    ],
    "additionalOpeningHours": {
      "Drive through": [
        {
          "day": "Monday",
          "hours": "8\u202fam\u20131:30\u202fpm"
        },
        {
          "day": "Tuesday",
          "hours": "8\u202fam\u20131:30\u202fpm"
        },
        {
          "day": "Wednesday",
          "hours": "8\u202fam\u20131:30\u202fpm"
        },
        {
          "day": "Thursday",
          "hours": "8\u202fam\u20131:30\u202fpm"
        },
        {
          "day": "Friday",
          "hours": "8\u202fam\u20131:30\u202fpm"
        },
        {
          "day": "Saturday",
          "hours": "9\u202fam\u20131:30\u202fpm"
        },
        {
          "day": "Sunday",
          "hours": "10\u202fam\u20131:30\u202fpm"
        }
      ]
    },
    "peopleAlsoSearch": [],
    "placesTags": [],
    "reviewsTags": [],
    "additionalInfo": {
      "Service options": [
        {
          "Drive-through": true
        },
        {
          "In-store pick-up": true
        }
      ],
      "Accessibility": [
        {
          "Wheelchair-accessible car park": true
        },
        {
          "Wheelchair-accessible entrance": true
        }
      ],
      "Offerings": [
        {
          "Naloxone": true
        }
      ],
      "Planning": [
        {
          "Quick visit": true
        }
      ],
      "Payments": [
        {
          "Credit cards": true
        },
        {
          "Debit cards": true
        }
      ]
    },
    "gasPrices": [],
    "url": "https://www.google.com/maps/search/?api=1&query=Walgreens%20Pharmacy&query_place_id=ChIJuRUI6K4CwYcRijHPkmzfrAc",
    "searchPageUrl": "https://www.google.com/maps/search/independent%20pharmacy%20Independence%20MO/@57.40072944694004,-158.8645058997317,9z?hl=en",
    "searchString": "independent pharmacy Independence MO",
    "language": "en",
    "rank": 11,
    "isAdvertisement": false,
    "imageUrl": "https://lh3.googleusercontent.com/p/AF1QipO-leufs_FDAiao55_OH0XksCP2SYHbeWZF846k=w525-h240-k-no",
    "kgmid": "/g/11cnbm1qq_",
    "classification": "chain",
    "is_independent": false,
    "is_compounding": false,
    "confidence": 1.0,
    "source": "perplexity",
    "method": "llm"
  },
  {
    "title": "Rockhill Pharmacy",
    "price": null,
    "categoryName": "Pharmacy",
    "address": "4240 SW Trafficway, Kansas City, MO 64111, United States",
    "neighborhood": "Volker",
    "street": "4240 SW Trafficway",
    "city": "Kansas City",
    "postalCode": "64111",
    "state": "Missouri",
    "countryCode": "US",
    "website": "https://www.rockhillpharmacy.com/",
    "phone": "+1 816-799-0123",
    "phoneUnformatted": "+18167990123",
    "claimThisBusiness": false,
    "location": {
      "lat": 39.0511146,
      "lng": -94.5977768
    },
    "totalScore": 5,
    "permanentlyClosed": false,
    "temporarilyClosed": false,
    "placeId": null,
    "categories": [
      "Pharmacy"
    ],
    "fid": "0x87c0efce62dd1789:0x716d4f427d7fb01",
    "cid": "510829752858704641",
    "reviewsCount": 5,
    "imagesCount": 2,
    "imageCategories": [],
    "scrapedAt": "2025-06-22T06:04:33.197Z",
    "googleFoodUrl": null,
    "hotelAds": [],
    "openingHours": [
      {
        "day": "Monday",
        "hours": "9\u202fAM to 5\u202fPM"
      },
      {
        "day": "Tuesday",
        "hours": "9\u202fAM to 5\u202fPM"
      },
      {
        "day": "Wednesday",
        "hours": "9\u202fAM to 5\u202fPM"
      },
      {
        "day": "Thursday",
        "hours": "9\u202fAM to 5\u202fPM"
      },
      {
        "day": "Friday",
        "hours": "9\u202fAM to 5\u202fPM"
      },
      {
        "day": "Saturday",
        "hours": "9\u202fAM to 3\u202fPM"
      },
      {
        "day": "Sunday",
        "hours": "Closed"
      }
    ],
    "peopleAlsoSearch": [],
    "placesTags": [],
    "reviewsTags": [],
    "additionalInfo": {
      "From the business": [
        {
          "Small Business": true
        }
      ],
      "Service options": [
        {
          "Delivery": true
        },
        {
          "Same-day delivery": true
        }
      ],
      "Accessibility": [
        {
          "Wheelchair-accessible car park": true
        },
        {
          "Wheelchair-accessible entrance": true
        }
      ],
      "Payments": [
        {
          "Credit cards": true
        },
        {
          "Debit cards": true
        }
      ]
    },
    "gasPrices": [],
    "url": "https://www.google.com/maps/search/?api=1&query=Rockhill%20Pharmacy&query_place_id=ChIJiRfdYs7vwIcRAfvXJ_TUFgc",
    "searchPageUrl": "https://www.google.com/maps/search/independent%20pharmacy%20Independence%20MO/@70.60118977126913,-149.65811401432413,9z?hl=en",
    "searchString": "independent pharmacy Independence MO",
    "language": "en",
    "rank": 14,
    "isAdvertisement": false,
    "imageUrl": "https://lh3.googleusercontent.com/p/AF1QipNIghuMPIjM6ua4d60EyoggiN0t2EeO-6xZintX=w408-h272-k-no",
    "kgmid": "/g/11ckqr7sjg",
    "classification": "independent",
    "is_independent": true,
    "is_compounding": false,
    "confidence": 0.9,
    "source": "perplexity",
    "method": "llm"
  },
  {
    "title": "Genoa Healthcare",
    "price": null,
    "categoryName": "Pharmacy",
    "address": "17844 East 23rd St S d404, Independence, MO 64057, United States",
    "neighborhood": null,
    "street": "17844 East 23rd St S d404",
    "city": "Independence",
    "postalCode": "64057",
    "state": "Missouri",
    "countryCode": "US",
    "website": "http://www.genoahealthcare.com/",
    "phone": "+1 816-833-7325",
    "phoneUnformatted": "+18168337325",
    "claimThisBusiness": false,
    "location": {
      "lat": 39.0792214,
      "lng": -94.3713071
    },
    "totalScore": 4.8,
    "permanentlyClosed": false,
    "temporarilyClosed": false,
    "placeId": null,
    "categories": [
      "Pharmacy",
      "Health"
    ],
    "fid": "0x87c102c9554f4225:0xe5fd5db4c9e3def4",
    "cid": "16572505234855943924",
    "reviewsCount": 14,
    "imagesCount": null,
    "imageCategories": [],
    "scrapedAt": "2025-06-22T06:04:35.147Z",
    "googleFoodUrl": null,
    "hotelAds": [],
    "openingHours": [
      {
        "day": "Monday",
        "hours": "8:30\u202fAM to 5\u202fPM"
      },
      {
        "day": "Tuesday",
        "hours": "8:30\u202fAM to 5\u202fPM"
      },
      {
        "day": "Wednesday",
        "hours": "8:30\u202fAM to 5\u202fPM"
      },
      {
        "day": "Thursday",
        "hours": "8:30\u202fAM to 5\u202fPM"
      },
      {
        "day": "Friday",
        "hours": "8:30\u202fAM to 4:30\u202fPM"
      },
      {
        "day": "Saturday",
        "hours": "Closed"
      },
      {
        "day": "Sunday",
        "hours": "Closed"
      }
    ],
    "peopleAlsoSearch": [],
    "placesTags": [],
    "reviewsTags": [],
    "additionalInfo": {
      "Accessibility": [
        {
          "Wheelchair-accessible car park": true
        },
        {
          "Wheelchair-accessible entrance": true
        }
      ],
      "Amenities": [
        {
          "Wi-Fi": true
        },
        {
          "Free Wi-Fi": true
        }
      ]
    },
    "gasPrices": [],
    "url": "https://www.google.com/maps/search/?api=1&query=Genoa%20Healthcare&query_place_id=ChIJJUJPVckCwYcR9N7jybRd_eU",
    "searchPageUrl": "https://www.google.com/maps/search/independent%20pharmacy%20Independence%20MO/@69.21166763186608,-145.05491807162034,9z?hl=en",
    "searchString": "independent pharmacy Independence MO",
    "language": "en",
    "rank": 2,
    "isAdvertisement": false,
    "kgmid": "/g/126197_s8",
    "classification": "chain",
    "is_independent": false,
    "is_compounding": false,
    "confidence": 0.95,
    "source": "perplexity",
    "method": "llm"
  },
  {
    "title": "Walgreens Pharmacy",
    "description": "Department of the Walgreens chain providing prescription medications & other health-related items.",
    "price": "$$",
    "categoryName": "Pharmacy",
    "address": "2261 S Sterling Ave, Independence, MO 64052, United States",
    "neighborhood": null,
    "street": "2261 S Sterling Ave",
    "city": "Independence",
    "postalCode": "64052",
    "state": "Missouri",
    "countryCode": "US",
    "website": "https://www.walgreens.com/locator/walgreens-2261+s+sterling+ave-independence-mo-64052/id=4236",
    "phone": "+1 816-833-5840",
    "phoneUnformatted": "+18168335840",
    "claimThisBusiness": false,
    "location": {
      "lat": 39.0806758,
      "lng": -94.4447288
    },
    "totalScore": 2.9,
    "permanentlyClosed": false,
    "temporarilyClosed": false,
    "placeId": null,
    "categories": [
      "Pharmacy"
    ],
    "fid": "0x87c0fcda0ed6b3b1:0x911847bb4c8f9140",
    "cid": "10455185404709540160",
    "reviewsCount": 17,
    "imagesCount": 6,
    "imageCategories": [],
    "scrapedAt": "2025-06-22T06:04:35.946Z",
    "googleFoodUrl": null,
    "hotelAds": [],
    "openingHours": [
      {
        "day": "Monday",
        "hours": "9\u202fAM to 1:30\u202fPM, 2 to 7\u202fPM"
      },
      {
        "day": "Tuesday",
        "hours": "9\u202fAM to 1:30\u202fPM, 2 to 7\u202fPM"
      },
      {
        "day": "Wednesday",
        "hours": "9\u202fAM to 1:30\u202fPM, 2 to 7\u202fPM"
      },
      {
        "day": "Thursday",
        "hours": "9\u202fAM to 1:30\u202fPM, 2 to 7\u202fPM"
      },
      {
        "day": "Friday",
        "hours": "9\u202fAM to 1:30\u202fPM, 2 to 7\u202fPM"
      },
      {
        "day": "Saturday",
        "hours": "9\u202fAM to 1:30\u202fPM, 2 to 6\u202fPM"
      },
      {
        "day": "Sunday",
        "hours": "10\u202fAM to 1:30\u202fPM, 2 to 6\u202fPM"
      }
    ],
    "additionalOpeningHours": {
      "Drive through": [
        {
          "day": "Monday",
          "hours": "9\u202fam\u20131:30\u202fpm"
        },
        {
          "day": "Tuesday",
          "hours": "9\u202fam\u20131:30\u202fpm"
        },
        {
          "day": "Wednesday",
          "hours": "9\u202fam\u20131:30\u202fpm"
        },
        {
          "day": "Thursday",
          "hours": "9\u202fam\u20131:30\u202fpm"
        },
        {
          "day": "Friday",
          "hours": "9\u202fam\u20131:30\u202fpm"
        },
        {
          "day": "Saturday",
          "hours": "9\u202fam\u20131:30\u202fpm"
        },
        {
          "day": "Sunday",
          "hours": "10\u202fam\u20131:30\u202fpm"
        }
      ]
    },
    "peopleAlsoSearch": [],
    "placesTags": [],
    "reviewsTags": [],
    "additionalInfo": {
      "Service options": [
        {
          "Drive-through": true
        },
        {
          "In-store pick-up": true
        },
        {
          "On-site services": true
        }
      ],
      "Accessibility": [
        {
          "Wheelchair-accessible car park": true
        },
        {
          "Wheelchair-accessible entrance": true
        }
      ],
      "Offerings": [
        {
          "Naloxone": true
        }
      ],
      "Planning": [
        {
          "Quick visit": true
        }
      ],
      "Payments": [
        {
          "Cheques": true
        },
        {
          "Credit cards": true
        },
        {
          "Debit cards": true
        }
      ]
    },
    "gasPrices": [],
    "url": "https://www.google.com/maps/search/?api=1&query=Walgreens%20Pharmacy&query_place_id=ChIJsbPWDtr8wIcRQJGPTLtHGJE",
    "searchPageUrl": "https://www.google.com/maps/search/independent%20pharmacy%20Independence%20MO/@66.43262335305997,-160.01530488540766,9z?hl=en",
    "searchString": "independent pharmacy Independence MO",
    "language": "en",
    "rank": 15,
    "isAdvertisement": false,
    "imageUrl": "https://lh3.googleusercontent.com/gps-cs-s/AC9h4npfx0wruBNPd1gMWE4s1ZeZDwdUWCVNjq9z0K6ujPrSsBHBtCoopg-fpslckUGMeLaeM9RugFmtmwtdaEUxgl71v73vXsrjTNGIJEJu6OAl-VrkrEprUNX_fD6R5hZqTnNyPTj5=w408-h303-k-no",
    "kgmid": "/g/11cn9ck_70",
    "classification": "chain",
    "is_independent": false,
    "is_compounding": false,
    "confidence": 1.0,
    "source": "perplexity",
    "method": "llm"
  },
  {
    "title": "CVS",
    "description": "Drugstore chain selling a variety of beauty & health products, plus some grocery & household items.",
    "price": null,
    "categoryName": "Drug store",
    "address": "3825 S Noland Rd, Independence, MO 64055",
    "neighborhood": null,
    "street": "3825 S Noland Rd",
    "city": "Independence",
    "postalCode": "64055",
    "state": "Missouri",
    "countryCode": "US",
    "website": "https://www.cvs.com/store-locator/independence-mo-pharmacies/3825-s-noland-rd-independence-mo-64055/storeid=8430?WT.mc_id=LS_GOOGLE_FS_8430",
    "phone": "(816) 254-6002",
    "phoneUnformatted": "+18162546002",
    "claimThisBusiness": false,
    "location": {
      "lat": 39.0506595,
      "lng": -94.4144328
    },
    "locatedIn": "CVS Pharmacy",
    "totalScore": 2.1,
    "permanentlyClosed": false,
    "temporarilyClosed": false,
    "placeId": null,
    "categories": [
      "Drug store",
      "Beauty supply store",
      "Beer store",
      "Convenience store",
      "Cosmetics store",
      "Greeting card shop",
      "Liquor store",
      "Perfume store",
      "Stationery store",
      "Vitamin & supplements store"
    ],
    "fid": "0x87c0e2be217d1e31:0xebb888596c76661f",
    "cid": "16985475912280991263",
    "reviewsCount": 237,
    "imagesCount": 34,
    "imageCategories": [],
    "scrapedAt": "2025-06-22T06:04:48.459Z",
    "googleFoodUrl": null,
    "hotelAds": [],
    "openingHours": [
      {
        "day": "Monday",
        "hours": "8\u202fAM to 10\u202fPM"
      },
      {
        "day": "Tuesday",
        "hours": "8\u202fAM to 10\u202fPM"
      },
      {
        "day": "Wednesday",
        "hours": "8\u202fAM to 10\u202fPM"
      },
      {
        "day": "Thursday",
        "hours": "8\u202fAM to 10\u202fPM"
      },
      {
        "day": "Friday",
        "hours": "8\u202fAM to 10\u202fPM"
      },
      {
        "day": "Saturday",
        "hours": "8\u202fAM to 10\u202fPM"
      },
      {
        "day": "Sunday",
        "hours": "8\u202fAM to 10\u202fPM"
      }
    ],
    "additionalOpeningHours": {
      "CVS Pharmacy": [
        {
          "day": "Monday",
          "hours": "9\u202fAM\u20131:30\u202fPM"
        },
        {
          "day": "Tuesday",
          "hours": "9\u202fAM\u20131:30\u202fPM"
        },
        {
          "day": "Wednesday",
          "hours": "9\u202fAM\u20131:30\u202fPM"
        },
        {
          "day": "Thursday",
          "hours": "9\u202fAM\u20131:30\u202fPM"
        },
        {
          "day": "Friday",
          "hours": "9\u202fAM\u20131:30\u202fPM"
        },
        {
          "day": "Saturday",
          "hours": "9\u202fAM\u20131:30\u202fPM"
        },
        {
          "day": "Sunday",
          "hours": "9\u202fAM\u20131:30\u202fPM"
        }
      ],
      "CVS Photo": [
        {
          "day": "Monday",
          "hours": "8\u202fAM\u201310\u202fPM"
        },
        {
          "day": "Tuesday",
          "hours": "8\u202fAM\u201310\u202fPM"
        },
        {
          "day": "Wednesday",
          "hours": "8\u202fAM\u201310\u202fPM"
        },
        {
          "day": "Thursday",
          "hours": "8\u202fAM\u201310\u202fPM"
        },
        {
          "day": "Friday",
          "hours": "8\u202fAM\u201310\u202fPM"
        },
        {
          "day": "Saturday",
          "hours": "8\u202fAM\u201310\u202fPM"
        },
        {
          "day": "Sunday",
          "hours": "8\u202fAM\u201310\u202fPM"
        }
      ],
      "MinuteClinic at CVS": [
        {
          "day": "Monday",
          "hours": "8\u202fAM\u20137\u202fPM"
        },
        {
          "day": "Tuesday",
          "hours": "8\u202fAM\u20137\u202fPM"
        },
        {
          "day": "Wednesday",
          "hours": "8\u202fAM\u20137\u202fPM"
        },
        {
          "day": "Thursday",
          "hours": "8\u202fAM\u20137\u202fPM"
        },
        {
          "day": "Friday",
          "hours": "8\u202fAM\u20137\u202fPM"
        },
        {
          "day": "Saturday",
          "hours": "8\u202fAM\u20134:30\u202fPM"
        },
        {
          "day": "Sunday",
          "hours": "9\u202fAM\u20134:30\u202fPM"
        }
      ]
    },
    "peopleAlsoSearch": [],
    "placesTags": [],
    "reviewsTags": [],
    "additionalInfo": {
      "Service options": [
        {
          "Delivery": true
        },
        {
          "Drive-through": true
        },
        {
          "In-store pickup": true
        },
        {
          "In-store shopping": true
        },
        {
          "Onsite services": true
        },
        {
          "Same-day delivery": false
        }
      ],
      "Accessibility": [
        {
          "Wheelchair accessible entrance": true
        },
        {
          "Wheelchair accessible parking lot": true
        }
      ],
      "Offerings": [
        {
          "Passport photos": true
        }
      ],
      "Crowd": [
        {
          "LGBTQ+ friendly": true
        },
        {
          "Transgender safespace": true
        }
      ],
      "Planning": [
        {
          "Quick visit": true
        }
      ],
      "Payments": [
        {
          "Credit cards": true
        },
        {
          "Debit cards": true
        },
        {
          "Credit cards": true
        }
      ]
    },
    "gasPrices": [],
    "url": "https://www.google.com/maps/search/?api=1&query=CVS&query_place_id=ChIJMR59Ib7iwIcRH2Z2bFmIuOs",
    "searchPageUrl": "https://www.google.com/maps/search/independent%20pharmacy%20Independence%20MO/@22.069109753675892,-159.37245853628502,12z?hl=en",
    "searchString": "independent pharmacy Independence MO",
    "language": "en",
    "rank": 18,
    "isAdvertisement": false,
    "imageUrl": "https://lh3.googleusercontent.com/gps-cs-s/AC9h4nrhFzzYIkMi4_vhZCKeohFpL8vD8fLW8kfC3l3lNaRwjTMam7iS_MRHTwWzoLRr_PnYSoLCQ9Ko5YAQ5u8QnR6P_RVmN3uZAd4smuR1dFIYUSgivv6vwrXxhMefgibxnOUS9BbM=w493-h240-k-no",
    "kgmid": "/g/1td0bg6v",
    "classification": "chain",
    "is_independent": false,
    "is_compounding": false,
    "confidence": 1.0,
    "source": "perplexity",
    "method": "llm"
  }
]