[
  {
    "title": "Walgreens Pharmacy",
    "description": "Department of the Walgreens chain providing prescription medications & other health-related items.",
    "price": "$$",
    "categoryName": "Pharmacy",
    "address": "498 Castro St, San Francisco, CA 94114",
    "neighborhood": "The Castro",
    "street": "498 Castro St",
    "city": "San Francisco",
    "postalCode": "94114",
    "state": "California",
    "countryCode": "US",
    "website": "https://www.walgreens.com/locator/walgreens-498+castro+st-san+francisco-ca-94114/id=1327",
    "phone": "(415) 861-3136",
    "phoneUnformatted": "+14158613136",
    "claimThisBusiness": false,
    "location": {
      "lat": 37.7610063,
      "lng": -122.4351993
    },
    "locatedIn": "Walgreens Photo",
    "totalScore": 3.5,
    "permanentlyClosed": false,
    "temporarilyClosed": false,
    "placeId": null,
    "categories": [
      "Pharmacy"
    ],
    "fid": "0x808f7e1b34fcb697:0xb1aa2dbd3dc55fc7",
    "cid": "12802095181562470343",
    "reviewsCount": 164,
    "imagesCount": 125,
    "imageCategories": [],
    "scrapedAt": "2025-06-22T01:28:25.046Z",
    "googleFoodUrl": null,
    "hotelAds": [],
    "openingHours": [
      {
        "day": "Monday",
        "hours": "2\u202fAM to 1:30\u202fAM"
      },
      {
        "day": "Tuesday",
        "hours": "2\u202fAM to 1:30\u202fAM"
      },
      {
        "day": "Wednesday",
        "hours": "2\u202fAM to 1:30\u202fAM"
      },
      {
        "day": "Thursday",
        "hours": "2\u202fAM to 1:30\u202fAM"
      },
      {
        "day": "Friday",
        "hours": "2\u202fAM to 1:30\u202fAM"
      },
      {
        "day": "Saturday",
        "hours": "2\u202fAM to 1:30\u202fAM"
      },
      {
        "day": "Sunday",
        "hours": "2\u202fAM to 1:30\u202fAM"
      }
    ],
    "additionalOpeningHours": {
      "Walgreens Photo": [
        {
          "day": "Monday",
          "hours": "Open 24 hours"
        },
        {
          "day": "Tuesday",
          "hours": "Open 24 hours"
        },
        {
          "day": "Wednesday",
          "hours": "Open 24 hours"
        },
        {
          "day": "Thursday",
          "hours": "Open 24 hours"
        },
        {
          "day": "Friday",
          "hours": "Open 24 hours"
        },
        {
          "day": "Saturday",
          "hours": "Open 24 hours"
        },
        {
          "day": "Sunday",
          "hours": "Open 24 hours"
        }
      ],
      "Drive through": [
        {
          "day": "Monday",
          "hours": "2\u202fAM\u20131:30\u202fAM"
        },
        {
          "day": "Tuesday",
          "hours": "2\u202fAM\u20131:30\u202fAM"
        },
        {
          "day": "Wednesday",
          "hours": "2\u202fAM\u20131:30\u202fAM"
        },
        {
          "day": "Thursday",
          "hours": "2\u202fAM\u20131:30\u202fAM"
        },
        {
          "day": "Friday",
          "hours": "2\u202fAM\u20131:30\u202fAM"
        },
        {
          "day": "Saturday",
          "hours": "2\u202fAM\u20131:30\u202fAM"
        },
        {
          "day": "Sunday",
          "hours": "2\u202fAM\u20131:30\u202fAM"
        }
      ]
    },
    "peopleAlsoSearch": [],
    "placesTags": [],
    "reviewsTags": [],
    "additionalInfo": {
      "Service options": [
        {
          "Curbside pickup": true
        },
        {
          "Delivery": true
        },
        {
          "Drive-through": true
        },
        {
          "In-store pickup": true
        },
        {
          "Onsite services": true
        },
        {
          "Same-day delivery": true
        }
      ],
      "Accessibility": [
        {
          "Wheelchair accessible entrance": true
        },
        {
          "Wheelchair accessible parking lot": true
        }
      ],
      "Offerings": [
        {
          "Medication disposal": true
        },
        {
          "Naloxone": true
        },
        {
          "Passport photos": true
        }
      ],
      "Planning": [
        {
          "Appointment required": true
        },
        {
          "Quick visit": true
        }
      ],
      "Payments": [
        {
          "Credit cards": true
        },
        {
          "Debit cards": true
        },
        {
          "NFC mobile payments": true
        },
        {
          "Credit cards": true
        }
      ]
    },
    "gasPrices": [],
    "url": "https://www.google.com/maps/search/?api=1&query=Walgreens%20Pharmacy&query_place_id=ChIJl7b8NBt-j4ARx1_FPb0tqrE",
    "searchPageUrl": "https://www.google.com/maps/search/independent%20pharmacy%20San%20Francisco%20CA/@66.43262335305997,-145.05491807162034,9z?hl=en",
    "searchString": "independent pharmacy San Francisco CA",
    "language": "en",
    "rank": 1,
    "isAdvertisement": false,
    "imageUrl": "https://lh3.googleusercontent.com/gps-cs-s/AC9h4nokgkWeDtPzaDMnEpvFf5gNdmxPfWEy0qMm2KaHMggPsmzw2F-fuDwZeeeYPNVPGWznrac_bp-Ydc8gy9v3lBO-1303kn1jEDvc05HUtd3Z9Jd14frwk-63PEDdgRmZ9MA5KxZB=w408-h306-k-no",
    "kgmid": "/g/1td6b2yw",
    "classification": "chain",
    "is_independent": false,
    "is_compounding": false,
    "confidence": 0.95,
    "source": "perplexity",
    "method": "llm"
  },
  {
    "title": "Walgreens Pharmacy",
    "description": "Department of the Walgreens chain providing prescription medications & other health-related items.",
    "price": null,
    "categoryName": "Pharmacy",
    "address": "2050 Irving St, San Francisco, CA 94122",
    "neighborhood": "Sunset District",
    "street": "2050 Irving St",
    "city": "San Francisco",
    "postalCode": "94122",
    "state": "California",
    "countryCode": "US",
    "website": "https://www.walgreens.com/locator/walgreens-2050+irving+st-san+francisco-ca-94122/id=2705",
    "phone": "(415) 664-4215",
    "phoneUnformatted": "+14156644215",
    "claimThisBusiness": false,
    "location": {
      "lat": 37.7637124,
      "lng": -122.4800471
    },
    "totalScore": 3.7,
    "permanentlyClosed": false,
    "temporarilyClosed": false,
    "placeId": null,
    "categories": [
      "Pharmacy"
    ],
    "fid": "0x8085871cb9524ce1:0x1801f95884cc18fc",
    "cid": "1729937890467387644",
    "reviewsCount": 16,
    "imagesCount": 7,
    "imageCategories": [],
    "scrapedAt": "2025-06-22T01:28:25.049Z",
    "googleFoodUrl": null,
    "hotelAds": [],
    "openingHours": [
      {
        "day": "Monday",
        "hours": "9\u202fAM to 9\u202fPM"
      },
      {
        "day": "Tuesday",
        "hours": "9\u202fAM to 9\u202fPM"
      },
      {
        "day": "Wednesday",
        "hours": "9\u202fAM to 9\u202fPM"
      },
      {
        "day": "Thursday",
        "hours": "9\u202fAM to 9\u202fPM"
      },
      {
        "day": "Friday",
        "hours": "9\u202fAM to 9\u202fPM"
      },
      {
        "day": "Saturday",
        "hours": "9\u202fAM to 1:30\u202fPM, 2 to 5\u202fPM"
      },
      {
        "day": "Sunday",
        "hours": "10\u202fAM to 1:30\u202fPM, 2 to 6\u202fPM"
      }
    ],
    "additionalOpeningHours": {
      "Drive through": [
        {
          "day": "Monday",
          "hours": "9\u202fAM\u20139\u202fPM"
        },
        {
          "day": "Tuesday",
          "hours": "9\u202fAM\u20139\u202fPM"
        },
        {
          "day": "Wednesday",
          "hours": "9\u202fAM\u20139\u202fPM"
        },
        {
          "day": "Thursday",
          "hours": "9\u202fAM\u20139\u202fPM"
        },
        {
          "day": "Friday",
          "hours": "9\u202fAM\u20139\u202fPM"
        },
        {
          "day": "Saturday",
          "hours": "9\u202fAM\u20131:30\u202fPM"
        },
        {
          "day": "Sunday",
          "hours": "10\u202fAM\u20131:30\u202fPM"
        }
      ]
    },
    "peopleAlsoSearch": [],
    "placesTags": [],
    "reviewsTags": [],
    "additionalInfo": {
      "Service options": [
        {
          "Curbside pickup": true
        },
        {
          "Delivery": true
        },
        {
          "In-store pickup": true
        },
        {
          "Onsite services": true
        }
      ],
      "Accessibility": [
        {
          "Wheelchair accessible entrance": true
        },
        {
          "Wheelchair accessible parking lot": true
        }
      ],
      "Offerings": [
        {
          "Naloxone": true
        },
        {
          "Passport photos": true
        }
      ],
      "Planning": [
        {
          "Quick visit": true
        }
      ],
      "Payments": [
        {
          "Credit cards": true
        },
        {
          "Debit cards": true
        }
      ]
    },
    "gasPrices": [],
    "url": "https://www.google.com/maps/search/?api=1&query=Walgreens%20Pharmacy&query_place_id=ChIJ4UxSuRyHhYAR_BjMhFj5ARg",
    "searchPageUrl": "https://www.google.com/maps/search/independent%20pharmacy%20San%20Francisco%20CA/@66.43262335305997,-145.05491807162034,9z?hl=en",
    "searchString": "independent pharmacy San Francisco CA",
    "language": "en",
    "rank": 2,
    "isAdvertisement": false,
    "imageUrl": "https://lh3.googleusercontent.com/gps-cs-s/AC9h4nr-Hhl3GqppLZWth9lDECpiJSfwzSyVayaR_6Rlrd2owOxzjbvz1mmp7qoihHxglWFrV3iWrY-OZHxFhkHIys74TP39hJavsRXP-oDGhBIH637UL_G0svE-TfPgcfchXbOB_OS4=w426-h240-k-no",
    "kgmid": "/g/11h04nvh16",
    "classification": "chain",
    "is_independent": false,
    "is_compounding": false,
    "confidence": 0.95,
    "source": "perplexity",
    "method": "llm"
  },
  {
    "title": "Koshland Pharm: Custom Compounding Pharmacy",
    "price": null,
    "categoryName": "Pharmacy",
    "address": "301 Folsom St suite b, San Francisco, CA 94105",
    "neighborhood": "Rincon Hill",
    "street": "301 Folsom St suite b",
    "city": "San Francisco",
    "postalCode": "94105",
    "state": "California",
    "countryCode": "US",
    "website": "http://www.koshlandpharm.com/",
    "phone": "(415) 344-0600",
    "phoneUnformatted": "+14153440600",
    "claimThisBusiness": false,
    "location": {
      "lat": 37.788482,
      "lng": -122.392783
    },
    "totalScore": 4.7,
    "permanentlyClosed": false,
    "temporarilyClosed": false,
    "placeId": null,
    "categories": [
      "Pharmacy",
      "Vitamin & supplements store"
    ],
    "fid": "0x8085807ae04d8b85:0x6b9db2469707061",
    "cid": "484659384353321057",
    "reviewsCount": 123,
    "imagesCount": 23,
    "imageCategories": [],
    "scrapedAt": "2025-06-22T01:28:25.049Z",
    "googleFoodUrl": null,
    "hotelAds": [],
    "openingHours": [
      {
        "day": "Monday",
        "hours": "10\u202fAM to 6\u202fPM"
      },
      {
        "day": "Tuesday",
        "hours": "10\u202fAM to 6\u202fPM"
      },
      {
        "day": "Wednesday",
        "hours": "10\u202fAM to 6\u202fPM"
      },
      {
        "day": "Thursday",
        "hours": "10\u202fAM to 6\u202fPM"
      },
      {
        "day": "Friday",
        "hours": "10\u202fAM to 6\u202fPM"
      },
      {
        "day": "Saturday",
        "hours": "Closed"
      },
      {
        "day": "Sunday",
        "hours": "Closed"
      }
    ],
    "peopleAlsoSearch": [],
    "placesTags": [],
    "reviewsTags": [],
    "additionalInfo": {
      "From the business": [
        {
          "Small business": true
        }
      ],
      "Service options": [
        {
          "Delivery": true
        },
        {
          "In-store pickup": true
        },
        {
          "In-store shopping": true
        },
        {
          "Onsite services": true
        },
        {
          "Same-day delivery": true
        }
      ],
      "Accessibility": [
        {
          "Wheelchair accessible entrance": true
        }
      ],
      "Crowd": [
        {
          "LGBTQ+ friendly": true
        },
        {
          "Transgender safespace": true
        }
      ],
      "Payments": [
        {
          "Checks": true
        },
        {
          "Credit cards": true
        },
        {
          "Debit cards": true
        },
        {
          "NFC mobile payments": true
        },
        {
          "Credit cards": true
        }
      ]
    },
    "gasPrices": [],
    "url": "https://www.google.com/maps/search/?api=1&query=Koshland%20Pharm%3A%20Custom%20Compounding%20Pharmacy&query_place_id=ChIJhYtN4HqAhYARYXBwaSTbuQY",
    "searchPageUrl": "https://www.google.com/maps/search/independent%20pharmacy%20San%20Francisco%20CA/@66.43262335305997,-145.05491807162034,9z?hl=en",
    "searchString": "independent pharmacy San Francisco CA",
    "language": "en",
    "rank": 3,
    "isAdvertisement": false,
    "imageUrl": "https://lh3.googleusercontent.com/p/AF1QipPpxLY53O2aRuIcVr8C3ubn8YrMCBzCEg540m1a=w408-h306-k-no",
    "kgmid": "/g/1th87bwr",
    "classification": "independent",
    "is_independent": true,
    "is_compounding": true,
    "confidence": 0.95,
    "source": "perplexity",
    "method": "llm"
  },
  {
    "title": "Parnassus Heights Pharmacy",
    "price": null,
    "categoryName": "Pharmacy",
    "address": "350 Parnassus Ave Ste 100, San Francisco, CA 94117",
    "neighborhood": "Parnassus Heights",
    "street": "350 Parnassus Ave Ste 100",
    "city": "San Francisco",
    "postalCode": "94117",
    "state": "California",
    "countryCode": "US",
    "website": "https://parnassusheightsrx.com/",
    "phone": "(415) 564-9191",
    "phoneUnformatted": "+14155649191",
    "claimThisBusiness": false,
    "location": {
      "lat": 37.7642347,
      "lng": -122.4562335
    },
    "totalScore": 4.8,
    "permanentlyClosed": false,
    "temporarilyClosed": false,
    "placeId": null,
    "categories": [
      "Pharmacy"
    ],
    "fid": "0x808587571694f851:0x63029dabcd4c4803",
    "cid": "7134438120917583875",
    "reviewsCount": 33,
    "imagesCount": 4,
    "imageCategories": [],
    "scrapedAt": "2025-06-22T01:28:25.049Z",
    "googleFoodUrl": null,
    "hotelAds": [],
    "openingHours": [
      {
        "day": "Monday",
        "hours": "9:30\u202fAM to 5:30\u202fPM"
      },
      {
        "day": "Tuesday",
        "hours": "9:30\u202fAM to 5:30\u202fPM"
      },
      {
        "day": "Wednesday",
        "hours": "9:30\u202fAM to 5:30\u202fPM"
      },
      {
        "day": "Thursday",
        "hours": "9:30\u202fAM to 5:30\u202fPM"
      },
      {
        "day": "Friday",
        "hours": "9:30\u202fAM to 5:30\u202fPM"
      },
      {
        "day": "Saturday",
        "hours": "Closed"
      },
      {
        "day": "Sunday",
        "hours": "Closed"
      }
    ],
    "peopleAlsoSearch": [],
    "placesTags": [],
    "reviewsTags": [],
    "additionalInfo": {
      "Service options": [
        {
          "Delivery": true
        }
      ],
      "Accessibility": [
        {
          "Wheelchair accessible entrance": true
        },
        {
          "Wheelchair accessible parking lot": true
        }
      ],
      "Payments": [
        {
          "Credit cards": true
        },
        {
          "Debit cards": true
        },
        {
          "NFC mobile payments": true
        },
        {
          "Credit cards": true
        }
      ]
    },
    "gasPrices": [],
    "url": "https://www.google.com/maps/search/?api=1&query=Parnassus%20Heights%20Pharmacy&query_place_id=ChIJUfiUFleHhYARA0hMzaudAmM",
    "searchPageUrl": "https://www.google.com/maps/search/independent%20pharmacy%20San%20Francisco%20CA/@66.43262335305997,-145.05491807162034,9z?hl=en",
    "searchString": "independent pharmacy San Francisco CA",
    "language": "en",
    "rank": 4,
    "isAdvertisement": false,
    "imageUrl": "https://lh3.googleusercontent.com/gps-cs-s/AC9h4no5t72-jb9sYhGpA-Wmif8ZbcGnNA3FepLdWG6_KjuXCFktbH4Js0O_jq2Tfh-tt4gPCoT218Dma_f5qoL6gAT1LTpMsqH4WzMHKdzLEEPU2ZbN5BU_4mDH6qHtCDP6IDEFtumLTQ=w426-h240-k-no",
    "kgmid": "/g/1tdv_36n",
    "classification": "independent",
    "is_independent": true,
    "is_compounding": false,
    "confidence": 0.9,
    "source": "perplexity",
    "method": "llm"
  },
  {
    "title": "Castro Pharmacy",
    "price": null,
    "categoryName": "Pharmacy",
    "address": "518a Castro St, San Francisco, CA 94114",
    "neighborhood": "The Castro",
    "street": "518a Castro St",
    "city": "San Francisco",
    "postalCode": "94114",
    "state": "California",
    "countryCode": "US",
    "website": "https://ahfpharmacy.org/",
    "phone": "(415) 255-2720",
    "phoneUnformatted": "+14152552720",
    "claimThisBusiness": false,
    "location": {
      "lat": 37.7605157,
      "lng": -122.4351783
    },
    "totalScore": 4.2,
    "permanentlyClosed": false,
    "temporarilyClosed": false,
    "placeId": null,
    "categories": [
      "Pharmacy"
    ],
    "fid": "0x808f7e1b247d221d:0x5d26a2e008376a13",
    "cid": "6712231377736526355",
    "reviewsCount": 16,
    "imagesCount": 10,
    "imageCategories": [],
    "scrapedAt": "2025-06-22T01:28:25.049Z",
    "googleFoodUrl": null,
    "hotelAds": [],
    "openingHours": [
      {
        "day": "Monday",
        "hours": "9\u202fAM to 7\u202fPM"
      },
      {
        "day": "Tuesday",
        "hours": "9\u202fAM to 7\u202fPM"
      },
      {
        "day": "Wednesday",
        "hours": "9\u202fAM to 7\u202fPM"
      },
      {
        "day": "Thursday",
        "hours": "9\u202fAM to 7\u202fPM"
      },
      {
        "day": "Friday",
        "hours": "9\u202fAM to 7\u202fPM"
      },
      {
        "day": "Saturday",
        "hours": "Closed"
      },
      {
        "day": "Sunday",
        "hours": "Closed"
      }
    ],
    "peopleAlsoSearch": [],
    "placesTags": [],
    "reviewsTags": [],
    "additionalInfo": {
      "Service options": [
        {
          "Delivery": true
        }
      ],
      "Accessibility": [
        {
          "Wheelchair accessible entrance": true
        },
        {
          "Wheelchair accessible parking lot": true
        }
      ],
      "Payments": [
        {
          "Credit cards": true
        },
        {
          "Debit cards": true
        },
        {
          "NFC mobile payments": true
        },
        {
          "Credit cards": true
        }
      ]
    },
    "gasPrices": [],
    "url": "https://www.google.com/maps/search/?api=1&query=Castro%20Pharmacy&query_place_id=ChIJHSJ9JBt-j4ARE2o3COCiJl0",
    "searchPageUrl": "https://www.google.com/maps/search/independent%20pharmacy%20San%20Francisco%20CA/@66.43262335305997,-145.05491807162034,9z?hl=en",
    "searchString": "independent pharmacy San Francisco CA",
    "language": "en",
    "rank": 5,
    "isAdvertisement": false,
    "imageUrl": "https://lh3.googleusercontent.com/gps-cs-s/AC9h4nrJPKSFdkD5LyZFeLfNHVflckq-3LOJCgo2hXDFg8Pjx5MrFLEgz9BqAMSDDq_kLp6qL2ctbihFXB6xsuoeNEF5yky1FUmtfX0-AhB4osxM_ZIEdQXrymYfkMD4pvutVuO_1B1v=w408-h544-k-no",
    "kgmid": "/g/1tczqlbv",
    "classification": "chain",
    "is_independent": false,
    "is_compounding": false,
    "confidence": 0.9,
    "source": "perplexity",
    "method": "llm"
  }
]