[
  {
    "title": "Alum Rock Pharmacy",
    "price": null,
    "categoryName": "Pharmacy",
    "address": "1855 Alum Rock Ave STE A, San Jose, CA 95116",
    "neighborhood": "Plata Arroyo",
    "street": "1855 Alum Rock Ave STE A",
    "city": "San Jose",
    "postalCode": "95116",
    "state": "California",
    "countryCode": "US",
    "phone": "(408) 254-1551",
    "phoneUnformatted": "+14082541551",
    "claimThisBusiness": true,
    "location": {
      "lat": 37.3541957,
      "lng": -121.8532601
    },
    "totalScore": 4.3,
    "permanentlyClosed": false,
    "temporarilyClosed": false,
    "placeId": null,
    "categories": [
      "Pharmacy"
    ],
    "fid": "0x808fcd1e899b5e13:0xbf902a175be13870",
    "cid": "13803579137704671344",
    "reviewsCount": 6,
    "imagesCount": 1,
    "imageCategories": [],
    "scrapedAt": "2025-06-22T04:15:43.726Z",
    "googleFoodUrl": null,
    "hotelAds": [],
    "openingHours": [],
    "peopleAlsoSearch": [],
    "placesTags": [],
    "reviewsTags": [],
    "additionalInfo": {
      "Accessibility": [
        {
          "Wheelchair accessible entrance": true
        },
        {
          "Wheelchair accessible parking lot": true
        }
      ],
      "Planning": [
        {
          "Quick visit": true
        }
      ],
      "Payments": [
        {
          "Credit cards": true
        },
        {
          "Debit cards": true
        },
        {
          "NFC mobile payments": true
        },
        {
          "Credit cards": true
        }
      ]
    },
    "gasPrices": [],
    "url": "https://www.google.com/maps/search/?api=1&query=Alum%20Rock%20Pharmacy&query_place_id=ChIJE16biR7Nj4ARcDjhWxcqkL8",
    "searchPageUrl": "https://www.google.com/maps/search/independent%20pharmacy%20San%20Jose%20CA/@52.14797767021313,-174.65906023444947,11z?hl=en",
    "searchString": "independent pharmacy San Jose CA",
    "language": "en",
    "rank": 1,
    "isAdvertisement": false,
    "imageUrl": "https://streetviewpixels-pa.googleapis.com/v1/thumbnail?panoid=fpO_dGzi037hrjV_NrQIWg&cb_client=search.gws-prod.gps&w=408&h=240&yaw=191.91429&pitch=0&thumbfov=100",
    "kgmid": "/g/1tkc6y05",
    "classification": "independent",
    "is_independent": true,
    "is_compounding": false,
    "confidence": 0.9,
    "source": "perplexity",
    "method": "llm"
  },
  {
    "title": "KC Pharmacy",
    "price": null,
    "categoryName": "Pharmacy",
    "address": "2060 Aborn Rd #150b, San Jose, CA 95121",
    "neighborhood": "Silver Creek High School",
    "street": "2060 Aborn Rd #150b",
    "city": "San Jose",
    "postalCode": "95121",
    "state": "California",
    "countryCode": "US",
    "website": "https://healthmartcovidvaccine.com/",
    "phone": "(408) 400-4755",
    "phoneUnformatted": "+14084004755",
    "claimThisBusiness": true,
    "location": {
      "lat": 37.3112003,
      "lng": -121.8071928
    },
    "permanentlyClosed": false,
    "temporarilyClosed": false,
    "placeId": null,
    "categories": [
      "Pharmacy"
    ],
    "fid": "0x808e2d7c28700001:0xee048f5122b3bf89",
    "cid": "17150990859571019657",
    "reviewsCount": 0,
    "imagesCount": 1,
    "imageCategories": [],
    "scrapedAt": "2025-06-22T04:15:43.727Z",
    "googleFoodUrl": null,
    "hotelAds": [],
    "openingHours": [
      {
        "day": "Monday",
        "hours": "7\u202fAM to 9\u202fPM"
      },
      {
        "day": "Tuesday",
        "hours": "7\u202fAM to 9\u202fPM"
      },
      {
        "day": "Wednesday",
        "hours": "7\u202fAM to 9\u202fPM"
      },
      {
        "day": "Thursday",
        "hours": "7\u202fAM to 9\u202fPM"
      },
      {
        "day": "Friday",
        "hours": "7\u202fAM to 9\u202fPM"
      },
      {
        "day": "Saturday",
        "hours": "7\u202fAM to 9\u202fPM"
      },
      {
        "day": "Sunday",
        "hours": "7\u202fAM to 9\u202fPM"
      }
    ],
    "peopleAlsoSearch": [],
    "placesTags": [],
    "reviewsTags": [],
    "additionalInfo": {
      "Accessibility": [
        {
          "Wheelchair accessible entrance": true
        },
        {
          "Wheelchair accessible parking lot": true
        }
      ],
      "Planning": [
        {
          "Quick visit": true
        }
      ],
      "Payments": [
        {
          "Credit cards": true
        }
      ]
    },
    "gasPrices": [],
    "url": "https://www.google.com/maps/search/?api=1&query=KC%20Pharmacy&query_place_id=ChIJAQBwKHwtjoARib-zIlGPBO4",
    "searchPageUrl": "https://www.google.com/maps/search/independent%20pharmacy%20San%20Jose%20CA/@52.14797767021313,-174.65906023444947,11z?hl=en",
    "searchString": "independent pharmacy San Jose CA",
    "language": "en",
    "rank": 2,
    "isAdvertisement": false,
    "imageUrl": "https://streetviewpixels-pa.googleapis.com/v1/thumbnail?panoid=C0J4eW91JxpcXTlOK3TR0w&cb_client=search.gws-prod.gps&w=408&h=240&yaw=37.407326&pitch=0&thumbfov=100",
    "kgmid": "/g/11s4999d0q",
    "classification": "independent",
    "is_independent": true,
    "is_compounding": false,
    "confidence": 0.85,
    "source": "perplexity",
    "method": "llm"
  },
  {
    "title": "San Jose Pharmacy",
    "price": null,
    "categoryName": "Pharmacy",
    "address": "200 Jose Figueres Ave STE 235, San Jose, CA 95116",
    "neighborhood": "Alexian and Jackson",
    "street": "200 Jose Figueres Ave STE 235",
    "city": "San Jose",
    "postalCode": "95116",
    "state": "California",
    "countryCode": "US",
    "phone": "(408) 254-8884",
    "phoneUnformatted": "+14082548884",
    "claimThisBusiness": false,
    "location": {
      "lat": 37.3615809,
      "lng": -121.8501431
    },
    "totalScore": 5,
    "permanentlyClosed": false,
    "temporarilyClosed": false,
    "placeId": null,
    "categories": [
      "Pharmacy"
    ],
    "fid": "0x808fcdf0b089e487:0xb9f0789fe1fb4bd1",
    "cid": "13398341519513701329",
    "reviewsCount": 2,
    "imagesCount": 1,
    "imageCategories": [],
    "scrapedAt": "2025-06-22T04:15:43.728Z",
    "googleFoodUrl": null,
    "hotelAds": [],
    "openingHours": [
      {
        "day": "Monday",
        "hours": "9\u202fAM to 5:30\u202fPM"
      },
      {
        "day": "Tuesday",
        "hours": "9\u202fAM to 5:30\u202fPM"
      },
      {
        "day": "Wednesday",
        "hours": "9\u202fAM to 5:30\u202fPM"
      },
      {
        "day": "Thursday",
        "hours": "9\u202fAM to 5:30\u202fPM"
      },
      {
        "day": "Friday",
        "hours": "9\u202fAM to 5:30\u202fPM"
      },
      {
        "day": "Saturday",
        "hours": "9\u202fAM to 1\u202fPM"
      },
      {
        "day": "Sunday",
        "hours": "Closed"
      }
    ],
    "peopleAlsoSearch": [],
    "placesTags": [],
    "reviewsTags": [],
    "additionalInfo": {
      "From the business": [
        {
          "Small business": true
        }
      ],
      "Service options": [
        {
          "Delivery": true
        }
      ],
      "Accessibility": [
        {
          "Wheelchair accessible entrance": true
        },
        {
          "Wheelchair accessible parking lot": true
        }
      ],
      "Payments": [
        {
          "Credit cards": true
        },
        {
          "Debit cards": true
        },
        {
          "NFC mobile payments": true
        },
        {
          "Credit cards": true
        }
      ]
    },
    "gasPrices": [],
    "url": "https://www.google.com/maps/search/?api=1&query=San%20Jose%20Pharmacy&query_place_id=ChIJh-SJsPDNj4AR0Uv74Z948Lk",
    "searchPageUrl": "https://www.google.com/maps/search/independent%20pharmacy%20San%20Jose%20CA/@52.14797767021313,-174.65906023444947,11z?hl=en",
    "searchString": "independent pharmacy San Jose CA",
    "language": "en",
    "rank": 3,
    "isAdvertisement": false,
    "imageUrl": "https://lh3.googleusercontent.com/gps-cs-s/AC9h4nr41czUMm8WSG99sSPZ3nOF1-pNLsUqs1Ck2yBKUW0ZqK2chnzCv1HIucoSOWukDCcIseH02wRdzKrGOO234UZfLbV9lykAEmtJneJN3Ihcja-52zcEWMlmh91YhoWdS0XOvDdn=w408-h544-k-no",
    "kgmid": "/g/11h4ky8b35",
    "classification": "independent",
    "is_independent": true,
    "is_compounding": false,
    "confidence": 0.85,
    "source": "perplexity",
    "method": "llm"
  },
  {
    "title": "iCare Pharmacy",
    "price": null,
    "categoryName": "Pharmacy",
    "address": "1727 Berryessa Rd, San Jose, CA 95133",
    "neighborhood": "North San Jose",
    "street": "1727 Berryessa Rd",
    "city": "San Jose",
    "postalCode": "95133",
    "state": "California",
    "countryCode": "US",
    "website": "http://www.icarepharmacyrx.com/",
    "phone": "(408) 926-7691",
    "phoneUnformatted": "+14089267691",
    "claimThisBusiness": false,
    "location": {
      "lat": 37.375173,
      "lng": -121.8734654
    },
    "totalScore": 4.8,
    "permanentlyClosed": false,
    "temporarilyClosed": false,
    "placeId": null,
    "categories": [
      "Pharmacy"
    ],
    "fid": "0x808fcc4497af1b99:0x896b7ad6518ddd58",
    "cid": "9902143266614009176",
    "reviewsCount": 12,
    "imagesCount": 5,
    "imageCategories": [],
    "scrapedAt": "2025-06-22T04:15:43.728Z",
    "googleFoodUrl": null,
    "hotelAds": [],
    "openingHours": [
      {
        "day": "Monday",
        "hours": "10\u202fAM to 6:30\u202fPM"
      },
      {
        "day": "Tuesday",
        "hours": "10\u202fAM to 6:30\u202fPM"
      },
      {
        "day": "Wednesday",
        "hours": "10\u202fAM to 6:30\u202fPM"
      },
      {
        "day": "Thursday",
        "hours": "10\u202fAM to 6:30\u202fPM"
      },
      {
        "day": "Friday",
        "hours": "10\u202fAM to 6:30\u202fPM"
      },
      {
        "day": "Saturday",
        "hours": "10\u202fAM to 3\u202fPM"
      },
      {
        "day": "Sunday",
        "hours": "Closed"
      }
    ],
    "peopleAlsoSearch": [],
    "placesTags": [],
    "reviewsTags": [],
    "additionalInfo": {
      "From the business": [
        {
          "Small business": true
        }
      ],
      "Service options": [
        {
          "Delivery": true
        },
        {
          "Same-day delivery": true
        }
      ],
      "Accessibility": [
        {
          "Wheelchair accessible entrance": true
        },
        {
          "Wheelchair accessible parking lot": true
        }
      ],
      "Planning": [
        {
          "Quick visit": true
        }
      ],
      "Payments": [
        {
          "Credit cards": true
        },
        {
          "Debit cards": true
        },
        {
          "Credit cards": true
        }
      ]
    },
    "gasPrices": [],
    "url": "https://www.google.com/maps/search/?api=1&query=iCare%20Pharmacy&query_place_id=ChIJmRuvl0TMj4ARWN2NUdZ6a4k",
    "searchPageUrl": "https://www.google.com/maps/search/independent%20pharmacy%20San%20Jose%20CA/@52.14797767021313,-174.65906023444947,11z?hl=en",
    "searchString": "independent pharmacy San Jose CA",
    "language": "en",
    "rank": 4,
    "isAdvertisement": false,
    "imageUrl": "https://lh3.googleusercontent.com/p/AF1QipOnmOFyoP8F3afmbOGEIYXXMKK-27wwk0q1_pKD=w408-h387-k-no",
    "kgmid": "/g/1pp2x9n7s",
    "classification": "independent",
    "is_independent": true,
    "is_compounding": false,
    "confidence": 0.9,
    "source": "perplexity",
    "method": "llm"
  },
  {
    "title": "Bascom Pharmacy",
    "price": null,
    "categoryName": "Pharmacy",
    "address": "105 N Bascom Ave Suite 101, San Jose, CA 95128",
    "neighborhood": "Burbank",
    "street": "105 N Bascom Ave Suite 101",
    "city": "San Jose",
    "postalCode": "95128",
    "state": "California",
    "countryCode": "US",
    "website": "https://www.mygnp.com/pharmacies/bascom-pharmacy-san-jose-ca-95128/?utm_source=google&utm_medium=local&utm_campaign=localmaps&utm_content=5616644",
    "phone": "(408) 995-6020",
    "phoneUnformatted": "+14089956020",
    "claimThisBusiness": false,
    "location": {
      "lat": 37.325832,
      "lng": -121.9322292
    },
    "totalScore": 4.3,
    "permanentlyClosed": false,
    "temporarilyClosed": false,
    "placeId": null,
    "categories": [
      "Pharmacy",
      "Drug store"
    ],
    "fid": "0x808fcb3d7ac29af1:0x729e2c6acc8a76ae",
    "cid": "8259087603853850286",
    "reviewsCount": 19,
    "imagesCount": 4,
    "imageCategories": [],
    "scrapedAt": "2025-06-22T04:15:43.728Z",
    "googleFoodUrl": null,
    "hotelAds": [],
    "openingHours": [
      {
        "day": "Monday",
        "hours": "9:30\u202fAM to 6\u202fPM"
      },
      {
        "day": "Tuesday",
        "hours": "9:30\u202fAM to 6\u202fPM"
      },
      {
        "day": "Wednesday",
        "hours": "9:30\u202fAM to 6\u202fPM"
      },
      {
        "day": "Thursday",
        "hours": "9:30\u202fAM to 6\u202fPM"
      },
      {
        "day": "Friday",
        "hours": "9:30\u202fAM to 6\u202fPM"
      },
      {
        "day": "Saturday",
        "hours": "9:30\u202fAM to 1\u202fPM"
      },
      {
        "day": "Sunday",
        "hours": "Closed"
      }
    ],
    "peopleAlsoSearch": [],
    "placesTags": [],
    "reviewsTags": [],
    "additionalInfo": {
      "Service options": [
        {
          "Delivery": true
        },
        {
          "In-store pickup": true
        },
        {
          "In-store shopping": true
        }
      ],
      "Accessibility": [
        {
          "Wheelchair accessible entrance": true
        },
        {
          "Wheelchair accessible parking lot": true
        }
      ],
      "Planning": [
        {
          "Quick visit": true
        }
      ],
      "Payments": [
        {
          "Credit cards": true
        },
        {
          "Debit cards": true
        },
        {
          "NFC mobile payments": true
        },
        {
          "Credit cards": true
        }
      ]
    },
    "gasPrices": [],
    "url": "https://www.google.com/maps/search/?api=1&query=Bascom%20Pharmacy&query_place_id=ChIJ8ZrCej3Lj4ARrnaKzGosnnI",
    "searchPageUrl": "https://www.google.com/maps/search/independent%20pharmacy%20San%20Jose%20CA/@52.14797767021313,-174.65906023444947,11z?hl=en",
    "searchString": "independent pharmacy San Jose CA",
    "language": "en",
    "rank": 5,
    "isAdvertisement": false,
    "imageUrl": "https://lh3.googleusercontent.com/gps-cs-s/AC9h4nrwCOFrd0vvL-c4ZMW6YbKLpE6S945DsyYFbOUTMWGpMgpwZzUJlcSOHlCant7OfKo5Wu7dZGSPA54QYAjkKHSAJj0NMXwtyJ66e26fY4Z_G5LHIbRrvPEPIs4MwyGKtvhq-qJ4=w408-h544-k-no",
    "kgmid": "/g/1td6gqnf",
    "classification": "independent",
    "is_independent": true,
    "is_compounding": false,
    "confidence": 0.9,
    "source": "perplexity",
    "method": "llm"
  },
  {
    "title": "Alto Pharmacy",
    "price": null,
    "categoryName": "Pharmacy",
    "address": "2360 Qume Dr A, San Jose, CA 95131",
    "neighborhood": "North San Jose",
    "street": "2360 Qume Dr A",
    "city": "San Jose",
    "postalCode": "95131",
    "state": "California",
    "countryCode": "US",
    "website": "http://www.alto.com/",
    "phone": "(800) 874-5881",
    "phoneUnformatted": "+18008745881",
    "claimThisBusiness": false,
    "location": {
      "lat": 37.3987705,
      "lng": -121.8884038
    },
    "totalScore": 4.1,
    "permanentlyClosed": false,
    "temporarilyClosed": false,
    "placeId": null,
    "categories": [
      "Pharmacy"
    ],
    "fid": "0x808fcfd407ab5425:0xf6fa4db4903917bf",
    "cid": "17796622315417049023",
    "reviewsCount": 393,
    "imagesCount": 11,
    "imageCategories": [],
    "scrapedAt": "2025-06-22T04:15:43.728Z",
    "googleFoodUrl": null,
    "hotelAds": [],
    "openingHours": [
      {
        "day": "Monday",
        "hours": "9\u202fAM to 6\u202fPM"
      },
      {
        "day": "Tuesday",
        "hours": "9\u202fAM to 6\u202fPM"
      },
      {
        "day": "Wednesday",
        "hours": "9\u202fAM to 6\u202fPM"
      },
      {
        "day": "Thursday",
        "hours": "9\u202fAM to 6\u202fPM"
      },
      {
        "day": "Friday",
        "hours": "9\u202fAM to 6\u202fPM"
      },
      {
        "day": "Saturday",
        "hours": "9\u202fAM to 3\u202fPM"
      },
      {
        "day": "Sunday",
        "hours": "9\u202fAM to 3\u202fPM"
      }
    ],
    "additionalOpeningHours": {
      "Online service hours": [
        {
          "day": "Monday",
          "hours": "6\u202fAM\u20139\u202fPM"
        },
        {
          "day": "Tuesday",
          "hours": "6\u202fAM\u20139\u202fPM"
        },
        {
          "day": "Wednesday",
          "hours": "6\u202fAM\u20139\u202fPM"
        },
        {
          "day": "Thursday",
          "hours": "6\u202fAM\u20139\u202fPM"
        },
        {
          "day": "Friday",
          "hours": "6\u202fAM\u20139\u202fPM"
        },
        {
          "day": "Saturday",
          "hours": "7\u202fAM\u20136\u202fPM"
        },
        {
          "day": "Sunday",
          "hours": "7\u202fAM\u20136\u202fPM"
        }
      ]
    },
    "peopleAlsoSearch": [],
    "placesTags": [],
    "reviewsTags": [],
    "additionalInfo": {
      "Service options": [
        {
          "Delivery": true
        },
        {
          "In-store pickup": true
        },
        {
          "Same-day delivery": true
        }
      ],
      "Accessibility": [
        {
          "Wheelchair accessible entrance": true
        },
        {
          "Wheelchair accessible parking lot": true
        }
      ],
      "Crowd": [
        {
          "LGBTQ+ friendly": true
        },
        {
          "Transgender safespace": true
        }
      ],
      "Payments": [
        {
          "Credit cards": true
        },
        {
          "Debit cards": true
        },
        {
          "NFC mobile payments": true
        },
        {
          "Credit cards": true
        }
      ]
    },
    "gasPrices": [],
    "url": "https://www.google.com/maps/search/?api=1&query=Alto%20Pharmacy&query_place_id=ChIJJVSrB9TPj4ARvxc5kLRN-vY",
    "searchPageUrl": "https://www.google.com/maps/search/independent%20pharmacy%20San%20Jose%20CA/@52.14797767021313,-174.65906023444947,11z?hl=en",
    "searchString": "independent pharmacy San Jose CA",
    "language": "en",
    "rank": 6,
    "isAdvertisement": false,
    "imageUrl": "https://lh3.googleusercontent.com/p/AF1QipNVwgZhBvADPML_dZ9Dlj4voGyDf_m4yfQcBo-U=w408-h306-k-no",
    "kgmid": "/g/11mwrjc35r",
    "classification": "chain",
    "is_independent": false,
    "is_compounding": false,
    "confidence": 0.95,
    "source": "perplexity",
    "method": "llm"
  },
  {
    "title": "HelloRX Pharmacy",
    "price": null,
    "categoryName": "Pharmacy",
    "address": "2268 Senter Rd STE 202, San Jose, CA 95112",
    "neighborhood": "South San Jose",
    "street": "2268 Senter Rd STE 202",
    "city": "San Jose",
    "postalCode": "95112",
    "state": "California",
    "countryCode": "US",
    "website": "http://hellorxpharmacy.com/",
    "phone": "(408) 222-9889",
    "phoneUnformatted": "+14082229889",
    "claimThisBusiness": false,
    "location": {
      "lat": 37.3107349,
      "lng": -121.8485793
    },
    "totalScore": 5,
    "permanentlyClosed": false,
    "temporarilyClosed": false,
    "placeId": null,
    "categories": [
      "Pharmacy"
    ],
    "fid": "0x808e33a056afe5d1:0xc42cbd9a2a824482",
    "cid": "14135881800244937858",
    "reviewsCount": 10,
    "imagesCount": 8,
    "imageCategories": [],
    "scrapedAt": "2025-06-22T04:15:43.728Z",
    "googleFoodUrl": null,
    "hotelAds": [],
    "openingHours": [
      {
        "day": "Monday",
        "hours": "9\u202fAM to 6\u202fPM"
      },
      {
        "day": "Tuesday",
        "hours": "9\u202fAM to 6\u202fPM"
      },
      {
        "day": "Wednesday",
        "hours": "9\u202fAM to 6\u202fPM"
      },
      {
        "day": "Thursday",
        "hours": "9\u202fAM to 6\u202fPM"
      },
      {
        "day": "Friday",
        "hours": "9\u202fAM to 6\u202fPM"
      },
      {
        "day": "Saturday",
        "hours": "9\u202fAM to 1\u202fPM"
      },
      {
        "day": "Sunday",
        "hours": "Closed"
      }
    ],
    "peopleAlsoSearch": [],
    "placesTags": [],
    "reviewsTags": [],
    "additionalInfo": {
      "From the business": [
        {
          "Small business": true
        }
      ],
      "Service options": [
        {
          "Curbside pickup": true
        },
        {
          "Delivery": true
        },
        {
          "In-store pickup": true
        }
      ],
      "Accessibility": [
        {
          "Wheelchair accessible entrance": true
        },
        {
          "Wheelchair accessible parking lot": true
        },
        {
          "Wheelchair accessible seating": true
        }
      ],
      "Payments": [
        {
          "Checks": true
        },
        {
          "Credit cards": true
        },
        {
          "Debit cards": true
        },
        {
          "NFC mobile payments": true
        },
        {
          "Credit cards": true
        }
      ],
      "Parking": [
        {
          "Free parking lot": true
        },
        {
          "Free street parking": true
        }
      ]
    },
    "gasPrices": [],
    "url": "https://www.google.com/maps/search/?api=1&query=HelloRX%20Pharmacy&query_place_id=ChIJ0eWvVqAzjoARgkSCKpq9LMQ",
    "searchPageUrl": "https://www.google.com/maps/search/independent%20pharmacy%20San%20Jose%20CA/@52.14797767021313,-174.65906023444947,11z?hl=en",
    "searchString": "independent pharmacy San Jose CA",
    "language": "en",
    "rank": 7,
    "isAdvertisement": false,
    "imageUrl": "https://lh3.googleusercontent.com/p/AF1QipOwD1RH9UW-5dYP4RA3EjByXDTN1OOxmJ38hH8N=w408-h544-k-no",
    "kgmid": "/g/11tgghxvbg",
    "classification": "independent",
    "is_independent": true,
    "is_compounding": false,
    "confidence": 0.85,
    "source": "perplexity",
    "method": "llm"
  },
  {
    "title": "Savco Pharmacy",
    "price": null,
    "categoryName": "Pharmacy",
    "address": "455 O'Connor Dr Suite 190, San Jose, CA 95128",
    "neighborhood": "Burbank",
    "street": "455 O'Connor Dr Suite 190",
    "city": "San Jose",
    "postalCode": "95128",
    "state": "California",
    "countryCode": "US",
    "website": "https://www.mygnp.com/pharmacies/savco-pharmacy-san-jose-ca-95128/store-contact/",
    "phone": "(408) 298-6190",
    "phoneUnformatted": "+14082986190",
    "claimThisBusiness": false,
    "location": {
      "lat": 37.326606,
      "lng": -121.9402893
    },
    "totalScore": 4.5,
    "permanentlyClosed": false,
    "temporarilyClosed": false,
    "placeId": null,
    "categories": [
      "Pharmacy",
      "Drug store"
    ],
    "fid": "0x808fcb18dff7fcff:0x787025dabc36fb61",
    "cid": "8678478103333763937",
    "reviewsCount": 45,
    "imagesCount": 24,
    "imageCategories": [],
    "scrapedAt": "2025-06-22T04:15:43.728Z",
    "googleFoodUrl": null,
    "hotelAds": [],
    "openingHours": [
      {
        "day": "Monday",
        "hours": "8:30\u202fAM to 6\u202fPM"
      },
      {
        "day": "Tuesday",
        "hours": "8:30\u202fAM to 6\u202fPM"
      },
      {
        "day": "Wednesday",
        "hours": "8:30\u202fAM to 6\u202fPM"
      },
      {
        "day": "Thursday",
        "hours": "8:30\u202fAM to 6\u202fPM"
      },
      {
        "day": "Friday",
        "hours": "8:30\u202fAM to 6\u202fPM"
      },
      {
        "day": "Saturday",
        "hours": "Closed"
      },
      {
        "day": "Sunday",
        "hours": "Closed"
      }
    ],
    "peopleAlsoSearch": [],
    "placesTags": [],
    "reviewsTags": [],
    "additionalInfo": {
      "From the business": [
        {
          "Small business": true
        }
      ],
      "Service options": [
        {
          "Delivery": true
        },
        {
          "In-store pickup": true
        },
        {
          "In-store shopping": true
        },
        {
          "Same-day delivery": true
        }
      ],
      "Accessibility": [
        {
          "Wheelchair accessible entrance": true
        },
        {
          "Wheelchair accessible parking lot": true
        }
      ],
      "Amenities": [
        {
          "Wi-Fi": true
        },
        {
          "Free Wi-Fi": true
        }
      ],
      "Planning": [
        {
          "Quick visit": true
        }
      ],
      "Payments": [
        {
          "Checks": true
        },
        {
          "Credit cards": true
        },
        {
          "Debit cards": true
        },
        {
          "NFC mobile payments": true
        },
        {
          "Credit cards": true
        }
      ]
    },
    "gasPrices": [],
    "url": "https://www.google.com/maps/search/?api=1&query=Savco%20Pharmacy&query_place_id=ChIJ__z33xjLj4ARYfs2vNolcHg",
    "searchPageUrl": "https://www.google.com/maps/search/independent%20pharmacy%20San%20Jose%20CA/@52.14797767021313,-174.65906023444947,11z?hl=en",
    "searchString": "independent pharmacy San Jose CA",
    "language": "en",
    "rank": 8,
    "isAdvertisement": false,
    "imageUrl": "https://lh3.googleusercontent.com/p/AF1QipMoTEKO7aWBzaagWU7bKL6q4lTEz_n1uJpWEDfz=w408-h306-k-no",
    "kgmid": "/g/1tdj4fzz",
    "classification": "independent",
    "is_independent": true,
    "is_compounding": false,
    "confidence": 0.8,
    "source": "perplexity",
    "method": "llm"
  },
  {
    "title": "Creekside Pharmacy",
    "price": null,
    "categoryName": "Pharmacy",
    "address": "1863 Alum Rock Ave STE A, San Jose, CA 95116",
    "neighborhood": "Plata Arroyo",
    "street": "1863 Alum Rock Ave STE A",
    "city": "San Jose",
    "postalCode": "95116",
    "state": "California",
    "countryCode": "US",
    "website": "http://www.creeksidepharmacy.com/",
    "phone": "(408) 929-6029",
    "phoneUnformatted": "+14089296029",
    "claimThisBusiness": true,
    "location": {
      "lat": 37.3546144,
      "lng": -121.8531032
    },
    "totalScore": 4,
    "permanentlyClosed": false,
    "temporarilyClosed": false,
    "placeId": null,
    "categories": [
      "Pharmacy"
    ],
    "fid": "0x808fcd1e8e1af7c9:0xbd8a31e4c1d9af3e",
    "cid": "13657783678529023806",
    "reviewsCount": 4,
    "imagesCount": 3,
    "imageCategories": [],
    "scrapedAt": "2025-06-22T04:15:43.728Z",
    "googleFoodUrl": null,
    "hotelAds": [],
    "openingHours": [
      {
        "day": "Monday",
        "hours": "9:30\u202fAM to 6:15\u202fPM"
      },
      {
        "day": "Tuesday",
        "hours": "9:30\u202fAM to 6:15\u202fPM"
      },
      {
        "day": "Wednesday",
        "hours": "9:30\u202fAM to 6:15\u202fPM"
      },
      {
        "day": "Thursday",
        "hours": "9:30\u202fAM to 6:15\u202fPM"
      },
      {
        "day": "Friday",
        "hours": "9:30\u202fAM to 6:15\u202fPM"
      },
      {
        "day": "Saturday",
        "hours": "9\u202fAM to 2\u202fPM"
      },
      {
        "day": "Sunday",
        "hours": "Closed"
      }
    ],
    "peopleAlsoSearch": [],
    "placesTags": [],
    "reviewsTags": [],
    "additionalInfo": {
      "Service options": [
        {
          "Delivery": true
        }
      ],
      "Accessibility": [
        {
          "Wheelchair accessible entrance": true
        },
        {
          "Wheelchair accessible parking lot": true
        }
      ],
      "Payments": [
        {
          "Credit cards": true
        },
        {
          "Debit cards": true
        },
        {
          "NFC mobile payments": true
        },
        {
          "Credit cards": true
        }
      ]
    },
    "gasPrices": [],
    "url": "https://www.google.com/maps/search/?api=1&query=Creekside%20Pharmacy&query_place_id=ChIJyfcajh7Nj4ARPq_ZweQxir0",
    "searchPageUrl": "https://www.google.com/maps/search/independent%20pharmacy%20San%20Jose%20CA/@52.14797767021313,-174.65906023444947,11z?hl=en",
    "searchString": "independent pharmacy San Jose CA",
    "language": "en",
    "rank": 9,
    "isAdvertisement": false,
    "imageUrl": "https://lh3.googleusercontent.com/gps-cs-s/AC9h4nphsxNWQif_mlA3wQBNQtikeebEoKwhnqNYkg_9O5pfMkvx4Fc-FNkMDefQu_JtY9VqSz7A-PCc3xYNj1mYDcvaNunflRm-w78YmN1p3WzLOEVyHAyRcj6rZFWOz8qnIpxoekuoSQ=w408-h544-k-no",
    "kgmid": "/g/1tdq67qg",
    "classification": "independent",
    "is_independent": true,
    "is_compounding": false,
    "confidence": 0.9,
    "source": "perplexity",
    "method": "llm"
  },
  {
    "title": "Enborg Lane Pharmacy",
    "price": null,
    "categoryName": "Pharmacy",
    "address": "2221 Enborg Ln, San Jose, CA 95128",
    "neighborhood": "Willow Glen",
    "street": "2221 Enborg Ln",
    "city": "San Jose",
    "postalCode": "95128",
    "state": "California",
    "countryCode": "US",
    "phone": "(408) 885-4100",
    "phoneUnformatted": "+14088854100",
    "claimThisBusiness": true,
    "location": {
      "lat": 37.3116239,
      "lng": -121.9334719
    },
    "totalScore": 4.8,
    "permanentlyClosed": false,
    "temporarilyClosed": false,
    "placeId": null,
    "categories": [
      "Pharmacy"
    ],
    "fid": "0x808fcb2e64581e87:0x7678823c6524a0cf",
    "cid": "8536716289587323087",
    "reviewsCount": 10,
    "imagesCount": 3,
    "imageCategories": [],
    "scrapedAt": "2025-06-22T04:15:43.729Z",
    "googleFoodUrl": null,
    "hotelAds": [],
    "openingHours": [
      {
        "day": "Monday",
        "hours": "8:30\u202fAM to 5\u202fPM"
      },
      {
        "day": "Tuesday",
        "hours": "8:30\u202fAM to 5\u202fPM"
      },
      {
        "day": "Wednesday",
        "hours": "8:30\u202fAM to 5\u202fPM"
      },
      {
        "day": "Thursday",
        "hours": "8:30\u202fAM to 5\u202fPM"
      },
      {
        "day": "Friday",
        "hours": "8:30\u202fAM to 5\u202fPM"
      },
      {
        "day": "Saturday",
        "hours": "Closed"
      },
      {
        "day": "Sunday",
        "hours": "Closed"
      }
    ],
    "peopleAlsoSearch": [],
    "placesTags": [],
    "reviewsTags": [],
    "additionalInfo": {
      "Accessibility": [
        {
          "Wheelchair accessible entrance": true
        },
        {
          "Wheelchair accessible parking lot": true
        }
      ],
      "Payments": [
        {
          "Credit cards": true
        }
      ]
    },
    "gasPrices": [],
    "url": "https://www.google.com/maps/search/?api=1&query=Enborg%20Lane%20Pharmacy&query_place_id=ChIJhx5YZC7Lj4ARz6AkZTyCeHY",
    "searchPageUrl": "https://www.google.com/maps/search/independent%20pharmacy%20San%20Jose%20CA/@52.14797767021313,-174.65906023444947,11z?hl=en",
    "searchString": "independent pharmacy San Jose CA",
    "language": "en",
    "rank": 10,
    "isAdvertisement": false,
    "imageUrl": "https://lh3.googleusercontent.com/gps-cs-s/AC9h4nqw1ee6cmHdfnAeJ2j7yihcmVB6OPm6dBoYrCy-N2Hh4FAxlW1yhOaTn1poGJ10u9E39jtkj7V6rvLCry1EwGUKGfPxSIcWi5KNiNwRjkzZ3fn4HTXi2smA6L5TK1m7vRZ9hxw1=w426-h240-k-no",
    "kgmid": "/g/11b6j_bhwl",
    "classification": "independent",
    "is_independent": true,
    "is_compounding": false,
    "confidence": 0.85,
    "source": "perplexity",
    "method": "llm"
  }
]