[
  {
    "title": "Inspire Pharmacy",
    "price": null,
    "categoryName": "Pharmacy",
    "address": "360 Division Ave #100, Grand Forks, ND 58201",
    "neighborhood": null,
    "street": "360 Division Ave #100",
    "city": "Grand Forks",
    "postalCode": "58201",
    "state": "North Dakota",
    "countryCode": "US",
    "website": "http://www.inspiregf.com/",
    "phone": "(701) 757-4407",
    "phoneUnformatted": "+17017574407",
    "claimThisBusiness": true,
    "location": {
      "lat": 47.9224255,
      "lng": -97.0272748
    },
    "totalScore": 4.6,
    "permanentlyClosed": false,
    "temporarilyClosed": false,
    "placeId": null,
    "categories": [
      "Pharmacy"
    ],
    "fid": "0x52c686c1b4066bc7:0x58acc0c27db7333",
    "cid": "399355869556077363",
    "reviewsCount": 41,
    "imagesCount": 1,
    "imageCategories": [],
    "scrapedAt": "2025-06-22T09:13:55.810Z",
    "googleFoodUrl": null,
    "hotelAds": [],
    "openingHours": [
      {
        "day": "Monday",
        "hours": "8\u202fAM to 6\u202fPM"
      },
      {
        "day": "Tuesday",
        "hours": "8\u202fAM to 6\u202fPM"
      },
      {
        "day": "Wednesday",
        "hours": "8\u202fAM to 6\u202fPM"
      },
      {
        "day": "Thursday",
        "hours": "8\u202fAM to 6\u202fPM"
      },
      {
        "day": "Friday",
        "hours": "8\u202fAM to 6\u202fPM"
      },
      {
        "day": "Saturday",
        "hours": "Closed"
      },
      {
        "day": "Sunday",
        "hours": "Closed"
      }
    ],
    "peopleAlsoSearch": [],
    "placesTags": [],
    "reviewsTags": [],
    "additionalInfo": {
      "Service options": [
        {
          "Delivery": true
        },
        {
          "In-store pickup": true
        },
        {
          "Onsite services": true
        }
      ],
      "Accessibility": [
        {
          "Wheelchair accessible entrance": true
        },
        {
          "Wheelchair accessible parking lot": true
        }
      ],
      "Offerings": [
        {
          "Medication disposal": true
        }
      ],
      "Planning": [
        {
          "Quick visit": true
        }
      ],
      "Payments": [
        {
          "Credit cards": true
        },
        {
          "Debit cards": true
        },
        {
          "NFC mobile payments": true
        },
        {
          "Credit cards": true
        }
      ]
    },
    "gasPrices": [],
    "url": "https://www.google.com/maps/search/?api=1&query=Inspire%20Pharmacy&query_place_id=ChIJx2sGtMGGxlIRM3PbJwzMigU",
    "searchPageUrl": "https://www.google.com/maps/search/independent%20pharmacy%20Grand%20Forks%20ND/@60.874534795447715,-148.50731502864818,9z?hl=en",
    "searchString": "independent pharmacy Grand Forks ND",
    "language": "en",
    "rank": 1,
    "isAdvertisement": false,
    "imageUrl": "https://streetviewpixels-pa.googleapis.com/v1/thumbnail?panoid=3hwa4qbmv_jvWwkvSS4V4w&cb_client=search.gws-prod.gps&w=408&h=240&yaw=343.7916&pitch=0&thumbfov=100",
    "kgmid": "/g/11cn8zs_sp",
    "classification": "independent",
    "is_independent": true,
    "is_compounding": false,
    "confidence": 0.9,
    "source": "perplexity",
    "method": "llm",
    "query_location": "grand_forks_nd"
  },
  {
    "title": "B & E Pharmacy Services Inc",
    "price": null,
    "categoryName": "Pharmacy",
    "address": "2015 Library Cir # 102, Grand Forks, ND 58201",
    "neighborhood": null,
    "street": "2015 Library Cir # 102",
    "city": "Grand Forks",
    "postalCode": "58201",
    "state": "North Dakota",
    "countryCode": "US",
    "phone": "(701) 772-4805",
    "phoneUnformatted": "+17017724805",
    "claimThisBusiness": true,
    "location": {
      "lat": 47.900096,
      "lng": -97.047385
    },
    "permanentlyClosed": false,
    "temporarilyClosed": false,
    "placeId": null,
    "categories": [
      "Pharmacy"
    ],
    "fid": "0x52c680d4662ec3db:0x92413fb8695565df",
    "cid": "10538774664297407967",
    "reviewsCount": 0,
    "imagesCount": 1,
    "imageCategories": [],
    "scrapedAt": "2025-06-22T09:13:55.812Z",
    "googleFoodUrl": null,
    "hotelAds": [],
    "openingHours": [
      {
        "day": "Monday",
        "hours": "7\u202fAM to 9\u202fPM"
      },
      {
        "day": "Tuesday",
        "hours": "7\u202fAM to 9\u202fPM"
      },
      {
        "day": "Wednesday",
        "hours": "7\u202fAM to 9\u202fPM"
      },
      {
        "day": "Thursday",
        "hours": "7\u202fAM to 9\u202fPM"
      },
      {
        "day": "Friday",
        "hours": "7\u202fAM to 9\u202fPM"
      },
      {
        "day": "Saturday",
        "hours": "7\u202fAM to 9\u202fPM"
      },
      {
        "day": "Sunday",
        "hours": "7\u202fAM to 9\u202fPM"
      }
    ],
    "peopleAlsoSearch": [],
    "placesTags": [],
    "reviewsTags": [],
    "additionalInfo": {
      "Accessibility": [
        {
          "Wheelchair accessible entrance": true
        },
        {
          "Wheelchair accessible parking lot": true
        }
      ],
      "Planning": [
        {
          "Quick visit": true
        }
      ],
      "Payments": [
        {
          "Credit cards": true
        }
      ]
    },
    "gasPrices": [],
    "url": "https://www.google.com/maps/search/?api=1&query=B%20%26%20E%20Pharmacy%20Services%20Inc&query_place_id=ChIJ28MuZtSAxlIR32VVabg_QZI",
    "searchPageUrl": "https://www.google.com/maps/search/independent%20pharmacy%20Grand%20Forks%20ND/@60.874534795447715,-148.50731502864818,9z?hl=en",
    "searchString": "independent pharmacy Grand Forks ND",
    "language": "en",
    "rank": 2,
    "isAdvertisement": false,
    "imageUrl": "https://streetviewpixels-pa.googleapis.com/v1/thumbnail?panoid=gnelNaC7xG3xucZHGTJeGw&cb_client=search.gws-prod.gps&w=408&h=240&yaw=194.10466&pitch=0&thumbfov=100",
    "kgmid": "/g/1tgn987z",
    "classification": "independent",
    "is_independent": true,
    "is_compounding": false,
    "confidence": 0.85,
    "source": "perplexity",
    "method": "llm",
    "query_location": "grand_forks_nd"
  },
  {
    "title": "Altru Specialty Pharmacy",
    "price": null,
    "categoryName": "Pharmacy",
    "address": "1200 S Columbia Rd, Grand Forks, ND 58201",
    "neighborhood": null,
    "street": "1200 S Columbia Rd",
    "city": "Grand Forks",
    "postalCode": "58201",
    "state": "North Dakota",
    "countryCode": "US",
    "website": "https://www.altru.org/our-locations/altru-specialty-pharmacy/",
    "phone": "(701) 780-3451",
    "phoneUnformatted": "+17017803451",
    "claimThisBusiness": false,
    "location": {
      "lat": 47.9105352,
      "lng": -97.0681107
    },
    "totalScore": 5,
    "permanentlyClosed": false,
    "temporarilyClosed": false,
    "placeId": null,
    "categories": [
      "Pharmacy"
    ],
    "fid": "0x52c6814df681af67:0x29f39d5f6b270486",
    "cid": "3022932808040907910",
    "reviewsCount": 1,
    "imagesCount": 1,
    "imageCategories": [],
    "scrapedAt": "2025-06-22T09:13:55.812Z",
    "googleFoodUrl": null,
    "hotelAds": [],
    "openingHours": [
      {
        "day": "Monday",
        "hours": "8\u202fAM to 6\u202fPM"
      },
      {
        "day": "Tuesday",
        "hours": "8\u202fAM to 6\u202fPM"
      },
      {
        "day": "Wednesday",
        "hours": "8\u202fAM to 6\u202fPM"
      },
      {
        "day": "Thursday",
        "hours": "8\u202fAM to 6\u202fPM"
      },
      {
        "day": "Friday",
        "hours": "8\u202fAM to 6\u202fPM"
      },
      {
        "day": "Saturday",
        "hours": "11\u202fAM to 4\u202fPM"
      },
      {
        "day": "Sunday",
        "hours": "11\u202fAM to 4\u202fPM"
      }
    ],
    "peopleAlsoSearch": [],
    "placesTags": [],
    "reviewsTags": [],
    "additionalInfo": {
      "Accessibility": [
        {
          "Wheelchair accessible entrance": true
        },
        {
          "Wheelchair accessible parking lot": true
        }
      ],
      "Payments": [
        {
          "Credit cards": true
        }
      ]
    },
    "gasPrices": [],
    "url": "https://www.google.com/maps/search/?api=1&query=Altru%20Specialty%20Pharmacy&query_place_id=ChIJZ6-B9k2BxlIRhgQna1-d8yk",
    "searchPageUrl": "https://www.google.com/maps/search/independent%20pharmacy%20Grand%20Forks%20ND/@60.874534795447715,-148.50731502864818,9z?hl=en",
    "searchString": "independent pharmacy Grand Forks ND",
    "language": "en",
    "rank": 3,
    "isAdvertisement": false,
    "imageUrl": "https://streetviewpixels-pa.googleapis.com/v1/thumbnail?panoid=e2gSJrk_NsPOdahbb3I5ng&cb_client=search.gws-prod.gps&w=408&h=240&yaw=29.847988&pitch=0&thumbfov=100",
    "kgmid": "/g/11rcrdmkq2",
    "classification": "hospital",
    "is_independent": false,
    "is_compounding": false,
    "confidence": 0.95,
    "source": "perplexity",
    "method": "llm",
    "query_location": "grand_forks_nd"
  },
  {
    "title": "White Drug Pharmacy",
    "price": null,
    "categoryName": "Pharmacy",
    "address": "2475 32nd Ave S SUITE 1, Grand Forks, ND 58201",
    "neighborhood": null,
    "street": "2475 32nd Ave S SUITE 1",
    "city": "Grand Forks",
    "postalCode": "58201",
    "state": "North Dakota",
    "countryCode": "US",
    "website": "http://www.thriftywhite.com/",
    "phone": "(701) 775-4209",
    "phoneUnformatted": "+17017754209",
    "claimThisBusiness": false,
    "location": {
      "lat": 47.8888508,
      "lng": -97.0620404
    },
    "totalScore": 4.2,
    "permanentlyClosed": false,
    "temporarilyClosed": false,
    "placeId": null,
    "categories": [
      "Pharmacy",
      "Drug store"
    ],
    "fid": "0x52c680c23185ab61:0x5285a0fb745b15eb",
    "cid": "5946335884861969899",
    "reviewsCount": 53,
    "imagesCount": 10,
    "imageCategories": [],
    "scrapedAt": "2025-06-22T09:13:55.812Z",
    "googleFoodUrl": null,
    "hotelAds": [],
    "openingHours": [
      {
        "day": "Monday",
        "hours": "9\u202fAM to 7\u202fPM"
      },
      {
        "day": "Tuesday",
        "hours": "9\u202fAM to 7\u202fPM"
      },
      {
        "day": "Wednesday",
        "hours": "9\u202fAM to 7\u202fPM"
      },
      {
        "day": "Thursday",
        "hours": "9\u202fAM to 7\u202fPM"
      },
      {
        "day": "Friday",
        "hours": "9\u202fAM to 7\u202fPM"
      },
      {
        "day": "Saturday",
        "hours": "9\u202fAM to 5\u202fPM"
      },
      {
        "day": "Sunday",
        "hours": "12 to 4\u202fPM"
      }
    ],
    "peopleAlsoSearch": [],
    "placesTags": [],
    "reviewsTags": [],
    "additionalInfo": {
      "Service options": [
        {
          "Delivery": true
        },
        {
          "Drive-through": true
        },
        {
          "In-store pickup": true
        },
        {
          "Same-day delivery": true
        }
      ],
      "Accessibility": [
        {
          "Wheelchair accessible entrance": true
        },
        {
          "Wheelchair accessible parking lot": true
        }
      ],
      "Offerings": [
        {
          "Medication disposal": true
        }
      ],
      "Planning": [
        {
          "Quick visit": true
        }
      ],
      "Payments": [
        {
          "Checks": true
        },
        {
          "Credit cards": true
        },
        {
          "Debit cards": true
        },
        {
          "NFC mobile payments": true
        },
        {
          "Credit cards": true
        }
      ]
    },
    "gasPrices": [],
    "url": "https://www.google.com/maps/search/?api=1&query=White%20Drug%20Pharmacy&query_place_id=ChIJYauFMcKAxlIR6xVbdPughVI",
    "searchPageUrl": "https://www.google.com/maps/search/independent%20pharmacy%20Grand%20Forks%20ND/@60.874534795447715,-148.50731502864818,9z?hl=en",
    "searchString": "independent pharmacy Grand Forks ND",
    "language": "en",
    "rank": 4,
    "isAdvertisement": false,
    "imageUrl": "https://lh3.googleusercontent.com/gps-cs-s/AC9h4npA9XzzJ71QQLo_hbCx2uvFiZ3Jcz-28gprTRpmqRtgNbFk0R4U_S1XLwzQqkdqWjCjuMbVKVmZSJBSx0-0kMWjF6AM6JvBoYB7S-inkn7tQqrzH9PrT-2Xfud5p4S2Dwt09b96=w408-h544-k-no",
    "kgmid": "/g/1tff781d",
    "classification": "chain",
    "is_independent": false,
    "is_compounding": false,
    "confidence": 0.95,
    "source": "perplexity",
    "method": "llm",
    "query_location": "grand_forks_nd"
  },
  {
    "title": "Altru Clinic Pharmacy-Family Medicine Center",
    "price": null,
    "categoryName": "Pharmacy",
    "address": "1380 S Columbia Rd, Grand Forks, ND 58201",
    "neighborhood": null,
    "street": "1380 S Columbia Rd",
    "city": "Grand Forks",
    "postalCode": "58201",
    "state": "North Dakota",
    "countryCode": "US",
    "website": "https://www.altru.org/services/pharmacy-services",
    "phone": "(701) 795-2020",
    "phoneUnformatted": "+17017952020",
    "claimThisBusiness": false,
    "location": {
      "lat": 47.907901,
      "lng": -97.068132
    },
    "totalScore": 4.1,
    "permanentlyClosed": false,
    "temporarilyClosed": false,
    "placeId": "ChIJgRlCfyGBxlIRSPFijLN-Orc",
    "categories": [
      "Pharmacy"
    ],
    "fid": "0x52c681217f421981:0xb73a7eb38c62f148",
    "cid": "13203004567209570632",
    "reviewsCount": 25,
    "imagesCount": 2,
    "imageCategories": [],
    "scrapedAt": "2025-06-22T09:13:55.813Z",
    "googleFoodUrl": null,
    "hotelAds": [],
    "openingHours": [
      {
        "day": "Monday",
        "hours": "7:30\u202fAM to 6\u202fPM"
      },
      {
        "day": "Tuesday",
        "hours": "7:30\u202fAM to 6\u202fPM"
      },
      {
        "day": "Wednesday",
        "hours": "7:30\u202fAM to 6\u202fPM"
      },
      {
        "day": "Thursday",
        "hours": "7:30\u202fAM to 6\u202fPM"
      },
      {
        "day": "Friday",
        "hours": "7:30\u202fAM to 6\u202fPM"
      },
      {
        "day": "Saturday",
        "hours": "8:30 to 11\u202fAM"
      },
      {
        "day": "Sunday",
        "hours": "Closed"
      }
    ],
    "peopleAlsoSearch": [],
    "placesTags": [],
    "reviewsTags": [],
    "additionalInfo": {
      "Accessibility": [
        {
          "Wheelchair accessible entrance": true
        },
        {
          "Wheelchair accessible parking lot": true
        }
      ],
      "Amenities": [
        {
          "Wi-Fi": true
        },
        {
          "Free Wi-Fi": true
        }
      ],
      "Payments": [
        {
          "Credit cards": true
        },
        {
          "Debit cards": true
        },
        {
          "NFC mobile payments": true
        },
        {
          "Credit cards": true
        }
      ]
    },
    "gasPrices": [],
    "url": "https://www.google.com/maps/search/?api=1&query=Altru%20Clinic%20Pharmacy-Family%20Medicine%20Center&query_place_id=ChIJgRlCfyGBxlIRSPFijLN-Orc",
    "searchPageUrl": "https://www.google.com/maps/search/independent%20pharmacy%20Grand%20Forks%20ND/@60.874534795447715,-148.50731502864818,9z?hl=en",
    "searchString": "independent pharmacy Grand Forks ND",
    "language": "en",
    "rank": 5,
    "isAdvertisement": false,
    "imageUrl": "https://lh3.googleusercontent.com/p/AF1QipOkDjRNkLtMu2_l9Evgso93wgLzwmcK-0Sbtd0h=w408-h306-k-no",
    "kgmid": "/g/1tdq5nqf",
    "classification": "hospital",
    "is_independent": false,
    "confidence": 1.0,
    "source": "rule-based"
  },
  {
    "title": "Altru Family Medicine Residency Pharmacy",
    "price": null,
    "categoryName": "Pharmacy",
    "address": "725 Hamline St, Grand Forks, ND 58203",
    "neighborhood": null,
    "street": "725 Hamline St",
    "city": "Grand Forks",
    "postalCode": "58203",
    "state": "North Dakota",
    "countryCode": "US",
    "website": "https://www.altru.org/our-locations/altru-family-medicine-residency-pharmacy",
    "phone": "(701) 780-6870",
    "phoneUnformatted": "+17017806870",
    "claimThisBusiness": false,
    "location": {
      "lat": 47.9262667,
      "lng": -97.0698235
    },
    "totalScore": 3.6,
    "permanentlyClosed": false,
    "temporarilyClosed": false,
    "placeId": null,
    "categories": [
      "Pharmacy"
    ],
    "fid": "0x52c681415ac77ad7:0xcabda7934fac8fbe",
    "cid": "14609017017398497214",
    "reviewsCount": 31,
    "imagesCount": 1,
    "imageCategories": [],
    "scrapedAt": "2025-06-22T09:13:55.813Z",
    "googleFoodUrl": null,
    "hotelAds": [],
    "openingHours": [
      {
        "day": "Monday",
        "hours": "8:30\u202fAM to 5\u202fPM"
      },
      {
        "day": "Tuesday",
        "hours": "8:30\u202fAM to 5\u202fPM"
      },
      {
        "day": "Wednesday",
        "hours": "8:30\u202fAM to 5\u202fPM"
      },
      {
        "day": "Thursday",
        "hours": "8:30\u202fAM to 5\u202fPM"
      },
      {
        "day": "Friday",
        "hours": "8:30\u202fAM to 5\u202fPM"
      },
      {
        "day": "Saturday",
        "hours": "Closed"
      },
      {
        "day": "Sunday",
        "hours": "Closed"
      }
    ],
    "peopleAlsoSearch": [],
    "placesTags": [],
    "reviewsTags": [],
    "additionalInfo": {
      "Service options": [
        {
          "Delivery": true
        },
        {
          "In-store pickup": true
        },
        {
          "In-store shopping": true
        }
      ],
      "Accessibility": [
        {
          "Wheelchair accessible entrance": true
        },
        {
          "Wheelchair accessible parking lot": true
        }
      ],
      "Offerings": [
        {
          "Medication disposal": true
        }
      ],
      "Amenities": [
        {
          "Wi-Fi": true
        },
        {
          "Free Wi-Fi": true
        }
      ],
      "Payments": [
        {
          "Cash-only": true
        },
        {
          "Checks": true
        },
        {
          "Credit cards": true
        }
      ]
    },
    "gasPrices": [],
    "url": "https://www.google.com/maps/search/?api=1&query=Altru%20Family%20Medicine%20Residency%20Pharmacy&query_place_id=ChIJ13rHWkGBxlIRvo-sT5Onvco",
    "searchPageUrl": "https://www.google.com/maps/search/independent%20pharmacy%20Grand%20Forks%20ND/@60.874534795447715,-148.50731502864818,9z?hl=en",
    "searchString": "independent pharmacy Grand Forks ND",
    "language": "en",
    "rank": 6,
    "isAdvertisement": false,
    "imageUrl": "https://streetviewpixels-pa.googleapis.com/v1/thumbnail?panoid=MEiYrlzWNLtKK-v1QcwuZw&cb_client=search.gws-prod.gps&w=408&h=240&yaw=270.72583&pitch=0&thumbfov=100",
    "kgmid": "/g/1hm57qlj7",
    "classification": "hospital",
    "is_independent": false,
    "is_compounding": false,
    "confidence": 0.95,
    "source": "perplexity",
    "method": "llm",
    "query_location": "grand_forks_nd"
  },
  {
    "title": "CVS Pharmacy",
    "price": null,
    "categoryName": "Pharmacy",
    "address": "1950 32nd Ave S, Grand Forks, ND 58201",
    "neighborhood": null,
    "street": "1950 32nd Ave S",
    "city": "Grand Forks",
    "postalCode": "58201",
    "state": "North Dakota",
    "countryCode": "US",
    "website": "https://www.cvs.com/store-locator/grand-forks-nd-pharmacies/1950-32nd-ave-s-grand-forks-nd-58201/storeid=8620?WT.mc_id=LS_GOOGLE_RX_8620",
    "phone": "(701) 746-8643",
    "phoneUnformatted": "+17017468643",
    "claimThisBusiness": false,
    "location": {
      "lat": 47.8906705,
      "lng": -97.0546353
    },
    "totalScore": 3.3,
    "permanentlyClosed": false,
    "temporarilyClosed": false,
    "placeId": "ChIJkTOcmcWAxlIRhZ0NHtWug2g",
    "categories": [
      "Pharmacy"
    ],
    "fid": "0x52c680c5999c3391:0x6883aed51e0d9d85",
    "cid": "7531055232249077125",
    "reviewsCount": 24,
    "imagesCount": 9,
    "imageCategories": [],
    "scrapedAt": "2025-06-22T09:13:55.813Z",
    "googleFoodUrl": null,
    "hotelAds": [],
    "openingHours": [
      {
        "day": "Monday",
        "hours": "9\u202fAM to 1:30\u202fPM, 2 to 7\u202fPM"
      },
      {
        "day": "Tuesday",
        "hours": "9\u202fAM to 1:30\u202fPM, 2 to 7\u202fPM"
      },
      {
        "day": "Wednesday",
        "hours": "9\u202fAM to 1:30\u202fPM, 2 to 7\u202fPM"
      },
      {
        "day": "Thursday",
        "hours": "9\u202fAM to 1:30\u202fPM, 2 to 7\u202fPM"
      },
      {
        "day": "Friday",
        "hours": "9\u202fAM to 1:30\u202fPM, 2 to 7\u202fPM"
      },
      {
        "day": "Saturday",
        "hours": "9\u202fAM to 1:30\u202fPM, 2 to 7\u202fPM"
      },
      {
        "day": "Sunday",
        "hours": "10\u202fAM to 1:30\u202fPM, 2 to 6\u202fPM"
      }
    ],
    "peopleAlsoSearch": [],
    "placesTags": [],
    "reviewsTags": [],
    "additionalInfo": {
      "Service options": [
        {
          "Delivery": true
        },
        {
          "Drive-through": true
        },
        {
          "In-store pickup": true
        },
        {
          "In-store shopping": true
        }
      ],
      "Accessibility": [
        {
          "Wheelchair accessible entrance": true
        },
        {
          "Wheelchair accessible parking lot": true
        }
      ],
      "Offerings": [
        {
          "Medication disposal": true
        },
        {
          "Naloxone": true
        },
        {
          "Passport photos": true
        }
      ],
      "Crowd": [
        {
          "LGBTQ+ friendly": true
        },
        {
          "Transgender safespace": true
        }
      ],
      "Planning": [
        {
          "Quick visit": true
        }
      ],
      "Payments": [
        {
          "Credit cards": true
        },
        {
          "Debit cards": true
        },
        {
          "NFC mobile payments": true
        },
        {
          "SNAP/EBT": true
        },
        {
          "Credit cards": true
        }
      ]
    },
    "gasPrices": [],
    "url": "https://www.google.com/maps/search/?api=1&query=CVS%20Pharmacy&query_place_id=ChIJkTOcmcWAxlIRhZ0NHtWug2g",
    "searchPageUrl": "https://www.google.com/maps/search/independent%20pharmacy%20Grand%20Forks%20ND/@60.874534795447715,-148.50731502864818,9z?hl=en",
    "searchString": "independent pharmacy Grand Forks ND",
    "language": "en",
    "rank": 7,
    "isAdvertisement": false,
    "imageUrl": "https://lh3.googleusercontent.com/p/AF1QipMP5T4CO6eIx-y6Lb6LOM3d7pWTtyEl8gXkTeeZ=w408-h272-k-no",
    "kgmid": "/g/11c462tv86",
    "classification": "chain",
    "is_independent": false,
    "confidence": 1.0,
    "source": "rule-based"
  },
  {
    "title": "Altru Clinic Pharmacy",
    "price": null,
    "categoryName": "Pharmacy",
    "address": "1000 S Columbia Rd, Grand Forks, ND 58201",
    "neighborhood": null,
    "street": "1000 S Columbia Rd",
    "city": "Grand Forks",
    "postalCode": "58201",
    "state": "North Dakota",
    "countryCode": "US",
    "website": "https://www.altru.org/our-locations/altru-clinic-pharmacy-family-medicine-center",
    "phone": "(701) 795-2020",
    "phoneUnformatted": "+17017952020",
    "claimThisBusiness": false,
    "location": {
      "lat": 47.9107408,
      "lng": -97.0691367
    },
    "totalScore": 3.7,
    "permanentlyClosed": false,
    "temporarilyClosed": false,
    "placeId": "ChIJm0jdOSOBxlIRKesec8YZPW0",
    "categories": [
      "Pharmacy"
    ],
    "fid": "0x52c6812339dd489b:0x6d3d19c6731eeb29",
    "cid": "7871476063839120169",
    "reviewsCount": 3,
    "imagesCount": 2,
    "imageCategories": [],
    "scrapedAt": "2025-06-22T09:13:55.814Z",
    "googleFoodUrl": null,
    "hotelAds": [],
    "openingHours": [
      {
        "day": "Monday",
        "hours": "7:30\u202fAM to 6\u202fPM"
      },
      {
        "day": "Tuesday",
        "hours": "7:30\u202fAM to 6\u202fPM"
      },
      {
        "day": "Wednesday",
        "hours": "7:30\u202fAM to 6\u202fPM"
      },
      {
        "day": "Thursday",
        "hours": "7:30\u202fAM to 6\u202fPM"
      },
      {
        "day": "Friday",
        "hours": "7:30\u202fAM to 6\u202fPM"
      },
      {
        "day": "Saturday",
        "hours": "8:30 to 11\u202fAM"
      },
      {
        "day": "Sunday",
        "hours": "Closed"
      }
    ],
    "peopleAlsoSearch": [],
    "placesTags": [],
    "reviewsTags": [],
    "additionalInfo": {
      "Accessibility": [
        {
          "Wheelchair accessible entrance": true
        },
        {
          "Wheelchair accessible parking lot": true
        }
      ],
      "Amenities": [
        {
          "Wi-Fi": true
        },
        {
          "Free Wi-Fi": true
        }
      ],
      "Payments": [
        {
          "Credit cards": true
        }
      ]
    },
    "gasPrices": [],
    "url": "https://www.google.com/maps/search/?api=1&query=Altru%20Clinic%20Pharmacy&query_place_id=ChIJm0jdOSOBxlIRKesec8YZPW0",
    "searchPageUrl": "https://www.google.com/maps/search/independent%20pharmacy%20Grand%20Forks%20ND/@60.874534795447715,-148.50731502864818,9z?hl=en",
    "searchString": "independent pharmacy Grand Forks ND",
    "language": "en",
    "rank": 9,
    "isAdvertisement": false,
    "imageUrl": "https://lh3.googleusercontent.com/p/AF1QipPg3S7zC0fTecXtSEy7ZzGACZ1ul9OpB0zYztIq=w408-h408-k-no",
    "kgmid": "/g/1tf7553q",
    "classification": "hospital",
    "is_independent": false,
    "confidence": 1.0,
    "source": "rule-based"
  },
  {
    "title": "Thrifty White Pharmacy",
    "price": null,
    "categoryName": "Pharmacy",
    "address": "1395 S Columbia Rd C, Grand Forks, ND 58201",
    "neighborhood": null,
    "street": "1395 S Columbia Rd C",
    "city": "Grand Forks",
    "postalCode": "58201",
    "state": "North Dakota",
    "countryCode": "US",
    "website": "http://www.thriftywhite.com/",
    "phone": "(701) 746-1800",
    "phoneUnformatted": "+17017461800",
    "claimThisBusiness": false,
    "location": {
      "lat": 47.9075757,
      "lng": -97.0661251
    },
    "totalScore": 4,
    "permanentlyClosed": false,
    "temporarilyClosed": false,
    "placeId": null,
    "categories": [
      "Pharmacy",
      "Drug store"
    ],
    "fid": "0x52c681217b7ec9c5:0x6e7b05f0851a07f9",
    "cid": "7960963296890849273",
    "reviewsCount": 44,
    "imagesCount": 4,
    "imageCategories": [],
    "scrapedAt": "2025-06-22T09:13:55.814Z",
    "googleFoodUrl": null,
    "hotelAds": [],
    "openingHours": [
      {
        "day": "Monday",
        "hours": "9\u202fAM to 7\u202fPM"
      },
      {
        "day": "Tuesday",
        "hours": "9\u202fAM to 7\u202fPM"
      },
      {
        "day": "Wednesday",
        "hours": "9\u202fAM to 7\u202fPM"
      },
      {
        "day": "Thursday",
        "hours": "9\u202fAM to 7\u202fPM"
      },
      {
        "day": "Friday",
        "hours": "9\u202fAM to 7\u202fPM"
      },
      {
        "day": "Saturday",
        "hours": "9\u202fAM to 1:30\u202fPM"
      },
      {
        "day": "Sunday",
        "hours": "Closed"
      }
    ],
    "peopleAlsoSearch": [],
    "placesTags": [],
    "reviewsTags": [],
    "additionalInfo": {
      "Service options": [
        {
          "Delivery": true
        },
        {
          "Drive-through": true
        },
        {
          "In-store pickup": true
        }
      ],
      "Accessibility": [
        {
          "Wheelchair accessible entrance": true
        },
        {
          "Wheelchair accessible parking lot": true
        }
      ],
      "Offerings": [
        {
          "Medication disposal": true
        }
      ],
      "Planning": [
        {
          "Quick visit": true
        }
      ],
      "Payments": [
        {
          "Checks": true
        },
        {
          "Credit cards": true
        },
        {
          "Debit cards": true
        },
        {
          "NFC mobile payments": true
        },
        {
          "Credit cards": true
        }
      ]
    },
    "gasPrices": [],
    "url": "https://www.google.com/maps/search/?api=1&query=Thrifty%20White%20Pharmacy&query_place_id=ChIJxcl-eyGBxlIR-QcahfAFe24",
    "searchPageUrl": "https://www.google.com/maps/search/independent%20pharmacy%20Grand%20Forks%20ND/@60.874534795447715,-148.50731502864818,9z?hl=en",
    "searchString": "independent pharmacy Grand Forks ND",
    "language": "en",
    "rank": 10,
    "isAdvertisement": false,
    "imageUrl": "https://lh3.googleusercontent.com/gps-cs-s/AC9h4noFec-BfS0P-csYkisWHATPJVqdFgWKn0qQjnOEG0FYX0CBfUSIEXjwGfYRViMrQCD2Yd4kC2A5302RFl-l2KmQkWYUEybhS51wJ81u2P2o9oxRdhV1wWag_Xd31WBGAHLKRTzF=w408-h306-k-no",
    "kgmid": "/g/11b7qb1mn9",
    "classification": "chain",
    "is_independent": false,
    "is_compounding": false,
    "confidence": 0.95,
    "source": "perplexity",
    "method": "llm",
    "query_location": "grand_forks_nd"
  },
  {
    "title": "Altru Hospital Outpatient Pharmacy",
    "price": null,
    "categoryName": "Pharmacy",
    "address": "1200 S Columbia Rd, Grand Forks, ND 58201",
    "neighborhood": null,
    "street": "1200 S Columbia Rd",
    "city": "Grand Forks",
    "postalCode": "58201",
    "state": "North Dakota",
    "countryCode": "US",
    "website": "https://www.altru.org/our-locations/altru-professional-center",
    "phone": "(701) 780-3444",
    "phoneUnformatted": "+17017803444",
    "claimThisBusiness": false,
    "location": {
      "lat": 47.9113858,
      "lng": -97.0694036
    },
    "totalScore": 4.3,
    "permanentlyClosed": false,
    "temporarilyClosed": false,
    "placeId": "ChIJ-wtzqCOBxlIR3lnXvoHP_zI",
    "categories": [
      "Pharmacy",
      "Hospital"
    ],
    "fid": "0x52c68123a8730bfb:0x32ffcf81bed759de",
    "cid": "3674883977117129182",
    "reviewsCount": 10,
    "imagesCount": 3,
    "imageCategories": [],
    "scrapedAt": "2025-06-22T09:13:55.814Z",
    "googleFoodUrl": null,
    "hotelAds": [],
    "openingHours": [
      {
        "day": "Monday",
        "hours": "8\u202fAM to 6\u202fPM"
      },
      {
        "day": "Tuesday",
        "hours": "8\u202fAM to 6\u202fPM"
      },
      {
        "day": "Wednesday",
        "hours": "8\u202fAM to 6\u202fPM"
      },
      {
        "day": "Thursday",
        "hours": "8\u202fAM to 6\u202fPM"
      },
      {
        "day": "Friday",
        "hours": "8\u202fAM to 6\u202fPM"
      },
      {
        "day": "Saturday",
        "hours": "11\u202fAM to 4\u202fPM"
      },
      {
        "day": "Sunday",
        "hours": "11\u202fAM to 4\u202fPM"
      }
    ],
    "peopleAlsoSearch": [],
    "placesTags": [],
    "reviewsTags": [],
    "additionalInfo": {
      "Service options": [
        {
          "In-store shopping": true
        }
      ],
      "Accessibility": [
        {
          "Wheelchair accessible entrance": true
        },
        {
          "Wheelchair accessible parking lot": true
        }
      ],
      "Offerings": [
        {
          "Medication disposal": true
        }
      ],
      "Payments": [
        {
          "Credit cards": true
        },
        {
          "Debit cards": true
        },
        {
          "NFC mobile payments": true
        },
        {
          "Credit cards": true
        }
      ]
    },
    "gasPrices": [],
    "url": "https://www.google.com/maps/search/?api=1&query=Altru%20Hospital%20Outpatient%20Pharmacy&query_place_id=ChIJ-wtzqCOBxlIR3lnXvoHP_zI",
    "searchPageUrl": "https://www.google.com/maps/search/independent%20pharmacy%20Grand%20Forks%20ND/@60.874534795447715,-148.50731502864818,9z?hl=en",
    "searchString": "independent pharmacy Grand Forks ND",
    "language": "en",
    "rank": 11,
    "isAdvertisement": false,
    "imageUrl": "https://lh3.googleusercontent.com/p/AF1QipOy9oiVE1mGL8CqJxLZFta-1UfKFXniwMh2Jurq=w408-h306-k-no",
    "kgmid": "/g/1tdq0sv4",
    "classification": "hospital",
    "is_independent": false,
    "confidence": 1.0,
    "source": "rule-based"
  },
  {
    "title": "Wall's Medicine Center",
    "price": null,
    "categoryName": "Pharmacy",
    "address": "708 S Washington St, Grand Forks, ND 58201",
    "neighborhood": null,
    "street": "708 S Washington St",
    "city": "Grand Forks",
    "postalCode": "58201",
    "state": "North Dakota",
    "countryCode": "US",
    "website": "http://www.wallsrx.com/",
    "phone": "(701) 746-0497",
    "phoneUnformatted": "+17017460497",
    "claimThisBusiness": false,
    "location": {
      "lat": 47.9147166,
      "lng": -97.045599
    },
    "totalScore": 4.5,
    "permanentlyClosed": false,
    "temporarilyClosed": false,
    "placeId": null,
    "categories": [
      "Pharmacy"
    ],
    "fid": "0x52c686cd70306487:0xc5355ccc798061b1",
    "cid": "14210366232519008689",
    "reviewsCount": 42,
    "imagesCount": 2,
    "imageCategories": [],
    "scrapedAt": "2025-06-22T09:13:55.814Z",
    "googleFoodUrl": null,
    "hotelAds": [],
    "openingHours": [
      {
        "day": "Monday",
        "hours": "8\u202fAM to 6\u202fPM"
      },
      {
        "day": "Tuesday",
        "hours": "8\u202fAM to 6\u202fPM"
      },
      {
        "day": "Wednesday",
        "hours": "8\u202fAM to 6\u202fPM"
      },
      {
        "day": "Thursday",
        "hours": "8\u202fAM to 6\u202fPM"
      },
      {
        "day": "Friday",
        "hours": "8\u202fAM to 6\u202fPM"
      },
      {
        "day": "Saturday",
        "hours": "9\u202fAM to 2\u202fPM"
      },
      {
        "day": "Sunday",
        "hours": "Closed"
      }
    ],
    "peopleAlsoSearch": [],
    "placesTags": [],
    "reviewsTags": [],
    "additionalInfo": {
      "Service options": [
        {
          "Delivery": true
        },
        {
          "Drive-through": true
        },
        {
          "In-store pickup": true
        },
        {
          "In-store shopping": true
        }
      ],
      "Accessibility": [
        {
          "Assistive hearing loop": true
        },
        {
          "Wheelchair accessible entrance": true
        },
        {
          "Wheelchair accessible parking lot": true
        }
      ],
      "Offerings": [
        {
          "Medication disposal": true
        }
      ],
      "Planning": [
        {
          "Quick visit": true
        }
      ],
      "Payments": [
        {
          "Credit cards": true
        },
        {
          "Debit cards": true
        },
        {
          "NFC mobile payments": true
        },
        {
          "Credit cards": true
        }
      ]
    },
    "gasPrices": [],
    "url": "https://www.google.com/maps/search/?api=1&query=Wall's%20Medicine%20Center&query_place_id=ChIJh2QwcM2GxlIRsWGAecxcNcU",
    "searchPageUrl": "https://www.google.com/maps/search/independent%20pharmacy%20Grand%20Forks%20ND/@60.874534795447715,-148.50731502864818,9z?hl=en",
    "searchString": "independent pharmacy Grand Forks ND",
    "language": "en",
    "rank": 12,
    "isAdvertisement": false,
    "imageUrl": "https://lh3.googleusercontent.com/gps-cs-s/AC9h4nqC-Dl_XzHed2spsxGfwbZ9SNFKdxru7Hh-vkWdJcT0Dj4nz0yJ-00jpNe6UlzuQmPdk9NkSHMr08Tqtdltpj2hSTwLVx1STySb9474Kcyc1A3hLpyvTYcsxBXOKZ-cPt9logUj=w408-h306-k-no",
    "kgmid": "/g/1tfb1n14",
    "classification": "independent",
    "is_independent": true,
    "is_compounding": false,
    "confidence": 0.9,
    "source": "perplexity",
    "method": "llm",
    "query_location": "grand_forks_nd"
  },
  {
    "title": "Skip's Budget Drug",
    "price": null,
    "categoryName": "Pharmacy",
    "address": "2015 Library Cir # 102, Grand Forks, ND 58201",
    "neighborhood": null,
    "street": "2015 Library Cir # 102",
    "city": "Grand Forks",
    "postalCode": "58201",
    "state": "North Dakota",
    "countryCode": "US",
    "website": "http://www.skipsbudgetdrug.com/",
    "phone": "(701) 772-4805",
    "phoneUnformatted": "+17017724805",
    "claimThisBusiness": false,
    "location": {
      "lat": 47.900107,
      "lng": -97.0477427
    },
    "totalScore": 4.5,
    "permanentlyClosed": false,
    "temporarilyClosed": false,
    "placeId": null,
    "categories": [
      "Pharmacy",
      "Greeting card shop",
      "Medical supply store"
    ],
    "fid": "0x52c680d4662ec3db:0x76576a6f5e0c50f6",
    "cid": "8527401446001103094",
    "reviewsCount": 58,
    "imagesCount": 8,
    "imageCategories": [],
    "scrapedAt": "2025-06-22T09:14:06.788Z",
    "googleFoodUrl": null,
    "hotelAds": [],
    "openingHours": [
      {
        "day": "Monday",
        "hours": "9\u202fAM to 6\u202fPM"
      },
      {
        "day": "Tuesday",
        "hours": "9\u202fAM to 6\u202fPM"
      },
      {
        "day": "Wednesday",
        "hours": "9\u202fAM to 6\u202fPM"
      },
      {
        "day": "Thursday",
        "hours": "9\u202fAM to 6\u202fPM"
      },
      {
        "day": "Friday",
        "hours": "9\u202fAM to 6\u202fPM"
      },
      {
        "day": "Saturday",
        "hours": "9\u202fAM to 1\u202fPM"
      },
      {
        "day": "Sunday",
        "hours": "Closed"
      }
    ],
    "peopleAlsoSearch": [],
    "placesTags": [],
    "reviewsTags": [],
    "additionalInfo": {
      "From the business": [
        {
          "Small business": true
        }
      ],
      "Service options": [
        {
          "Delivery": true
        },
        {
          "Drive-through": true
        },
        {
          "In-store pickup": true
        },
        {
          "Same-day delivery": true
        }
      ],
      "Accessibility": [
        {
          "Assistive hearing loop": true
        },
        {
          "Wheelchair accessible entrance": true
        },
        {
          "Wheelchair accessible parking lot": true
        }
      ],
      "Offerings": [
        {
          "Medication disposal": true
        }
      ],
      "Planning": [
        {
          "Quick visit": true
        }
      ],
      "Payments": [
        {
          "Debit cards": true
        },
        {
          "NFC mobile payments": true
        },
        {
          "Credit cards": true
        }
      ]
    },
    "gasPrices": [],
    "url": "https://www.google.com/maps/search/?api=1&query=Skip's%20Budget%20Drug&query_place_id=ChIJ28MuZtSAxlIR9lAMXm9qV3Y",
    "searchPageUrl": "https://www.google.com/maps/search/independent%20pharmacy%20Grand%20Forks%20ND/@62.264056934850785,-145.05491807162034,9z?hl=en",
    "searchString": "independent pharmacy Grand Forks ND",
    "language": "en",
    "rank": 14,
    "isAdvertisement": false,
    "imageUrl": "https://lh3.googleusercontent.com/p/AF1QipNP4ApFeIG2xFLWTvClbNp61ugXgwJBDZAj_KmD=w408-h544-k-no",
    "kgmid": "/g/1thsfky9",
    "classification": "independent",
    "is_independent": true,
    "is_compounding": false,
    "confidence": 0.9,
    "source": "perplexity",
    "method": "llm",
    "query_location": "grand_forks_nd"
  },
  {
    "title": "Altru Chemists + Compounding Pharmacy",
    "price": null,
    "categoryName": "Pharmacy",
    "address": "987 Manhattan Ave, Brooklyn, NY 11222",
    "neighborhood": "Greenpoint",
    "street": "987 Manhattan Ave",
    "city": "Brooklyn",
    "postalCode": "11222",
    "state": "New York",
    "countryCode": "US",
    "website": "http://www.altrurx.com/",
    "phone": "(718) 349-9009",
    "phoneUnformatted": "+17183499009",
    "claimThisBusiness": false,
    "location": {
      "lat": 40.7327645,
      "lng": -73.954976
    },
    "totalScore": 5,
    "permanentlyClosed": false,
    "temporarilyClosed": false,
    "placeId": null,
    "categories": [
      "Pharmacy",
      "Drug store",
      "Walk-in clinic"
    ],
    "fid": "0x89c2591093dfce2d:0x7a61a7312664ad61",
    "cid": "8818513374907510113",
    "reviewsCount": 343,
    "imagesCount": 21,
    "imageCategories": [],
    "scrapedAt": "2025-06-22T09:14:56.853Z",
    "googleFoodUrl": null,
    "hotelAds": [],
    "openingHours": [
      {
        "day": "Monday",
        "hours": "10\u202fAM to 7\u202fPM"
      },
      {
        "day": "Tuesday",
        "hours": "10\u202fAM to 7\u202fPM"
      },
      {
        "day": "Wednesday",
        "hours": "10\u202fAM to 7\u202fPM"
      },
      {
        "day": "Thursday",
        "hours": "10\u202fAM to 7\u202fPM"
      },
      {
        "day": "Friday",
        "hours": "10\u202fAM to 7\u202fPM"
      },
      {
        "day": "Saturday",
        "hours": "10\u202fAM to 5\u202fPM"
      },
      {
        "day": "Sunday",
        "hours": "Closed"
      }
    ],
    "peopleAlsoSearch": [],
    "placesTags": [],
    "reviewsTags": [],
    "additionalInfo": {
      "From the business": [
        {
          "Small business": true
        }
      ],
      "Service options": [
        {
          "Delivery": true
        },
        {
          "In-store pickup": true
        },
        {
          "In-store shopping": true
        },
        {
          "Onsite services": true
        },
        {
          "Same-day delivery": true
        },
        {
          "English": true
        }
      ],
      "Accessibility": [
        {
          "Wheelchair accessible entrance": true
        },
        {
          "Wheelchair accessible restroom": true
        },
        {
          "Wheelchair accessible parking lot": false
        }
      ],
      "Amenities": [
        {
          "Gender-neutral restroom": true
        }
      ],
      "Crowd": [
        {
          "LGBTQ+ friendly": true
        },
        {
          "Transgender safespace": true
        }
      ],
      "Planning": [
        {
          "Quick visit": true
        }
      ],
      "Payments": [
        {
          "Credit cards": true
        },
        {
          "Debit cards": true
        },
        {
          "NFC mobile payments": true
        },
        {
          "Credit cards": true
        }
      ],
      "Parking": [
        {
          "Paid street parking": true
        }
      ]
    },
    "gasPrices": [],
    "url": "https://www.google.com/maps/search/?api=1&query=Altru%20Chemists%20%2B%20Compounding%20Pharmacy&query_place_id=ChIJLc7fkxBZwokRYa1kJjGnYXo",
    "searchPageUrl": "https://www.google.com/maps/search/independent%20pharmacy%20Grand%20Forks%20ND/@39.68245004733214,-76.98739394329682,8z?hl=en",
    "searchString": "independent pharmacy Grand Forks ND",
    "language": "en",
    "rank": 2,
    "isAdvertisement": false,
    "imageUrl": "https://lh3.googleusercontent.com/p/AF1QipMwgBHG3o5ufaJU_9KDn2BGc-NjwFAKLTLHplAD=w408-h301-k-no",
    "kgmid": "/g/11h81k45cc",
    "classification": "independent",
    "is_independent": true,
    "is_compounding": true,
    "confidence": 0.95,
    "source": "perplexity",
    "method": "llm",
    "query_location": "grand_forks_nd"
  },
  {
    "title": "CVS Pharmacy",
    "price": null,
    "categoryName": "Pharmacy",
    "address": "6 Dupont Cir NW, Washington, DC 20036",
    "neighborhood": "Downtown",
    "street": "6 Dupont Cir NW",
    "city": "Washington",
    "postalCode": "20036",
    "state": "District of Columbia",
    "countryCode": "US",
    "website": "https://www.cvs.com/store-locator/washington-dc-pharmacies/6-dupont-circle-nw-washington-dc-20036/storeid=1347?WT.mc_id=LS_GOOGLE_RX_1347",
    "phone": "(202) 785-1466",
    "phoneUnformatted": "+12027851466",
    "claimThisBusiness": false,
    "location": {
      "lat": 38.9094102,
      "lng": -77.0443854
    },
    "totalScore": 3.8,
    "permanentlyClosed": false,
    "temporarilyClosed": false,
    "placeId": "ChIJ9zh-Pr63t4kRe6WQOVr_ggE",
    "categories": [
      "Pharmacy"
    ],
    "fid": "0x89b7b7be3e7e38f7:0x182ff5a3990a57b",
    "cid": "108930103988233595",
    "reviewsCount": 24,
    "imagesCount": 22,
    "imageCategories": [],
    "scrapedAt": "2025-06-22T09:14:56.853Z",
    "googleFoodUrl": null,
    "hotelAds": [],
    "openingHours": [
      {
        "day": "Monday",
        "hours": "9\u202fAM to 1:30\u202fPM, 2 to 10\u202fPM"
      },
      {
        "day": "Tuesday",
        "hours": "9\u202fAM to 1:30\u202fPM, 2 to 10\u202fPM"
      },
      {
        "day": "Wednesday",
        "hours": "9\u202fAM to 1:30\u202fPM, 2 to 10\u202fPM"
      },
      {
        "day": "Thursday",
        "hours": "9\u202fAM to 1:30\u202fPM, 2 to 10\u202fPM"
      },
      {
        "day": "Friday",
        "hours": "9\u202fAM to 1:30\u202fPM, 2 to 10\u202fPM"
      },
      {
        "day": "Saturday",
        "hours": "9\u202fAM to 1:30\u202fPM, 2 to 9\u202fPM"
      },
      {
        "day": "Sunday",
        "hours": "10\u202fAM to 1:30\u202fPM, 2 to 9\u202fPM"
      }
    ],
    "peopleAlsoSearch": [],
    "placesTags": [],
    "reviewsTags": [],
    "additionalInfo": {
      "Service options": [
        {
          "Delivery": true
        },
        {
          "In-store shopping": true
        }
      ],
      "Accessibility": [
        {
          "Wheelchair accessible entrance": true
        }
      ],
      "Crowd": [
        {
          "LGBTQ+ friendly": true
        },
        {
          "Transgender safespace": true
        }
      ],
      "Planning": [
        {
          "Quick visit": true
        }
      ],
      "Payments": [
        {
          "Credit cards": true
        },
        {
          "Debit cards": true
        },
        {
          "NFC mobile payments": true
        },
        {
          "SNAP/EBT": true
        },
        {
          "Credit cards": true
        }
      ]
    },
    "gasPrices": [],
    "url": "https://www.google.com/maps/search/?api=1&query=CVS%20Pharmacy&query_place_id=ChIJ9zh-Pr63t4kRe6WQOVr_ggE",
    "searchPageUrl": "https://www.google.com/maps/search/independent%20pharmacy%20Grand%20Forks%20ND/@39.68245004733214,-76.98739394329682,8z?hl=en",
    "searchString": "independent pharmacy Grand Forks ND",
    "language": "en",
    "rank": 5,
    "isAdvertisement": false,
    "imageUrl": "https://lh3.googleusercontent.com/p/AF1QipPMkQLJQo_KK6Jb7gfTMWpLEN5bmxVjWHegBxpL=w408-h272-k-no",
    "kgmid": "/g/11fv4dzq8t",
    "classification": "chain",
    "is_independent": false,
    "confidence": 1.0,
    "source": "rule-based"
  }
]