[
  {
    "title": "Right Dose LTC Pharmacy of Cedar Rapids",
    "price": null,
    "categoryName": "Pharmacy",
    "address": "6300 Rockwell Dr NE Floor 2, Cedar Rapids, IA 52402",
    "neighborhood": null,
    "street": "6300 Rockwell Dr NE Floor 2",
    "city": "Cedar Rapids",
    "postalCode": "52402",
    "state": "Iowa",
    "countryCode": "US",
    "website": "http://www.rightdosepharmacy.com/",
    "phone": "(319) 214-5265",
    "phoneUnformatted": "+13192145265",
    "claimThisBusiness": false,
    "location": {
      "lat": 42.0418718,
      "lng": -91.6493995
    },
    "totalScore": 3.8,
    "permanentlyClosed": false,
    "temporarilyClosed": false,
    "placeId": null,
    "categories": [
      "Pharmacy"
    ],
    "fid": "0x87e4f1a0d17fc07f:0xac35becd953995e",
    "cid": "775564633654401374",
    "reviewsCount": 6,
    "imagesCount": 1,
    "imageCategories": [],
    "scrapedAt": "2025-06-22T07:53:27.037Z",
    "googleFoodUrl": null,
    "hotelAds": [],
    "openingHours": [
      {
        "day": "Monday",
        "hours": "8\u202fAM to 6\u202fPM"
      },
      {
        "day": "Tuesday",
        "hours": "8\u202fAM to 6\u202fPM"
      },
      {
        "day": "Wednesday",
        "hours": "8\u202fAM to 6\u202fPM"
      },
      {
        "day": "Thursday",
        "hours": "8\u202fAM to 6\u202fPM"
      },
      {
        "day": "Friday",
        "hours": "8\u202fAM to 6\u202fPM"
      },
      {
        "day": "Saturday",
        "hours": "9\u202fAM to 2\u202fPM"
      },
      {
        "day": "Sunday",
        "hours": "Closed"
      }
    ],
    "peopleAlsoSearch": [],
    "placesTags": [],
    "reviewsTags": [],
    "additionalInfo": {
      "Accessibility": [
        {
          "Wheelchair accessible entrance": true
        },
        {
          "Wheelchair accessible parking lot": true
        }
      ]
    },
    "gasPrices": [],
    "url": "https://www.google.com/maps/search/?api=1&query=Right%20Dose%20LTC%20Pharmacy%20of%20Cedar%20Rapids&query_place_id=ChIJf8B_0aDx5IcRXplT2exbwwo",
    "searchPageUrl": "https://www.google.com/maps/search/independent%20pharmacy%20Cedar%20Rapids%20IA/@56.01120730753697,-155.41210894270387,9z?hl=en",
    "searchString": "independent pharmacy Cedar Rapids IA",
    "language": "en",
    "rank": 1,
    "isAdvertisement": false,
    "imageUrl": "https://streetviewpixels-pa.googleapis.com/v1/thumbnail?panoid=mXGYDf6Bd1l3c_nuUfmchg&cb_client=search.gws-prod.gps&w=408&h=240&yaw=3.4515095&pitch=0&thumbfov=100",
    "kgmid": "/g/11fhnl0sd8",
    "classification": "independent",
    "is_independent": true,
    "is_compounding": false,
    "confidence": 0.9,
    "source": "perplexity",
    "method": "llm"
  },
  {
    "title": "Clark's Pharmacy",
    "price": null,
    "categoryName": "Pharmacy",
    "address": "1946 42nd St NE, Cedar Rapids, IA 52402",
    "neighborhood": null,
    "street": "1946 42nd St NE",
    "city": "Cedar Rapids",
    "postalCode": "52402",
    "state": "Iowa",
    "countryCode": "US",
    "website": "http://clarksrxcr.com/",
    "phone": "(319) 393-3210",
    "phoneUnformatted": "+13193933210",
    "claimThisBusiness": false,
    "location": {
      "lat": 42.0219021,
      "lng": -91.6673201
    },
    "totalScore": 4.5,
    "permanentlyClosed": false,
    "temporarilyClosed": false,
    "placeId": null,
    "categories": [
      "Pharmacy"
    ],
    "fid": "0x87e4f0860a1d90ed:0xb16f49c6c460c1b7",
    "cid": "12785518985175155127",
    "reviewsCount": 56,
    "imagesCount": 3,
    "imageCategories": [],
    "scrapedAt": "2025-06-22T07:53:27.038Z",
    "googleFoodUrl": null,
    "hotelAds": [],
    "openingHours": [
      {
        "day": "Monday",
        "hours": "9\u202fAM to 6\u202fPM"
      },
      {
        "day": "Tuesday",
        "hours": "9\u202fAM to 6\u202fPM"
      },
      {
        "day": "Wednesday",
        "hours": "9\u202fAM to 6\u202fPM"
      },
      {
        "day": "Thursday",
        "hours": "9\u202fAM to 6\u202fPM"
      },
      {
        "day": "Friday",
        "hours": "9\u202fAM to 6\u202fPM"
      },
      {
        "day": "Saturday",
        "hours": "9\u202fAM to 1\u202fPM"
      },
      {
        "day": "Sunday",
        "hours": "Closed"
      }
    ],
    "peopleAlsoSearch": [],
    "placesTags": [],
    "reviewsTags": [],
    "additionalInfo": {
      "From the business": [
        {
          "Small business": true
        }
      ],
      "Service options": [
        {
          "Curbside pickup": true
        },
        {
          "Delivery": true
        },
        {
          "Drive-through": true
        },
        {
          "In-store pickup": true
        },
        {
          "In-store shopping": true
        },
        {
          "Onsite services": true
        },
        {
          "Same-day delivery": true
        }
      ],
      "Accessibility": [
        {
          "Wheelchair accessible entrance": true
        },
        {
          "Wheelchair accessible parking lot": true
        }
      ],
      "Amenities": [
        {
          "Wi-Fi": true
        },
        {
          "Free Wi-Fi": true
        }
      ],
      "Planning": [
        {
          "Quick visit": true
        }
      ],
      "Payments": [
        {
          "Credit cards": true
        }
      ]
    },
    "gasPrices": [],
    "url": "https://www.google.com/maps/search/?api=1&query=Clark's%20Pharmacy&query_place_id=ChIJ7ZAdCobw5IcRt8FgxMZJb7E",
    "searchPageUrl": "https://www.google.com/maps/search/independent%20pharmacy%20Cedar%20Rapids%20IA/@56.01120730753697,-155.41210894270387,9z?hl=en",
    "searchString": "independent pharmacy Cedar Rapids IA",
    "language": "en",
    "rank": 2,
    "isAdvertisement": false,
    "imageUrl": "https://lh3.googleusercontent.com/p/AF1QipONoWqLi5jnMsEQ25WHfknLTlqqUo6q3yVKhdWi=w426-h240-k-no",
    "kgmid": "/g/1tczwhbp",
    "classification": "independent",
    "is_independent": true,
    "is_compounding": false,
    "confidence": 0.9,
    "source": "perplexity",
    "method": "llm"
  },
  {
    "title": "CarePro Compounding",
    "price": null,
    "categoryName": "Pharmacy",
    "address": "402 10th St SE #100, Cedar Rapids, IA 52403",
    "neighborhood": "Wellington Heights",
    "street": "402 10th St SE #100",
    "city": "Cedar Rapids",
    "postalCode": "52403",
    "state": "Iowa",
    "countryCode": "US",
    "website": "https://www.careprohs.com/pharmacies/compounding",
    "phone": "(319) 369-9631",
    "phoneUnformatted": "+13193699631",
    "claimThisBusiness": false,
    "location": {
      "lat": 41.9808545,
      "lng": -91.6562071
    },
    "totalScore": 4.4,
    "permanentlyClosed": false,
    "temporarilyClosed": false,
    "placeId": null,
    "categories": [
      "Pharmacy"
    ],
    "fid": "0x87e4f7361ec31327:0x75fe62db0d10dd46",
    "cid": "8502341839478644038",
    "reviewsCount": 12,
    "imagesCount": 2,
    "imageCategories": [],
    "scrapedAt": "2025-06-22T07:53:27.038Z",
    "googleFoodUrl": null,
    "hotelAds": [],
    "openingHours": [
      {
        "day": "Monday",
        "hours": "9\u202fAM to 5\u202fPM"
      },
      {
        "day": "Tuesday",
        "hours": "9\u202fAM to 5:30\u202fPM"
      },
      {
        "day": "Wednesday",
        "hours": "9\u202fAM to 5\u202fPM"
      },
      {
        "day": "Thursday",
        "hours": "9\u202fAM to 5\u202fPM"
      },
      {
        "day": "Friday",
        "hours": "9\u202fAM to 5:30\u202fPM"
      },
      {
        "day": "Saturday",
        "hours": "Closed"
      },
      {
        "day": "Sunday",
        "hours": "Closed"
      }
    ],
    "peopleAlsoSearch": [],
    "placesTags": [],
    "reviewsTags": [],
    "additionalInfo": {
      "From the business": [
        {
          "Identifies as women-owned": true
        }
      ],
      "Service options": [
        {
          "Curbside pickup": true
        },
        {
          "Delivery": true
        },
        {
          "In-store pickup": true
        },
        {
          "In-store shopping": true
        }
      ],
      "Accessibility": [
        {
          "Wheelchair accessible entrance": true
        },
        {
          "Wheelchair accessible parking lot": true
        }
      ],
      "Amenities": [
        {
          "Gender-neutral restroom": true
        },
        {
          "Wi-Fi": true
        },
        {
          "Free Wi-Fi": true
        }
      ],
      "Payments": [
        {
          "Checks": true
        },
        {
          "Credit cards": true
        },
        {
          "Debit cards": true
        },
        {
          "NFC mobile payments": true
        },
        {
          "Credit cards": true
        }
      ]
    },
    "gasPrices": [],
    "url": "https://www.google.com/maps/search/?api=1&query=CarePro%20Compounding&query_place_id=ChIJJxPDHjb35IcRRt0QDdti_nU",
    "searchPageUrl": "https://www.google.com/maps/search/independent%20pharmacy%20Cedar%20Rapids%20IA/@56.01120730753697,-155.41210894270387,9z?hl=en",
    "searchString": "independent pharmacy Cedar Rapids IA",
    "language": "en",
    "rank": 3,
    "isAdvertisement": false,
    "imageUrl": "https://lh3.googleusercontent.com/p/AF1QipNkmkQICp9sl_u8ZnoPEU4Ab0bQ7Ve0Wii4Jw13=w470-h240-k-no",
    "kgmid": "/g/1tr8m3pb",
    "classification": "independent",
    "is_independent": true,
    "is_compounding": true,
    "confidence": 0.95,
    "source": "perplexity",
    "method": "llm"
  },
  {
    "title": "CR Care Pharmacy",
    "price": null,
    "categoryName": "Pharmacy",
    "address": "3100 E Ave NW #102, Cedar Rapids, IA 52405",
    "neighborhood": null,
    "street": "3100 E Ave NW #102",
    "city": "Cedar Rapids",
    "postalCode": "52405",
    "state": "Iowa",
    "countryCode": "US",
    "website": "http://www.crcarepharmacy.com/",
    "phone": "(319) 200-1188",
    "phoneUnformatted": "+13192001188",
    "claimThisBusiness": false,
    "location": {
      "lat": 41.9787731,
      "lng": -91.713046
    },
    "totalScore": 5,
    "permanentlyClosed": false,
    "temporarilyClosed": false,
    "placeId": null,
    "categories": [
      "Pharmacy"
    ],
    "fid": "0x87e4f98a0cf0f6f1:0xf3ca7196dc227b9e",
    "cid": "17566978189264321438",
    "reviewsCount": 12,
    "imagesCount": 3,
    "imageCategories": [],
    "scrapedAt": "2025-06-22T07:53:27.038Z",
    "googleFoodUrl": null,
    "hotelAds": [],
    "openingHours": [
      {
        "day": "Monday",
        "hours": "9\u202fAM to 4\u202fPM"
      },
      {
        "day": "Tuesday",
        "hours": "9\u202fAM to 4\u202fPM"
      },
      {
        "day": "Wednesday",
        "hours": "9\u202fAM to 4\u202fPM"
      },
      {
        "day": "Thursday",
        "hours": "9\u202fAM to 4\u202fPM"
      },
      {
        "day": "Friday",
        "hours": "9\u202fAM to 4\u202fPM"
      },
      {
        "day": "Saturday",
        "hours": "Closed"
      },
      {
        "day": "Sunday",
        "hours": "Closed"
      }
    ],
    "peopleAlsoSearch": [],
    "placesTags": [],
    "reviewsTags": [],
    "additionalInfo": {
      "From the business": [
        {
          "Small business": true
        }
      ],
      "Service options": [
        {
          "Delivery": true
        },
        {
          "Onsite services": true
        }
      ],
      "Accessibility": [
        {
          "Wheelchair accessible entrance": true
        },
        {
          "Wheelchair accessible parking lot": true
        }
      ],
      "Planning": [
        {
          "Quick visit": true
        }
      ],
      "Payments": [
        {
          "Credit cards": true
        },
        {
          "Debit cards": true
        },
        {
          "NFC mobile payments": true
        },
        {
          "Credit cards": true
        }
      ]
    },
    "gasPrices": [],
    "url": "https://www.google.com/maps/search/?api=1&query=CR%20Care%20Pharmacy&query_place_id=ChIJ8fbwDIr55IcRnnsi3JZxyvM",
    "searchPageUrl": "https://www.google.com/maps/search/independent%20pharmacy%20Cedar%20Rapids%20IA/@56.01120730753697,-155.41210894270387,9z?hl=en",
    "searchString": "independent pharmacy Cedar Rapids IA",
    "language": "en",
    "rank": 4,
    "isAdvertisement": false,
    "imageUrl": "https://lh3.googleusercontent.com/p/AF1QipN3ZAg6wgseXbWfPWnI-ikJBRGBT7WSnfSGeGik=w408-h421-k-no",
    "kgmid": "/g/11h01k7x91",
    "classification": "independent",
    "is_independent": true,
    "is_compounding": false,
    "confidence": 0.9,
    "source": "perplexity",
    "method": "llm"
  },
  {
    "title": "Reutzel Pharmacy",
    "price": null,
    "categoryName": "Pharmacy",
    "address": "617 8th Ave SE, Cedar Rapids, IA 52401",
    "neighborhood": "Oakhill Jackson",
    "street": "617 8th Ave SE",
    "city": "Cedar Rapids",
    "postalCode": "52401",
    "state": "Iowa",
    "countryCode": "US",
    "website": "http://reutzelpharmacyrx.com/",
    "phone": "(319) 364-4181",
    "phoneUnformatted": "+13193644181",
    "claimThisBusiness": false,
    "location": {
      "lat": 41.9755294,
      "lng": -91.6573506
    },
    "totalScore": 3.4,
    "permanentlyClosed": false,
    "temporarilyClosed": false,
    "placeId": null,
    "categories": [
      "Pharmacy"
    ],
    "fid": "0x87e4f7478c353b1f:0xa898e3ce77571aed",
    "cid": "12148710470736878317",
    "reviewsCount": 25,
    "imagesCount": 9,
    "imageCategories": [],
    "scrapedAt": "2025-06-22T07:53:27.038Z",
    "googleFoodUrl": null,
    "hotelAds": [],
    "openingHours": [
      {
        "day": "Monday",
        "hours": "8\u202fAM to 5\u202fPM"
      },
      {
        "day": "Tuesday",
        "hours": "8\u202fAM to 5\u202fPM"
      },
      {
        "day": "Wednesday",
        "hours": "8\u202fAM to 5\u202fPM"
      },
      {
        "day": "Thursday",
        "hours": "8\u202fAM to 5\u202fPM"
      },
      {
        "day": "Friday",
        "hours": "8\u202fAM to 5\u202fPM"
      },
      {
        "day": "Saturday",
        "hours": "Closed"
      },
      {
        "day": "Sunday",
        "hours": "Closed"
      }
    ],
    "peopleAlsoSearch": [],
    "placesTags": [],
    "reviewsTags": [],
    "additionalInfo": {
      "From the business": [
        {
          "Small business": true
        }
      ],
      "Service options": [
        {
          "Delivery": true
        },
        {
          "In-store pickup": true
        },
        {
          "In-store shopping": true
        },
        {
          "Same-day delivery": true
        }
      ],
      "Accessibility": [
        {
          "Wheelchair accessible parking lot": true
        },
        {
          "Wheelchair accessible entrance": false
        }
      ],
      "Crowd": [
        {
          "LGBTQ+ friendly": true
        },
        {
          "Transgender safespace": true
        }
      ],
      "Planning": [
        {
          "Quick visit": true
        }
      ],
      "Payments": [
        {
          "Checks": true
        },
        {
          "Credit cards": true
        },
        {
          "Debit cards": true
        },
        {
          "NFC mobile payments": true
        },
        {
          "Credit cards": true
        }
      ]
    },
    "gasPrices": [],
    "url": "https://www.google.com/maps/search/?api=1&query=Reutzel%20Pharmacy&query_place_id=ChIJHzs1jEf35IcR7RpXd87jmKg",
    "searchPageUrl": "https://www.google.com/maps/search/independent%20pharmacy%20Cedar%20Rapids%20IA/@56.01120730753697,-155.41210894270387,9z?hl=en",
    "searchString": "independent pharmacy Cedar Rapids IA",
    "language": "en",
    "rank": 5,
    "isAdvertisement": false,
    "imageUrl": "https://lh3.googleusercontent.com/p/AF1QipNNkMho8fdW9k35N8EhzcmH58CB4xjuBjX7CW9-=w408-h298-k-no",
    "kgmid": "/g/1tfv12w_",
    "classification": "independent",
    "is_independent": true,
    "is_compounding": false,
    "confidence": 0.9,
    "source": "perplexity",
    "method": "llm"
  },
  {
    "title": "Hy-Vee Pharmacy",
    "price": "$$",
    "categoryName": "Pharmacy",
    "address": "1520 6th St SW, Cedar Rapids, IA 52404",
    "neighborhood": "Taylor",
    "street": "1520 6th St SW",
    "city": "Cedar Rapids",
    "postalCode": "52404",
    "state": "Iowa",
    "countryCode": "US",
    "website": "https://www.hy-vee.com/my-pharmacy/pharmacy-finder/cedar-rapids-drugstore-1-1520-6th-st-sw-cedar-rapids-ia/7020?utm_source=google&utm_medium=organic&utm_campaign=gmb-listing",
    "phone": "(319) 363-0219",
    "phoneUnformatted": "+13193630219",
    "claimThisBusiness": false,
    "location": {
      "lat": 41.962342,
      "lng": -91.6776036
    },
    "locatedIn": "Hy-Vee Deli",
    "totalScore": 4.3,
    "permanentlyClosed": false,
    "temporarilyClosed": false,
    "placeId": "ChIJBRZe7HL35IcRB02Q3OhiyXI",
    "categories": [
      "Pharmacy",
      "Drug store",
      "Herbal medicine store",
      "Homeopathic pharmacy",
      "Local medical services",
      "Medical Center",
      "Organic drug store",
      "Pharmaceutical company",
      "Pharmaceutical lab",
      "Toiletries store"
    ],
    "fid": "0x87e4f772ec5e1605:0x72c962e8dc904d07",
    "cid": "8271250942915005703",
    "reviewsCount": 1336,
    "imagesCount": 53,
    "imageCategories": [],
    "scrapedAt": "2025-06-22T07:53:27.039Z",
    "googleFoodUrl": null,
    "hotelAds": [],
    "openingHours": [
      {
        "day": "Monday",
        "hours": "8\u202fAM to 8\u202fPM"
      },
      {
        "day": "Tuesday",
        "hours": "8\u202fAM to 8\u202fPM"
      },
      {
        "day": "Wednesday",
        "hours": "8\u202fAM to 8\u202fPM"
      },
      {
        "day": "Thursday",
        "hours": "8\u202fAM to 8\u202fPM"
      },
      {
        "day": "Friday",
        "hours": "8\u202fAM to 8\u202fPM"
      },
      {
        "day": "Saturday",
        "hours": "9\u202fAM to 5\u202fPM"
      },
      {
        "day": "Sunday",
        "hours": "9\u202fAM to 5\u202fPM"
      }
    ],
    "additionalOpeningHours": {
      "Hy-Vee Deli": [
        {
          "day": "Monday",
          "hours": "6\u202fAM\u201311\u202fPM"
        },
        {
          "day": "Tuesday",
          "hours": "6\u202fAM\u201311\u202fPM"
        },
        {
          "day": "Wednesday",
          "hours": "6\u202fAM\u201311\u202fPM"
        },
        {
          "day": "Thursday",
          "hours": "6\u202fAM\u201311\u202fPM"
        },
        {
          "day": "Friday",
          "hours": "6\u202fAM\u201311\u202fPM"
        },
        {
          "day": "Saturday",
          "hours": "6\u202fAM\u201311\u202fPM"
        },
        {
          "day": "Sunday",
          "hours": "6\u202fAM\u201311\u202fPM"
        }
      ],
      "Hy-Vee Wine & Spirits": [
        {
          "day": "Monday",
          "hours": "8\u202fAM\u20139\u202fPM"
        },
        {
          "day": "Tuesday",
          "hours": "8\u202fAM\u20139\u202fPM"
        },
        {
          "day": "Wednesday",
          "hours": "8\u202fAM\u20139\u202fPM"
        },
        {
          "day": "Thursday",
          "hours": "8\u202fAM\u20139\u202fPM"
        },
        {
          "day": "Friday",
          "hours": "8\u202fAM\u20139\u202fPM"
        },
        {
          "day": "Saturday",
          "hours": "8\u202fAM\u20139\u202fPM"
        },
        {
          "day": "Sunday",
          "hours": "8\u202fAM\u20139\u202fPM"
        }
      ]
    },
    "peopleAlsoSearch": [],
    "placesTags": [],
    "reviewsTags": [],
    "additionalInfo": {
      "Service options": [
        {
          "Delivery": true
        },
        {
          "Drive-through": true
        },
        {
          "In-store pickup": true
        },
        {
          "Onsite services": true
        },
        {
          "Same-day delivery": true
        }
      ],
      "Accessibility": [
        {
          "Wheelchair accessible entrance": true
        },
        {
          "Wheelchair accessible parking lot": true
        },
        {
          "Wheelchair accessible restroom": true
        },
        {
          "Wheelchair accessible seating": true
        }
      ],
      "Amenities": [
        {
          "Wi-Fi": true
        }
      ],
      "Planning": [
        {
          "Quick visit": true
        }
      ],
      "Payments": [
        {
          "Debit cards": true
        },
        {
          "NFC mobile payments": true
        },
        {
          "Credit cards": true
        }
      ]
    },
    "gasPrices": [],
    "url": "https://www.google.com/maps/search/?api=1&query=Hy-Vee%20Pharmacy&query_place_id=ChIJBRZe7HL35IcRB02Q3OhiyXI",
    "searchPageUrl": "https://www.google.com/maps/search/independent%20pharmacy%20Cedar%20Rapids%20IA/@56.01120730753697,-155.41210894270387,9z?hl=en",
    "searchString": "independent pharmacy Cedar Rapids IA",
    "language": "en",
    "rank": 6,
    "isAdvertisement": false,
    "imageUrl": "https://lh3.googleusercontent.com/gps-cs-s/AC9h4novM8Z_KbTZ1alvjwUJEcM87EWrPTflrtPByevs29Qf3yliGWgkxxyrGkf0Sv0Fp8zSAhmEVuXdp222XVqHC5BXgvpBuwKoDylUU7M8N9nDGGHN4NBtbqq37UbrsONKkL7ptUk=w408-h306-k-no",
    "kgmid": "/g/1tv3p70l",
    "classification": "chain",
    "is_independent": false,
    "confidence": 1.0,
    "source": "rule-based"
  },
  {
    "title": "UnityPoint Health - Cedar Rapids St. Luke's Pharmacy",
    "price": null,
    "categoryName": "Pharmacy",
    "address": "1026 A Ave NE, Cedar Rapids, IA 52402",
    "neighborhood": null,
    "street": "1026 A Ave NE",
    "city": "Cedar Rapids",
    "postalCode": "52402",
    "state": "Iowa",
    "countryCode": "US",
    "website": "https://www.unitypoint.org/locations/unitypoint-health---cedar-rapids-st-lukes-pharmacy?utm_source=gmb&utm_medium=web&utm_campaign=brandify",
    "phone": "(319) 369-7528",
    "phoneUnformatted": "+13193697528",
    "claimThisBusiness": false,
    "location": {
      "lat": 41.9853036,
      "lng": -91.6604322
    },
    "totalScore": 2,
    "permanentlyClosed": false,
    "temporarilyClosed": false,
    "placeId": null,
    "categories": [
      "Pharmacy"
    ],
    "fid": "0x87e4f70e893d58df:0x852fec271c53fe49",
    "cid": "9597148983672962633",
    "reviewsCount": 2,
    "imagesCount": 3,
    "imageCategories": [],
    "scrapedAt": "2025-06-22T07:53:27.039Z",
    "googleFoodUrl": null,
    "hotelAds": [],
    "openingHours": [
      {
        "day": "Monday",
        "hours": "7:30\u202fAM to 5\u202fPM"
      },
      {
        "day": "Tuesday",
        "hours": "7:30\u202fAM to 5\u202fPM"
      },
      {
        "day": "Wednesday",
        "hours": "7:30\u202fAM to 5\u202fPM"
      },
      {
        "day": "Thursday",
        "hours": "7:30\u202fAM to 5\u202fPM"
      },
      {
        "day": "Friday",
        "hours": "7:30\u202fAM to 5\u202fPM"
      },
      {
        "day": "Saturday",
        "hours": "7:30\u202fAM to 3\u202fPM"
      },
      {
        "day": "Sunday",
        "hours": "Closed"
      }
    ],
    "peopleAlsoSearch": [],
    "placesTags": [],
    "reviewsTags": [],
    "additionalInfo": {
      "Accessibility": [
        {
          "Wheelchair accessible entrance": true
        },
        {
          "Wheelchair accessible parking lot": true
        }
      ],
      "Payments": [
        {
          "Credit cards": true
        }
      ]
    },
    "gasPrices": [],
    "url": "https://www.google.com/maps/search/?api=1&query=UnityPoint%20Health%20-%20Cedar%20Rapids%20St.%20Luke's%20Pharmacy&query_place_id=ChIJ31g9iQ735IcRSf5THCfsL4U",
    "searchPageUrl": "https://www.google.com/maps/search/independent%20pharmacy%20Cedar%20Rapids%20IA/@56.01120730753697,-155.41210894270387,9z?hl=en",
    "searchString": "independent pharmacy Cedar Rapids IA",
    "language": "en",
    "rank": 7,
    "isAdvertisement": false,
    "imageUrl": "https://lh3.googleusercontent.com/p/AF1QipPU8XTEwgYPyJ-0IaV-G3uMJi7KwNCevXyMbwBb=w408-h408-k-no",
    "kgmid": "/g/11hfccsrtc",
    "classification": "hospital",
    "is_independent": false,
    "is_compounding": false,
    "confidence": 0.98,
    "source": "perplexity",
    "method": "llm"
  },
  {
    "title": "Hy-Vee Pharmacy",
    "price": "$$",
    "categoryName": "Pharmacy",
    "address": "2001 Blairs Ferry Rd NE, Cedar Rapids, IA 52402",
    "neighborhood": null,
    "street": "2001 Blairs Ferry Rd NE",
    "city": "Cedar Rapids",
    "postalCode": "52402",
    "state": "Iowa",
    "countryCode": "US",
    "website": "https://www.hy-vee.com/my-pharmacy/pharmacy-finder/cedar-rapids-drugstore-5-2001-blairs-ferry-rd-ne-cedar-rapids-ia/5bd7d41b-1c25-4c84-9e68-87c2b67e92bd?utm_source=google&utm_medium=organic&utm_campaign=gmb-listing",
    "phone": "(319) 393-0561",
    "phoneUnformatted": "+13193930561",
    "claimThisBusiness": false,
    "location": {
      "lat": 42.0342784,
      "lng": -91.6690619
    },
    "locatedIn": "Hy-Vee Wine & Spirits",
    "totalScore": 4.2,
    "permanentlyClosed": false,
    "temporarilyClosed": false,
    "placeId": "ChIJBeEZXfL65IcRHDutM5cIueI",
    "categories": [
      "Pharmacy",
      "Drug store",
      "Herbal medicine store",
      "Homeopathic pharmacy",
      "Local medical services",
      "Medical Center",
      "Organic drug store",
      "Pharmaceutical company",
      "Pharmaceutical lab",
      "Toiletries store"
    ],
    "fid": "0x87e4faf25d19e105:0xe2b9089733ad3b1c",
    "cid": "16337098568763259676",
    "reviewsCount": 180,
    "imagesCount": 60,
    "imageCategories": [],
    "scrapedAt": "2025-06-22T07:53:27.039Z",
    "googleFoodUrl": null,
    "hotelAds": [],
    "openingHours": [
      {
        "day": "Monday",
        "hours": "8\u202fAM to 8\u202fPM"
      },
      {
        "day": "Tuesday",
        "hours": "8\u202fAM to 8\u202fPM"
      },
      {
        "day": "Wednesday",
        "hours": "8\u202fAM to 8\u202fPM"
      },
      {
        "day": "Thursday",
        "hours": "8\u202fAM to 8\u202fPM"
      },
      {
        "day": "Friday",
        "hours": "8\u202fAM to 8\u202fPM"
      },
      {
        "day": "Saturday",
        "hours": "9\u202fAM to 5\u202fPM"
      },
      {
        "day": "Sunday",
        "hours": "9\u202fAM to 5\u202fPM"
      }
    ],
    "peopleAlsoSearch": [],
    "placesTags": [],
    "reviewsTags": [],
    "additionalInfo": {
      "Service options": [
        {
          "Delivery": true
        },
        {
          "Drive-through": true
        },
        {
          "In-store pickup": true
        },
        {
          "Onsite services": true
        },
        {
          "Same-day delivery": true
        }
      ],
      "Accessibility": [
        {
          "Wheelchair accessible entrance": true
        },
        {
          "Wheelchair accessible parking lot": true
        },
        {
          "Wheelchair accessible restroom": true
        },
        {
          "Wheelchair accessible seating": true
        }
      ],
      "Amenities": [
        {
          "Wi-Fi": true
        }
      ],
      "Planning": [
        {
          "Quick visit": true
        }
      ],
      "Payments": [
        {
          "Debit cards": true
        },
        {
          "NFC mobile payments": true
        },
        {
          "SNAP/EBT": true
        },
        {
          "Credit cards": true
        }
      ]
    },
    "gasPrices": [],
    "url": "https://www.google.com/maps/search/?api=1&query=Hy-Vee%20Pharmacy&query_place_id=ChIJBeEZXfL65IcRHDutM5cIueI",
    "searchPageUrl": "https://www.google.com/maps/search/independent%20pharmacy%20Cedar%20Rapids%20IA/@56.01120730753697,-155.41210894270387,9z?hl=en",
    "searchString": "independent pharmacy Cedar Rapids IA",
    "language": "en",
    "rank": 8,
    "isAdvertisement": false,
    "imageUrl": "https://lh3.googleusercontent.com/gps-cs-s/AC9h4npCdKjRmJqUaMIgHvIqyckc_V_5pyDnWbNL7sdZk7zoeVc9MYFKaLjz3PRQ-YLCSMtWeeIAF8FYADn6PnS6nZUszE1jGYBaB15vWAWTzL7Fd12KKD4kQjGhrPMnuHY7HuBo_-Mp=w408-h306-k-no",
    "kgmid": "/g/1tdml0nl",
    "classification": "chain",
    "is_independent": false,
    "confidence": 1.0,
    "source": "rule-based"
  },
  {
    "title": "Hy-Vee Pharmacy",
    "price": "$$",
    "categoryName": "Pharmacy",
    "address": "1843 Johnson Ave NW, Cedar Rapids, IA 52405",
    "neighborhood": null,
    "street": "1843 Johnson Ave NW",
    "city": "Cedar Rapids",
    "postalCode": "52405",
    "state": "Iowa",
    "countryCode": "US",
    "website": "https://www.hy-vee.com/my-pharmacy/pharmacy-finder/cedar-rapids-1-1843-johnson-ave-nw-cedar-rapids-ia/1054?utm_source=google&utm_medium=organic&utm_campaign=gmb-listing",
    "phone": "(319) 365-5343",
    "phoneUnformatted": "+13193655343",
    "claimThisBusiness": false,
    "location": {
      "lat": 41.9737879,
      "lng": -91.6984042
    },
    "totalScore": 4,
    "permanentlyClosed": false,
    "temporarilyClosed": false,
    "placeId": "ChIJhf0IqpP55IcRRay8GSlxt-c",
    "categories": [
      "Pharmacy",
      "Drug store",
      "Herbal medicine store",
      "Homeopathic pharmacy",
      "Local medical services",
      "Medical Center",
      "Organic drug store",
      "Pharmaceutical company",
      "Pharmaceutical lab",
      "Toiletries store"
    ],
    "fid": "0x87e4f993aa08fd85:0xe7b7712919bcac45",
    "cid": "16696938564838796357",
    "reviewsCount": 15,
    "imagesCount": 11,
    "imageCategories": [],
    "scrapedAt": "2025-06-22T07:53:27.039Z",
    "googleFoodUrl": null,
    "hotelAds": [],
    "openingHours": [
      {
        "day": "Monday",
        "hours": "8\u202fAM to 8\u202fPM"
      },
      {
        "day": "Tuesday",
        "hours": "8\u202fAM to 8\u202fPM"
      },
      {
        "day": "Wednesday",
        "hours": "8\u202fAM to 8\u202fPM"
      },
      {
        "day": "Thursday",
        "hours": "8\u202fAM to 8\u202fPM"
      },
      {
        "day": "Friday",
        "hours": "8\u202fAM to 8\u202fPM"
      },
      {
        "day": "Saturday",
        "hours": "9\u202fAM to 5\u202fPM"
      },
      {
        "day": "Sunday",
        "hours": "9\u202fAM to 5\u202fPM"
      }
    ],
    "peopleAlsoSearch": [],
    "placesTags": [],
    "reviewsTags": [],
    "additionalInfo": {
      "Service options": [
        {
          "Delivery": true
        },
        {
          "Drive-through": true
        },
        {
          "In-store pickup": true
        },
        {
          "In-store shopping": true
        },
        {
          "Same-day delivery": true
        }
      ],
      "Accessibility": [
        {
          "Wheelchair accessible entrance": true
        },
        {
          "Wheelchair accessible parking lot": true
        },
        {
          "Wheelchair accessible restroom": true
        },
        {
          "Wheelchair accessible seating": true
        }
      ],
      "Amenities": [
        {
          "Wi-Fi": true
        }
      ],
      "Planning": [
        {
          "Quick visit": true
        }
      ],
      "Payments": [
        {
          "Credit cards": true
        },
        {
          "Debit cards": true
        },
        {
          "Credit cards": true
        }
      ]
    },
    "gasPrices": [],
    "url": "https://www.google.com/maps/search/?api=1&query=Hy-Vee%20Pharmacy&query_place_id=ChIJhf0IqpP55IcRRay8GSlxt-c",
    "searchPageUrl": "https://www.google.com/maps/search/independent%20pharmacy%20Cedar%20Rapids%20IA/@56.01120730753697,-155.41210894270387,9z?hl=en",
    "searchString": "independent pharmacy Cedar Rapids IA",
    "language": "en",
    "rank": 9,
    "isAdvertisement": false,
    "imageUrl": "https://lh3.googleusercontent.com/p/AF1QipMVMTwJovNUp4c__GBdKef5Sb0iyLAT8HDKYUGA=w408-h408-k-no",
    "kgmid": "/g/11b674h3xs",
    "classification": "chain",
    "is_independent": false,
    "confidence": 1.0,
    "source": "rule-based"
  },
  {
    "title": "Lil' Drug Store Products",
    "price": null,
    "categoryName": "Pharmacy",
    "address": "9300 Earhart Ln SW, Cedar Rapids, IA 52404",
    "neighborhood": null,
    "street": "9300 Earhart Ln SW",
    "city": "Cedar Rapids",
    "postalCode": "52404",
    "state": "Iowa",
    "countryCode": "US",
    "website": "http://www.lildrugstore.com/",
    "phone": "(800) 553-5022",
    "phoneUnformatted": "+18005535022",
    "claimThisBusiness": false,
    "location": {
      "lat": 41.8860397,
      "lng": -91.6679382
    },
    "totalScore": 4.2,
    "permanentlyClosed": false,
    "temporarilyClosed": false,
    "placeId": null,
    "categories": [
      "Pharmacy",
      "Pharmaceutical company",
      "Beauty product supplier"
    ],
    "fid": "0x87e4f05c00648b1d:0x7addcb9281efbd12",
    "cid": "8853456272585899282",
    "reviewsCount": 10,
    "imagesCount": 8,
    "imageCategories": [],
    "scrapedAt": "2025-06-22T07:53:27.039Z",
    "googleFoodUrl": null,
    "hotelAds": [],
    "openingHours": [
      {
        "day": "Monday",
        "hours": "8:30\u202fAM to 5\u202fPM"
      },
      {
        "day": "Tuesday",
        "hours": "8:30\u202fAM to 5\u202fPM"
      },
      {
        "day": "Wednesday",
        "hours": "8:30\u202fAM to 5\u202fPM"
      },
      {
        "day": "Thursday",
        "hours": "8:30\u202fAM to 5\u202fPM"
      },
      {
        "day": "Friday",
        "hours": "8:30\u202fAM to 5\u202fPM"
      },
      {
        "day": "Saturday",
        "hours": "Closed"
      },
      {
        "day": "Sunday",
        "hours": "Closed"
      }
    ],
    "peopleAlsoSearch": [],
    "placesTags": [],
    "reviewsTags": [],
    "additionalInfo": {
      "Accessibility": [
        {
          "Wheelchair accessible entrance": true
        },
        {
          "Wheelchair accessible parking lot": true
        }
      ]
    },
    "gasPrices": [],
    "url": "https://www.google.com/maps/search/?api=1&query=Lil'%20Drug%20Store%20Products&query_place_id=ChIJHYtkAFzw5IcREr3vgZLL3Xo",
    "searchPageUrl": "https://www.google.com/maps/search/independent%20pharmacy%20Cedar%20Rapids%20IA/@56.01120730753697,-155.41210894270387,9z?hl=en",
    "searchString": "independent pharmacy Cedar Rapids IA",
    "language": "en",
    "rank": 10,
    "isAdvertisement": false,
    "imageUrl": "https://lh3.googleusercontent.com/gps-cs-s/AC9h4no1tGvE1C5vgsL7X1FcxcAkcu4wGr_IHgsSZHDMEmhyILxxvMsxkx2BaIpONQDTlK1kP8io4AgXPe5wj5HP-EgFBT_iauNIm9Tq9Vbglyt-8vCmai8tCp0Mga57SyTg3G7aFE4sHQ=w408-h544-k-no",
    "kgmid": "/g/1tctg4sq",
    "classification": "independent",
    "is_independent": true,
    "is_compounding": false,
    "confidence": 0.9,
    "source": "perplexity",
    "method": "llm"
  },
  {
    "title": "Hy-Vee Pharmacy",
    "price": "$$",
    "categoryName": "Pharmacy",
    "address": "4825 Johnson Ave NW, Cedar Rapids, IA 52405",
    "neighborhood": "Cedar Hills",
    "street": "4825 Johnson Ave NW",
    "city": "Cedar Rapids",
    "postalCode": "52405",
    "state": "Iowa",
    "countryCode": "US",
    "website": "https://www.hy-vee.com/my-pharmacy/pharmacy-finder/cedar-rapids-drugstore-4-4825-johnson-ave-nw-cedar-rapids-ia/5da07c86-5d75-497f-8d0f-f55486a48e41?utm_source=google&utm_medium=organic&utm_campaign=gmb-listing",
    "phone": "(319) 396-7419",
    "phoneUnformatted": "+13193967419",
    "claimThisBusiness": false,
    "location": {
      "lat": 41.9675484,
      "lng": -91.7327927
    },
    "locatedIn": "Hy-Vee Lawn & Garden",
    "totalScore": 4.3,
    "permanentlyClosed": false,
    "temporarilyClosed": false,
    "placeId": "ChIJke6s7Wr55IcRzMD5lociWnU",
    "categories": [
      "Pharmacy",
      "Drug store",
      "Herbal medicine store",
      "Homeopathic pharmacy",
      "Local medical services",
      "Medical Center",
      "Organic drug store",
      "Pharmaceutical company",
      "Pharmaceutical lab",
      "Toiletries store"
    ],
    "fid": "0x87e4f96aedacee91:0x755a228796f9c0cc",
    "cid": "8456109216090407116",
    "reviewsCount": 107,
    "imagesCount": 27,
    "imageCategories": [],
    "scrapedAt": "2025-06-22T07:53:27.039Z",
    "googleFoodUrl": null,
    "hotelAds": [],
    "openingHours": [
      {
        "day": "Monday",
        "hours": "8\u202fAM to 8\u202fPM"
      },
      {
        "day": "Tuesday",
        "hours": "8\u202fAM to 8\u202fPM"
      },
      {
        "day": "Wednesday",
        "hours": "8\u202fAM to 8\u202fPM"
      },
      {
        "day": "Thursday",
        "hours": "8\u202fAM to 8\u202fPM"
      },
      {
        "day": "Friday",
        "hours": "8\u202fAM to 8\u202fPM"
      },
      {
        "day": "Saturday",
        "hours": "8\u202fAM to 5\u202fPM"
      },
      {
        "day": "Sunday",
        "hours": "9\u202fAM to 5\u202fPM"
      }
    ],
    "additionalOpeningHours": {
      "Hy-Vee Lawn & Garden": [
        {
          "day": "Monday",
          "hours": "9\u202fAM\u20135\u202fPM"
        },
        {
          "day": "Tuesday",
          "hours": "9\u202fAM\u20135\u202fPM"
        },
        {
          "day": "Wednesday",
          "hours": "9\u202fAM\u20135\u202fPM"
        },
        {
          "day": "Thursday",
          "hours": "9\u202fAM\u20135\u202fPM"
        },
        {
          "day": "Friday",
          "hours": "9\u202fAM\u20135\u202fPM"
        },
        {
          "day": "Saturday",
          "hours": "9\u202fAM\u20135\u202fPM"
        },
        {
          "day": "Sunday",
          "hours": "9\u202fAM\u20135\u202fPM"
        }
      ]
    },
    "peopleAlsoSearch": [],
    "placesTags": [],
    "reviewsTags": [],
    "additionalInfo": {
      "Service options": [
        {
          "Delivery": true
        },
        {
          "Drive-through": true
        },
        {
          "In-store pickup": true
        },
        {
          "Same-day delivery": true
        }
      ],
      "Accessibility": [
        {
          "Wheelchair accessible entrance": true
        },
        {
          "Wheelchair accessible parking lot": true
        },
        {
          "Wheelchair accessible restroom": true
        },
        {
          "Wheelchair accessible seating": true
        }
      ],
      "Planning": [
        {
          "Quick visit": true
        }
      ],
      "Payments": [
        {
          "Debit cards": true
        },
        {
          "NFC mobile payments": true
        },
        {
          "SNAP/EBT": true
        },
        {
          "Credit cards": true
        }
      ]
    },
    "gasPrices": [],
    "url": "https://www.google.com/maps/search/?api=1&query=Hy-Vee%20Pharmacy&query_place_id=ChIJke6s7Wr55IcRzMD5lociWnU",
    "searchPageUrl": "https://www.google.com/maps/search/independent%20pharmacy%20Cedar%20Rapids%20IA/@56.01120730753697,-155.41210894270387,9z?hl=en",
    "searchString": "independent pharmacy Cedar Rapids IA",
    "language": "en",
    "rank": 11,
    "isAdvertisement": false,
    "imageUrl": "https://lh3.googleusercontent.com/gps-cs-s/AC9h4nqr50XeRnMlv9Ht8NrA9FH3oBkraIO36PVr1Lt61UaIncgpKZ13e76NJmfnmfrMs7eQ2jQvfUWVbcNpERayRtTlfe-v3c9bJj1_ZuNSNunziarW51JBPaURKnB5gqY3k-tBS_svJA=w408-h544-k-no",
    "kgmid": "/g/1tfyf3hh",
    "classification": "chain",
    "is_independent": false,
    "confidence": 1.0,
    "source": "rule-based"
  },
  {
    "title": "Tawnya R. Gardener, RPH",
    "price": null,
    "categoryName": "Pharmacy",
    "address": "1946 42nd St NE, Cedar Rapids, IA 52402",
    "neighborhood": null,
    "street": "1946 42nd St NE",
    "city": "Cedar Rapids",
    "postalCode": "52402",
    "state": "Iowa",
    "countryCode": "US",
    "phone": "(319) 393-3210",
    "phoneUnformatted": "+13193933210",
    "claimThisBusiness": true,
    "location": {
      "lat": 42.0219171,
      "lng": -91.6673208
    },
    "permanentlyClosed": false,
    "temporarilyClosed": false,
    "placeId": null,
    "categories": [
      "Pharmacy"
    ],
    "fid": "0x87e4f0860a1d90ed:0x59f90bfdcf796164",
    "cid": "6483226323312009572",
    "reviewsCount": 0,
    "imagesCount": 1,
    "imageCategories": [],
    "scrapedAt": "2025-06-22T07:53:27.039Z",
    "googleFoodUrl": null,
    "hotelAds": [],
    "openingHours": [
      {
        "day": "Monday",
        "hours": "9\u202fAM to 6\u202fPM"
      },
      {
        "day": "Tuesday",
        "hours": "9\u202fAM to 6\u202fPM"
      },
      {
        "day": "Wednesday",
        "hours": "9\u202fAM to 6\u202fPM"
      },
      {
        "day": "Thursday",
        "hours": "9\u202fAM to 6\u202fPM"
      },
      {
        "day": "Friday",
        "hours": "9\u202fAM to 6\u202fPM"
      },
      {
        "day": "Saturday",
        "hours": "9\u202fAM to 1\u202fPM"
      },
      {
        "day": "Sunday",
        "hours": "Closed"
      }
    ],
    "peopleAlsoSearch": [],
    "placesTags": [],
    "reviewsTags": [],
    "additionalInfo": {
      "Accessibility": [
        {
          "Wheelchair accessible entrance": true
        },
        {
          "Wheelchair accessible parking lot": true
        }
      ],
      "Planning": [
        {
          "Quick visit": true
        }
      ],
      "Payments": [
        {
          "Credit cards": true
        }
      ]
    },
    "gasPrices": [],
    "url": "https://www.google.com/maps/search/?api=1&query=Tawnya%20R.%20Gardener%2C%20RPH&query_place_id=ChIJ7ZAdCobw5IcRZGF5z_0L-Vk",
    "searchPageUrl": "https://www.google.com/maps/search/independent%20pharmacy%20Cedar%20Rapids%20IA/@56.01120730753697,-155.41210894270387,9z?hl=en",
    "searchString": "independent pharmacy Cedar Rapids IA",
    "language": "en",
    "rank": 12,
    "isAdvertisement": false,
    "imageUrl": "https://streetviewpixels-pa.googleapis.com/v1/thumbnail?panoid=ThMIhoqCA864tvhUIxePKA&cb_client=search.gws-prod.gps&w=408&h=240&yaw=351.1979&pitch=0&thumbfov=100",
    "kgmid": "/g/1tz96926",
    "classification": "independent",
    "is_independent": true,
    "is_compounding": false,
    "confidence": 0.85,
    "source": "perplexity",
    "method": "llm"
  },
  {
    "title": "Walgreens Pharmacy",
    "description": "Department of the Walgreens chain providing prescription medications & other health-related items.",
    "price": "$$",
    "categoryName": "Pharmacy",
    "address": "3325 16th Ave SW, Cedar Rapids, IA 52404",
    "neighborhood": null,
    "street": "3325 16th Ave SW",
    "city": "Cedar Rapids",
    "postalCode": "52404",
    "state": "Iowa",
    "countryCode": "US",
    "website": "https://www.walgreens.com/locator/walgreens-3325+16th+ave+sw-cedar+rapids-ia-52404/id=5042",
    "phone": "(319) 221-1498",
    "phoneUnformatted": "+13192211498",
    "claimThisBusiness": false,
    "location": {
      "lat": 41.9629027,
      "lng": -91.7153826
    },
    "totalScore": 3.7,
    "permanentlyClosed": false,
    "temporarilyClosed": false,
    "placeId": "ChIJVXfFcwr55IcRikzPK2GoOs8",
    "categories": [
      "Pharmacy"
    ],
    "fid": "0x87e4f90a73c57755:0xcf3aa8612bcf4c8a",
    "cid": "14932432649800600714",
    "reviewsCount": 28,
    "imagesCount": 4,
    "imageCategories": [],
    "scrapedAt": "2025-06-22T07:53:27.040Z",
    "googleFoodUrl": null,
    "hotelAds": [],
    "openingHours": [
      {
        "day": "Monday",
        "hours": "8\u202fAM to 10\u202fPM"
      },
      {
        "day": "Tuesday",
        "hours": "8\u202fAM to 10\u202fPM"
      },
      {
        "day": "Wednesday",
        "hours": "8\u202fAM to 10\u202fPM"
      },
      {
        "day": "Thursday",
        "hours": "8\u202fAM to 10\u202fPM"
      },
      {
        "day": "Friday",
        "hours": "8\u202fAM to 10\u202fPM"
      },
      {
        "day": "Saturday",
        "hours": "8\u202fAM to 10\u202fPM"
      },
      {
        "day": "Sunday",
        "hours": "8\u202fAM to 10\u202fPM"
      }
    ],
    "additionalOpeningHours": {
      "Drive through": [
        {
          "day": "Monday",
          "hours": "8\u202fAM\u201310\u202fPM"
        },
        {
          "day": "Tuesday",
          "hours": "8\u202fAM\u201310\u202fPM"
        },
        {
          "day": "Wednesday",
          "hours": "8\u202fAM\u201310\u202fPM"
        },
        {
          "day": "Thursday",
          "hours": "8\u202fAM\u201310\u202fPM"
        },
        {
          "day": "Friday",
          "hours": "8\u202fAM\u201310\u202fPM"
        },
        {
          "day": "Saturday",
          "hours": "8\u202fAM\u201310\u202fPM"
        },
        {
          "day": "Sunday",
          "hours": "8\u202fAM\u201310\u202fPM"
        }
      ]
    },
    "peopleAlsoSearch": [],
    "placesTags": [],
    "reviewsTags": [],
    "additionalInfo": {
      "Service options": [
        {
          "Curbside pickup": true
        },
        {
          "Drive-through": true
        },
        {
          "In-store pickup": true
        }
      ],
      "Accessibility": [
        {
          "Wheelchair accessible entrance": true
        },
        {
          "Wheelchair accessible parking lot": true
        }
      ],
      "Offerings": [
        {
          "Naloxone": true
        },
        {
          "Passport photos": true
        }
      ],
      "Planning": [
        {
          "Quick visit": true
        }
      ],
      "Payments": [
        {
          "Credit cards": true
        },
        {
          "Debit cards": true
        }
      ]
    },
    "gasPrices": [],
    "url": "https://www.google.com/maps/search/?api=1&query=Walgreens%20Pharmacy&query_place_id=ChIJVXfFcwr55IcRikzPK2GoOs8",
    "searchPageUrl": "https://www.google.com/maps/search/independent%20pharmacy%20Cedar%20Rapids%20IA/@56.01120730753697,-155.41210894270387,9z?hl=en",
    "searchString": "independent pharmacy Cedar Rapids IA",
    "language": "en",
    "rank": 13,
    "isAdvertisement": false,
    "imageUrl": "https://lh3.googleusercontent.com/p/AF1QipPMsv1dNnh_c4iMNyhv_2Wl_tOXyItegXfHyvqK=w525-h240-k-no",
    "kgmid": "/g/11g8cnr75s",
    "classification": "chain",
    "is_independent": false,
    "confidence": 1.0,
    "source": "rule-based"
  },
  {
    "title": "CVS Pharmacy",
    "price": null,
    "categoryName": "Pharmacy",
    "address": "3419 16th Ave SW, Cedar Rapids, IA 52404",
    "neighborhood": null,
    "street": "3419 16th Ave SW",
    "city": "Cedar Rapids",
    "postalCode": "52404",
    "state": "Iowa",
    "countryCode": "US",
    "website": "https://www.cvs.com/store-locator/cedar-rapids-ia-pharmacies/3419-16th-ave-sw-cedar-rapids-ia-52404/storeid=8443?WT.mc_id=LS_GOOGLE_RX_8443",
    "phone": "(319) 396-3262",
    "phoneUnformatted": "+13193963262",
    "claimThisBusiness": false,
    "location": {
      "lat": 41.9630637,
      "lng": -91.716976
    },
    "totalScore": 3.9,
    "permanentlyClosed": false,
    "temporarilyClosed": false,
    "placeId": "ChIJj7r0Tgr55IcRQtW2XGzFHXs",
    "categories": [
      "Pharmacy"
    ],
    "fid": "0x87e4f90a4ef4ba8f:0x7b1dc56c5cb6d542",
    "cid": "8871463910192371010",
    "reviewsCount": 17,
    "imagesCount": 9,
    "imageCategories": [],
    "scrapedAt": "2025-06-22T07:53:27.040Z",
    "googleFoodUrl": null,
    "hotelAds": [],
    "openingHours": [
      {
        "day": "Monday",
        "hours": "8:30\u202fAM to 1:30\u202fPM, 2 to 8\u202fPM"
      },
      {
        "day": "Tuesday",
        "hours": "8:30\u202fAM to 1:30\u202fPM, 2 to 8\u202fPM"
      },
      {
        "day": "Wednesday",
        "hours": "8:30\u202fAM to 1:30\u202fPM, 2 to 8\u202fPM"
      },
      {
        "day": "Thursday",
        "hours": "8:30\u202fAM to 1:30\u202fPM, 2 to 8\u202fPM"
      },
      {
        "day": "Friday",
        "hours": "8:30\u202fAM to 1:30\u202fPM, 2 to 8\u202fPM"
      },
      {
        "day": "Saturday",
        "hours": "9\u202fAM to 1:30\u202fPM, 2 to 6\u202fPM"
      },
      {
        "day": "Sunday",
        "hours": "10\u202fAM to 1:30\u202fPM, 2 to 6\u202fPM"
      }
    ],
    "peopleAlsoSearch": [],
    "placesTags": [],
    "reviewsTags": [],
    "additionalInfo": {
      "Service options": [
        {
          "Delivery": true
        },
        {
          "Drive-through": true
        },
        {
          "In-store shopping": true
        }
      ],
      "Accessibility": [
        {
          "Wheelchair accessible entrance": true
        },
        {
          "Wheelchair accessible parking lot": true
        }
      ],
      "Offerings": [
        {
          "Naloxone": true
        },
        {
          "Passport photos": true
        }
      ],
      "Crowd": [
        {
          "LGBTQ+ friendly": true
        },
        {
          "Transgender safespace": true
        }
      ],
      "Planning": [
        {
          "Quick visit": true
        }
      ],
      "Payments": [
        {
          "Credit cards": true
        },
        {
          "Debit cards": true
        },
        {
          "NFC mobile payments": true
        },
        {
          "Credit cards": true
        }
      ]
    },
    "gasPrices": [],
    "url": "https://www.google.com/maps/search/?api=1&query=CVS%20Pharmacy&query_place_id=ChIJj7r0Tgr55IcRQtW2XGzFHXs",
    "searchPageUrl": "https://www.google.com/maps/search/independent%20pharmacy%20Cedar%20Rapids%20IA/@56.01120730753697,-155.41210894270387,9z?hl=en",
    "searchString": "independent pharmacy Cedar Rapids IA",
    "language": "en",
    "rank": 14,
    "isAdvertisement": false,
    "imageUrl": "https://lh3.googleusercontent.com/p/AF1QipNbVccdiHB6VFrUybHK0EdJzX417Jo_2PezqOJd=w408-h272-k-no",
    "kgmid": "/g/11c46b9lxk",
    "classification": "chain",
    "is_independent": false,
    "confidence": 1.0,
    "source": "rule-based"
  },
  {
    "title": "Aim Healthcare",
    "price": null,
    "categoryName": "Pharmacy",
    "address": "617 8th Ave SE, Cedar Rapids, IA 52401",
    "neighborhood": "Oakhill Jackson",
    "street": "617 8th Ave SE",
    "city": "Cedar Rapids",
    "postalCode": "52401",
    "state": "Iowa",
    "countryCode": "US",
    "phone": "(319) 364-4008",
    "phoneUnformatted": "+13193644008",
    "claimThisBusiness": false,
    "location": {
      "lat": 41.9755204,
      "lng": -91.6573614
    },
    "totalScore": 3.2,
    "permanentlyClosed": false,
    "temporarilyClosed": false,
    "placeId": null,
    "categories": [
      "Pharmacy"
    ],
    "fid": "0x87e4f7478c353b1f:0x23613912785edf12",
    "cid": "2549381615560089362",
    "reviewsCount": 12,
    "imagesCount": 2,
    "imageCategories": [],
    "scrapedAt": "2025-06-22T07:53:27.040Z",
    "googleFoodUrl": null,
    "hotelAds": [],
    "openingHours": [
      {
        "day": "Monday",
        "hours": "8\u202fAM to 5\u202fPM"
      },
      {
        "day": "Tuesday",
        "hours": "8\u202fAM to 5\u202fPM"
      },
      {
        "day": "Wednesday",
        "hours": "8\u202fAM to 5\u202fPM"
      },
      {
        "day": "Thursday",
        "hours": "8\u202fAM to 4:30\u202fPM"
      },
      {
        "day": "Friday",
        "hours": "8\u202fAM to 4:30\u202fPM"
      },
      {
        "day": "Saturday",
        "hours": "Closed"
      },
      {
        "day": "Sunday",
        "hours": "Closed"
      }
    ],
    "peopleAlsoSearch": [],
    "placesTags": [],
    "reviewsTags": [],
    "additionalInfo": {
      "From the business": [
        {
          "Small business": true
        }
      ],
      "Service options": [
        {
          "Delivery": true
        },
        {
          "In-store pickup": true
        },
        {
          "Same-day delivery": true
        }
      ],
      "Accessibility": [
        {
          "Wheelchair accessible entrance": true
        },
        {
          "Wheelchair accessible parking lot": true
        }
      ],
      "Payments": [
        {
          "Credit cards": true
        }
      ]
    },
    "gasPrices": [],
    "url": "https://www.google.com/maps/search/?api=1&query=Aim%20Healthcare&query_place_id=ChIJHzs1jEf35IcREt9eeBI5YSM",
    "searchPageUrl": "https://www.google.com/maps/search/independent%20pharmacy%20Cedar%20Rapids%20IA/@56.01120730753697,-155.41210894270387,9z?hl=en",
    "searchString": "independent pharmacy Cedar Rapids IA",
    "language": "en",
    "rank": 15,
    "isAdvertisement": false,
    "imageUrl": "https://streetviewpixels-pa.googleapis.com/v1/thumbnail?panoid=RBqklSi_fXtoYvuTX6PSvQ&cb_client=search.gws-prod.gps&w=408&h=240&yaw=182.87326&pitch=0&thumbfov=100",
    "kgmid": "/g/1tdg8bwj",
    "classification": "independent",
    "is_independent": true,
    "is_compounding": false,
    "confidence": 0.85,
    "source": "perplexity",
    "method": "llm"
  },
  {
    "title": "CVS Pharmacy",
    "price": null,
    "categoryName": "Pharmacy",
    "address": "3400 Edgewood Rd SW, Cedar Rapids, IA 52404",
    "neighborhood": null,
    "street": "3400 Edgewood Rd SW",
    "city": "Cedar Rapids",
    "postalCode": "52404",
    "state": "Iowa",
    "countryCode": "US",
    "website": "https://www.cvs.com/store-locator/cedar-rapids-ia-pharmacies/3400-edgewood-rd-sw-cedar-rapids-ia-52404/storeid=16897?WT.mc_id=LS_GOOGLE_RX_16897",
    "phone": "(319) 396-4777",
    "phoneUnformatted": "+13193964777",
    "claimThisBusiness": false,
    "location": {
      "lat": 41.9443517,
      "lng": -91.7181886
    },
    "totalScore": 3,
    "permanentlyClosed": false,
    "temporarilyClosed": false,
    "placeId": "ChIJk_70oP_45IcRg2X4X32PxZs",
    "categories": [
      "Pharmacy"
    ],
    "fid": "0x87e4f8ffa0f4fe93:0x9bc58f7d5ff86583",
    "cid": "11224535414934627715",
    "reviewsCount": 30,
    "imagesCount": 6,
    "imageCategories": [],
    "scrapedAt": "2025-06-22T07:53:27.040Z",
    "googleFoodUrl": null,
    "hotelAds": [],
    "openingHours": [
      {
        "day": "Monday",
        "hours": "9\u202fAM to 1:30\u202fPM, 2 to 8\u202fPM"
      },
      {
        "day": "Tuesday",
        "hours": "9\u202fAM to 1:30\u202fPM, 2 to 8\u202fPM"
      },
      {
        "day": "Wednesday",
        "hours": "9\u202fAM to 1:30\u202fPM, 2 to 8\u202fPM"
      },
      {
        "day": "Thursday",
        "hours": "9\u202fAM to 1:30\u202fPM, 2 to 8\u202fPM"
      },
      {
        "day": "Friday",
        "hours": "9\u202fAM to 1:30\u202fPM, 2 to 8\u202fPM"
      },
      {
        "day": "Saturday",
        "hours": "9\u202fAM to 1:30\u202fPM, 2 to 6\u202fPM"
      },
      {
        "day": "Sunday",
        "hours": "9\u202fAM to 1:30\u202fPM, 2 to 6\u202fPM"
      }
    ],
    "peopleAlsoSearch": [],
    "placesTags": [],
    "reviewsTags": [],
    "additionalInfo": {
      "Service options": [
        {
          "Delivery": true
        },
        {
          "In-store shopping": true
        },
        {
          "Onsite services": true
        }
      ],
      "Accessibility": [
        {
          "Wheelchair accessible entrance": true
        },
        {
          "Wheelchair accessible parking lot": true
        }
      ],
      "Offerings": [
        {
          "Naloxone": true
        }
      ],
      "Amenities": [
        {
          "Wi-Fi": true
        }
      ],
      "Crowd": [
        {
          "LGBTQ+ friendly": true
        },
        {
          "Transgender safespace": true
        }
      ],
      "Planning": [
        {
          "Quick visit": true
        }
      ],
      "Payments": [
        {
          "Credit cards": true
        },
        {
          "Debit cards": true
        },
        {
          "Credit cards": true
        }
      ]
    },
    "gasPrices": [],
    "url": "https://www.google.com/maps/search/?api=1&query=CVS%20Pharmacy&query_place_id=ChIJk_70oP_45IcRg2X4X32PxZs",
    "searchPageUrl": "https://www.google.com/maps/search/independent%20pharmacy%20Cedar%20Rapids%20IA/@56.01120730753697,-155.41210894270387,9z?hl=en",
    "searchString": "independent pharmacy Cedar Rapids IA",
    "language": "en",
    "rank": 16,
    "isAdvertisement": false,
    "imageUrl": "https://lh3.googleusercontent.com/p/AF1QipNYOBTyvswq1yOqHq9RgvgTqsDO_JoAYA5ec5_Z=w408-h272-k-no",
    "kgmid": "/g/1tdblk2t",
    "classification": "chain",
    "is_independent": false,
    "confidence": 1.0,
    "source": "rule-based"
  },
  {
    "title": "Blairs Ferry Family Pharmacy",
    "price": null,
    "categoryName": "Pharmacy",
    "address": "1790 Blairs Ferry Rd, Hiawatha, IA 52233",
    "neighborhood": null,
    "street": "1790 Blairs Ferry Rd",
    "city": "Hiawatha",
    "postalCode": "52233",
    "state": "Iowa",
    "countryCode": "US",
    "website": "https://www.blairsferrypharmacy.com/",
    "phone": "(319) 393-4944",
    "phoneUnformatted": "+13193934944",
    "claimThisBusiness": false,
    "location": {
      "lat": 42.0352636,
      "lng": -91.6967178
    },
    "totalScore": 5,
    "permanentlyClosed": false,
    "temporarilyClosed": false,
    "placeId": null,
    "categories": [
      "Pharmacy",
      "Drug store"
    ],
    "fid": "0x87e4faf2bdf572bd:0xfec5d656afdde407",
    "cid": "18358315123851781127",
    "reviewsCount": 10,
    "imagesCount": 1,
    "imageCategories": [],
    "scrapedAt": "2025-06-22T07:53:27.040Z",
    "googleFoodUrl": null,
    "hotelAds": [],
    "openingHours": [
      {
        "day": "Monday",
        "hours": "9\u202fAM to 5:30\u202fPM"
      },
      {
        "day": "Tuesday",
        "hours": "9\u202fAM to 5:30\u202fPM"
      },
      {
        "day": "Wednesday",
        "hours": "9\u202fAM to 5:30\u202fPM"
      },
      {
        "day": "Thursday",
        "hours": "9\u202fAM to 5:30\u202fPM"
      },
      {
        "day": "Friday",
        "hours": "9\u202fAM to 5:30\u202fPM"
      },
      {
        "day": "Saturday",
        "hours": "Closed"
      },
      {
        "day": "Sunday",
        "hours": "Closed"
      }
    ],
    "peopleAlsoSearch": [],
    "placesTags": [],
    "reviewsTags": [],
    "additionalInfo": {
      "From the business": [
        {
          "Small business": true
        }
      ],
      "Service options": [
        {
          "Curbside pickup": true
        },
        {
          "Delivery": true
        },
        {
          "In-store pickup": true
        },
        {
          "In-store shopping": true
        },
        {
          "Onsite services": true
        },
        {
          "Same-day delivery": true
        },
        {
          "English": true
        }
      ],
      "Accessibility": [
        {
          "Wheelchair accessible entrance": true
        },
        {
          "Wheelchair accessible parking lot": true
        },
        {
          "Wheelchair accessible restroom": true
        },
        {
          "Wheelchair accessible seating": true
        }
      ],
      "Planning": [
        {
          "Quick visit": true
        }
      ],
      "Payments": [
        {
          "Checks": true
        },
        {
          "Credit cards": true
        },
        {
          "Debit cards": true
        },
        {
          "NFC mobile payments": true
        },
        {
          "Credit cards": true
        }
      ]
    },
    "gasPrices": [],
    "url": "https://www.google.com/maps/search/?api=1&query=Blairs%20Ferry%20Family%20Pharmacy&query_place_id=ChIJvXL1vfL65IcRB-Tdr1bWxf4",
    "searchPageUrl": "https://www.google.com/maps/search/independent%20pharmacy%20Cedar%20Rapids%20IA/@56.01120730753697,-155.41210894270387,9z?hl=en",
    "searchString": "independent pharmacy Cedar Rapids IA",
    "language": "en",
    "rank": 17,
    "isAdvertisement": false,
    "imageUrl": "https://streetviewpixels-pa.googleapis.com/v1/thumbnail?panoid=jEUT5Z6pfovhk3VvnsMuIw&cb_client=search.gws-prod.gps&w=408&h=240&yaw=353.52774&pitch=0&thumbfov=100",
    "kgmid": "/g/1tfpkcb4",
    "classification": "independent",
    "is_independent": true,
    "is_compounding": false,
    "confidence": 0.9,
    "source": "perplexity",
    "method": "llm"
  },
  {
    "title": "Jillien F. Hankewich, Bscpharm",
    "price": null,
    "categoryName": "Pharmacy",
    "address": "701 10th St SE, Cedar Rapids, IA 52403",
    "neighborhood": "Oakhill Jackson",
    "street": "701 10th St SE",
    "city": "Cedar Rapids",
    "postalCode": "52403",
    "state": "Iowa",
    "countryCode": "US",
    "phone": "(319) 398-6060",
    "phoneUnformatted": "+13193986060",
    "claimThisBusiness": true,
    "location": {
      "lat": 41.9790824,
      "lng": -91.6570171
    },
    "permanentlyClosed": false,
    "temporarilyClosed": false,
    "placeId": null,
    "categories": [
      "Pharmacy"
    ],
    "fid": "0x87e4f737ca2900d5:0x1a2c8b04831aca19",
    "cid": "1886035195457096217",
    "reviewsCount": 0,
    "imagesCount": 1,
    "imageCategories": [],
    "scrapedAt": "2025-06-22T07:53:27.040Z",
    "googleFoodUrl": null,
    "hotelAds": [],
    "openingHours": [
      {
        "day": "Monday",
        "hours": "9\u202fAM to 5:30\u202fPM"
      },
      {
        "day": "Tuesday",
        "hours": "9\u202fAM to 5:30\u202fPM"
      },
      {
        "day": "Wednesday",
        "hours": "9\u202fAM to 5:30\u202fPM"
      },
      {
        "day": "Thursday",
        "hours": "9\u202fAM to 5:30\u202fPM"
      },
      {
        "day": "Friday",
        "hours": "9\u202fAM to 5:30\u202fPM"
      },
      {
        "day": "Saturday",
        "hours": "10\u202fAM to 12\u202fPM"
      },
      {
        "day": "Sunday",
        "hours": "Closed"
      }
    ],
    "peopleAlsoSearch": [],
    "placesTags": [],
    "reviewsTags": [],
    "additionalInfo": {
      "Accessibility": [
        {
          "Wheelchair accessible entrance": true
        },
        {
          "Wheelchair accessible parking lot": true
        }
      ]
    },
    "gasPrices": [],
    "url": "https://www.google.com/maps/search/?api=1&query=Jillien%20F.%20Hankewich%2C%20Bscpharm&query_place_id=ChIJ1QApyjf35IcRGcoagwSLLBo",
    "searchPageUrl": "https://www.google.com/maps/search/independent%20pharmacy%20Cedar%20Rapids%20IA/@56.01120730753697,-155.41210894270387,9z?hl=en",
    "searchString": "independent pharmacy Cedar Rapids IA",
    "language": "en",
    "rank": 18,
    "isAdvertisement": false,
    "imageUrl": "https://streetviewpixels-pa.googleapis.com/v1/thumbnail?panoid=pjKaRoRpLF48Xc3aAWZRQg&cb_client=search.gws-prod.gps&w=408&h=240&yaw=141.13902&pitch=0&thumbfov=100",
    "kgmid": "/g/1tfrsgqv",
    "classification": "independent",
    "is_independent": true,
    "is_compounding": false,
    "confidence": 0.85,
    "source": "perplexity",
    "method": "llm"
  },
  {
    "title": "Hy-Vee Pharmacy",
    "price": "\u20b9\u20b9",
    "categoryName": "Pharmacy",
    "address": "20 Wilson Ave SW, Cedar Rapids, IA 52404, United States",
    "neighborhood": "Southwest Area",
    "street": "20 Wilson Ave SW",
    "city": "Cedar Rapids",
    "postalCode": "52404",
    "state": "Iowa",
    "countryCode": "US",
    "website": "https://www.hy-vee.com/my-pharmacy/pharmacy-finder/cedar-rapids-3-20-wilson-ave-sw-cedar-rapids-ia/1056?utm_source=google&utm_medium=organic&utm_campaign=gmb-listing",
    "phone": "+1 319-362-3649",
    "phoneUnformatted": "+13193623649",
    "claimThisBusiness": false,
    "location": {
      "lat": 41.9572103,
      "lng": -91.6584776
    },
    "totalScore": 4.1,
    "permanentlyClosed": false,
    "temporarilyClosed": false,
    "placeId": "ChIJ7WgVnXL35IcRcKYctzbAH0s",
    "categories": [
      "Pharmacy",
      "Drug store",
      "Herbal medicine store",
      "Homeopathic pharmacy",
      "Local medical services",
      "Medical Center",
      "Organic drug store",
      "Pharmaceutical company",
      "Pharmaceutical lab",
      "Toiletries Store"
    ],
    "fid": "0x87e4f7729d1568ed:0x4b1fc036b71ca670",
    "cid": "5413256618355500656",
    "reviewsCount": 116,
    "imagesCount": 13,
    "imageCategories": [],
    "scrapedAt": "2025-06-22T07:53:27.197Z",
    "googleFoodUrl": null,
    "hotelAds": [],
    "openingHours": [
      {
        "day": "Monday",
        "hours": "8\u202fAM to 8\u202fPM"
      },
      {
        "day": "Tuesday",
        "hours": "8\u202fAM to 8\u202fPM"
      },
      {
        "day": "Wednesday",
        "hours": "8\u202fAM to 8\u202fPM"
      },
      {
        "day": "Thursday",
        "hours": "8\u202fAM to 8\u202fPM"
      },
      {
        "day": "Friday",
        "hours": "8\u202fAM to 8\u202fPM"
      },
      {
        "day": "Saturday",
        "hours": "9\u202fAM to 5\u202fPM"
      },
      {
        "day": "Sunday",
        "hours": "9\u202fAM to 5\u202fPM"
      }
    ],
    "peopleAlsoSearch": [],
    "placesTags": [],
    "reviewsTags": [],
    "additionalInfo": {
      "Service options": [
        {
          "Delivery": true
        },
        {
          "Drive-through": true
        },
        {
          "In-store pick-up": true
        },
        {
          "In-store shopping": true
        },
        {
          "Same-day delivery": true
        }
      ],
      "Accessibility": [
        {
          "Wheelchair-accessible car park": true
        },
        {
          "Wheelchair-accessible entrance": true
        },
        {
          "Wheelchair-accessible seating": true
        },
        {
          "Wheelchair-accessible toilet": true
        }
      ],
      "Amenities": [
        {
          "Wi-Fi": true
        }
      ],
      "Planning": [
        {
          "Quick visit": true
        }
      ],
      "Payments": [
        {
          "Credit cards": true
        },
        {
          "Debit cards": true
        },
        {
          "NFC mobile payments": true
        },
        {
          "Credit cards": true
        }
      ]
    },
    "gasPrices": [],
    "url": "https://www.google.com/maps/search/?api=1&query=Hy-Vee%20Pharmacy&query_place_id=ChIJ7WgVnXL35IcRcKYctzbAH0s",
    "searchPageUrl": "https://www.google.com/maps/search/independent%20pharmacy%20Cedar%20Rapids%20IA/@24.755066651789555,-83.14804345214435,12z?hl=en",
    "searchString": "independent pharmacy Cedar Rapids IA",
    "language": "en",
    "rank": 10,
    "isAdvertisement": false,
    "imageUrl": "https://lh3.googleusercontent.com/p/AF1QipOksIK0AOLdDR8jFKfeMdPfRskBGS42RKhsVG-0=w408-h408-k-no",
    "kgmid": "/g/11btxjqp86",
    "classification": "chain",
    "is_independent": false,
    "confidence": 1.0,
    "source": "rule-based"
  }
]