[
  {
    "title": "Nation's Medicines",
    "price": null,
    "categoryName": "Pharmacy",
    "address": "4849 Pollack Ave, Evansville, IN 47715",
    "neighborhood": null,
    "street": "4849 Pollack Ave",
    "city": "Evansville",
    "postalCode": "47715",
    "state": "Indiana",
    "countryCode": "US",
    "website": "https://nationsmeds.com/",
    "phone": "(812) 962-4664",
    "phoneUnformatted": "+18129624664",
    "claimThisBusiness": false,
    "location": {
      "lat": 37.9478463,
      "lng": -87.4921098
    },
    "totalScore": 4.3,
    "permanentlyClosed": false,
    "temporarilyClosed": false,
    "placeId": null,
    "categories": [
      "Pharmacy"
    ],
    "fid": "0x886fd4d2363f01bd:0xfdf3b5ace65ec5f6",
    "cid": "18299169465140430326",
    "reviewsCount": 48,
    "imagesCount": 10,
    "imageCategories": [],
    "scrapedAt": "2025-06-22T05:15:22.121Z",
    "googleFoodUrl": null,
    "hotelAds": [],
    "openingHours": [
      {
        "day": "Monday",
        "hours": "9:30\u202fAM to 6\u202fPM"
      },
      {
        "day": "Tuesday",
        "hours": "9:30\u202fAM to 6\u202fPM"
      },
      {
        "day": "Wednesday",
        "hours": "9:30\u202fAM to 6\u202fPM"
      },
      {
        "day": "Thursday",
        "hours": "9:30\u202fAM to 6\u202fPM"
      },
      {
        "day": "Friday",
        "hours": "9:30\u202fAM to 6\u202fPM"
      },
      {
        "day": "Saturday",
        "hours": "Closed"
      },
      {
        "day": "Sunday",
        "hours": "Closed"
      }
    ],
    "peopleAlsoSearch": [],
    "placesTags": [],
    "reviewsTags": [],
    "additionalInfo": {
      "From the business": [
        {
          "Small business": true
        }
      ],
      "Service options": [
        {
          "Delivery": true
        },
        {
          "In-store pickup": true
        },
        {
          "Same-day delivery": true
        }
      ],
      "Accessibility": [
        {
          "Wheelchair accessible entrance": true
        },
        {
          "Wheelchair accessible parking lot": true
        }
      ],
      "Planning": [
        {
          "Quick visit": true
        }
      ],
      "Payments": [
        {
          "Credit cards": true
        },
        {
          "Debit cards": true
        },
        {
          "NFC mobile payments": true
        },
        {
          "Credit cards": true
        }
      ]
    },
    "gasPrices": [],
    "url": "https://www.google.com/maps/search/?api=1&query=Nation's%20Medicines&query_place_id=ChIJvQE_NtLUb4gR9sVe5qy18_0",
    "searchPageUrl": "https://www.google.com/maps/search/independent%20pharmacy%20Evansville%20IN/@58.095490516641576,-134.6977272005368,9z?hl=en",
    "searchString": "independent pharmacy Evansville IN",
    "language": "en",
    "rank": 1,
    "isAdvertisement": false,
    "imageUrl": "https://lh3.googleusercontent.com/gps-cs-s/AC9h4npT3gVmwTwPfwm2kAvV6ji9qsZqrzZqJesUMd61tDP2dY85VyJorSJxzjMmcgwtROMLz8P_ue2dPwzXudvXaBVbOa_Af-aIRrHJS_6YOo3vNpI52NvAsa0qlfOSJaJDp5M5FTI=w408-h499-k-no",
    "kgmid": "/g/1tjz8pyy",
    "classification": "independent",
    "is_independent": true,
    "is_compounding": false,
    "confidence": 0.9,
    "source": "perplexity",
    "method": "llm"
  },
  {
    "title": "Pauls Pharmacy",
    "price": null,
    "categoryName": "Pharmacy",
    "address": "3408 N First Ave, Evansville, IN 47710",
    "neighborhood": null,
    "street": "3408 N First Ave",
    "city": "Evansville",
    "postalCode": "47710",
    "state": "Indiana",
    "countryCode": "US",
    "website": "https://www.paulsrx.com/locations/pauls-north-location",
    "phone": "(812) 422-8255",
    "phoneUnformatted": "+18124228255",
    "claimThisBusiness": false,
    "location": {
      "lat": 38.0103527,
      "lng": -87.5747851
    },
    "totalScore": 4.6,
    "permanentlyClosed": false,
    "temporarilyClosed": false,
    "placeId": null,
    "categories": [
      "Pharmacy"
    ],
    "fid": "0x8871d5da0b4b1eed:0xc5890b8b57b5b35b",
    "cid": "14233920790381048667",
    "reviewsCount": 29,
    "imagesCount": 6,
    "imageCategories": [],
    "scrapedAt": "2025-06-22T05:15:22.122Z",
    "googleFoodUrl": null,
    "hotelAds": [],
    "openingHours": [
      {
        "day": "Monday",
        "hours": "9\u202fAM to 6\u202fPM"
      },
      {
        "day": "Tuesday",
        "hours": "9\u202fAM to 6\u202fPM"
      },
      {
        "day": "Wednesday",
        "hours": "9\u202fAM to 6\u202fPM"
      },
      {
        "day": "Thursday",
        "hours": "9\u202fAM to 6\u202fPM"
      },
      {
        "day": "Friday",
        "hours": "9\u202fAM to 6\u202fPM"
      },
      {
        "day": "Saturday",
        "hours": "9\u202fAM to 1\u202fPM"
      },
      {
        "day": "Sunday",
        "hours": "Closed"
      }
    ],
    "peopleAlsoSearch": [],
    "placesTags": [],
    "reviewsTags": [],
    "additionalInfo": {
      "Service options": [
        {
          "Drive-through": true
        },
        {
          "In-store pickup": true
        },
        {
          "In-store shopping": true
        },
        {
          "Onsite services": true
        }
      ],
      "Accessibility": [
        {
          "Wheelchair accessible entrance": true
        },
        {
          "Wheelchair accessible parking lot": true
        }
      ],
      "Planning": [
        {
          "Quick visit": true
        }
      ],
      "Payments": [
        {
          "Credit cards": true
        },
        {
          "Debit cards": true
        },
        {
          "NFC mobile payments": true
        },
        {
          "Credit cards": true
        }
      ]
    },
    "gasPrices": [],
    "url": "https://www.google.com/maps/search/?api=1&query=Pauls%20Pharmacy&query_place_id=ChIJ7R5LC9rVcYgRW7O1V4sLicU",
    "searchPageUrl": "https://www.google.com/maps/search/independent%20pharmacy%20Evansville%20IN/@58.095490516641576,-134.6977272005368,9z?hl=en",
    "searchString": "independent pharmacy Evansville IN",
    "language": "en",
    "rank": 2,
    "isAdvertisement": false,
    "imageUrl": "https://lh3.googleusercontent.com/p/AF1QipNrUGnXRc1kml4kgHUElhcUrGCfJnhIo6KWfHaC=w426-h240-k-no",
    "kgmid": "/g/11rylmjznc",
    "classification": "independent",
    "is_independent": true,
    "is_compounding": false,
    "confidence": 0.9,
    "source": "perplexity",
    "method": "llm"
  },
  {
    "title": "Genoa Healthcare",
    "price": null,
    "categoryName": "Pharmacy",
    "address": "415 Mulberry St, Evansville, IN 47713",
    "neighborhood": "Blackford's Grove",
    "street": "415 Mulberry St",
    "city": "Evansville",
    "postalCode": "47713",
    "state": "Indiana",
    "countryCode": "US",
    "website": "http://www.genoahealthcare.com/",
    "phone": "(812) 422-3448",
    "phoneUnformatted": "+18124223448",
    "claimThisBusiness": false,
    "location": {
      "lat": 37.9667527,
      "lng": -87.5659826
    },
    "totalScore": 5,
    "permanentlyClosed": false,
    "temporarilyClosed": false,
    "placeId": null,
    "categories": [
      "Pharmacy"
    ],
    "fid": "0x8871d53affdfd2d7:0x4c8f4cfd13bccb00",
    "cid": "5516712718393723648",
    "reviewsCount": 31,
    "imagesCount": 19,
    "imageCategories": [],
    "scrapedAt": "2025-06-22T05:15:22.123Z",
    "googleFoodUrl": null,
    "hotelAds": [],
    "openingHours": [
      {
        "day": "Monday",
        "hours": "8\u202fAM to 5\u202fPM"
      },
      {
        "day": "Tuesday",
        "hours": "8\u202fAM to 5\u202fPM"
      },
      {
        "day": "Wednesday",
        "hours": "8\u202fAM to 5\u202fPM"
      },
      {
        "day": "Thursday",
        "hours": "8\u202fAM to 5\u202fPM"
      },
      {
        "day": "Friday",
        "hours": "8\u202fAM to 5\u202fPM"
      },
      {
        "day": "Saturday",
        "hours": "Closed"
      },
      {
        "day": "Sunday",
        "hours": "Closed"
      }
    ],
    "peopleAlsoSearch": [],
    "placesTags": [],
    "reviewsTags": [],
    "additionalInfo": {
      "Service options": [
        {
          "Delivery": true
        }
      ],
      "Accessibility": [
        {
          "Wheelchair accessible entrance": true
        },
        {
          "Wheelchair accessible parking lot": true
        }
      ],
      "Payments": [
        {
          "Credit cards": true
        },
        {
          "Debit cards": true
        },
        {
          "Credit cards": true
        }
      ]
    },
    "gasPrices": [],
    "url": "https://www.google.com/maps/search/?api=1&query=Genoa%20Healthcare&query_place_id=ChIJ19Lf_zrVcYgRAMu8E_1Mj0w",
    "searchPageUrl": "https://www.google.com/maps/search/independent%20pharmacy%20Evansville%20IN/@58.095490516641576,-134.6977272005368,9z?hl=en",
    "searchString": "independent pharmacy Evansville IN",
    "language": "en",
    "rank": 3,
    "isAdvertisement": false,
    "imageUrl": "https://lh3.googleusercontent.com/gps-cs-s/AC9h4nrFdU_k-jk9uk7Jc-QLK7dH-xmdmfKJWoL6Fdh9UF--M63HryrzOlH3BCUbVyI0TUkfaLgzL2uFAreJVkFbrQT91_GPegmkoO55rQ3FIHyh3MTebZnr9UziBy0zh771bUuwSEhi=w408-h725-k-no",
    "kgmid": "/g/1thd7fbs",
    "classification": "chain",
    "is_independent": false,
    "is_compounding": false,
    "confidence": 0.95,
    "source": "perplexity",
    "method": "llm"
  },
  {
    "title": "Paul's Pharmacy",
    "price": null,
    "categoryName": "Pharmacy",
    "address": "2345 W Franklin St, Evansville, IN 47712",
    "neighborhood": "Lamasco",
    "street": "2345 W Franklin St",
    "city": "Evansville",
    "postalCode": "47712",
    "state": "Indiana",
    "countryCode": "US",
    "website": "https://www.paulsrx.com/",
    "phone": "(812) 425-4364",
    "phoneUnformatted": "+18124254364",
    "claimThisBusiness": false,
    "location": {
      "lat": 37.9809181,
      "lng": -87.6001608
    },
    "totalScore": 4.5,
    "permanentlyClosed": false,
    "temporarilyClosed": false,
    "placeId": null,
    "categories": [
      "Pharmacy",
      "Drug store"
    ],
    "fid": "0x8871d4935fda2861:0x7fd286ea25796aac",
    "cid": "9210572528135269036",
    "reviewsCount": 115,
    "imagesCount": 11,
    "imageCategories": [],
    "scrapedAt": "2025-06-22T05:15:22.123Z",
    "googleFoodUrl": null,
    "hotelAds": [],
    "openingHours": [
      {
        "day": "Monday",
        "hours": "9\u202fAM to 6\u202fPM"
      },
      {
        "day": "Tuesday",
        "hours": "9\u202fAM to 6\u202fPM"
      },
      {
        "day": "Wednesday",
        "hours": "9\u202fAM to 6\u202fPM"
      },
      {
        "day": "Thursday",
        "hours": "9\u202fAM to 6\u202fPM"
      },
      {
        "day": "Friday",
        "hours": "9\u202fAM to 6\u202fPM"
      },
      {
        "day": "Saturday",
        "hours": "9\u202fAM to 1\u202fPM"
      },
      {
        "day": "Sunday",
        "hours": "Closed"
      }
    ],
    "peopleAlsoSearch": [],
    "placesTags": [],
    "reviewsTags": [],
    "additionalInfo": {
      "Service options": [
        {
          "Delivery": true
        },
        {
          "Drive-through": true
        },
        {
          "In-store pickup": true
        },
        {
          "In-store shopping": true
        },
        {
          "Onsite services": true
        },
        {
          "Same-day delivery": true
        }
      ],
      "Accessibility": [
        {
          "Wheelchair accessible entrance": true
        },
        {
          "Wheelchair accessible parking lot": true
        }
      ],
      "Planning": [
        {
          "Quick visit": true
        }
      ],
      "Payments": [
        {
          "Credit cards": true
        },
        {
          "Debit cards": true
        },
        {
          "NFC mobile payments": true
        },
        {
          "Credit cards": true
        }
      ]
    },
    "gasPrices": [],
    "url": "https://www.google.com/maps/search/?api=1&query=Paul's%20Pharmacy&query_place_id=ChIJYSjaX5PUcYgRrGp5JeqG0n8",
    "searchPageUrl": "https://www.google.com/maps/search/independent%20pharmacy%20Evansville%20IN/@58.095490516641576,-134.6977272005368,9z?hl=en",
    "searchString": "independent pharmacy Evansville IN",
    "language": "en",
    "rank": 4,
    "isAdvertisement": false,
    "imageUrl": "https://lh3.googleusercontent.com/gps-cs-s/AC9h4npf2dc2hpRduyc5R6IlCc5gF1TaItbT3GGT5N6lcf0gn6wFrsK9mwiFkYaXFhS2Op7tyrpRHhQCW31bP3THRvDny4XrDgRj-WYVvPCA7kok36IYetTF4Bd0FHWkPNPD98bukrGPOg=w426-h240-k-no",
    "kgmid": "/g/1tf5ldbf",
    "classification": "independent",
    "is_independent": true,
    "is_compounding": false,
    "confidence": 0.9,
    "source": "perplexity",
    "method": "llm"
  },
  {
    "title": "Ascension Rx - Evansville Pharmacy",
    "price": null,
    "categoryName": "Pharmacy",
    "address": "801 St Mary's Dr, Evansville, IN 47714",
    "neighborhood": null,
    "street": "801 St Mary's Dr",
    "city": "Evansville",
    "postalCode": "47714",
    "state": "Indiana",
    "countryCode": "US",
    "website": "https://healthcare.ascension.org/locations/indiana/inasc/evansville-ascension-st-vincent-evansville/Departments/medical-office-bldg/pharmacy?utm_campaign=gmb&utm_medium=organic&utm_source=local",
    "phone": "(812) 485-4365",
    "phoneUnformatted": "+18124854365",
    "claimThisBusiness": false,
    "location": {
      "lat": 37.9644044,
      "lng": -87.5057691
    },
    "totalScore": 5,
    "permanentlyClosed": false,
    "temporarilyClosed": false,
    "placeId": "ChIJV3i7FmYrbogReYjLGkXEv1A",
    "categories": [
      "Pharmacy"
    ],
    "fid": "0x886e2b6616bb7857:0x50bfc4451acb8879",
    "cid": "5818585044667304057",
    "reviewsCount": 13,
    "imagesCount": 13,
    "imageCategories": [],
    "scrapedAt": "2025-06-22T05:15:22.123Z",
    "googleFoodUrl": null,
    "hotelAds": [],
    "openingHours": [
      {
        "day": "Monday",
        "hours": "9\u202fAM to 5\u202fPM"
      },
      {
        "day": "Tuesday",
        "hours": "7\u202fAM to 5\u202fPM"
      },
      {
        "day": "Wednesday",
        "hours": "9\u202fAM to 5\u202fPM"
      },
      {
        "day": "Thursday",
        "hours": "9\u202fAM to 5\u202fPM"
      },
      {
        "day": "Friday",
        "hours": "7\u202fAM to 5\u202fPM"
      },
      {
        "day": "Saturday",
        "hours": "9\u202fAM to 1\u202fPM"
      },
      {
        "day": "Sunday",
        "hours": "Closed"
      }
    ],
    "peopleAlsoSearch": [],
    "placesTags": [],
    "reviewsTags": [],
    "additionalInfo": {
      "Service options": [
        {
          "Onsite services": true
        }
      ],
      "Accessibility": [
        {
          "Wheelchair accessible entrance": true
        },
        {
          "Wheelchair accessible parking lot": true
        }
      ],
      "Payments": [
        {
          "Credit cards": true
        }
      ]
    },
    "gasPrices": [],
    "url": "https://www.google.com/maps/search/?api=1&query=Ascension%20Rx%20-%20Evansville%20Pharmacy&query_place_id=ChIJV3i7FmYrbogReYjLGkXEv1A",
    "searchPageUrl": "https://www.google.com/maps/search/independent%20pharmacy%20Evansville%20IN/@58.095490516641576,-134.6977272005368,9z?hl=en",
    "searchString": "independent pharmacy Evansville IN",
    "language": "en",
    "rank": 5,
    "isAdvertisement": false,
    "imageUrl": "https://lh3.googleusercontent.com/p/AF1QipMcnalI_VQVFsbUBhs4_gKK4xEDE0hJ5CwuUnyz=w408-h326-k-no",
    "kgmid": "/g/11mvrch929",
    "classification": "hospital",
    "is_independent": false,
    "confidence": 1.0,
    "source": "rule-based"
  },
  {
    "title": "Evansville Hometown Pharmacy",
    "price": null,
    "categoryName": "Pharmacy",
    "address": "21 W Main St, Evansville, WI 53536",
    "neighborhood": null,
    "street": "21 W Main St",
    "city": "Evansville",
    "postalCode": "53536",
    "state": "Wisconsin",
    "countryCode": "US",
    "website": "https://hometownpharmacyrx.com/Locations/Evansville",
    "phone": "(608) 882-4550",
    "phoneUnformatted": "+16088824550",
    "claimThisBusiness": false,
    "location": {
      "lat": 42.7802237,
      "lng": -89.3001099
    },
    "totalScore": 4.1,
    "permanentlyClosed": false,
    "temporarilyClosed": false,
    "placeId": "ChIJa2pibDQxBogRbhSKXwYggO0",
    "categories": [
      "Pharmacy",
      "Gift shop",
      "Health and beauty shop",
      "Health food store",
      "Medical equipment supplier",
      "Vitamin & supplements store"
    ],
    "fid": "0x880631346c626a6b:0xed8020065f8a146e",
    "cid": "17113713795752662126",
    "reviewsCount": 32,
    "imagesCount": 78,
    "imageCategories": [],
    "scrapedAt": "2025-06-22T05:15:22.123Z",
    "googleFoodUrl": null,
    "hotelAds": [],
    "openingHours": [
      {
        "day": "Monday",
        "hours": "9\u202fAM to 6\u202fPM"
      },
      {
        "day": "Tuesday",
        "hours": "9\u202fAM to 6\u202fPM"
      },
      {
        "day": "Wednesday",
        "hours": "9\u202fAM to 6\u202fPM"
      },
      {
        "day": "Thursday",
        "hours": "9\u202fAM to 6\u202fPM"
      },
      {
        "day": "Friday",
        "hours": "9\u202fAM to 6\u202fPM"
      },
      {
        "day": "Saturday",
        "hours": "9\u202fAM to 1\u202fPM"
      },
      {
        "day": "Sunday",
        "hours": "Closed"
      }
    ],
    "peopleAlsoSearch": [],
    "placesTags": [],
    "reviewsTags": [],
    "additionalInfo": {
      "Service options": [
        {
          "In-store pickup": true
        }
      ],
      "Accessibility": [
        {
          "Wheelchair accessible entrance": true
        },
        {
          "Wheelchair accessible parking lot": true
        }
      ],
      "Planning": [
        {
          "Quick visit": true
        }
      ],
      "Payments": [
        {
          "Credit cards": true
        },
        {
          "Debit cards": true
        },
        {
          "NFC mobile payments": true
        },
        {
          "Credit cards": true
        }
      ]
    },
    "gasPrices": [],
    "url": "https://www.google.com/maps/search/?api=1&query=Evansville%20Hometown%20Pharmacy&query_place_id=ChIJa2pibDQxBogRbhSKXwYggO0",
    "searchPageUrl": "https://www.google.com/maps/search/independent%20pharmacy%20Evansville%20IN/@58.095490516641576,-134.6977272005368,9z?hl=en",
    "searchString": "independent pharmacy Evansville IN",
    "language": "en",
    "rank": 6,
    "isAdvertisement": false,
    "imageUrl": "https://lh3.googleusercontent.com/gps-cs-s/AC9h4nqvNJEIeohRvouvjMU0F-h8DeWyLGD8_z3nuWrt2BF8p5qqh38an9K-0_dlv4eeEZl7IFYCJ7dw9VBgr8UgPDm1zUVsssQf2e6F8-4mA6ChtsMnTorKzW3drw_zBJpl7FnrdNzn=w408-h306-k-no",
    "kgmid": "/g/11b81vmg7_",
    "classification": "hospital",
    "is_independent": false,
    "confidence": 1.0,
    "source": "rule-based"
  },
  {
    "title": "Paul's Pharmacy East",
    "price": null,
    "categoryName": "Pharmacy",
    "address": "1150 S Green River Rd, Evansville, IN 47715",
    "neighborhood": null,
    "street": "1150 S Green River Rd",
    "city": "Evansville",
    "postalCode": "47715",
    "state": "Indiana",
    "countryCode": "US",
    "website": "https://www.paulsrx.com/locations/pauls-east-location",
    "phone": "(812) 962-3500",
    "phoneUnformatted": "+18129623500",
    "claimThisBusiness": false,
    "location": {
      "lat": 37.9603936,
      "lng": -87.4921583
    },
    "totalScore": 4.7,
    "permanentlyClosed": false,
    "temporarilyClosed": false,
    "placeId": null,
    "categories": [
      "Pharmacy",
      "Drug store"
    ],
    "fid": "0x886e2ad66ef2896d:0xe576e4ee99162f5a",
    "cid": "16534654795359072090",
    "reviewsCount": 76,
    "imagesCount": 7,
    "imageCategories": [],
    "scrapedAt": "2025-06-22T05:15:22.123Z",
    "googleFoodUrl": null,
    "hotelAds": [],
    "openingHours": [
      {
        "day": "Monday",
        "hours": "9\u202fAM to 6\u202fPM"
      },
      {
        "day": "Tuesday",
        "hours": "9\u202fAM to 6\u202fPM"
      },
      {
        "day": "Wednesday",
        "hours": "9\u202fAM to 6\u202fPM"
      },
      {
        "day": "Thursday",
        "hours": "9\u202fAM to 6\u202fPM"
      },
      {
        "day": "Friday",
        "hours": "9\u202fAM to 6\u202fPM"
      },
      {
        "day": "Saturday",
        "hours": "9\u202fAM to 1\u202fPM"
      },
      {
        "day": "Sunday",
        "hours": "Closed"
      }
    ],
    "peopleAlsoSearch": [],
    "placesTags": [],
    "reviewsTags": [],
    "additionalInfo": {
      "Service options": [
        {
          "Curbside pickup": true
        },
        {
          "Delivery": true
        },
        {
          "Drive-through": true
        },
        {
          "In-store pickup": true
        },
        {
          "In-store shopping": true
        },
        {
          "Onsite services": true
        }
      ],
      "Accessibility": [
        {
          "Wheelchair accessible entrance": true
        },
        {
          "Wheelchair accessible parking lot": true
        }
      ],
      "Planning": [
        {
          "Quick visit": true
        }
      ],
      "Payments": [
        {
          "Credit cards": true
        },
        {
          "Debit cards": true
        },
        {
          "NFC mobile payments": true
        },
        {
          "Credit cards": true
        }
      ]
    },
    "gasPrices": [],
    "url": "https://www.google.com/maps/search/?api=1&query=Paul's%20Pharmacy%20East&query_place_id=ChIJbYnybtYqbogRWi8Wme7kduU",
    "searchPageUrl": "https://www.google.com/maps/search/independent%20pharmacy%20Evansville%20IN/@58.095490516641576,-134.6977272005368,9z?hl=en",
    "searchString": "independent pharmacy Evansville IN",
    "language": "en",
    "rank": 7,
    "isAdvertisement": false,
    "imageUrl": "https://lh3.googleusercontent.com/p/AF1QipMJ78KtAOpKNiEo4UtvH2lwSgrVlfdFU_mEaPMb=w408-h306-k-no",
    "kgmid": "/g/11c3q48fn2",
    "classification": "independent",
    "is_independent": true,
    "is_compounding": false,
    "confidence": 0.9,
    "source": "perplexity",
    "method": "llm"
  },
  {
    "title": "Hook's Apothecary",
    "price": null,
    "categoryName": "Pharmacy",
    "address": "6201 Vogel Rd, Evansville, IN 47715",
    "neighborhood": null,
    "street": "6201 Vogel Rd",
    "city": "Evansville",
    "postalCode": "47715",
    "state": "Indiana",
    "countryCode": "US",
    "website": "http://hooksrx.com/",
    "phone": "(812) 476-6194",
    "phoneUnformatted": "+18124766194",
    "claimThisBusiness": false,
    "location": {
      "lat": 37.9872465,
      "lng": -87.4783155
    },
    "totalScore": 4.9,
    "permanentlyClosed": false,
    "temporarilyClosed": false,
    "placeId": null,
    "categories": [
      "Pharmacy"
    ],
    "fid": "0x886e2b7372a13c35:0x9fa9ee3f87f0e594",
    "cid": "11504988679725704596",
    "reviewsCount": 27,
    "imagesCount": 11,
    "imageCategories": [],
    "scrapedAt": "2025-06-22T05:15:22.123Z",
    "googleFoodUrl": null,
    "hotelAds": [],
    "openingHours": [
      {
        "day": "Monday",
        "hours": "9\u202fAM to 5\u202fPM"
      },
      {
        "day": "Tuesday",
        "hours": "10\u202fAM to 6\u202fPM"
      },
      {
        "day": "Wednesday",
        "hours": "9\u202fAM to 1\u202fPM"
      },
      {
        "day": "Thursday",
        "hours": "10\u202fAM to 6\u202fPM"
      },
      {
        "day": "Friday",
        "hours": "9\u202fAM to 5\u202fPM"
      },
      {
        "day": "Saturday",
        "hours": "Closed"
      },
      {
        "day": "Sunday",
        "hours": "Closed"
      }
    ],
    "peopleAlsoSearch": [],
    "placesTags": [],
    "reviewsTags": [],
    "additionalInfo": {
      "From the business": [
        {
          "Small business": true
        }
      ],
      "Service options": [
        {
          "In-store pickup": true
        },
        {
          "In-store shopping": true
        }
      ],
      "Accessibility": [
        {
          "Wheelchair accessible entrance": true
        },
        {
          "Wheelchair accessible parking lot": true
        },
        {
          "Wheelchair accessible restroom": true
        },
        {
          "Wheelchair accessible seating": false
        }
      ],
      "Amenities": [
        {
          "Gender-neutral restroom": true
        }
      ],
      "Planning": [
        {
          "Quick visit": true
        }
      ],
      "Payments": [
        {
          "Checks": true
        },
        {
          "Credit cards": true
        },
        {
          "Debit cards": true
        },
        {
          "NFC mobile payments": true
        },
        {
          "Credit cards": true
        }
      ]
    },
    "gasPrices": [],
    "url": "https://www.google.com/maps/search/?api=1&query=Hook's%20Apothecary&query_place_id=ChIJNTyhcnMrbogRlOXwhz_uqZ8",
    "searchPageUrl": "https://www.google.com/maps/search/independent%20pharmacy%20Evansville%20IN/@58.095490516641576,-134.6977272005368,9z?hl=en",
    "searchString": "independent pharmacy Evansville IN",
    "language": "en",
    "rank": 8,
    "isAdvertisement": false,
    "imageUrl": "https://lh3.googleusercontent.com/p/AF1QipN7-pO8wKQhiA9qyReE6ADM8d4ybPKaOpoyWI-c=w423-h240-k-no",
    "kgmid": "/g/1tdwwfkj",
    "classification": "independent",
    "is_independent": true,
    "is_compounding": false,
    "confidence": 0.9,
    "source": "perplexity",
    "method": "llm"
  },
  {
    "title": "Genoa Healthcare",
    "price": null,
    "categoryName": "Pharmacy",
    "address": "7300 E Indiana St Suite 103, Evansville, IN 47715",
    "neighborhood": null,
    "street": "7300 E Indiana St Suite 103",
    "city": "Evansville",
    "postalCode": "47715",
    "state": "Indiana",
    "countryCode": "US",
    "website": "https://www.genoahealthcare.com/",
    "phone": "(812) 909-6895",
    "phoneUnformatted": "+18129096895",
    "claimThisBusiness": false,
    "location": {
      "lat": 37.9784549,
      "lng": -87.4645094
    },
    "totalScore": 4,
    "permanentlyClosed": false,
    "temporarilyClosed": false,
    "placeId": null,
    "categories": [
      "Pharmacy"
    ],
    "fid": "0x886e2b5f74e44b75:0x165c72cc7f4528e6",
    "cid": "1611288989325928678",
    "reviewsCount": 4,
    "imagesCount": 2,
    "imageCategories": [],
    "scrapedAt": "2025-06-22T05:15:22.123Z",
    "googleFoodUrl": null,
    "hotelAds": [],
    "openingHours": [
      {
        "day": "Monday",
        "hours": "8\u202fAM to 12\u202fPM, 1 to 5\u202fPM"
      },
      {
        "day": "Tuesday",
        "hours": "8\u202fAM to 12\u202fPM, 1 to 5\u202fPM"
      },
      {
        "day": "Wednesday",
        "hours": "8\u202fAM to 12\u202fPM, 1 to 5\u202fPM"
      },
      {
        "day": "Thursday",
        "hours": "8\u202fAM to 12\u202fPM, 1 to 5\u202fPM"
      },
      {
        "day": "Friday",
        "hours": "8\u202fAM to 12\u202fPM, 1 to 4:30\u202fPM"
      },
      {
        "day": "Saturday",
        "hours": "Closed"
      },
      {
        "day": "Sunday",
        "hours": "Closed"
      }
    ],
    "peopleAlsoSearch": [],
    "placesTags": [],
    "reviewsTags": [],
    "additionalInfo": {
      "Accessibility": [
        {
          "Wheelchair accessible entrance": true
        },
        {
          "Wheelchair accessible parking lot": true
        }
      ],
      "Payments": [
        {
          "Credit cards": true
        }
      ]
    },
    "gasPrices": [],
    "url": "https://www.google.com/maps/search/?api=1&query=Genoa%20Healthcare&query_place_id=ChIJdUvkdF8rbogR5ihFf8xyXBY",
    "searchPageUrl": "https://www.google.com/maps/search/independent%20pharmacy%20Evansville%20IN/@58.095490516641576,-134.6977272005368,9z?hl=en",
    "searchString": "independent pharmacy Evansville IN",
    "language": "en",
    "rank": 9,
    "isAdvertisement": false,
    "imageUrl": "https://lh3.googleusercontent.com/gps-cs-s/AC9h4noQb74rDOXA5AB0ZexxuWl4loYg0zUzv1vt65HLaVpk3z1Cs14zCJRe1eYFDys7YJKmUJJ2hzRZd348jMOS_mL9UjS-f6QyqXtkZgCunfwYOcKqkblY_tmkdH-jjGyb6F0ckjwt=w426-h240-k-no",
    "kgmid": "/g/11h4c3kqvn",
    "classification": "chain",
    "is_independent": false,
    "is_compounding": false,
    "confidence": 0.95,
    "source": "perplexity",
    "method": "llm"
  },
  {
    "title": "CVS Pharmacy",
    "price": null,
    "categoryName": "Pharmacy",
    "address": "2020 E Morgan Ave, Evansville, IN 47711",
    "neighborhood": null,
    "street": "2020 E Morgan Ave",
    "city": "Evansville",
    "postalCode": "47711",
    "state": "Indiana",
    "countryCode": "US",
    "website": "https://www.cvs.com/store-locator/evansville-in-pharmacies/2020-east-morgan-avenue-evansville-in-47711/storeid=6258?WT.mc_id=LS_GOOGLE_RX_6258",
    "phone": "(812) 422-6330",
    "phoneUnformatted": "+18124226330",
    "claimThisBusiness": false,
    "location": {
      "lat": 37.9921933,
      "lng": -87.5279001
    },
    "totalScore": 3.7,
    "permanentlyClosed": false,
    "temporarilyClosed": false,
    "placeId": "ChIJaZ-T94gqbogRfyiinkz-guc",
    "categories": [
      "Pharmacy"
    ],
    "fid": "0x886e2a88f7939f69:0xe782fe4c9ea2287f",
    "cid": "16682175574766135423",
    "reviewsCount": 33,
    "imagesCount": 8,
    "imageCategories": [],
    "scrapedAt": "2025-06-22T05:15:22.124Z",
    "googleFoodUrl": null,
    "hotelAds": [],
    "openingHours": [
      {
        "day": "Monday",
        "hours": "12\u202fAM to 1:30\u202fPM, 2\u202fPM to 12\u202fAM"
      },
      {
        "day": "Tuesday",
        "hours": "12\u202fAM to 1:30\u202fPM, 2\u202fPM to 12\u202fAM"
      },
      {
        "day": "Wednesday",
        "hours": "12\u202fAM to 1:30\u202fPM, 2\u202fPM to 12\u202fAM"
      },
      {
        "day": "Thursday",
        "hours": "12\u202fAM to 1:30\u202fPM, 2\u202fPM to 12\u202fAM"
      },
      {
        "day": "Friday",
        "hours": "12\u202fAM to 1:30\u202fPM, 2\u202fPM to 12\u202fAM"
      },
      {
        "day": "Saturday",
        "hours": "12\u202fAM to 1:30\u202fPM, 2\u202fPM to 12\u202fAM"
      },
      {
        "day": "Sunday",
        "hours": "12\u202fAM to 1:30\u202fPM, 2\u202fPM to 12\u202fAM"
      }
    ],
    "peopleAlsoSearch": [],
    "placesTags": [],
    "reviewsTags": [],
    "additionalInfo": {
      "Service options": [
        {
          "Delivery": true
        },
        {
          "Drive-through": true
        },
        {
          "In-store pickup": true
        },
        {
          "In-store shopping": true
        }
      ],
      "Accessibility": [
        {
          "Wheelchair accessible entrance": true
        },
        {
          "Wheelchair accessible parking lot": true
        }
      ],
      "Offerings": [
        {
          "Medication disposal": true
        },
        {
          "Naloxone": true
        },
        {
          "Passport photos": true
        }
      ],
      "Crowd": [
        {
          "LGBTQ+ friendly": true
        },
        {
          "Transgender safespace": true
        }
      ],
      "Planning": [
        {
          "Quick visit": true
        }
      ],
      "Payments": [
        {
          "Credit cards": true
        },
        {
          "Debit cards": true
        },
        {
          "NFC mobile payments": true
        },
        {
          "Credit cards": true
        }
      ]
    },
    "gasPrices": [],
    "url": "https://www.google.com/maps/search/?api=1&query=CVS%20Pharmacy&query_place_id=ChIJaZ-T94gqbogRfyiinkz-guc",
    "searchPageUrl": "https://www.google.com/maps/search/independent%20pharmacy%20Evansville%20IN/@58.095490516641576,-134.6977272005368,9z?hl=en",
    "searchString": "independent pharmacy Evansville IN",
    "language": "en",
    "rank": 10,
    "isAdvertisement": false,
    "imageUrl": "https://lh3.googleusercontent.com/p/AF1QipMHgzCZgGxT5ozMoc27pBWyjQ6xTBySB8tsuik1=w408-h272-k-no",
    "kgmid": "/g/11c4615f_8",
    "classification": "chain",
    "is_independent": false,
    "confidence": 1.0,
    "source": "rule-based"
  },
  {
    "title": "Pauls LTC pharmacy",
    "price": null,
    "categoryName": "Pharmacy",
    "address": "4111 N St Joseph Ave, Evansville, IN 47720",
    "neighborhood": null,
    "street": "4111 N St Joseph Ave",
    "city": "Evansville",
    "postalCode": "47720",
    "state": "Indiana",
    "countryCode": "US",
    "website": "http://www.paulsrx.com/",
    "phone": "(812) 426-5033",
    "phoneUnformatted": "+18124265033",
    "claimThisBusiness": false,
    "location": {
      "lat": 38.0179173,
      "lng": -87.5990849
    },
    "totalScore": 4.9,
    "permanentlyClosed": false,
    "temporarilyClosed": false,
    "placeId": null,
    "categories": [
      "Pharmacy"
    ],
    "fid": "0x8871d4155613e559:0xb9b4550815250c5f",
    "cid": "13381413886027435103",
    "reviewsCount": 33,
    "imagesCount": 1,
    "imageCategories": [],
    "scrapedAt": "2025-06-22T05:15:22.124Z",
    "googleFoodUrl": null,
    "hotelAds": [],
    "openingHours": [
      {
        "day": "Monday",
        "hours": "8\u202fAM to 6\u202fPM"
      },
      {
        "day": "Tuesday",
        "hours": "8\u202fAM to 6\u202fPM"
      },
      {
        "day": "Wednesday",
        "hours": "8\u202fAM to 6\u202fPM"
      },
      {
        "day": "Thursday",
        "hours": "8\u202fAM to 6\u202fPM"
      },
      {
        "day": "Friday",
        "hours": "8\u202fAM to 6\u202fPM"
      },
      {
        "day": "Saturday",
        "hours": "8\u202fAM to 1\u202fPM"
      },
      {
        "day": "Sunday",
        "hours": "Closed"
      }
    ],
    "peopleAlsoSearch": [],
    "placesTags": [],
    "reviewsTags": [],
    "additionalInfo": {
      "Accessibility": [
        {
          "Wheelchair accessible entrance": true
        },
        {
          "Wheelchair accessible parking lot": true
        }
      ],
      "Payments": [
        {
          "Credit cards": true
        },
        {
          "Debit cards": true
        },
        {
          "Credit cards": true
        }
      ]
    },
    "gasPrices": [],
    "url": "https://www.google.com/maps/search/?api=1&query=Pauls%20LTC%20pharmacy&query_place_id=ChIJWeUTVhXUcYgRXwwlFQhVtLk",
    "searchPageUrl": "https://www.google.com/maps/search/independent%20pharmacy%20Evansville%20IN/@58.095490516641576,-134.6977272005368,9z?hl=en",
    "searchString": "independent pharmacy Evansville IN",
    "language": "en",
    "rank": 11,
    "isAdvertisement": false,
    "imageUrl": "https://streetviewpixels-pa.googleapis.com/v1/thumbnail?panoid=8P4A0gnzX_eQW2vK9B86zA&cb_client=search.gws-prod.gps&w=408&h=240&yaw=90.62273&pitch=0&thumbfov=100",
    "kgmid": "/g/11dx8kxrm0",
    "classification": "independent",
    "is_independent": true,
    "is_compounding": false,
    "confidence": 0.85,
    "source": "perplexity",
    "method": "llm"
  },
  {
    "title": "Meijer Pharmacy",
    "price": "$$",
    "categoryName": "Pharmacy",
    "address": "2622 Menards Dr, Evansville, IN 47715",
    "neighborhood": null,
    "street": "2622 Menards Dr",
    "city": "Evansville",
    "postalCode": "47715",
    "state": "Indiana",
    "countryCode": "US",
    "website": "https://www.meijer.com/shopping/store-locator/287.html?cmpid=LM:Web::::05112021::GooglePharmacy",
    "phone": "(812) 647-2210",
    "phoneUnformatted": "+18126472210",
    "claimThisBusiness": false,
    "location": {
      "lat": 38.0008053,
      "lng": -87.4953203
    },
    "totalScore": 2.7,
    "permanentlyClosed": false,
    "temporarilyClosed": false,
    "placeId": "ChIJU7EFEKwrbogR575JovC9e50",
    "categories": [
      "Pharmacy",
      "Medical supply store",
      "Drug store"
    ],
    "fid": "0x886e2bac1005b153:0x9d7bbdf0a249bee7",
    "cid": "11347872527302639335",
    "reviewsCount": 66,
    "imagesCount": 8,
    "imageCategories": [],
    "scrapedAt": "2025-06-22T05:15:22.124Z",
    "googleFoodUrl": null,
    "hotelAds": [],
    "openingHours": [
      {
        "day": "Monday",
        "hours": "9\u202fAM to 8\u202fPM"
      },
      {
        "day": "Tuesday",
        "hours": "9\u202fAM to 8\u202fPM"
      },
      {
        "day": "Wednesday",
        "hours": "9\u202fAM to 8\u202fPM"
      },
      {
        "day": "Thursday",
        "hours": "9\u202fAM to 8\u202fPM"
      },
      {
        "day": "Friday",
        "hours": "9\u202fAM to 8\u202fPM"
      },
      {
        "day": "Saturday",
        "hours": "10\u202fAM to 6\u202fPM"
      },
      {
        "day": "Sunday",
        "hours": "10\u202fAM to 6\u202fPM"
      }
    ],
    "additionalOpeningHours": {
      "Drive through": [
        {
          "day": "Monday",
          "hours": "9\u202fAM\u20138\u202fPM"
        },
        {
          "day": "Tuesday",
          "hours": "9\u202fAM\u20138\u202fPM"
        },
        {
          "day": "Wednesday",
          "hours": "9\u202fAM\u20138\u202fPM"
        },
        {
          "day": "Thursday",
          "hours": "9\u202fAM\u20138\u202fPM"
        },
        {
          "day": "Friday",
          "hours": "9\u202fAM\u20138\u202fPM"
        },
        {
          "day": "Saturday",
          "hours": "10\u202fAM\u20136\u202fPM"
        },
        {
          "day": "Sunday",
          "hours": "10\u202fAM\u20136\u202fPM"
        }
      ],
      "Pickup": [
        {
          "day": "Monday",
          "hours": "9\u202fAM\u20138\u202fPM"
        },
        {
          "day": "Tuesday",
          "hours": "9\u202fAM\u20138\u202fPM"
        },
        {
          "day": "Wednesday",
          "hours": "9\u202fAM\u20138\u202fPM"
        },
        {
          "day": "Thursday",
          "hours": "9\u202fAM\u20138\u202fPM"
        },
        {
          "day": "Friday",
          "hours": "9\u202fAM\u20138\u202fPM"
        },
        {
          "day": "Saturday",
          "hours": "10\u202fAM\u20136\u202fPM"
        },
        {
          "day": "Sunday",
          "hours": "10\u202fAM\u20136\u202fPM"
        }
      ]
    },
    "peopleAlsoSearch": [],
    "placesTags": [],
    "reviewsTags": [],
    "additionalInfo": {
      "Service options": [
        {
          "Curbside pickup": true
        },
        {
          "Delivery": true
        },
        {
          "Drive-through": true
        },
        {
          "In-store pickup": true
        },
        {
          "In-store shopping": true
        }
      ],
      "Accessibility": [
        {
          "Wheelchair accessible entrance": true
        },
        {
          "Wheelchair accessible parking lot": true
        }
      ],
      "Offerings": [
        {
          "Medication disposal": true
        }
      ],
      "Amenities": [
        {
          "Wi-Fi": true
        }
      ],
      "Planning": [
        {
          "Quick visit": true
        }
      ],
      "Payments": [
        {
          "Checks": true
        },
        {
          "Credit cards": true
        },
        {
          "Debit cards": true
        }
      ]
    },
    "gasPrices": [],
    "url": "https://www.google.com/maps/search/?api=1&query=Meijer%20Pharmacy&query_place_id=ChIJU7EFEKwrbogR575JovC9e50",
    "searchPageUrl": "https://www.google.com/maps/search/independent%20pharmacy%20Evansville%20IN/@58.095490516641576,-134.6977272005368,9z?hl=en",
    "searchString": "independent pharmacy Evansville IN",
    "language": "en",
    "rank": 12,
    "isAdvertisement": false,
    "imageUrl": "https://lh3.googleusercontent.com/p/AF1QipPkmPJsiSHEd1ny9v438wrL-gvK2SI8VfqjyxNd=w426-h240-k-no",
    "kgmid": "/g/11fz0wppmc",
    "classification": "chain",
    "is_independent": false,
    "confidence": 1.0,
    "source": "rule-based"
  },
  {
    "title": "Deaconess Family Pharmacy - Deaconess Midtown Campus",
    "price": null,
    "categoryName": "Pharmacy",
    "address": "600 Mary St, Evansville, IN 47710, United States",
    "neighborhood": "Jacobsville",
    "street": "600 Mary St",
    "city": "Evansville",
    "postalCode": "47710",
    "state": "Indiana",
    "countryCode": "US",
    "website": "https://www.deaconess.com/For-You/Patients-and-Visitors/Patients/Deaconess-Family-Pharmacy",
    "phone": "+1 812-450-3784",
    "phoneUnformatted": "+18124503784",
    "claimThisBusiness": false,
    "location": {
      "lat": 37.9837729,
      "lng": -87.5714689
    },
    "totalScore": 4.4,
    "permanentlyClosed": false,
    "temporarilyClosed": false,
    "placeId": null,
    "categories": [
      "Pharmacy"
    ],
    "fid": "0x8871d51af3f51b8f:0xd608f58326341758",
    "cid": "15422846867560732504",
    "reviewsCount": 17,
    "imagesCount": 3,
    "imageCategories": [],
    "scrapedAt": "2025-06-22T05:15:28.065Z",
    "googleFoodUrl": null,
    "hotelAds": [],
    "openingHours": [
      {
        "day": "Monday",
        "hours": "7\u202fAM to 7:30\u202fPM"
      },
      {
        "day": "Tuesday",
        "hours": "7\u202fAM to 7:30\u202fPM"
      },
      {
        "day": "Wednesday",
        "hours": "7\u202fAM to 7:30\u202fPM"
      },
      {
        "day": "Thursday",
        "hours": "7\u202fAM to 7:30\u202fPM"
      },
      {
        "day": "Friday",
        "hours": "7\u202fAM to 7:30\u202fPM"
      },
      {
        "day": "Saturday",
        "hours": "10\u202fAM to 4\u202fPM"
      },
      {
        "day": "Sunday",
        "hours": "Closed"
      }
    ],
    "peopleAlsoSearch": [],
    "placesTags": [],
    "reviewsTags": [],
    "additionalInfo": {
      "Accessibility": [
        {
          "Wheelchair-accessible car park": true
        },
        {
          "Wheelchair-accessible entrance": true
        }
      ],
      "Offerings": [
        {
          "Medication disposal": true
        }
      ],
      "Payments": [
        {
          "Credit cards": true
        }
      ]
    },
    "gasPrices": [],
    "url": "https://www.google.com/maps/search/?api=1&query=Deaconess%20Family%20Pharmacy%20-%20Deaconess%20Midtown%20Campus&query_place_id=ChIJjxv18xrVcYgRWBc0JoP1CNY",
    "searchPageUrl": "https://www.google.com/maps/search/independent%20pharmacy%20Evansville%20IN/@25.995147870820777,-174.05374354726786,13z?hl=en",
    "searchString": "independent pharmacy Evansville IN",
    "language": "en",
    "rank": 12,
    "isAdvertisement": false,
    "imageUrl": "https://lh3.googleusercontent.com/p/AF1QipPilKN7e3jN0rYZm8Ig2Onza4NUjdoSNIzcUXah=w601-h240-k-no",
    "kgmid": "/g/1264blnhw",
    "classification": "hospital",
    "is_independent": false,
    "is_compounding": false,
    "confidence": 0.98,
    "source": "perplexity",
    "method": "llm"
  },
  {
    "title": "CVS Pharmacy",
    "price": null,
    "categoryName": "Pharmacy",
    "address": "801 N First Ave, Evansville, IN 47710",
    "neighborhood": "Jacobsville",
    "street": "801 N First Ave",
    "city": "Evansville",
    "postalCode": "47710",
    "state": "Indiana",
    "countryCode": "US",
    "website": "https://www.cvs.com/store-locator/evansville-in-pharmacies/801-north-first-ave-evansville-in-47710/storeid=7045?WT.mc_id=LS_GOOGLE_RX_7045",
    "phone": "(812) 467-0109",
    "phoneUnformatted": "+18124670109",
    "claimThisBusiness": false,
    "location": {
      "lat": 37.9853922,
      "lng": -87.5742649
    },
    "totalScore": 4.1,
    "permanentlyClosed": false,
    "temporarilyClosed": false,
    "placeId": "ChIJr1Y9VQPVcYgRCc3ElqVJ8N4",
    "categories": [
      "Pharmacy"
    ],
    "fid": "0x8871d503553d56af:0xdef049a596c4cd09",
    "cid": "16064420846378470665",
    "reviewsCount": 21,
    "imagesCount": 8,
    "imageCategories": [],
    "scrapedAt": "2025-06-22T05:16:04.505Z",
    "googleFoodUrl": null,
    "hotelAds": [],
    "openingHours": [
      {
        "day": "Monday",
        "hours": "9\u202fAM to 1:30\u202fPM, 2 to 8\u202fPM"
      },
      {
        "day": "Tuesday",
        "hours": "9\u202fAM to 1:30\u202fPM, 2 to 8\u202fPM"
      },
      {
        "day": "Wednesday",
        "hours": "9\u202fAM to 1:30\u202fPM, 2 to 8\u202fPM"
      },
      {
        "day": "Thursday",
        "hours": "9\u202fAM to 1:30\u202fPM, 2 to 8\u202fPM"
      },
      {
        "day": "Friday",
        "hours": "9\u202fAM to 1:30\u202fPM, 2 to 8\u202fPM"
      },
      {
        "day": "Saturday",
        "hours": "9\u202fAM to 1:30\u202fPM, 2 to 6\u202fPM"
      },
      {
        "day": "Sunday",
        "hours": "11\u202fAM to 1:30\u202fPM, 2 to 5\u202fPM"
      }
    ],
    "peopleAlsoSearch": [],
    "placesTags": [],
    "reviewsTags": [],
    "additionalInfo": {
      "Service options": [
        {
          "Delivery": true
        },
        {
          "Drive-through": true
        },
        {
          "In-store shopping": true
        },
        {
          "Onsite services": true
        }
      ],
      "Accessibility": [
        {
          "Wheelchair accessible entrance": true
        },
        {
          "Wheelchair accessible parking lot": true
        }
      ],
      "Offerings": [
        {
          "Naloxone": true
        }
      ],
      "Crowd": [
        {
          "LGBTQ+ friendly": true
        },
        {
          "Transgender safespace": true
        }
      ],
      "Planning": [
        {
          "Quick visit": true
        }
      ],
      "Payments": [
        {
          "Credit cards": true
        },
        {
          "Debit cards": true
        },
        {
          "NFC mobile payments": true
        },
        {
          "Credit cards": true
        }
      ]
    },
    "gasPrices": [],
    "url": "https://www.google.com/maps/search/?api=1&query=CVS%20Pharmacy&query_place_id=ChIJr1Y9VQPVcYgRCc3ElqVJ8N4",
    "searchPageUrl": "https://www.google.com/maps/search/independent%20pharmacy%20Evansville%20IN/@65.00037634152156,-167.73503139124153,13z?hl=en",
    "searchString": "independent pharmacy Evansville IN",
    "language": "en",
    "rank": 13,
    "isAdvertisement": false,
    "imageUrl": "https://lh3.googleusercontent.com/p/AF1QipMRAgbIXFuHPcxScz9-peSnwzD-EYjFMTL9AQt5=w408-h272-k-no",
    "kgmid": "/g/11c4634bj0",
    "classification": "chain",
    "is_independent": false,
    "confidence": 1.0,
    "source": "rule-based"
  },
  {
    "title": "CVS Pharmacy",
    "description": "Drugstore chain selling a variety of beauty & health products, plus some grocery & household items.",
    "price": null,
    "categoryName": "Pharmacy",
    "address": "6625 E Lloyd Expy, Evansville, IN 47715",
    "neighborhood": "Plaza Park",
    "street": "6625 E Lloyd Expy",
    "city": "Evansville",
    "postalCode": "47715",
    "state": "Indiana",
    "countryCode": "US",
    "website": "https://www.cvs.com/store-locator/evansville-in-pharmacies/6625-e-lloyd-expy-evansville-in-47715/storeid=16813?WT.mc_id=LS_GOOGLE_RX_16813",
    "phone": "(812) 402-8509",
    "phoneUnformatted": "+18124028509",
    "claimThisBusiness": false,
    "location": {
      "lat": 37.9755123,
      "lng": -87.4699934
    },
    "totalScore": 4.4,
    "permanentlyClosed": false,
    "temporarilyClosed": false,
    "placeId": "ChIJec73H2YrbogRkt49vXytXDI",
    "categories": [
      "Pharmacy"
    ],
    "fid": "0x886e2b661ff7ce79:0x325cad7cbd3dde92",
    "cid": "3628966151016275602",
    "reviewsCount": 15,
    "imagesCount": 6,
    "imageCategories": [],
    "scrapedAt": "2025-06-22T05:16:04.505Z",
    "googleFoodUrl": null,
    "hotelAds": [],
    "openingHours": [
      {
        "day": "Monday",
        "hours": "9\u202fAM to 1:30\u202fPM, 2 to 7\u202fPM"
      },
      {
        "day": "Tuesday",
        "hours": "9\u202fAM to 1:30\u202fPM, 2 to 7\u202fPM"
      },
      {
        "day": "Wednesday",
        "hours": "9\u202fAM to 1:30\u202fPM, 2 to 7\u202fPM"
      },
      {
        "day": "Thursday",
        "hours": "9\u202fAM to 1:30\u202fPM, 2 to 7\u202fPM"
      },
      {
        "day": "Friday",
        "hours": "9\u202fAM to 1:30\u202fPM, 2 to 7\u202fPM"
      },
      {
        "day": "Saturday",
        "hours": "9\u202fAM to 1:30\u202fPM, 2 to 5\u202fPM"
      },
      {
        "day": "Sunday",
        "hours": "Closed"
      }
    ],
    "peopleAlsoSearch": [],
    "placesTags": [],
    "reviewsTags": [],
    "additionalInfo": {
      "Service options": [
        {
          "Delivery": true
        },
        {
          "In-store shopping": true
        },
        {
          "Onsite services": true
        }
      ],
      "Accessibility": [
        {
          "Wheelchair accessible entrance": true
        },
        {
          "Wheelchair accessible parking lot": true
        }
      ],
      "Offerings": [
        {
          "Naloxone": true
        }
      ],
      "Crowd": [
        {
          "LGBTQ+ friendly": true
        },
        {
          "Transgender safespace": true
        }
      ],
      "Planning": [
        {
          "Quick visit": true
        }
      ],
      "Payments": [
        {
          "Credit cards": true
        },
        {
          "Debit cards": true
        },
        {
          "Credit cards": true
        }
      ]
    },
    "gasPrices": [],
    "url": "https://www.google.com/maps/search/?api=1&query=CVS%20Pharmacy&query_place_id=ChIJec73H2YrbogRkt49vXytXDI",
    "searchPageUrl": "https://www.google.com/maps/search/independent%20pharmacy%20Evansville%20IN/@65.00037634152156,-167.73503139124153,13z?hl=en",
    "searchString": "independent pharmacy Evansville IN",
    "language": "en",
    "rank": 16,
    "isAdvertisement": false,
    "imageUrl": "https://lh3.googleusercontent.com/p/AF1QipPksAILE-ngYAe2AZnc4ZlIUXtzUKlWLWbcFZcN=w408-h272-k-no",
    "kgmid": "/g/1tg_b72m",
    "classification": "chain",
    "is_independent": false,
    "confidence": 1.0,
    "source": "rule-based"
  },
  {
    "title": "Walgreens Pharmacy",
    "description": "Department of the Walgreens chain providing prescription medications & other health-related items.",
    "price": "$$",
    "categoryName": "Pharmacy",
    "address": "925 S Green River Rd, Evansville, IN 47715",
    "neighborhood": null,
    "street": "925 S Green River Rd",
    "city": "Evansville",
    "postalCode": "47715",
    "state": "Indiana",
    "countryCode": "US",
    "website": "https://www.walgreens.com/locator/walgreens-925+s+green+river+rd-evansville-in-47715/id=6152",
    "phone": "(812) 474-0055",
    "phoneUnformatted": "+18124740055",
    "claimThisBusiness": false,
    "location": {
      "lat": 37.9636083,
      "lng": -87.4934631
    },
    "totalScore": 3.4,
    "permanentlyClosed": false,
    "temporarilyClosed": false,
    "placeId": "ChIJj4pFliUrbogRuvSAi8SoKXk",
    "categories": [
      "Pharmacy"
    ],
    "fid": "0x886e2b2596458a8f:0x7929a8c48b80f4ba",
    "cid": "8730694914741957818",
    "reviewsCount": 17,
    "imagesCount": 3,
    "imageCategories": [],
    "scrapedAt": "2025-06-22T05:16:04.505Z",
    "googleFoodUrl": null,
    "hotelAds": [],
    "openingHours": [
      {
        "day": "Monday",
        "hours": "9\u202fAM to 1:30\u202fPM, 2 to 9\u202fPM"
      },
      {
        "day": "Tuesday",
        "hours": "9\u202fAM to 1:30\u202fPM, 2 to 9\u202fPM"
      },
      {
        "day": "Wednesday",
        "hours": "9\u202fAM to 1:30\u202fPM, 2 to 9\u202fPM"
      },
      {
        "day": "Thursday",
        "hours": "9\u202fAM to 1:30\u202fPM, 2 to 9\u202fPM"
      },
      {
        "day": "Friday",
        "hours": "9\u202fAM to 1:30\u202fPM, 2 to 9\u202fPM"
      },
      {
        "day": "Saturday",
        "hours": "9\u202fAM to 1:30\u202fPM, 2 to 6\u202fPM"
      },
      {
        "day": "Sunday",
        "hours": "10\u202fAM to 1:30\u202fPM, 2 to 6\u202fPM"
      }
    ],
    "additionalOpeningHours": {
      "Drive through": [
        {
          "day": "Monday",
          "hours": "9\u202fAM\u20131:30\u202fPM"
        },
        {
          "day": "Tuesday",
          "hours": "9\u202fAM\u20131:30\u202fPM"
        },
        {
          "day": "Wednesday",
          "hours": "9\u202fAM\u20131:30\u202fPM"
        },
        {
          "day": "Thursday",
          "hours": "9\u202fAM\u20131:30\u202fPM"
        },
        {
          "day": "Friday",
          "hours": "9\u202fAM\u20131:30\u202fPM"
        },
        {
          "day": "Saturday",
          "hours": "9\u202fAM\u20131:30\u202fPM"
        },
        {
          "day": "Sunday",
          "hours": "10\u202fAM\u20131:30\u202fPM"
        }
      ]
    },
    "peopleAlsoSearch": [],
    "placesTags": [],
    "reviewsTags": [],
    "additionalInfo": {
      "Service options": [
        {
          "Curbside pickup": true
        },
        {
          "Drive-through": true
        },
        {
          "In-store pickup": true
        },
        {
          "Onsite services": true
        }
      ],
      "Accessibility": [
        {
          "Wheelchair accessible entrance": true
        },
        {
          "Wheelchair accessible parking lot": true
        }
      ],
      "Offerings": [
        {
          "Medication disposal": true
        },
        {
          "Naloxone": true
        }
      ],
      "Planning": [
        {
          "Quick visit": true
        }
      ],
      "Payments": [
        {
          "Checks": true
        },
        {
          "Credit cards": true
        },
        {
          "Debit cards": true
        }
      ]
    },
    "gasPrices": [],
    "url": "https://www.google.com/maps/search/?api=1&query=Walgreens%20Pharmacy&query_place_id=ChIJj4pFliUrbogRuvSAi8SoKXk",
    "searchPageUrl": "https://www.google.com/maps/search/independent%20pharmacy%20Evansville%20IN/@65.00037634152156,-167.73503139124153,13z?hl=en",
    "searchString": "independent pharmacy Evansville IN",
    "language": "en",
    "rank": 17,
    "isAdvertisement": false,
    "imageUrl": "https://lh3.googleusercontent.com/p/AF1QipODmcvHKAQipNXVBjnenmYTM45FTKifZNRuPHQD=w525-h240-k-no",
    "kgmid": "/g/11cn93ddlj",
    "classification": "chain",
    "is_independent": false,
    "confidence": 1.0,
    "source": "rule-based"
  },
  {
    "title": "Perry Brian E",
    "price": null,
    "categoryName": "Pharmacy",
    "address": "2345 W Franklin St # 101, Evansville, IN 47712",
    "neighborhood": "Lamasco",
    "street": "2345 W Franklin St # 101",
    "city": "Evansville",
    "postalCode": "47712",
    "state": "Indiana",
    "countryCode": "US",
    "website": "http://paulsrx.com/",
    "phone": "(812) 425-4364",
    "phoneUnformatted": "+18124254364",
    "claimThisBusiness": true,
    "location": {
      "lat": 37.9809206,
      "lng": -87.6002257
    },
    "permanentlyClosed": false,
    "temporarilyClosed": false,
    "placeId": null,
    "categories": [
      "Pharmacy"
    ],
    "fid": "0x8871d4935fda2861:0x35cc7f3055f079ad",
    "cid": "3876613224836135341",
    "reviewsCount": 0,
    "imagesCount": 1,
    "imageCategories": [],
    "scrapedAt": "2025-06-22T05:16:04.505Z",
    "googleFoodUrl": null,
    "hotelAds": [],
    "openingHours": [
      {
        "day": "Monday",
        "hours": "8\u202fAM to 6\u202fPM"
      },
      {
        "day": "Tuesday",
        "hours": "8\u202fAM to 6\u202fPM"
      },
      {
        "day": "Wednesday",
        "hours": "8\u202fAM to 6\u202fPM"
      },
      {
        "day": "Thursday",
        "hours": "8\u202fAM to 6\u202fPM"
      },
      {
        "day": "Friday",
        "hours": "8\u202fAM to 6\u202fPM"
      },
      {
        "day": "Saturday",
        "hours": "8\u202fAM to 1\u202fPM"
      },
      {
        "day": "Sunday",
        "hours": "Closed"
      }
    ],
    "peopleAlsoSearch": [],
    "placesTags": [],
    "reviewsTags": [],
    "additionalInfo": {
      "Accessibility": [
        {
          "Wheelchair accessible entrance": true
        },
        {
          "Wheelchair accessible parking lot": true
        }
      ]
    },
    "gasPrices": [],
    "url": "https://www.google.com/maps/search/?api=1&query=Perry%20Brian%20E&query_place_id=ChIJYSjaX5PUcYgRrXnwVTB_zDU",
    "searchPageUrl": "https://www.google.com/maps/search/independent%20pharmacy%20Evansville%20IN/@65.00037634152156,-167.73503139124153,13z?hl=en",
    "searchString": "independent pharmacy Evansville IN",
    "language": "en",
    "rank": 18,
    "isAdvertisement": false,
    "imageUrl": "https://streetviewpixels-pa.googleapis.com/v1/thumbnail?panoid=fmjHAJRx4_GyX9gzL-1-sg&cb_client=search.gws-prod.gps&w=408&h=240&yaw=120.0515&pitch=0&thumbfov=100",
    "kgmid": "/g/1tf3c8v4",
    "classification": "independent",
    "is_independent": true,
    "is_compounding": false,
    "confidence": 0.85,
    "source": "perplexity",
    "method": "llm"
  },
  {
    "title": "Optimum Wellness Pharmacy",
    "price": null,
    "categoryName": "Pharmacy",
    "address": "8900 Ruffian Ln, Newburgh, IN 47630",
    "neighborhood": null,
    "street": "8900 Ruffian Ln",
    "city": "Newburgh",
    "postalCode": "47630",
    "state": "Indiana",
    "countryCode": "US",
    "website": "http://www.optimumwellnessrx.com/",
    "phone": "(812) 518-3428",
    "phoneUnformatted": "+18125183428",
    "claimThisBusiness": false,
    "location": {
      "lat": 37.9759877,
      "lng": -87.4123169
    },
    "totalScore": 4.7,
    "permanentlyClosed": false,
    "temporarilyClosed": false,
    "placeId": null,
    "categories": [
      "Pharmacy"
    ],
    "fid": "0x886e2d198d9480cb:0x2707443e56d1904",
    "cid": "175768220428212484",
    "reviewsCount": 50,
    "imagesCount": 24,
    "imageCategories": [],
    "scrapedAt": "2025-06-22T05:16:04.505Z",
    "googleFoodUrl": null,
    "hotelAds": [],
    "openingHours": [
      {
        "day": "Monday",
        "hours": "9\u202fAM to 6\u202fPM"
      },
      {
        "day": "Tuesday",
        "hours": "9\u202fAM to 6\u202fPM"
      },
      {
        "day": "Wednesday",
        "hours": "9\u202fAM to 6\u202fPM"
      },
      {
        "day": "Thursday",
        "hours": "9\u202fAM to 6\u202fPM"
      },
      {
        "day": "Friday",
        "hours": "9\u202fAM to 6\u202fPM"
      },
      {
        "day": "Saturday",
        "hours": "Closed"
      },
      {
        "day": "Sunday",
        "hours": "Closed"
      }
    ],
    "peopleAlsoSearch": [],
    "placesTags": [],
    "reviewsTags": [],
    "additionalInfo": {
      "From the business": [
        {
          "Small business": true
        }
      ],
      "Service options": [
        {
          "Delivery": true
        },
        {
          "In-store pickup": true
        }
      ],
      "Accessibility": [
        {
          "Wheelchair accessible entrance": true
        },
        {
          "Wheelchair accessible parking lot": true
        }
      ],
      "Planning": [
        {
          "Quick visit": true
        }
      ],
      "Payments": [
        {
          "Credit cards": true
        },
        {
          "Debit cards": true
        },
        {
          "NFC mobile payments": true
        },
        {
          "Credit cards": true
        }
      ]
    },
    "gasPrices": [],
    "url": "https://www.google.com/maps/search/?api=1&query=Optimum%20Wellness%20Pharmacy&query_place_id=ChIJy4CUjRktbogRBBlt5UN0cAI",
    "searchPageUrl": "https://www.google.com/maps/search/independent%20pharmacy%20Evansville%20IN/@65.00037634152156,-167.73503139124153,13z?hl=en",
    "searchString": "independent pharmacy Evansville IN",
    "language": "en",
    "rank": 20,
    "isAdvertisement": false,
    "imageUrl": "https://lh3.googleusercontent.com/gps-cs-s/AC9h4noxOcDNrk6tJyYmPdpVIKAecK5rOzBAvWZBgl2YtpHTgBNvCJQ4mdgCJGuHBf9pGOSswDaYXLyjIxhh72X0hIAu33BM8XJmF3euB1VdxmQXVYjcphj-4e5zeYnvbI_joCIb1OY=w408-h270-k-no",
    "kgmid": "/g/11bxc80bhm",
    "classification": "independent",
    "is_independent": true,
    "is_compounding": false,
    "confidence": 0.9,
    "source": "perplexity",
    "method": "llm"
  }
]