[
  {
    "title": "GLASGOW PHARMACY",
    "price": null,
    "categoryName": "Pharmacy",
    "address": "3625 Wrangle Hill Rd, Bear, DE 19701",
    "neighborhood": null,
    "street": "3625 Wrangle Hill Rd",
    "city": "Bear",
    "postalCode": "19701",
    "state": "Delaware",
    "countryCode": "US",
    "website": "https://www.glasgowpharmacy.com/",
    "phone": "(302) 838-8700",
    "phoneUnformatted": "+13028388700",
    "claimThisBusiness": false,
    "location": {
      "lat": 39.5842459,
      "lng": -75.6836412
    },
    "totalScore": 3.9,
    "permanentlyClosed": false,
    "temporarilyClosed": false,
    "placeId": null,
    "categories": [
      "Pharmacy",
      "Chemical manufacturer"
    ],
    "fid": "0x89c7a871db95614b:0x8d36aaf9fcc76209",
    "cid": "10175508398754718217",
    "reviewsCount": 26,
    "imagesCount": 2,
    "imageCategories": [],
    "scrapedAt": "2025-06-22T07:30:57.382Z",
    "googleFoodUrl": null,
    "hotelAds": [],
    "openingHours": [
      {
        "day": "Monday",
        "hours": "9\u202fAM to 6\u202fPM"
      },
      {
        "day": "Tuesday",
        "hours": "9\u202fAM to 6\u202fPM"
      },
      {
        "day": "Wednesday",
        "hours": "9\u202fAM to 6\u202fPM"
      },
      {
        "day": "Thursday",
        "hours": "9\u202fAM to 6\u202fPM"
      },
      {
        "day": "Friday",
        "hours": "9\u202fAM to 6\u202fPM"
      },
      {
        "day": "Saturday",
        "hours": "Closed"
      },
      {
        "day": "Sunday",
        "hours": "Closed"
      }
    ],
    "peopleAlsoSearch": [],
    "placesTags": [],
    "reviewsTags": [],
    "additionalInfo": {
      "From the business": [
        {
          "Small business": true
        }
      ],
      "Service options": [
        {
          "Delivery": true
        },
        {
          "In-store pickup": true
        },
        {
          "In-store shopping": true
        }
      ],
      "Accessibility": [
        {
          "Wheelchair accessible entrance": true
        },
        {
          "Wheelchair accessible parking lot": true
        }
      ],
      "Planning": [
        {
          "Quick visit": true
        }
      ],
      "Payments": [
        {
          "Credit cards": true
        },
        {
          "Debit cards": true
        },
        {
          "NFC mobile payments": true
        },
        {
          "Credit cards": true
        }
      ]
    },
    "gasPrices": [],
    "url": "https://www.google.com/maps/search/?api=1&query=GLASGOW%20PHARMACY&query_place_id=ChIJS2GV23Gox4kRCWLH_PmqNo0",
    "searchPageUrl": "https://www.google.com/maps/search/independent%20pharmacy%20Bear%20DE/@53.926924098432366,-166.92009879946335,9z?hl=en",
    "searchString": "independent pharmacy Bear DE",
    "language": "en",
    "rank": 1,
    "isAdvertisement": false,
    "imageUrl": "https://lh3.googleusercontent.com/p/AF1QipNz3lq-vZrgsUiwGQ_QTyzNmeb9W4pEp72Tull_=w427-h240-k-no",
    "kgmid": "/g/11g69hb093",
    "classification": "independent",
    "is_independent": true,
    "is_compounding": false,
    "confidence": 0.9,
    "source": "perplexity",
    "method": "llm",
    "query_location": "bear_de"
  },
  {
    "title": "Sav-on Pharmacy",
    "price": null,
    "categoryName": "Pharmacy",
    "address": "146 Fox Hunt Dr, Bear, DE 19701",
    "neighborhood": null,
    "street": "146 Fox Hunt Dr",
    "city": "Bear",
    "postalCode": "19701",
    "state": "Delaware",
    "countryCode": "US",
    "website": "https://www.acmemarkets.com/pharmacy.html",
    "phone": "(302) 836-9387",
    "phoneUnformatted": "+13028369387",
    "claimThisBusiness": true,
    "location": {
      "lat": 39.6066219,
      "lng": -75.7121198
    },
    "totalScore": 5,
    "permanentlyClosed": false,
    "temporarilyClosed": false,
    "placeId": null,
    "categories": [
      "Pharmacy"
    ],
    "fid": "0x89c7078ac6b2b071:0x22f0544d0c37f059",
    "cid": "2517604881594314841",
    "reviewsCount": 3,
    "imagesCount": 2,
    "imageCategories": [],
    "scrapedAt": "2025-06-22T07:30:57.384Z",
    "googleFoodUrl": null,
    "hotelAds": [],
    "openingHours": [],
    "peopleAlsoSearch": [],
    "placesTags": [],
    "reviewsTags": [],
    "additionalInfo": {
      "Accessibility": [
        {
          "Wheelchair accessible entrance": true
        },
        {
          "Wheelchair accessible parking lot": true
        }
      ],
      "Payments": [
        {
          "Credit cards": true
        },
        {
          "Debit cards": true
        },
        {
          "Credit cards": true
        }
      ]
    },
    "gasPrices": [],
    "url": "https://www.google.com/maps/search/?api=1&query=Sav-on%20Pharmacy&query_place_id=ChIJcbCyxooHx4kRWfA3DE1U8CI",
    "searchPageUrl": "https://www.google.com/maps/search/independent%20pharmacy%20Bear%20DE/@53.926924098432366,-166.92009879946335,9z?hl=en",
    "searchString": "independent pharmacy Bear DE",
    "language": "en",
    "rank": 2,
    "isAdvertisement": false,
    "imageUrl": "https://lh3.googleusercontent.com/gps-cs-s/AC9h4nqzGeC85ljYVezka5Pj1eySmpboaWqmCY-jljmoZfHvB5nyhTAhT6vFZ2Fisbh_OOa1ogMC2SLTVGksQulBMYk5iazD-buYvYRcSGUABYoPjDVtgBCKFph1-EOqATBTR9KRvV4=w460-h240-k-no",
    "kgmid": "/g/11k46dkx62",
    "classification": "chain",
    "is_independent": false,
    "is_compounding": false,
    "confidence": 0.95,
    "source": "perplexity",
    "method": "llm",
    "query_location": "bear_de"
  },
  {
    "title": "Super Health Pharmacy Crofton",
    "price": null,
    "categoryName": "Pharmacy",
    "address": "484 Bear Christiana Rd Unit# 6, Bear, DE 19701",
    "neighborhood": null,
    "street": "484 Bear Christiana Rd Unit# 6",
    "city": "Bear",
    "postalCode": "19701",
    "state": "Delaware",
    "countryCode": "US",
    "phone": "(302) 663-1244",
    "phoneUnformatted": "+13026631244",
    "claimThisBusiness": false,
    "location": {
      "lat": 39.6469614,
      "lng": -75.6574764
    },
    "totalScore": 5,
    "permanentlyClosed": false,
    "temporarilyClosed": false,
    "placeId": "ChIJWbtzgS8Hx4kRbAMXVOuYpqg",
    "categories": [
      "Pharmacy"
    ],
    "fid": "0x89c7072f8173bb59:0xa8a698eb5417036c",
    "cid": "12152568781001393004",
    "reviewsCount": 33,
    "imagesCount": 4,
    "imageCategories": [],
    "scrapedAt": "2025-06-22T07:30:57.384Z",
    "googleFoodUrl": null,
    "hotelAds": [],
    "openingHours": [
      {
        "day": "Monday",
        "hours": "9\u202fAM to 6\u202fPM"
      },
      {
        "day": "Tuesday",
        "hours": "9\u202fAM to 6\u202fPM"
      },
      {
        "day": "Wednesday",
        "hours": "9\u202fAM to 6\u202fPM"
      },
      {
        "day": "Thursday",
        "hours": "9\u202fAM to 6\u202fPM"
      },
      {
        "day": "Friday",
        "hours": "9\u202fAM to 6\u202fPM"
      },
      {
        "day": "Saturday",
        "hours": "10\u202fAM to 1\u202fPM"
      },
      {
        "day": "Sunday",
        "hours": "Closed"
      }
    ],
    "peopleAlsoSearch": [],
    "placesTags": [],
    "reviewsTags": [],
    "additionalInfo": {
      "From the business": [
        {
          "Identifies as Asian-owned": true
        },
        {
          "Small business": true
        }
      ],
      "Service options": [
        {
          "In-store pickup": true
        },
        {
          "In-store shopping": true
        }
      ],
      "Accessibility": [
        {
          "Wheelchair accessible entrance": true
        },
        {
          "Wheelchair accessible parking lot": true
        }
      ],
      "Planning": [
        {
          "Quick visit": true
        }
      ],
      "Payments": [
        {
          "Credit cards": true
        },
        {
          "Debit cards": true
        },
        {
          "NFC mobile payments": true
        },
        {
          "Credit cards": true
        }
      ]
    },
    "gasPrices": [],
    "url": "https://www.google.com/maps/search/?api=1&query=Super%20Health%20Pharmacy%20Crofton&query_place_id=ChIJWbtzgS8Hx4kRbAMXVOuYpqg",
    "searchPageUrl": "https://www.google.com/maps/search/independent%20pharmacy%20Bear%20DE/@53.926924098432366,-166.92009879946335,9z?hl=en",
    "searchString": "independent pharmacy Bear DE",
    "language": "en",
    "rank": 3,
    "isAdvertisement": false,
    "imageUrl": "https://lh3.googleusercontent.com/p/AF1QipOQDxiGa4eA9sAPbxYlAczCo5EGS6tyGsW0zELr=w426-h240-k-no",
    "kgmid": "/g/11nck_pbl_",
    "classification": "hospital",
    "is_independent": false,
    "confidence": 1.0,
    "source": "rule-based"
  },
  {
    "title": "Willey Pharmacy",
    "price": null,
    "categoryName": "Pharmacy",
    "address": "3625 Wrangle Hill Rd, Bear, DE 19701",
    "neighborhood": null,
    "street": "3625 Wrangle Hill Rd",
    "city": "Bear",
    "postalCode": "19701",
    "state": "Delaware",
    "countryCode": "US",
    "phone": "(302) 353-1050",
    "phoneUnformatted": "+13023531050",
    "claimThisBusiness": false,
    "location": {
      "lat": 39.5842526,
      "lng": -75.683521
    },
    "totalScore": 4.2,
    "permanentlyClosed": true,
    "temporarilyClosed": false,
    "placeId": null,
    "categories": [
      "Pharmacy"
    ],
    "fid": "0x89c707d7d99a4c8d:0x53b152b2d05614f2",
    "cid": "6030692303978763506",
    "reviewsCount": 23,
    "imagesCount": 7,
    "imageCategories": [],
    "scrapedAt": "2025-06-22T07:30:57.384Z",
    "googleFoodUrl": null,
    "hotelAds": [],
    "openingHours": [],
    "peopleAlsoSearch": [],
    "placesTags": [],
    "reviewsTags": [],
    "additionalInfo": {
      "From the business": [
        {
          "Small business": true
        }
      ],
      "Service options": [
        {
          "Drive-through": true
        },
        {
          "In-store shopping": true
        },
        {
          "Same-day delivery": false
        }
      ],
      "Accessibility": [
        {
          "Wheelchair accessible restroom": true
        },
        {
          "Wheelchair accessible seating": true
        }
      ],
      "Amenities": [
        {
          "Gender-neutral restroom": true
        }
      ],
      "Payments": [
        {
          "Debit cards": true
        },
        {
          "NFC mobile payments": true
        },
        {
          "Credit cards": true
        }
      ]
    },
    "gasPrices": [],
    "url": "https://www.google.com/maps/search/?api=1&query=Willey%20Pharmacy&query_place_id=ChIJjUya2dcHx4kR8hRW0LJSsVM",
    "searchPageUrl": "https://www.google.com/maps/search/independent%20pharmacy%20Bear%20DE/@53.926924098432366,-166.92009879946335,9z?hl=en",
    "searchString": "independent pharmacy Bear DE",
    "language": "en",
    "rank": 4,
    "isAdvertisement": false,
    "imageUrl": "https://lh3.googleusercontent.com/p/AF1QipMFNneq3n6r8Xf2yJqCdEDAu4Cq4W9093QXerS2=w408-h544-k-no",
    "kgmid": "/g/11hk0yf6sy",
    "classification": "independent",
    "is_independent": true,
    "is_compounding": false,
    "confidence": 0.85,
    "source": "perplexity",
    "method": "llm",
    "query_location": "bear_de"
  },
  {
    "title": "Ivira Pharmacy",
    "price": null,
    "categoryName": "Pharmacy",
    "address": "1102 Quintilio Dr, Bear, DE 19701, United States",
    "neighborhood": null,
    "street": "1102 Quintilio Dr",
    "city": "Bear",
    "postalCode": "19701",
    "state": "Delaware",
    "countryCode": "US",
    "website": "https://www.ivirahealth.com/",
    "phone": "+1 302-467-2747",
    "phoneUnformatted": "+13024672747",
    "claimThisBusiness": false,
    "location": {
      "lat": 39.6308358,
      "lng": -75.6652157
    },
    "totalScore": 5,
    "permanentlyClosed": false,
    "temporarilyClosed": false,
    "placeId": null,
    "categories": [
      "Pharmacy"
    ],
    "fid": "0x89c70740340d41c3:0x4ada11f4aebca202",
    "cid": "5393643246330880514",
    "reviewsCount": 4,
    "imagesCount": 1,
    "imageCategories": [],
    "scrapedAt": "2025-06-22T07:31:04.279Z",
    "googleFoodUrl": null,
    "hotelAds": [],
    "openingHours": [
      {
        "day": "Monday",
        "hours": "9\u202fAM to 6\u202fPM"
      },
      {
        "day": "Tuesday",
        "hours": "9\u202fAM to 6\u202fPM"
      },
      {
        "day": "Wednesday",
        "hours": "9\u202fAM to 6\u202fPM"
      },
      {
        "day": "Thursday",
        "hours": "9\u202fAM to 6\u202fPM"
      },
      {
        "day": "Friday",
        "hours": "9\u202fAM to 6\u202fPM"
      },
      {
        "day": "Saturday",
        "hours": "Closed"
      },
      {
        "day": "Sunday",
        "hours": "Closed"
      }
    ],
    "peopleAlsoSearch": [],
    "placesTags": [],
    "reviewsTags": [],
    "additionalInfo": {
      "Service options": [
        {
          "In-store pick-up": true
        }
      ],
      "Accessibility": [
        {
          "Wheelchair-accessible car park": true
        },
        {
          "Wheelchair-accessible entrance": true
        }
      ],
      "Planning": [
        {
          "Quick visit": true
        }
      ],
      "Payments": [
        {
          "Credit cards": true
        }
      ]
    },
    "gasPrices": [],
    "url": "https://www.google.com/maps/search/?api=1&query=Ivira%20Pharmacy&query_place_id=ChIJw0ENNEAHx4kRAqK8rvQR2ko",
    "searchPageUrl": "https://www.google.com/maps/search/independent%20pharmacy%20Bear%20DE/@58.095490516641576,-153.11051097135197,9z?hl=en",
    "searchString": "independent pharmacy Bear DE",
    "language": "en",
    "rank": 2,
    "isAdvertisement": false,
    "imageUrl": "https://streetviewpixels-pa.googleapis.com/v1/thumbnail?panoid=AN_Lg0xyDVwtBccbQNFEtw&cb_client=search.gws-prod.gps&w=408&h=240&yaw=245.11052&pitch=0&thumbfov=100",
    "kgmid": "/g/11vbv3y6c8",
    "classification": "independent",
    "is_independent": true,
    "is_compounding": false,
    "confidence": 0.9,
    "source": "perplexity",
    "method": "llm",
    "query_location": "bear_de"
  },
  {
    "title": "Walgreens Pharmacy",
    "description": "Department of the Walgreens chain providing prescription medications & other health-related items.",
    "price": null,
    "categoryName": "Pharmacy",
    "address": "1120 Pulaski Hwy, Bear, DE 19701",
    "neighborhood": null,
    "street": "1120 Pulaski Hwy",
    "city": "Bear",
    "postalCode": "19701",
    "state": "Delaware",
    "countryCode": "US",
    "website": "https://www.walgreens.com/locator/walgreens-1120+pulaski+hwy-bear-de-19701/id=11017",
    "phone": "(302) 832-2300",
    "phoneUnformatted": "+13028322300",
    "claimThisBusiness": false,
    "location": {
      "lat": 39.6311392,
      "lng": -75.6615572
    },
    "totalScore": 3.1,
    "permanentlyClosed": false,
    "temporarilyClosed": false,
    "placeId": "ChIJy6ekAkQHx4kRFS-yiw_KaV8",
    "categories": [
      "Pharmacy"
    ],
    "fid": "0x89c7074402a4a7cb:0x5f69ca0f8bb22f15",
    "cid": "6875248474274803477",
    "reviewsCount": 49,
    "imagesCount": 4,
    "imageCategories": [],
    "scrapedAt": "2025-06-22T07:31:10.464Z",
    "googleFoodUrl": null,
    "hotelAds": [],
    "openingHours": [
      {
        "day": "Monday",
        "hours": "2\u202fAM to 1:30\u202fAM"
      },
      {
        "day": "Tuesday",
        "hours": "2\u202fAM to 1:30\u202fAM"
      },
      {
        "day": "Wednesday",
        "hours": "2\u202fAM to 1:30\u202fAM"
      },
      {
        "day": "Thursday",
        "hours": "2\u202fAM to 1:30\u202fAM"
      },
      {
        "day": "Friday",
        "hours": "2\u202fAM to 1:30\u202fAM"
      },
      {
        "day": "Saturday",
        "hours": "2\u202fAM to 10\u202fPM"
      },
      {
        "day": "Sunday",
        "hours": "2\u202fAM to 1:30\u202fAM"
      }
    ],
    "additionalOpeningHours": {
      "Drive through": [
        {
          "day": "Monday",
          "hours": "2\u202fAM\u20131:30\u202fAM"
        },
        {
          "day": "Tuesday",
          "hours": "2\u202fAM\u20131:30\u202fAM"
        },
        {
          "day": "Wednesday",
          "hours": "2\u202fAM\u20131:30\u202fAM"
        },
        {
          "day": "Thursday",
          "hours": "2\u202fAM\u20131:30\u202fAM"
        },
        {
          "day": "Friday",
          "hours": "2\u202fAM\u20131:30\u202fAM"
        },
        {
          "day": "Saturday",
          "hours": "2\u202fAM\u201310\u202fPM"
        },
        {
          "day": "Sunday",
          "hours": "2\u202fAM\u20131:30\u202fAM"
        }
      ]
    },
    "peopleAlsoSearch": [],
    "placesTags": [],
    "reviewsTags": [],
    "additionalInfo": {
      "Service options": [
        {
          "Curbside pickup": true
        },
        {
          "Drive-through": true
        },
        {
          "In-store pickup": true
        },
        {
          "Onsite services": true
        }
      ],
      "Accessibility": [
        {
          "Wheelchair accessible entrance": true
        },
        {
          "Wheelchair accessible parking lot": true
        }
      ],
      "Offerings": [
        {
          "Passport photos": true
        }
      ],
      "Planning": [
        {
          "Quick visit": true
        }
      ],
      "Payments": [
        {
          "Checks": true
        },
        {
          "Credit cards": true
        },
        {
          "Debit cards": true
        }
      ]
    },
    "gasPrices": [],
    "url": "https://www.google.com/maps/search/?api=1&query=Walgreens%20Pharmacy&query_place_id=ChIJy6ekAkQHx4kRFS-yiw_KaV8",
    "searchPageUrl": "https://www.google.com/maps/search/independent%20pharmacy%20Bear%20DE/@51.14639400957372,-179.4365489794267,11z?hl=en",
    "searchString": "independent pharmacy Bear DE",
    "language": "en",
    "rank": 3,
    "isAdvertisement": false,
    "imageUrl": "https://lh3.googleusercontent.com/gps-cs-s/AC9h4noayXDBvsPX6RJ0ZWjc_k7O6nV-KULPboE62caPzbVlqXiUjCvcO9JgmH5zeSUHo07wPttMv_PdHE-ZroYDSZG2qlIqVcpRsAn5ltUn6cEPY2O__3TbcUanA8ILY90Ux0jV8jDQ1eru9p8=w408-h306-k-no",
    "kgmid": "/g/11l2f55l_b",
    "classification": "chain",
    "is_independent": false,
    "confidence": 1.0,
    "source": "rule-based"
  },
  {
    "title": "CVS Pharmacy",
    "price": null,
    "categoryName": "Pharmacy",
    "address": "1545 Pulaski Hwy, Bear, DE 19701",
    "neighborhood": null,
    "street": "1545 Pulaski Hwy",
    "city": "Bear",
    "postalCode": "19701",
    "state": "Delaware",
    "countryCode": "US",
    "website": "https://www.cvs.com/store-locator/bear-de-pharmacies/1545-pulaski-highway-bear-de-19701/storeid=3042?WT.mc_id=LS_GOOGLE_RX_3042",
    "phone": "(302) 832-8701",
    "phoneUnformatted": "+13028328701",
    "claimThisBusiness": false,
    "location": {
      "lat": 39.622928,
      "lng": -75.6850095
    },
    "totalScore": 4.1,
    "permanentlyClosed": false,
    "temporarilyClosed": false,
    "placeId": "ChIJA3iap6AHx4kRr1Rs187I7po",
    "categories": [
      "Pharmacy"
    ],
    "fid": "0x89c707a0a79a7803:0x9aeec8ced76c54af",
    "cid": "11164081317001057455",
    "reviewsCount": 58,
    "imagesCount": 18,
    "imageCategories": [],
    "scrapedAt": "2025-06-22T07:31:10.464Z",
    "googleFoodUrl": null,
    "hotelAds": [],
    "openingHours": [
      {
        "day": "Monday",
        "hours": "8\u202fAM to 1:30\u202fPM, 2 to 8\u202fPM"
      },
      {
        "day": "Tuesday",
        "hours": "8\u202fAM to 1:30\u202fPM, 2 to 8\u202fPM"
      },
      {
        "day": "Wednesday",
        "hours": "8\u202fAM to 1:30\u202fPM, 2 to 8\u202fPM"
      },
      {
        "day": "Thursday",
        "hours": "8\u202fAM to 1:30\u202fPM, 2 to 8\u202fPM"
      },
      {
        "day": "Friday",
        "hours": "8\u202fAM to 1:30\u202fPM, 2 to 8\u202fPM"
      },
      {
        "day": "Saturday",
        "hours": "10\u202fAM to 1:30\u202fPM, 2 to 5\u202fPM"
      },
      {
        "day": "Sunday",
        "hours": "10\u202fAM to 1:30\u202fPM, 2 to 5\u202fPM"
      }
    ],
    "peopleAlsoSearch": [],
    "placesTags": [],
    "reviewsTags": [],
    "additionalInfo": {
      "Service options": [
        {
          "Delivery": true
        },
        {
          "Drive-through": true
        },
        {
          "In-store pickup": true
        },
        {
          "In-store shopping": true
        }
      ],
      "Accessibility": [
        {
          "Wheelchair accessible entrance": true
        },
        {
          "Wheelchair accessible parking lot": true
        }
      ],
      "Offerings": [
        {
          "Medication disposal": true
        },
        {
          "Naloxone": true
        },
        {
          "Passport photos": true
        }
      ],
      "Crowd": [
        {
          "LGBTQ+ friendly": true
        },
        {
          "Transgender safespace": true
        }
      ],
      "Planning": [
        {
          "Quick visit": true
        }
      ],
      "Payments": [
        {
          "Credit cards": true
        },
        {
          "Debit cards": true
        },
        {
          "NFC mobile payments": true
        },
        {
          "Credit cards": true
        }
      ]
    },
    "gasPrices": [],
    "url": "https://www.google.com/maps/search/?api=1&query=CVS%20Pharmacy&query_place_id=ChIJA3iap6AHx4kRr1Rs187I7po",
    "searchPageUrl": "https://www.google.com/maps/search/independent%20pharmacy%20Bear%20DE/@51.14639400957372,-179.4365489794267,11z?hl=en",
    "searchString": "independent pharmacy Bear DE",
    "language": "en",
    "rank": 4,
    "isAdvertisement": false,
    "imageUrl": "https://lh3.googleusercontent.com/p/AF1QipNZvYvnrmv9IgR2fWGZZJ8cXW8YV4cmUQZMUTAT=w408-h272-k-no",
    "kgmid": "/g/11c462ttvq",
    "classification": "chain",
    "is_independent": false,
    "confidence": 1.0,
    "source": "rule-based"
  },
  {
    "title": "Rite Aid",
    "price": "$$",
    "categoryName": "Drug store",
    "address": "1698 Pulaski Hwy, Bear, DE 19701",
    "neighborhood": null,
    "street": "1698 Pulaski Hwy",
    "city": "Bear",
    "postalCode": "19701",
    "state": "Delaware",
    "countryCode": "US",
    "website": "https://www.riteaid.com/locations/de/bear/1698-pulaski-highway.html",
    "phone": "(302) 836-1004",
    "phoneUnformatted": "+13028361004",
    "claimThisBusiness": false,
    "location": {
      "lat": 39.618418,
      "lng": -75.693642
    },
    "locatedIn": "Rite Aid Pharmacy",
    "totalScore": 3.1,
    "permanentlyClosed": false,
    "temporarilyClosed": false,
    "placeId": "ChIJcbAwKpkHx4kR3T7sXMlaAA8",
    "categories": [
      "Drug store",
      "Beauty supply store",
      "Convenience store",
      "General store",
      "Greeting card shop"
    ],
    "fid": "0x89c707992a30b071:0xf005ac95cec3edd",
    "cid": "1080963731462831837",
    "reviewsCount": 63,
    "imagesCount": 17,
    "imageCategories": [],
    "scrapedAt": "2025-06-22T07:31:10.465Z",
    "googleFoodUrl": null,
    "hotelAds": [],
    "openingHours": [
      {
        "day": "Monday",
        "hours": "9\u202fAM to 9\u202fPM"
      },
      {
        "day": "Tuesday",
        "hours": "9\u202fAM to 9\u202fPM"
      },
      {
        "day": "Wednesday",
        "hours": "9\u202fAM to 9\u202fPM"
      },
      {
        "day": "Thursday",
        "hours": "9\u202fAM to 9\u202fPM"
      },
      {
        "day": "Friday",
        "hours": "9\u202fAM to 9\u202fPM"
      },
      {
        "day": "Saturday",
        "hours": "9\u202fAM to 6\u202fPM"
      },
      {
        "day": "Sunday",
        "hours": "10\u202fAM to 6\u202fPM"
      }
    ],
    "additionalOpeningHours": {
      "Rite Aid Pharmacy": [
        {
          "day": "Monday",
          "hours": "9\u202fAM\u20131:30\u202fPM"
        },
        {
          "day": "Tuesday",
          "hours": "9\u202fAM\u20131:30\u202fPM"
        },
        {
          "day": "Wednesday",
          "hours": "9\u202fAM\u20131:30\u202fPM"
        },
        {
          "day": "Thursday",
          "hours": "9\u202fAM\u20131:30\u202fPM"
        },
        {
          "day": "Friday",
          "hours": "9\u202fAM\u20131:30\u202fPM"
        },
        {
          "day": "Saturday",
          "hours": "9\u202fAM\u20131:30\u202fPM"
        },
        {
          "day": "Sunday",
          "hours": "10\u202fAM\u20131:30\u202fPM"
        }
      ]
    },
    "peopleAlsoSearch": [],
    "placesTags": [],
    "reviewsTags": [],
    "additionalInfo": {
      "Service options": [
        {
          "Delivery": true
        },
        {
          "Drive-through": true
        },
        {
          "In-store pickup": true
        }
      ],
      "Accessibility": [
        {
          "Wheelchair accessible parking lot": true
        }
      ],
      "Offerings": [
        {
          "Naloxone": true
        }
      ],
      "Planning": [
        {
          "Quick visit": true
        }
      ],
      "Payments": [
        {
          "Checks": true
        },
        {
          "Credit cards": true
        },
        {
          "Debit cards": true
        },
        {
          "NFC mobile payments": true
        },
        {
          "SNAP/EBT": true
        },
        {
          "Credit cards": true
        }
      ]
    },
    "gasPrices": [],
    "url": "https://www.google.com/maps/search/?api=1&query=Rite%20Aid&query_place_id=ChIJcbAwKpkHx4kR3T7sXMlaAA8",
    "searchPageUrl": "https://www.google.com/maps/search/independent%20pharmacy%20Bear%20DE/@51.14639400957372,-179.4365489794267,11z?hl=en",
    "searchString": "independent pharmacy Bear DE",
    "language": "en",
    "rank": 5,
    "isAdvertisement": false,
    "imageUrl": "https://lh3.googleusercontent.com/gps-cs-s/AC9h4nrQ6yzqr8EQHj8YmN3gFg6BtW-IA6WGjyZV9O1asEaEJ_HQnXnbw4ciPK9HS3OEJt43dyBGB9oGZOabvAerJMUoe4KKKMJizyt3MTQX-rAfWRQeJg1gxAjnphdfUEkZgv7atMxHtw=w426-h240-k-no",
    "kgmid": "/g/1tnjkjlg",
    "classification": "chain",
    "is_independent": false,
    "confidence": 1.0,
    "source": "rule-based"
  },
  {
    "title": "Walgreens",
    "description": "Drugstore chain with health & beauty aids, prescriptions & photo services, plus mini-mart basics.",
    "price": "$$",
    "categoryName": "Drug store",
    "address": "1120 Pulaski Hwy, Bear, DE 19701",
    "neighborhood": null,
    "street": "1120 Pulaski Hwy",
    "city": "Bear",
    "postalCode": "19701",
    "state": "Delaware",
    "countryCode": "US",
    "website": "https://www.walgreens.com/locator/walgreens-1120+pulaski+hwy-bear-de-19701/id=11017",
    "phone": "(302) 832-2300",
    "phoneUnformatted": "+13028322300",
    "claimThisBusiness": false,
    "location": {
      "lat": 39.6311585,
      "lng": -75.6615566
    },
    "locatedIn": "Walgreens Pharmacy",
    "totalScore": 2.3,
    "permanentlyClosed": false,
    "temporarilyClosed": false,
    "placeId": "ChIJ6zmWZOMGx4kRRCXFm38YH7M",
    "categories": [
      "Drug store",
      "Beauty supply store",
      "Convenience store",
      "Cosmetics store",
      "Greeting card shop",
      "Perfume store",
      "Stationery store"
    ],
    "fid": "0x89c706e3649639eb:0xb31f187f9bc52544",
    "cid": "12907061993420432708",
    "reviewsCount": 228,
    "imagesCount": 18,
    "imageCategories": [],
    "scrapedAt": "2025-06-22T07:31:10.465Z",
    "googleFoodUrl": null,
    "hotelAds": [],
    "openingHours": [
      {
        "day": "Monday",
        "hours": "Open 24 hours"
      },
      {
        "day": "Tuesday",
        "hours": "Open 24 hours"
      },
      {
        "day": "Wednesday",
        "hours": "Open 24 hours"
      },
      {
        "day": "Thursday",
        "hours": "Open 24 hours"
      },
      {
        "day": "Friday",
        "hours": "Open 24 hours"
      },
      {
        "day": "Saturday",
        "hours": "Open 24 hours"
      },
      {
        "day": "Sunday",
        "hours": "Open 24 hours"
      }
    ],
    "additionalOpeningHours": {
      "Walgreens Pharmacy": [
        {
          "day": "Monday",
          "hours": "2\u202fAM\u20131:30\u202fAM"
        },
        {
          "day": "Tuesday",
          "hours": "2\u202fAM\u20131:30\u202fAM"
        },
        {
          "day": "Wednesday",
          "hours": "2\u202fAM\u20131:30\u202fAM"
        },
        {
          "day": "Thursday",
          "hours": "2\u202fAM\u20131:30\u202fAM"
        },
        {
          "day": "Friday",
          "hours": "2\u202fAM\u20131:30\u202fAM"
        },
        {
          "day": "Saturday",
          "hours": "2\u202fAM\u201310\u202fPM"
        },
        {
          "day": "Sunday",
          "hours": "2\u202fAM\u20131:30\u202fAM"
        }
      ],
      "Walgreens Photo": [
        {
          "day": "Monday",
          "hours": "Open 24 hours"
        },
        {
          "day": "Tuesday",
          "hours": "Open 24 hours"
        },
        {
          "day": "Wednesday",
          "hours": "Open 24 hours"
        },
        {
          "day": "Thursday",
          "hours": "Open 24 hours"
        },
        {
          "day": "Friday",
          "hours": "Open 24 hours"
        },
        {
          "day": "Saturday",
          "hours": "Open 24 hours"
        },
        {
          "day": "Sunday",
          "hours": "Open 24 hours"
        }
      ],
      "Pickup": [
        {
          "day": "Monday",
          "hours": "Open 24 hours"
        },
        {
          "day": "Tuesday",
          "hours": "Open 24 hours"
        },
        {
          "day": "Wednesday",
          "hours": "Open 24 hours"
        },
        {
          "day": "Thursday",
          "hours": "Open 24 hours"
        },
        {
          "day": "Friday",
          "hours": "Open 24 hours"
        },
        {
          "day": "Saturday",
          "hours": "Open 24 hours"
        },
        {
          "day": "Sunday",
          "hours": "Open 24 hours"
        }
      ]
    },
    "peopleAlsoSearch": [],
    "placesTags": [],
    "reviewsTags": [],
    "additionalInfo": {
      "Service options": [
        {
          "Curbside pickup": true
        },
        {
          "Delivery": true
        },
        {
          "Drive-through": true
        },
        {
          "In-store pickup": true
        },
        {
          "Onsite services": true
        }
      ],
      "Accessibility": [
        {
          "Wheelchair accessible entrance": true
        },
        {
          "Wheelchair accessible parking lot": true
        }
      ],
      "Offerings": [
        {
          "Medication disposal": true
        },
        {
          "Naloxone": true
        },
        {
          "Passport photos": true
        }
      ],
      "Planning": [
        {
          "Quick visit": true
        }
      ],
      "Payments": [
        {
          "Checks": true
        },
        {
          "Credit cards": true
        },
        {
          "Debit cards": true
        },
        {
          "NFC mobile payments": true
        },
        {
          "SNAP/EBT": true
        },
        {
          "Credit cards": true
        }
      ]
    },
    "gasPrices": [],
    "url": "https://www.google.com/maps/search/?api=1&query=Walgreens&query_place_id=ChIJ6zmWZOMGx4kRRCXFm38YH7M",
    "searchPageUrl": "https://www.google.com/maps/search/independent%20pharmacy%20Bear%20DE/@51.14639400957372,-179.4365489794267,11z?hl=en",
    "searchString": "independent pharmacy Bear DE",
    "language": "en",
    "rank": 6,
    "isAdvertisement": false,
    "imageUrl": "https://lh3.googleusercontent.com/gps-cs-s/AC9h4np4-yE9wRZiGCKFypMW-opqlwLeZkNB3-Pk43D5KvCuHOPb2I9-_1OgnWhrsmx1qljXgEQtLJhxA2dXrgb0Io1uBl_Z03U4swEMmJbf0WPcgU9YdJxCuRgJpVa4vC1KIe9amS_Rhw=w408-h544-k-no",
    "kgmid": "/g/1tf58vwt",
    "classification": "chain",
    "is_independent": false,
    "confidence": 1.0,
    "source": "rule-based"
  },
  {
    "title": "Walgreens Pharmacy",
    "description": "Department of the Walgreens chain providing prescription medications & other health-related items.",
    "price": "$$",
    "categoryName": "Pharmacy",
    "address": "128 Fox Hunt Dr, Bear, DE 19701",
    "neighborhood": null,
    "street": "128 Fox Hunt Dr",
    "city": "Bear",
    "postalCode": "19701",
    "state": "Delaware",
    "countryCode": "US",
    "website": "https://www.walgreens.com/locator/walgreens-128+foxhunt+dr-bear-de-19701/id=11022",
    "phone": "(302) 834-9209",
    "phoneUnformatted": "+13028349209",
    "claimThisBusiness": false,
    "location": {
      "lat": 39.6063856,
      "lng": -75.7130454
    },
    "totalScore": 2.7,
    "permanentlyClosed": false,
    "temporarilyClosed": false,
    "placeId": "ChIJL4EduooHx4kRE-grJ7at3y0",
    "categories": [
      "Pharmacy"
    ],
    "fid": "0x89c7078aba1d812f:0x2ddfadb6272be813",
    "cid": "3305551649366075411",
    "reviewsCount": 7,
    "imagesCount": 6,
    "imageCategories": [],
    "scrapedAt": "2025-06-22T07:31:10.465Z",
    "googleFoodUrl": null,
    "hotelAds": [],
    "openingHours": [
      {
        "day": "Monday",
        "hours": "9\u202fAM to 1:30\u202fPM, 2 to 9\u202fPM"
      },
      {
        "day": "Tuesday",
        "hours": "9\u202fAM to 1:30\u202fPM, 2 to 9\u202fPM"
      },
      {
        "day": "Wednesday",
        "hours": "9\u202fAM to 1:30\u202fPM, 2 to 9\u202fPM"
      },
      {
        "day": "Thursday",
        "hours": "9\u202fAM to 1:30\u202fPM, 2 to 9\u202fPM"
      },
      {
        "day": "Friday",
        "hours": "9\u202fAM to 1:30\u202fPM, 2 to 9\u202fPM"
      },
      {
        "day": "Saturday",
        "hours": "9\u202fAM to 1:30\u202fPM, 2 to 6\u202fPM"
      },
      {
        "day": "Sunday",
        "hours": "10\u202fAM to 1:30\u202fPM, 2 to 6\u202fPM"
      }
    ],
    "additionalOpeningHours": {
      "Drive through": [
        {
          "day": "Monday",
          "hours": "9\u202fAM\u20131:30\u202fPM"
        },
        {
          "day": "Tuesday",
          "hours": "9\u202fAM\u20131:30\u202fPM"
        },
        {
          "day": "Wednesday",
          "hours": "9\u202fAM\u20131:30\u202fPM"
        },
        {
          "day": "Thursday",
          "hours": "9\u202fAM\u20131:30\u202fPM"
        },
        {
          "day": "Friday",
          "hours": "9\u202fAM\u20131:30\u202fPM"
        },
        {
          "day": "Saturday",
          "hours": "9\u202fAM\u20131:30\u202fPM"
        },
        {
          "day": "Sunday",
          "hours": "10\u202fAM\u20131:30\u202fPM"
        }
      ]
    },
    "peopleAlsoSearch": [],
    "placesTags": [],
    "reviewsTags": [],
    "additionalInfo": {
      "Service options": [
        {
          "Curbside pickup": true
        },
        {
          "Delivery": true
        },
        {
          "In-store pickup": true
        }
      ],
      "Accessibility": [
        {
          "Wheelchair accessible entrance": true
        },
        {
          "Wheelchair accessible parking lot": true
        }
      ],
      "Offerings": [
        {
          "Naloxone": true
        }
      ],
      "Planning": [
        {
          "Quick visit": true
        }
      ],
      "Payments": [
        {
          "Credit cards": true
        },
        {
          "Debit cards": true
        }
      ]
    },
    "gasPrices": [],
    "url": "https://www.google.com/maps/search/?api=1&query=Walgreens%20Pharmacy&query_place_id=ChIJL4EduooHx4kRE-grJ7at3y0",
    "searchPageUrl": "https://www.google.com/maps/search/independent%20pharmacy%20Bear%20DE/@51.14639400957372,-179.4365489794267,11z?hl=en",
    "searchString": "independent pharmacy Bear DE",
    "language": "en",
    "rank": 8,
    "isAdvertisement": false,
    "imageUrl": "https://lh3.googleusercontent.com/gps-cs-s/AC9h4npvhg_twGWUJNIGuc7zYC7-E2SsbQEVCR_e7wlo1nrw6rVeHpa8Z9J1oM94pF77MdbBwEaAJBN_bXB4Ga0BOlRVyV9qK3JPWraswUKZ2ILCvzZYiRtVzIGt5j_89O3U5SI03HC1=w408-h544-k-no",
    "kgmid": "/g/11cn95xy9f",
    "classification": "chain",
    "is_independent": false,
    "confidence": 1.0,
    "source": "rule-based"
  },
  {
    "title": "Giant Pharmacy",
    "price": "$$",
    "categoryName": "Pharmacy",
    "address": "300 Eden Square Sc, Bear, DE 19701",
    "neighborhood": null,
    "street": "300 Eden Square Sc",
    "city": "Bear",
    "postalCode": "19701",
    "state": "Delaware",
    "countryCode": "US",
    "website": "https://pharmacy.giantfood.com/de/bear/300-eden-square-sc?y_source=1_MTE2Mzg1NTgtNzE1LWxvY2F0aW9uLndlYnNpdGU%3D",
    "phone": "(302) 832-0156",
    "phoneUnformatted": "+13028320156",
    "claimThisBusiness": false,
    "location": {
      "lat": 39.6336624,
      "lng": -75.6552868
    },
    "totalScore": 3.1,
    "permanentlyClosed": false,
    "temporarilyClosed": false,
    "placeId": "ChIJEVGREuUGx4kR8NehKB4f3YY",
    "categories": [
      "Pharmacy"
    ],
    "fid": "0x89c706e512915111:0x86dd1f1e28a1d7f0",
    "cid": "9717957785326573552",
    "reviewsCount": 15,
    "imagesCount": 3,
    "imageCategories": [],
    "scrapedAt": "2025-06-22T07:31:10.465Z",
    "googleFoodUrl": null,
    "hotelAds": [],
    "openingHours": [
      {
        "day": "Monday",
        "hours": "9\u202fAM to 9\u202fPM"
      },
      {
        "day": "Tuesday",
        "hours": "9\u202fAM to 9\u202fPM"
      },
      {
        "day": "Wednesday",
        "hours": "9\u202fAM to 9\u202fPM"
      },
      {
        "day": "Thursday",
        "hours": "9\u202fAM to 9\u202fPM"
      },
      {
        "day": "Friday",
        "hours": "9\u202fAM to 9\u202fPM"
      },
      {
        "day": "Saturday",
        "hours": "9\u202fAM to 6\u202fPM"
      },
      {
        "day": "Sunday",
        "hours": "10\u202fAM to 5\u202fPM"
      }
    ],
    "peopleAlsoSearch": [],
    "placesTags": [],
    "reviewsTags": [],
    "additionalInfo": {
      "Service options": [
        {
          "Delivery": true
        },
        {
          "In-store pickup": true
        },
        {
          "Onsite services": true
        }
      ],
      "Accessibility": [
        {
          "Wheelchair accessible entrance": true
        },
        {
          "Wheelchair accessible parking lot": true
        }
      ],
      "Amenities": [
        {
          "Wi-Fi": true
        },
        {
          "Free Wi-Fi": true
        }
      ],
      "Planning": [
        {
          "Quick visit": true
        }
      ],
      "Payments": [
        {
          "Credit cards": true
        }
      ]
    },
    "gasPrices": [],
    "url": "https://www.google.com/maps/search/?api=1&query=Giant%20Pharmacy&query_place_id=ChIJEVGREuUGx4kR8NehKB4f3YY",
    "searchPageUrl": "https://www.google.com/maps/search/independent%20pharmacy%20Bear%20DE/@51.14639400957372,-179.4365489794267,11z?hl=en",
    "searchString": "independent pharmacy Bear DE",
    "language": "en",
    "rank": 10,
    "isAdvertisement": false,
    "imageUrl": "https://lh3.googleusercontent.com/p/AF1QipNt3WH33oiqT9RN0qIijEuyC16V4DzC-sG9KZgb=w408-h272-k-no",
    "kgmid": "/g/1tk68n1w",
    "classification": "chain",
    "is_independent": false,
    "confidence": 1.0,
    "source": "rule-based"
  },
  {
    "title": "Rite Aid Pharmacy",
    "price": null,
    "categoryName": "Pharmacy",
    "address": "1698 Pulaski Hwy, Bear, DE 19701",
    "neighborhood": null,
    "street": "1698 Pulaski Hwy",
    "city": "Bear",
    "postalCode": "19701",
    "state": "Delaware",
    "countryCode": "US",
    "website": "https://www.riteaid.com/locations/de/bear/1698-pulaski-highway.html",
    "phone": "(302) 836-1004",
    "phoneUnformatted": "+13028361004",
    "claimThisBusiness": false,
    "location": {
      "lat": 39.6184485,
      "lng": -75.6936416
    },
    "totalScore": 3.3,
    "permanentlyClosed": false,
    "temporarilyClosed": false,
    "placeId": "ChIJG-4mxsQHx4kRcyzvcmTX9Ss",
    "categories": [
      "Pharmacy"
    ],
    "fid": "0x89c707c4c626ee1b:0x2bf5d76472ef2c73",
    "cid": "3167674739349990515",
    "reviewsCount": 6,
    "imagesCount": 7,
    "imageCategories": [],
    "scrapedAt": "2025-06-22T07:31:10.465Z",
    "googleFoodUrl": null,
    "hotelAds": [],
    "openingHours": [
      {
        "day": "Monday",
        "hours": "9\u202fAM to 1:30\u202fPM, 2 to 9\u202fPM"
      },
      {
        "day": "Tuesday",
        "hours": "9\u202fAM to 1:30\u202fPM, 2 to 9\u202fPM"
      },
      {
        "day": "Wednesday",
        "hours": "9\u202fAM to 1:30\u202fPM, 2 to 9\u202fPM"
      },
      {
        "day": "Thursday",
        "hours": "9\u202fAM to 1:30\u202fPM, 2 to 9\u202fPM"
      },
      {
        "day": "Friday",
        "hours": "9\u202fAM to 1:30\u202fPM, 2 to 9\u202fPM"
      },
      {
        "day": "Saturday",
        "hours": "9\u202fAM to 1:30\u202fPM, 2 to 6\u202fPM"
      },
      {
        "day": "Sunday",
        "hours": "10\u202fAM to 1:30\u202fPM, 2 to 6\u202fPM"
      }
    ],
    "additionalOpeningHours": {
      "Drive through": [
        {
          "day": "Monday",
          "hours": "9\u202fAM\u20138\u202fPM"
        },
        {
          "day": "Tuesday",
          "hours": "9\u202fAM\u20138\u202fPM"
        },
        {
          "day": "Wednesday",
          "hours": "9\u202fAM\u20138\u202fPM"
        },
        {
          "day": "Thursday",
          "hours": "9\u202fAM\u20138\u202fPM"
        },
        {
          "day": "Friday",
          "hours": "9\u202fAM\u20138\u202fPM"
        },
        {
          "day": "Saturday",
          "hours": "9\u202fAM\u20136\u202fPM"
        },
        {
          "day": "Sunday",
          "hours": "10\u202fAM\u20136\u202fPM"
        }
      ]
    },
    "peopleAlsoSearch": [],
    "placesTags": [],
    "reviewsTags": [],
    "additionalInfo": {
      "Service options": [
        {
          "Delivery": true
        },
        {
          "Drive-through": true
        },
        {
          "In-store pickup": true
        }
      ],
      "Accessibility": [
        {
          "Wheelchair accessible entrance": true
        },
        {
          "Wheelchair accessible parking lot": true
        }
      ],
      "Planning": [
        {
          "Quick visit": true
        }
      ],
      "Payments": [
        {
          "Checks": true
        },
        {
          "Credit cards": true
        },
        {
          "Debit cards": true
        },
        {
          "NFC mobile payments": true
        },
        {
          "Credit cards": true
        }
      ]
    },
    "gasPrices": [],
    "url": "https://www.google.com/maps/search/?api=1&query=Rite%20Aid%20Pharmacy&query_place_id=ChIJG-4mxsQHx4kRcyzvcmTX9Ss",
    "searchPageUrl": "https://www.google.com/maps/search/independent%20pharmacy%20Bear%20DE/@51.14639400957372,-179.4365489794267,11z?hl=en",
    "searchString": "independent pharmacy Bear DE",
    "language": "en",
    "rank": 11,
    "isAdvertisement": false,
    "imageUrl": "https://lh3.googleusercontent.com/p/AF1QipN7REp7G5VLaiyYXEtT5jjvcNa0miGIizGiAKIA=w408-h406-k-no",
    "kgmid": "/g/11v15hl0nv",
    "classification": "chain",
    "is_independent": false,
    "confidence": 1.0,
    "source": "rule-based"
  },
  {
    "title": "ACME Markets Pharmacy",
    "price": "$$",
    "categoryName": "Pharmacy",
    "address": "146 Fox Hunt Dr, Bear, DE 19701",
    "neighborhood": null,
    "street": "146 Fox Hunt Dr",
    "city": "Bear",
    "postalCode": "19701",
    "state": "Delaware",
    "countryCode": "US",
    "website": "https://local.pharmacy.acmemarkets.com/de/bear/146-fox-hunt-dr.html",
    "phone": "(302) 836-9387",
    "phoneUnformatted": "+13028369387",
    "claimThisBusiness": false,
    "location": {
      "lat": 39.6065644,
      "lng": -75.7121462
    },
    "totalScore": 4.5,
    "permanentlyClosed": false,
    "temporarilyClosed": false,
    "placeId": null,
    "categories": [
      "Pharmacy",
      "Drug store",
      "Vitamin & supplements store"
    ],
    "fid": "0x89c7078ac407c87f:0x31019d8bf3ffa65b",
    "cid": "3531276807254812251",
    "reviewsCount": 15,
    "imagesCount": 3,
    "imageCategories": [],
    "scrapedAt": "2025-06-22T07:31:10.465Z",
    "googleFoodUrl": null,
    "hotelAds": [],
    "openingHours": [
      {
        "day": "Monday",
        "hours": "9\u202fAM to 2\u202fPM, 2:30 to 8\u202fPM"
      },
      {
        "day": "Tuesday",
        "hours": "9\u202fAM to 2\u202fPM, 2:30 to 8\u202fPM"
      },
      {
        "day": "Wednesday",
        "hours": "9\u202fAM to 2\u202fPM, 2:30 to 8\u202fPM"
      },
      {
        "day": "Thursday",
        "hours": "9\u202fAM to 2\u202fPM, 2:30 to 8\u202fPM"
      },
      {
        "day": "Friday",
        "hours": "9\u202fAM to 2\u202fPM, 2:30 to 8\u202fPM"
      },
      {
        "day": "Saturday",
        "hours": "9\u202fAM to 5\u202fPM"
      },
      {
        "day": "Sunday",
        "hours": "9\u202fAM to 4\u202fPM"
      }
    ],
    "peopleAlsoSearch": [],
    "placesTags": [],
    "reviewsTags": [],
    "additionalInfo": {
      "Service options": [
        {
          "Delivery": true
        },
        {
          "In-store pickup": true
        },
        {
          "In-store shopping": true
        },
        {
          "Same-day delivery": true
        }
      ],
      "Accessibility": [
        {
          "Wheelchair accessible entrance": true
        },
        {
          "Wheelchair accessible parking lot": true
        }
      ],
      "Crowd": [
        {
          "LGBTQ+ friendly": true
        }
      ],
      "Planning": [
        {
          "Appointment required": true
        },
        {
          "Quick visit": true
        }
      ],
      "Payments": [
        {
          "Checks": true
        },
        {
          "Debit cards": true
        },
        {
          "Credit cards": true
        }
      ]
    },
    "gasPrices": [],
    "url": "https://www.google.com/maps/search/?api=1&query=ACME%20Markets%20Pharmacy&query_place_id=ChIJf8gHxIoHx4kRW6b_84udATE",
    "searchPageUrl": "https://www.google.com/maps/search/independent%20pharmacy%20Bear%20DE/@51.14639400957372,-179.4365489794267,11z?hl=en",
    "searchString": "independent pharmacy Bear DE",
    "language": "en",
    "rank": 12,
    "isAdvertisement": false,
    "imageUrl": "https://lh3.googleusercontent.com/p/AF1QipPqQAoeHTOBQWbPNuCfM6OAgmO-GIoh1s4GcQvC=w426-h240-k-no",
    "kgmid": "/g/1thd7n1_",
    "classification": "chain",
    "is_independent": false,
    "is_compounding": false,
    "confidence": 0.95,
    "source": "perplexity",
    "method": "llm",
    "query_location": "bear_de"
  },
  {
    "title": "Rite Aid",
    "price": "$$",
    "categoryName": "Drug store",
    "address": "4607 Stanton Ogletown Road, Newark, DE 19713",
    "neighborhood": null,
    "street": "4607 Stanton Ogletown Road",
    "city": "Newark",
    "postalCode": "19713",
    "state": "Delaware",
    "countryCode": "US",
    "website": "https://www.riteaid.com/locations/de/newark/4607-stanton-ogletown-road.html",
    "phone": "(302) 737-4440",
    "phoneUnformatted": "+13027374440",
    "claimThisBusiness": false,
    "location": {
      "lat": 39.6852457,
      "lng": -75.6804324
    },
    "totalScore": 4,
    "permanentlyClosed": false,
    "temporarilyClosed": true,
    "placeId": "ChIJL7P4lOgAx4kRqhd0q3RJjrY",
    "categories": [
      "Drug store",
      "Beauty supply store",
      "Convenience store",
      "General store",
      "Greeting card shop"
    ],
    "fid": "0x89c700e894f8b32f:0xb68e4974ab7417aa",
    "cid": "13154532327037343658",
    "reviewsCount": 47,
    "imagesCount": 16,
    "imageCategories": [],
    "scrapedAt": "2025-06-22T07:31:10.465Z",
    "googleFoodUrl": null,
    "hotelAds": [],
    "openingHours": [],
    "peopleAlsoSearch": [],
    "placesTags": [],
    "reviewsTags": [],
    "additionalInfo": {
      "Service options": [
        {
          "Delivery": true
        },
        {
          "In-store pickup": true
        }
      ],
      "Accessibility": [
        {
          "Wheelchair accessible parking lot": true
        }
      ],
      "Planning": [
        {
          "Quick visit": true
        }
      ],
      "Payments": [
        {
          "Checks": true
        },
        {
          "Credit cards": true
        },
        {
          "Debit cards": true
        },
        {
          "NFC mobile payments": true
        },
        {
          "SNAP/EBT": true
        },
        {
          "Credit cards": true
        }
      ]
    },
    "gasPrices": [],
    "url": "https://www.google.com/maps/search/?api=1&query=Rite%20Aid&query_place_id=ChIJL7P4lOgAx4kRqhd0q3RJjrY",
    "searchPageUrl": "https://www.google.com/maps/search/independent%20pharmacy%20Bear%20DE/@51.14639400957372,-179.4365489794267,11z?hl=en",
    "searchString": "independent pharmacy Bear DE",
    "language": "en",
    "rank": 15,
    "isAdvertisement": false,
    "imageUrl": "https://lh3.googleusercontent.com/gps-cs-s/AC9h4npvg8d5EdsUDefjIQMVd2g_66o2vGW1jo_BsPaXLqmt_8aqVmvo8PzQveYxGOgBFIn7EIpJTdGSBiL764cWQakI4Jli_WiSW2JWBb84n7wgxNqpEj3Fff8ozacTBxsH7B9VFgd1cg=w408-h306-k-no",
    "kgmid": "/g/1tdv_vkr",
    "classification": "chain",
    "is_independent": false,
    "confidence": 1.0,
    "source": "rule-based"
  },
  {
    "title": "Rite Aid Pharmacy",
    "price": null,
    "categoryName": "Pharmacy",
    "address": "701 Governors Pl, Bear, DE 19701, United States",
    "neighborhood": null,
    "street": "701 Governors Pl",
    "city": "Bear",
    "postalCode": "19701",
    "state": "Delaware",
    "countryCode": "US",
    "website": "https://www.riteaid.com/locations/de/bear/701-governors-place.html",
    "phone": "+1 302-836-2966",
    "phoneUnformatted": "+13028362966",
    "claimThisBusiness": false,
    "location": {
      "lat": 39.6334092,
      "lng": -75.6650042
    },
    "totalScore": 3,
    "permanentlyClosed": false,
    "temporarilyClosed": false,
    "placeId": "ChIJY1d5b6gHx4kRu9Y1AVcpySA",
    "categories": [
      "Pharmacy"
    ],
    "fid": "0x89c707a86f795763:0x20c929570135d6bb",
    "cid": "2362464933191734971",
    "reviewsCount": 1,
    "imagesCount": 7,
    "imageCategories": [],
    "scrapedAt": "2025-06-22T07:31:28.937Z",
    "googleFoodUrl": null,
    "hotelAds": [],
    "openingHours": [
      {
        "day": "Monday",
        "hours": "9\u202fAM to 1:30\u202fPM, 2 to 8\u202fPM"
      },
      {
        "day": "Tuesday",
        "hours": "9\u202fAM to 1:30\u202fPM, 2 to 8\u202fPM"
      },
      {
        "day": "Wednesday",
        "hours": "9\u202fAM to 1:30\u202fPM, 2 to 8\u202fPM"
      },
      {
        "day": "Thursday",
        "hours": "9\u202fAM to 1:30\u202fPM, 2 to 8\u202fPM"
      },
      {
        "day": "Friday",
        "hours": "9\u202fAM to 1:30\u202fPM, 2 to 8\u202fPM"
      },
      {
        "day": "Saturday",
        "hours": "10\u202fAM to 1:30\u202fPM, 2 to 5\u202fPM"
      },
      {
        "day": "Sunday",
        "hours": "10\u202fAM to 1:30\u202fPM, 2 to 5\u202fPM"
      }
    ],
    "additionalOpeningHours": {
      "Drive-through": [
        {
          "day": "Monday",
          "hours": "9\u202fam\u20138\u202fpm"
        },
        {
          "day": "Tuesday",
          "hours": "9\u202fam\u20138\u202fpm"
        },
        {
          "day": "Wednesday",
          "hours": "9\u202fam\u20138\u202fpm"
        },
        {
          "day": "Thursday",
          "hours": "9\u202fam\u20138\u202fpm"
        },
        {
          "day": "Friday",
          "hours": "9\u202fam\u20138\u202fpm"
        },
        {
          "day": "Saturday",
          "hours": "9\u202fam\u20136\u202fpm"
        },
        {
          "day": "Sunday",
          "hours": "10\u202fam\u20136\u202fpm"
        }
      ]
    },
    "peopleAlsoSearch": [],
    "placesTags": [],
    "reviewsTags": [],
    "additionalInfo": {
      "Service options": [
        {
          "Delivery": true
        },
        {
          "Drive-through": true
        },
        {
          "In-store pick-up": true
        },
        {
          "In-store shopping": true
        }
      ],
      "Accessibility": [
        {
          "Wheelchair-accessible car park": true
        },
        {
          "Wheelchair-accessible entrance": true
        }
      ],
      "Planning": [
        {
          "Quick visit": true
        }
      ],
      "Payments": [
        {
          "Cheques": true
        },
        {
          "Credit cards": true
        },
        {
          "Debit cards": true
        },
        {
          "NFC mobile payments": true
        },
        {
          "Credit cards": true
        }
      ]
    },
    "gasPrices": [],
    "url": "https://www.google.com/maps/search/?api=1&query=Rite%20Aid%20Pharmacy&query_place_id=ChIJY1d5b6gHx4kRu9Y1AVcpySA",
    "searchPageUrl": "https://www.google.com/maps/search/independent%20pharmacy%20Bear%20DE/@64.34834014395538,-140.45172212891654,9z?hl=en",
    "searchString": "independent pharmacy Bear DE",
    "language": "en",
    "rank": 11,
    "isAdvertisement": false,
    "imageUrl": "https://lh3.googleusercontent.com/p/AF1QipMn2xie-e2IXeR8Tp0oidUOevex70GZDDbwtDvn=w408-h406-k-no",
    "kgmid": "/g/11v1b5kw1p",
    "classification": "chain",
    "is_independent": false,
    "confidence": 1.0,
    "source": "rule-based"
  },
  {
    "title": "CVS",
    "description": "Drugstore chain selling a variety of beauty & health products, plus some grocery & household items.",
    "price": null,
    "categoryName": "Drug store",
    "address": "1545 Pulaski Hwy, Bear, DE 19701",
    "neighborhood": null,
    "street": "1545 Pulaski Hwy",
    "city": "Bear",
    "postalCode": "19701",
    "state": "Delaware",
    "countryCode": "US",
    "website": "https://www.cvs.com/store-locator/bear-de-pharmacies/1545-pulaski-highway-bear-de-19701/storeid=3042?WT.mc_id=LS_GOOGLE_FS_3042",
    "phone": "(302) 832-8701",
    "phoneUnformatted": "+13028328701",
    "claimThisBusiness": false,
    "location": {
      "lat": 39.6229511,
      "lng": -75.6852619
    },
    "locatedIn": "CVS Pharmacy",
    "totalScore": 3.2,
    "permanentlyClosed": false,
    "temporarilyClosed": false,
    "placeId": "ChIJ04N6oqAHx4kRSOUrSEpn0ks",
    "categories": [
      "Drug store",
      "Beauty supply store",
      "Convenience store",
      "Cosmetics store",
      "Greeting card shop",
      "Perfume store",
      "Stationery store",
      "Vitamin & supplements store"
    ],
    "fid": "0x89c707a0a27a83d3:0x4bd2674a482be548",
    "cid": "5463542866689910088",
    "reviewsCount": 133,
    "imagesCount": 13,
    "imageCategories": [],
    "scrapedAt": "2025-06-22T07:31:29.797Z",
    "googleFoodUrl": null,
    "hotelAds": [],
    "openingHours": [
      {
        "day": "Monday",
        "hours": "8\u202fAM to 10\u202fPM"
      },
      {
        "day": "Tuesday",
        "hours": "8\u202fAM to 10\u202fPM"
      },
      {
        "day": "Wednesday",
        "hours": "8\u202fAM to 10\u202fPM"
      },
      {
        "day": "Thursday",
        "hours": "8\u202fAM to 10\u202fPM"
      },
      {
        "day": "Friday",
        "hours": "8\u202fAM to 10\u202fPM"
      },
      {
        "day": "Saturday",
        "hours": "8\u202fAM to 10\u202fPM"
      },
      {
        "day": "Sunday",
        "hours": "8\u202fAM to 10\u202fPM"
      }
    ],
    "additionalOpeningHours": {
      "CVS Pharmacy": [
        {
          "day": "Monday",
          "hours": "8\u202fAM\u20131:30\u202fPM"
        },
        {
          "day": "Tuesday",
          "hours": "8\u202fAM\u20131:30\u202fPM"
        },
        {
          "day": "Wednesday",
          "hours": "8\u202fAM\u20131:30\u202fPM"
        },
        {
          "day": "Thursday",
          "hours": "8\u202fAM\u20131:30\u202fPM"
        },
        {
          "day": "Friday",
          "hours": "8\u202fAM\u20131:30\u202fPM"
        },
        {
          "day": "Saturday",
          "hours": "10\u202fAM\u20131:30\u202fPM"
        },
        {
          "day": "Sunday",
          "hours": "10\u202fAM\u20131:30\u202fPM"
        }
      ],
      "CVS Photo": [
        {
          "day": "Monday",
          "hours": "8\u202fAM\u201310\u202fPM"
        },
        {
          "day": "Tuesday",
          "hours": "8\u202fAM\u201310\u202fPM"
        },
        {
          "day": "Wednesday",
          "hours": "8\u202fAM\u201310\u202fPM"
        },
        {
          "day": "Thursday",
          "hours": "8\u202fAM\u201310\u202fPM"
        },
        {
          "day": "Friday",
          "hours": "8\u202fAM\u201310\u202fPM"
        },
        {
          "day": "Saturday",
          "hours": "8\u202fAM\u201310\u202fPM"
        },
        {
          "day": "Sunday",
          "hours": "8\u202fAM\u201310\u202fPM"
        }
      ],
      "LibertyX Bitcoin ATM": [
        {
          "day": "Monday",
          "hours": "8\u202fAM\u201310\u202fPM"
        },
        {
          "day": "Tuesday",
          "hours": "8\u202fAM\u201310\u202fPM"
        },
        {
          "day": "Wednesday",
          "hours": "8\u202fAM\u201310\u202fPM"
        },
        {
          "day": "Thursday",
          "hours": "8\u202fAM\u201310\u202fPM"
        },
        {
          "day": "Friday",
          "hours": "8\u202fAM\u201310\u202fPM"
        },
        {
          "day": "Saturday",
          "hours": "8\u202fAM\u201310\u202fPM"
        },
        {
          "day": "Sunday",
          "hours": "8\u202fAM\u201310\u202fPM"
        }
      ]
    },
    "peopleAlsoSearch": [],
    "placesTags": [],
    "reviewsTags": [],
    "additionalInfo": {
      "Service options": [
        {
          "Delivery": true
        },
        {
          "Drive-through": true
        },
        {
          "In-store pickup": true
        },
        {
          "In-store shopping": true
        },
        {
          "Same-day delivery": false
        }
      ],
      "Accessibility": [
        {
          "Wheelchair accessible entrance": true
        },
        {
          "Wheelchair accessible parking lot": true
        }
      ],
      "Offerings": [
        {
          "Passport photos": true
        }
      ],
      "Crowd": [
        {
          "LGBTQ+ friendly": true
        },
        {
          "Transgender safespace": true
        }
      ],
      "Planning": [
        {
          "Quick visit": true
        }
      ],
      "Payments": [
        {
          "Credit cards": true
        },
        {
          "Debit cards": true
        },
        {
          "SNAP/EBT": true
        },
        {
          "Credit cards": true
        }
      ]
    },
    "gasPrices": [],
    "url": "https://www.google.com/maps/search/?api=1&query=CVS&query_place_id=ChIJ04N6oqAHx4kRSOUrSEpn0ks",
    "searchPageUrl": "https://www.google.com/maps/search/independent%20pharmacy%20Bear%20DE/@-14.035020572810657,-170.97204273438993,12z?hl=en",
    "searchString": "independent pharmacy Bear DE",
    "language": "en",
    "rank": 7,
    "isAdvertisement": false,
    "imageUrl": "https://lh3.googleusercontent.com/gps-cs-s/AC9h4np7RzMKd_g3l3yCwJQ82BXOlZMto-HUF-U8fHEv0Iz9XgX4yIXkUe2DI8pThyM2kFZLI69okSKKnc3jNX0AeQmqHtvGOwrIjf9loC6NBJ1vzkDCKIQbjED_KW9utgLusrzE6ywJMw=w408-h306-k-no",
    "kgmid": "/g/1pty7lljq",
    "classification": "chain",
    "is_independent": false,
    "confidence": 1.0,
    "source": "rule-based"
  },
  {
    "title": "Sixth Avenue Medical Pharmacy",
    "price": null,
    "categoryName": "Pharmacy",
    "address": "508 W 6th Ave #104, Spokane, WA 99204",
    "neighborhood": "Cliff/Cannon",
    "street": "508 W 6th Ave #104",
    "city": "Spokane",
    "postalCode": "99204",
    "state": "Washington",
    "countryCode": "US",
    "website": "http://www.sixthavenuepharmacy.com/",
    "phone": "(509) 455-9345",
    "phoneUnformatted": "+15094559345",
    "claimThisBusiness": false,
    "location": {
      "lat": 47.6506984,
      "lng": -117.419936
    },
    "totalScore": 4.4,
    "permanentlyClosed": false,
    "temporarilyClosed": false,
    "placeId": null,
    "categories": [
      "Pharmacy",
      "Medical supply store"
    ],
    "fid": "0x549e1864c811ae39:0x8b8a14d898902644",
    "cid": "10054872038563128900",
    "reviewsCount": 63,
    "imagesCount": 13,
    "imageCategories": [],
    "scrapedAt": "2025-06-22T07:32:09.701Z",
    "googleFoodUrl": null,
    "hotelAds": [],
    "openingHours": [
      {
        "day": "Monday",
        "hours": "8:30\u202fAM to 6\u202fPM"
      },
      {
        "day": "Tuesday",
        "hours": "8:30\u202fAM to 6\u202fPM"
      },
      {
        "day": "Wednesday",
        "hours": "8:30\u202fAM to 6\u202fPM"
      },
      {
        "day": "Thursday",
        "hours": "8:30\u202fAM to 6\u202fPM"
      },
      {
        "day": "Friday",
        "hours": "8:30\u202fAM to 6\u202fPM"
      },
      {
        "day": "Saturday",
        "hours": "9\u202fAM to 1\u202fPM"
      },
      {
        "day": "Sunday",
        "hours": "Closed"
      }
    ],
    "peopleAlsoSearch": [],
    "placesTags": [],
    "reviewsTags": [],
    "additionalInfo": {
      "From the business": [
        {
          "Small business": true
        }
      ],
      "Service options": [
        {
          "Delivery": true
        },
        {
          "Drive-through": true
        },
        {
          "In-store pickup": true
        },
        {
          "Same-day delivery": true
        }
      ],
      "Accessibility": [
        {
          "Wheelchair accessible entrance": true
        },
        {
          "Wheelchair accessible parking lot": true
        }
      ],
      "Payments": [
        {
          "Checks": true
        },
        {
          "Credit cards": true
        },
        {
          "Debit cards": true
        },
        {
          "NFC mobile payments": true
        },
        {
          "Credit cards": true
        }
      ]
    },
    "gasPrices": [],
    "url": "https://www.google.com/maps/search/?api=1&query=Sixth%20Avenue%20Medical%20Pharmacy&query_place_id=ChIJOa4RyGQYnlQRRCaQmNgUios",
    "searchPageUrl": "https://www.google.com/maps/search/independent%20pharmacy%20Bear%20DE/@48.27430768932854,-118.1483311994871,8z?hl=en",
    "searchString": "independent pharmacy Bear DE",
    "language": "en",
    "rank": 1,
    "isAdvertisement": false,
    "imageUrl": "https://lh3.googleusercontent.com/gps-cs-s/AC9h4npRS55J7wfL4-dcVwpC91aRPGFsBSuRr63fL2FGWGgfI_RtgIFx_hMPmiSccKNFGetKb5-VekQ0c1cM1glkkUHkLyWGfPbMNK7OXlWbMOTZBK6gS6nad1A4sWpWkZLzxXc_G1edFw=w408-h544-k-no",
    "kgmid": "/g/1tflxm0z",
    "classification": "independent",
    "is_independent": true,
    "is_compounding": false,
    "confidence": 0.85,
    "source": "perplexity",
    "method": "llm",
    "query_location": "bear_de"
  },
  {
    "title": "Safeway Pharmacy",
    "price": "$$",
    "categoryName": "Pharmacy",
    "address": "391 N Main St, Colville, WA 99114",
    "neighborhood": null,
    "street": "391 N Main St",
    "city": "Colville",
    "postalCode": "99114",
    "state": "Washington",
    "countryCode": "US",
    "website": "https://local.pharmacy.safeway.com/safeway/wa/colville/391-n-main-st.html",
    "phone": "(509) 684-8481",
    "phoneUnformatted": "+15096848481",
    "claimThisBusiness": false,
    "location": {
      "lat": 48.5471381,
      "lng": -117.9063958
    },
    "totalScore": 2.2,
    "permanentlyClosed": false,
    "temporarilyClosed": false,
    "placeId": "ChIJ2-5hVomHYlMRyaNIUpTIn7A",
    "categories": [
      "Pharmacy",
      "Drug store",
      "Vitamin & supplements store"
    ],
    "fid": "0x536287895661eedb:0xb09fc8945248a3c9",
    "cid": "12727111611333518281",
    "reviewsCount": 36,
    "imagesCount": 3,
    "imageCategories": [],
    "scrapedAt": "2025-06-22T07:32:09.701Z",
    "googleFoodUrl": null,
    "hotelAds": [],
    "openingHours": [
      {
        "day": "Monday",
        "hours": "9\u202fAM to 1:30\u202fPM, 2 to 7\u202fPM"
      },
      {
        "day": "Tuesday",
        "hours": "9\u202fAM to 1:30\u202fPM, 2 to 7\u202fPM"
      },
      {
        "day": "Wednesday",
        "hours": "9\u202fAM to 1:30\u202fPM, 2 to 7\u202fPM"
      },
      {
        "day": "Thursday",
        "hours": "9\u202fAM to 1:30\u202fPM, 2 to 7\u202fPM"
      },
      {
        "day": "Friday",
        "hours": "9\u202fAM to 1:30\u202fPM, 2 to 7\u202fPM"
      },
      {
        "day": "Saturday",
        "hours": "10\u202fAM to 1:30\u202fPM, 2 to 6\u202fPM"
      },
      {
        "day": "Sunday",
        "hours": "10\u202fAM to 1:30\u202fPM, 2 to 6\u202fPM"
      }
    ],
    "peopleAlsoSearch": [],
    "placesTags": [],
    "reviewsTags": [],
    "additionalInfo": {
      "Service options": [
        {
          "In-store pickup": true
        },
        {
          "In-store shopping": true
        },
        {
          "Delivery": false
        },
        {
          "Same-day delivery": false
        }
      ],
      "Accessibility": [
        {
          "Wheelchair accessible entrance": true
        },
        {
          "Wheelchair accessible parking lot": true
        }
      ],
      "Crowd": [
        {
          "LGBTQ+ friendly": true
        }
      ],
      "Planning": [
        {
          "Appointment required": true
        },
        {
          "Quick visit": true
        }
      ],
      "Payments": [
        {
          "Checks": true
        },
        {
          "Debit cards": true
        },
        {
          "Credit cards": true
        }
      ]
    },
    "gasPrices": [],
    "url": "https://www.google.com/maps/search/?api=1&query=Safeway%20Pharmacy&query_place_id=ChIJ2-5hVomHYlMRyaNIUpTIn7A",
    "searchPageUrl": "https://www.google.com/maps/search/independent%20pharmacy%20Bear%20DE/@48.27430768932854,-118.1483311994871,8z?hl=en",
    "searchString": "independent pharmacy Bear DE",
    "language": "en",
    "rank": 2,
    "isAdvertisement": false,
    "imageUrl": "https://lh3.googleusercontent.com/p/AF1QipMt6SjDk2lVx-l8pk23PX6LTY04B0VLSVokKCHG=w426-h240-k-no",
    "kgmid": "/g/1ptx779db",
    "classification": "chain",
    "is_independent": false,
    "confidence": 1.0,
    "source": "rule-based"
  },
  {
    "title": "Owl Pharmacy",
    "price": null,
    "categoryName": "Pharmacy",
    "address": "123 E Lake St, Medical Lake, WA 99022",
    "neighborhood": null,
    "street": "123 E Lake St",
    "city": "Medical Lake",
    "postalCode": "99022",
    "state": "Washington",
    "countryCode": "US",
    "website": "http://www.owlpharmacy.com/",
    "phone": "(509) 299-5113",
    "phoneUnformatted": "+15092995113",
    "claimThisBusiness": false,
    "location": {
      "lat": 47.5730847,
      "lng": -117.6816245
    },
    "totalScore": 4.8,
    "permanentlyClosed": false,
    "temporarilyClosed": false,
    "placeId": null,
    "categories": [
      "Pharmacy",
      "Gift shop"
    ],
    "fid": "0x549e6aaa3f80133b:0x4a4d7ae1bc87ab3c",
    "cid": "5354070641962625852",
    "reviewsCount": 34,
    "imagesCount": 6,
    "imageCategories": [],
    "scrapedAt": "2025-06-22T07:32:09.701Z",
    "googleFoodUrl": null,
    "hotelAds": [],
    "openingHours": [
      {
        "day": "Monday",
        "hours": "9\u202fAM to 6\u202fPM"
      },
      {
        "day": "Tuesday",
        "hours": "9\u202fAM to 6\u202fPM"
      },
      {
        "day": "Wednesday",
        "hours": "9\u202fAM to 6\u202fPM"
      },
      {
        "day": "Thursday",
        "hours": "9\u202fAM to 6\u202fPM"
      },
      {
        "day": "Friday",
        "hours": "9\u202fAM to 6\u202fPM"
      },
      {
        "day": "Saturday",
        "hours": "Closed"
      },
      {
        "day": "Sunday",
        "hours": "Closed"
      }
    ],
    "peopleAlsoSearch": [],
    "placesTags": [],
    "reviewsTags": [],
    "additionalInfo": {
      "From the business": [
        {
          "Identifies as women-owned": true
        }
      ],
      "Service options": [
        {
          "Curbside pickup": true
        },
        {
          "Delivery": false
        },
        {
          "Same-day delivery": false
        }
      ],
      "Accessibility": [
        {
          "Wheelchair accessible entrance": true
        },
        {
          "Wheelchair accessible parking lot": true
        }
      ],
      "Planning": [
        {
          "Quick visit": true
        }
      ],
      "Payments": [
        {
          "Credit cards": true
        },
        {
          "Debit cards": true
        },
        {
          "NFC mobile payments": true
        },
        {
          "Credit cards": true
        }
      ]
    },
    "gasPrices": [],
    "url": "https://www.google.com/maps/search/?api=1&query=Owl%20Pharmacy&query_place_id=ChIJOxOAP6pqnlQRPKuHvOF6TUo",
    "searchPageUrl": "https://www.google.com/maps/search/independent%20pharmacy%20Bear%20DE/@48.27430768932854,-118.1483311994871,8z?hl=en",
    "searchString": "independent pharmacy Bear DE",
    "language": "en",
    "rank": 3,
    "isAdvertisement": false,
    "imageUrl": "https://lh3.googleusercontent.com/p/AF1QipMf0a5CaTZ958tyRvCnqZ8GTtbUGQPBO7kNJrh1=w426-h240-k-no",
    "kgmid": "/g/1tg6k85r",
    "classification": "independent",
    "is_independent": true,
    "is_compounding": false,
    "confidence": 0.9,
    "source": "perplexity",
    "method": "llm",
    "query_location": "bear_de"
  }
]