[
  {
    "title": "Forest Pharmacy",
    "price": null,
    "categoryName": "Pharmacy",
    "address": "1030 Forrest Ave Suite 111, Dover, DE 19904",
    "neighborhood": null,
    "street": "1030 Forrest Ave Suite 111",
    "city": "Dover",
    "postalCode": "19904",
    "state": "Delaware",
    "countryCode": "US",
    "website": "http://forestpharmacyde.com/",
    "phone": "(302) 990-3131",
    "phoneUnformatted": "+13029903131",
    "claimThisBusiness": false,
    "location": {
      "lat": 39.1575619,
      "lng": -75.5446252
    },
    "totalScore": 5,
    "permanentlyClosed": false,
    "temporarilyClosed": false,
    "placeId": null,
    "categories": [
      "Pharmacy"
    ],
    "fid": "0x89c77d1c9664e02b:0xc8547b94c0202243",
    "cid": "14435298584437989955",
    "reviewsCount": 31,
    "imagesCount": 9,
    "imageCategories": [],
    "scrapedAt": "2025-06-22T07:27:57.681Z",
    "googleFoodUrl": null,
    "hotelAds": [],
    "openingHours": [
      {
        "day": "Monday",
        "hours": "9\u202fAM to 6\u202fPM"
      },
      {
        "day": "Tuesday",
        "hours": "9\u202fAM to 6\u202fPM"
      },
      {
        "day": "Wednesday",
        "hours": "9\u202fAM to 6\u202fPM"
      },
      {
        "day": "Thursday",
        "hours": "9\u202fAM to 6\u202fPM"
      },
      {
        "day": "Friday",
        "hours": "9\u202fAM to 6\u202fPM"
      },
      {
        "day": "Saturday",
        "hours": "12 to 6\u202fPM"
      },
      {
        "day": "Sunday",
        "hours": "Closed"
      }
    ],
    "peopleAlsoSearch": [],
    "placesTags": [],
    "reviewsTags": [],
    "additionalInfo": {
      "From the business": [
        {
          "Small business": true
        }
      ],
      "Service options": [
        {
          "Delivery": true
        },
        {
          "In-store pickup": true
        },
        {
          "In-store shopping": true
        },
        {
          "Onsite services": true
        },
        {
          "Same-day delivery": true
        }
      ],
      "Accessibility": [
        {
          "Wheelchair accessible entrance": true
        },
        {
          "Wheelchair accessible parking lot": true
        }
      ],
      "Planning": [
        {
          "Quick visit": true
        }
      ],
      "Payments": [
        {
          "Credit cards": true
        },
        {
          "Debit cards": true
        },
        {
          "NFC mobile payments": true
        },
        {
          "Credit cards": true
        }
      ]
    },
    "gasPrices": [],
    "url": "https://www.google.com/maps/search/?api=1&query=Forest%20Pharmacy&query_place_id=ChIJK-Bklhx9x4kRQyIgwJR7VMg",
    "searchPageUrl": "https://www.google.com/maps/search/independent%20pharmacy%20Dover%20DE/@33.954544952667874,-86.48607177164843,8z?hl=en",
    "searchString": "independent pharmacy Dover DE",
    "language": "en",
    "rank": 1,
    "isAdvertisement": false,
    "imageUrl": "https://lh3.googleusercontent.com/p/AF1QipNIXbzFD5m2VeddHwGFCR4sr48KFe2SVKxB9_fL=w408-h307-k-no",
    "kgmid": "/g/11rjbwvs92",
    "classification": "independent",
    "is_independent": true,
    "is_compounding": false,
    "confidence": 0.9,
    "source": "perplexity",
    "method": "llm"
  },
  {
    "title": "Dover Community Pharmacy",
    "price": null,
    "categoryName": "Pharmacy",
    "address": "1035 S Governors Ave, Dover, DE 19904",
    "neighborhood": null,
    "street": "1035 S Governors Ave",
    "city": "Dover",
    "postalCode": "19904",
    "state": "Delaware",
    "countryCode": "US",
    "website": "https://www.mygnp.com/pharmacies/dover-community-pharmacy-dover-de-19904/",
    "phone": "(302) 724-9323",
    "phoneUnformatted": "+13027249323",
    "claimThisBusiness": false,
    "location": {
      "lat": 39.1420421,
      "lng": -75.5252574
    },
    "totalScore": 4.8,
    "permanentlyClosed": false,
    "temporarilyClosed": false,
    "placeId": null,
    "categories": [
      "Pharmacy",
      "Medical supply store"
    ],
    "fid": "0x89c7634c91a4f12b:0x4f08943dc23cca7",
    "cid": "355935295111416999",
    "reviewsCount": 65,
    "imagesCount": 16,
    "imageCategories": [],
    "scrapedAt": "2025-06-22T07:27:57.683Z",
    "googleFoodUrl": null,
    "hotelAds": [],
    "openingHours": [
      {
        "day": "Monday",
        "hours": "9\u202fAM to 6\u202fPM"
      },
      {
        "day": "Tuesday",
        "hours": "9\u202fAM to 6\u202fPM"
      },
      {
        "day": "Wednesday",
        "hours": "9\u202fAM to 6\u202fPM"
      },
      {
        "day": "Thursday",
        "hours": "9\u202fAM to 6\u202fPM"
      },
      {
        "day": "Friday",
        "hours": "9\u202fAM to 6\u202fPM"
      },
      {
        "day": "Saturday",
        "hours": "9\u202fAM to 2\u202fPM"
      },
      {
        "day": "Sunday",
        "hours": "Closed"
      }
    ],
    "peopleAlsoSearch": [],
    "placesTags": [],
    "reviewsTags": [],
    "additionalInfo": {
      "From the business": [
        {
          "Small business": true
        }
      ],
      "Service options": [
        {
          "Delivery": true
        },
        {
          "In-store pickup": true
        },
        {
          "Onsite services": true
        },
        {
          "Same-day delivery": true
        }
      ],
      "Accessibility": [
        {
          "Wheelchair accessible entrance": true
        },
        {
          "Wheelchair accessible parking lot": true
        },
        {
          "Wheelchair accessible restroom": true
        }
      ],
      "Planning": [
        {
          "Quick visit": true
        }
      ],
      "Payments": [
        {
          "Credit cards": true
        },
        {
          "Debit cards": true
        },
        {
          "NFC mobile payments": true
        },
        {
          "Credit cards": true
        }
      ]
    },
    "gasPrices": [],
    "url": "https://www.google.com/maps/search/?api=1&query=Dover%20Community%20Pharmacy&query_place_id=ChIJK_GkkUxjx4kRp8wj3EOJ8AQ",
    "searchPageUrl": "https://www.google.com/maps/search/independent%20pharmacy%20Dover%20DE/@33.954544952667874,-86.48607177164843,8z?hl=en",
    "searchString": "independent pharmacy Dover DE",
    "language": "en",
    "rank": 2,
    "isAdvertisement": false,
    "imageUrl": "https://lh3.googleusercontent.com/p/AF1QipNU26f3s1XAVXw_rLz4kOFA2chZ0WacEs3pMHaG=w408-h306-k-no",
    "kgmid": "/g/1hc1sphs5",
    "classification": "independent",
    "is_independent": true,
    "is_compounding": false,
    "confidence": 0.9,
    "source": "perplexity",
    "method": "llm"
  },
  {
    "title": "Rodney Village Pharmacy",
    "price": null,
    "categoryName": "Pharmacy",
    "address": "1664 S Governors Ave, Dover, DE 19904",
    "neighborhood": null,
    "street": "1664 S Governors Ave",
    "city": "Dover",
    "postalCode": "19904",
    "state": "Delaware",
    "countryCode": "US",
    "website": "https://www.rodneyvillagepharmacy.com/",
    "phone": "(302) 747-7533",
    "phoneUnformatted": "+13027477533",
    "claimThisBusiness": true,
    "location": {
      "lat": 39.12678,
      "lng": -75.532674
    },
    "totalScore": 3.5,
    "permanentlyClosed": false,
    "temporarilyClosed": false,
    "placeId": null,
    "categories": [
      "Pharmacy"
    ],
    "fid": "0x89c77ccc59dc0209:0xfe2671874256bceb",
    "cid": "18313449760496205035",
    "reviewsCount": 20,
    "imagesCount": 2,
    "imageCategories": [],
    "scrapedAt": "2025-06-22T07:27:57.683Z",
    "googleFoodUrl": null,
    "hotelAds": [],
    "openingHours": [
      {
        "day": "Monday",
        "hours": "9\u202fAM to 6\u202fPM"
      },
      {
        "day": "Tuesday",
        "hours": "9\u202fAM to 6\u202fPM"
      },
      {
        "day": "Wednesday",
        "hours": "9\u202fAM to 6\u202fPM"
      },
      {
        "day": "Thursday",
        "hours": "9\u202fAM to 6\u202fPM"
      },
      {
        "day": "Friday",
        "hours": "9\u202fAM to 6\u202fPM"
      },
      {
        "day": "Saturday",
        "hours": "Closed"
      },
      {
        "day": "Sunday",
        "hours": "Closed"
      }
    ],
    "peopleAlsoSearch": [],
    "placesTags": [],
    "reviewsTags": [],
    "additionalInfo": {
      "Service options": [
        {
          "Delivery": true
        },
        {
          "Same-day delivery": true
        }
      ],
      "Accessibility": [
        {
          "Wheelchair accessible entrance": true
        },
        {
          "Wheelchair accessible parking lot": true
        }
      ],
      "Planning": [
        {
          "Quick visit": true
        }
      ],
      "Payments": [
        {
          "Credit cards": true
        },
        {
          "Debit cards": true
        },
        {
          "NFC mobile payments": true
        },
        {
          "Credit cards": true
        }
      ]
    },
    "gasPrices": [],
    "url": "https://www.google.com/maps/search/?api=1&query=Rodney%20Village%20Pharmacy&query_place_id=ChIJCQLcWcx8x4kR67xWQodxJv4",
    "searchPageUrl": "https://www.google.com/maps/search/independent%20pharmacy%20Dover%20DE/@33.954544952667874,-86.48607177164843,8z?hl=en",
    "searchString": "independent pharmacy Dover DE",
    "language": "en",
    "rank": 4,
    "isAdvertisement": false,
    "imageUrl": "https://lh3.googleusercontent.com/gps-cs-s/AC9h4npvjV9fcSc8Wraff_h55hA6jLxf6Zp2mL1lx8hHKmPk-2AJzlf1gdYwMx9h62hWEqbguuAckeS3XGdA0GVEdjPStp6nQp-9RchJJWzFQ8oFlHWbo4vrsd8nmYOy7wmNGhK5aC8=w408-h306-k-no",
    "kgmid": "/g/1wz53n_q",
    "classification": "independent",
    "is_independent": true,
    "is_compounding": false,
    "confidence": 0.9,
    "source": "perplexity",
    "method": "llm"
  },
  {
    "title": "Bayhealth Community Pharmacy, Kent Campus",
    "price": null,
    "categoryName": "Pharmacy",
    "address": "640 S State St, Dover, DE 19904",
    "neighborhood": null,
    "street": "640 S State St",
    "city": "Dover",
    "postalCode": "19904",
    "state": "Delaware",
    "countryCode": "US",
    "website": "https://www.bayhealth.org/locations/community-pharmacy-kent-campus",
    "phone": "(302) 744-6615",
    "phoneUnformatted": "+13027446615",
    "claimThisBusiness": false,
    "location": {
      "lat": 39.1512074,
      "lng": -75.5233395
    },
    "totalScore": 4.5,
    "permanentlyClosed": false,
    "temporarilyClosed": false,
    "placeId": null,
    "categories": [
      "Pharmacy"
    ],
    "fid": "0x89c7635418bce2ef:0x96c99aac3bb521d5",
    "cid": "10865385640534811093",
    "reviewsCount": 12,
    "imagesCount": 4,
    "imageCategories": [],
    "scrapedAt": "2025-06-22T07:27:57.683Z",
    "googleFoodUrl": null,
    "hotelAds": [],
    "openingHours": [
      {
        "day": "Monday",
        "hours": "Open 24 hours"
      },
      {
        "day": "Tuesday",
        "hours": "Open 24 hours"
      },
      {
        "day": "Wednesday",
        "hours": "Open 24 hours"
      },
      {
        "day": "Thursday",
        "hours": "Open 24 hours"
      },
      {
        "day": "Friday",
        "hours": "Open 24 hours"
      },
      {
        "day": "Saturday",
        "hours": "Open 24 hours"
      },
      {
        "day": "Sunday",
        "hours": "Open 24 hours"
      }
    ],
    "peopleAlsoSearch": [],
    "placesTags": [],
    "reviewsTags": [],
    "additionalInfo": {
      "Service options": [
        {
          "Delivery": true
        },
        {
          "Onsite services": true
        }
      ],
      "Accessibility": [
        {
          "Wheelchair accessible entrance": true
        },
        {
          "Wheelchair accessible parking lot": true
        }
      ],
      "Offerings": [
        {
          "Medication disposal": true
        }
      ],
      "Crowd": [
        {
          "LGBTQ+ friendly": true
        },
        {
          "Transgender safespace": true
        }
      ],
      "Payments": [
        {
          "Credit cards": true
        }
      ]
    },
    "gasPrices": [],
    "url": "https://www.google.com/maps/search/?api=1&query=Bayhealth%20Community%20Pharmacy%2C%20Kent%20Campus&query_place_id=ChIJ7-K8GFRjx4kR1SG1O6yayZY",
    "searchPageUrl": "https://www.google.com/maps/search/independent%20pharmacy%20Dover%20DE/@33.954544952667874,-86.48607177164843,8z?hl=en",
    "searchString": "independent pharmacy Dover DE",
    "language": "en",
    "rank": 5,
    "isAdvertisement": false,
    "imageUrl": "https://lh3.googleusercontent.com/p/AF1QipMpMAcVFS3NfNkpSy16m804cyOFGaJroXo3xuI8=w408-h244-k-no",
    "kgmid": "/g/1tg82f2r",
    "classification": "independent",
    "is_independent": true,
    "is_compounding": false,
    "confidence": 0.9,
    "source": "perplexity",
    "method": "llm"
  },
  {
    "title": "Camden Pharmacy",
    "price": null,
    "categoryName": "Pharmacy",
    "address": "4598 S Dupont Hwy, Camden, DE 19934",
    "neighborhood": null,
    "street": "4598 S Dupont Hwy",
    "city": "Camden",
    "postalCode": "19934",
    "state": "Delaware",
    "countryCode": "US",
    "website": "https://camdenrxde.com/",
    "phone": "(302) 535-8604",
    "phoneUnformatted": "+13025358604",
    "claimThisBusiness": false,
    "location": {
      "lat": 39.0957501,
      "lng": -75.5470029
    },
    "totalScore": 4.6,
    "permanentlyClosed": false,
    "temporarilyClosed": false,
    "placeId": null,
    "categories": [
      "Pharmacy",
      "Drug store"
    ],
    "fid": "0x89c77da4658b121b:0x747299f7eee60d15",
    "cid": "8390938345888681237",
    "reviewsCount": 66,
    "imagesCount": 42,
    "imageCategories": [],
    "scrapedAt": "2025-06-22T07:27:57.683Z",
    "googleFoodUrl": null,
    "hotelAds": [],
    "openingHours": [
      {
        "day": "Monday",
        "hours": "9\u202fAM to 6\u202fPM"
      },
      {
        "day": "Tuesday",
        "hours": "9\u202fAM to 6\u202fPM"
      },
      {
        "day": "Wednesday",
        "hours": "9\u202fAM to 6\u202fPM"
      },
      {
        "day": "Thursday",
        "hours": "9\u202fAM to 6\u202fPM"
      },
      {
        "day": "Friday",
        "hours": "9\u202fAM to 6\u202fPM"
      },
      {
        "day": "Saturday",
        "hours": "9\u202fAM to 1\u202fPM"
      },
      {
        "day": "Sunday",
        "hours": "Closed"
      }
    ],
    "peopleAlsoSearch": [],
    "placesTags": [],
    "reviewsTags": [],
    "additionalInfo": {
      "From the business": [
        {
          "Identifies as Asian-owned": true
        },
        {
          "Identifies as women-owned": true
        },
        {
          "Small business": true
        }
      ],
      "Service options": [
        {
          "Curbside pickup": true
        },
        {
          "Delivery": true
        },
        {
          "In-store pickup": true
        },
        {
          "In-store shopping": true
        },
        {
          "Onsite services": true
        },
        {
          "Same-day delivery": true
        }
      ],
      "Accessibility": [
        {
          "Wheelchair accessible entrance": true
        },
        {
          "Wheelchair accessible parking lot": true
        }
      ],
      "Planning": [
        {
          "Quick visit": true
        }
      ],
      "Payments": [
        {
          "Checks": true
        },
        {
          "Credit cards": true
        },
        {
          "Debit cards": true
        },
        {
          "NFC mobile payments": true
        },
        {
          "Credit cards": true
        }
      ]
    },
    "gasPrices": [],
    "url": "https://www.google.com/maps/search/?api=1&query=Camden%20Pharmacy&query_place_id=ChIJGxKLZaR9x4kRFQ3m7veZcnQ",
    "searchPageUrl": "https://www.google.com/maps/search/independent%20pharmacy%20Dover%20DE/@33.954544952667874,-86.48607177164843,8z?hl=en",
    "searchString": "independent pharmacy Dover DE",
    "language": "en",
    "rank": 6,
    "isAdvertisement": false,
    "imageUrl": "https://lh3.googleusercontent.com/p/AF1QipPQivM58cUjc-ftRdwSKQt8AnM0b0ZPlKhnBSqW=w408-h544-k-no",
    "kgmid": "/g/11jn0kfdy7",
    "classification": "independent",
    "is_independent": true,
    "is_compounding": false,
    "confidence": 0.93,
    "source": "perplexity",
    "method": "llm"
  },
  {
    "title": "Walgreens",
    "price": null,
    "categoryName": "Drug store",
    "address": "200 Banning St, Dover, DE 19904",
    "neighborhood": null,
    "street": "200 Banning St",
    "city": "Dover",
    "postalCode": "19904",
    "state": "Delaware",
    "countryCode": "US",
    "website": "https://www.walgreens.com/locator/walgreens-200+banning+st-dover-de-19904/id=11322",
    "phone": "(302) 734-9303",
    "phoneUnformatted": "+13027349303",
    "claimThisBusiness": true,
    "location": {
      "lat": 39.1532425,
      "lng": -75.5357408
    },
    "totalScore": 4,
    "permanentlyClosed": false,
    "temporarilyClosed": false,
    "placeId": null,
    "categories": [
      "Drug store"
    ],
    "fid": "0x89c77ca919cc91b9:0xc943c071050604ad",
    "cid": "14502646816711247021",
    "reviewsCount": 1,
    "imagesCount": null,
    "imageCategories": [],
    "scrapedAt": "2025-06-22T07:27:57.683Z",
    "googleFoodUrl": null,
    "hotelAds": [],
    "openingHours": [],
    "peopleAlsoSearch": [],
    "placesTags": [],
    "reviewsTags": [],
    "additionalInfo": {
      "Service options": [
        {
          "Drive-through": true
        },
        {
          "In-store pickup": true
        }
      ],
      "Accessibility": [
        {
          "Wheelchair accessible entrance": true
        },
        {
          "Wheelchair accessible parking lot": true
        }
      ],
      "Planning": [
        {
          "Quick visit": true
        }
      ],
      "Payments": [
        {
          "Credit cards": true
        }
      ]
    },
    "gasPrices": [],
    "url": "https://www.google.com/maps/search/?api=1&query=Walgreens&query_place_id=ChIJuZHMGal8x4kRrQQGBXHAQ8k",
    "searchPageUrl": "https://www.google.com/maps/search/independent%20pharmacy%20Dover%20DE/@33.954544952667874,-86.48607177164843,8z?hl=en",
    "searchString": "independent pharmacy Dover DE",
    "language": "en",
    "rank": 7,
    "isAdvertisement": false,
    "kgmid": "/g/11vyqgfvsr",
    "classification": "chain",
    "is_independent": false,
    "is_compounding": false,
    "confidence": 0.99,
    "source": "perplexity",
    "method": "llm"
  },
  {
    "title": "Sam's Club Pharmacy",
    "price": "$",
    "categoryName": "Pharmacy",
    "address": "1572 N Dupont Hwy, Dover, DE 19901",
    "neighborhood": null,
    "street": "1572 N Dupont Hwy",
    "city": "Dover",
    "postalCode": "19901",
    "state": "Delaware",
    "countryCode": "US",
    "website": "https://www.samsclub.com/local/pharmacy/dover-de-sams-club/6330",
    "phone": "(302) 678-2161",
    "phoneUnformatted": "+13026782161",
    "claimThisBusiness": false,
    "location": {
      "lat": 39.1927488,
      "lng": -75.552651
    },
    "totalScore": 4.5,
    "permanentlyClosed": false,
    "temporarilyClosed": false,
    "placeId": null,
    "categories": [
      "Pharmacy"
    ],
    "fid": "0x89c77b18e5acddeb:0x66ef917c5ddbaf5c",
    "cid": "7417307074639146844",
    "reviewsCount": 4,
    "imagesCount": 8,
    "imageCategories": [],
    "scrapedAt": "2025-06-22T07:27:57.683Z",
    "googleFoodUrl": null,
    "hotelAds": [],
    "openingHours": [
      {
        "day": "Monday",
        "hours": "9\u202fAM to 7\u202fPM"
      },
      {
        "day": "Tuesday",
        "hours": "9\u202fAM to 7\u202fPM"
      },
      {
        "day": "Wednesday",
        "hours": "9\u202fAM to 7\u202fPM"
      },
      {
        "day": "Thursday",
        "hours": "9\u202fAM to 7\u202fPM"
      },
      {
        "day": "Friday",
        "hours": "9\u202fAM to 7\u202fPM"
      },
      {
        "day": "Saturday",
        "hours": "9\u202fAM to 6\u202fPM"
      },
      {
        "day": "Sunday",
        "hours": "Closed"
      }
    ],
    "peopleAlsoSearch": [],
    "placesTags": [],
    "reviewsTags": [],
    "additionalInfo": {
      "Service options": [
        {
          "Curbside pickup": true
        },
        {
          "Delivery": true
        },
        {
          "In-store pickup": true
        },
        {
          "In-store shopping": true
        },
        {
          "Onsite services": true
        },
        {
          "Same-day delivery": true
        }
      ],
      "Accessibility": [
        {
          "Wheelchair accessible entrance": true
        },
        {
          "Wheelchair accessible parking lot": true
        }
      ],
      "Planning": [
        {
          "Quick visit": true
        }
      ],
      "Payments": [
        {
          "Credit cards": true
        },
        {
          "Debit cards": true
        },
        {
          "Credit cards": true
        }
      ]
    },
    "gasPrices": [],
    "url": "https://www.google.com/maps/search/?api=1&query=Sam's%20Club%20Pharmacy&query_place_id=ChIJ692s5Rh7x4kRXK_bXXyR72Y",
    "searchPageUrl": "https://www.google.com/maps/search/independent%20pharmacy%20Dover%20DE/@33.954544952667874,-86.48607177164843,8z?hl=en",
    "searchString": "independent pharmacy Dover DE",
    "language": "en",
    "rank": 8,
    "isAdvertisement": false,
    "imageUrl": "https://lh3.googleusercontent.com/p/AF1QipPt-DNUVq7HtoUNa4_4YirJUhJmlITNT_QjcvXn=w408-h272-k-no",
    "kgmid": "/g/1jkvnfxms",
    "classification": "chain",
    "is_independent": false,
    "is_compounding": false,
    "confidence": 0.99,
    "source": "perplexity",
    "method": "llm"
  },
  {
    "title": "Walgreens Specialty Pharmacy at Eden Hill Medical Center",
    "description": "Department of the Walgreens chain providing prescription medications & other health-related items.",
    "price": "$$",
    "categoryName": "Pharmacy",
    "address": "200 Banning St #100, Dover, DE 19904",
    "neighborhood": null,
    "street": "200 Banning St #100",
    "city": "Dover",
    "postalCode": "19904",
    "state": "Delaware",
    "countryCode": "US",
    "website": "https://www.walgreens.com/locator/walgreens-200+banning+st-dover-de-19904/id=11322",
    "phone": "(302) 734-9303",
    "phoneUnformatted": "+13027349303",
    "claimThisBusiness": false,
    "location": {
      "lat": 39.1534383,
      "lng": -75.5359308
    },
    "totalScore": 4.3,
    "permanentlyClosed": false,
    "temporarilyClosed": false,
    "placeId": null,
    "categories": [
      "Pharmacy"
    ],
    "fid": "0x89c77ca91b913d63:0x87ce005f30b3b607",
    "cid": "9785759449161643527",
    "reviewsCount": 7,
    "imagesCount": 1,
    "imageCategories": [],
    "scrapedAt": "2025-06-22T07:27:57.683Z",
    "googleFoodUrl": null,
    "hotelAds": [],
    "openingHours": [
      {
        "day": "Monday",
        "hours": "8:30\u202fAM to 5\u202fPM"
      },
      {
        "day": "Tuesday",
        "hours": "8:30\u202fAM to 5\u202fPM"
      },
      {
        "day": "Wednesday",
        "hours": "8:30\u202fAM to 5\u202fPM"
      },
      {
        "day": "Thursday",
        "hours": "8:30\u202fAM to 5\u202fPM"
      },
      {
        "day": "Friday",
        "hours": "8:30\u202fAM to 5\u202fPM"
      },
      {
        "day": "Saturday",
        "hours": "Closed"
      },
      {
        "day": "Sunday",
        "hours": "Closed"
      }
    ],
    "additionalOpeningHours": {
      "Pickup": [
        {
          "day": "Monday",
          "hours": "8:30\u202fAM\u20135\u202fPM"
        },
        {
          "day": "Tuesday",
          "hours": "8:30\u202fAM\u20135\u202fPM"
        },
        {
          "day": "Wednesday",
          "hours": "8:30\u202fAM\u20135\u202fPM"
        },
        {
          "day": "Thursday",
          "hours": "8:30\u202fAM\u20135\u202fPM"
        },
        {
          "day": "Friday",
          "hours": "8:30\u202fAM\u20135\u202fPM"
        },
        {
          "day": "Saturday",
          "hours": "Closed"
        },
        {
          "day": "Sunday",
          "hours": "Closed"
        }
      ]
    },
    "peopleAlsoSearch": [],
    "placesTags": [],
    "reviewsTags": [],
    "additionalInfo": {
      "Service options": [
        {
          "In-store pickup": true
        }
      ],
      "Accessibility": [
        {
          "Wheelchair accessible entrance": true
        },
        {
          "Wheelchair accessible parking lot": true
        }
      ],
      "Amenities": [
        {
          "Wi-Fi": true
        },
        {
          "Free Wi-Fi": true
        }
      ],
      "Planning": [
        {
          "Quick visit": true
        }
      ],
      "Payments": [
        {
          "Checks": true
        },
        {
          "Credit cards": true
        },
        {
          "Debit cards": true
        },
        {
          "Credit cards": true
        }
      ]
    },
    "gasPrices": [],
    "url": "https://www.google.com/maps/search/?api=1&query=Walgreens%20Specialty%20Pharmacy%20at%20Eden%20Hill%20Medical%20Center&query_place_id=ChIJYz2RG6l8x4kRB7azMF8Azoc",
    "searchPageUrl": "https://www.google.com/maps/search/independent%20pharmacy%20Dover%20DE/@33.954544952667874,-86.48607177164843,8z?hl=en",
    "searchString": "independent pharmacy Dover DE",
    "language": "en",
    "rank": 9,
    "isAdvertisement": false,
    "imageUrl": "https://lh3.googleusercontent.com/p/AF1QipP0PShZC_FK11GDYndK8v0e3enWqRtDRaBk4TSp=w427-h240-k-no",
    "kgmid": "/g/1tdzs2t6",
    "classification": "chain",
    "is_independent": false,
    "is_compounding": false,
    "confidence": 1.0,
    "source": "perplexity",
    "method": "llm"
  },
  {
    "title": "Rite Aid Pharmacy",
    "price": null,
    "categoryName": "Pharmacy",
    "address": "1580 S Dupont Hwy, Dover, DE 19901",
    "neighborhood": null,
    "street": "1580 S Dupont Hwy",
    "city": "Dover",
    "postalCode": "19901",
    "state": "Delaware",
    "countryCode": "US",
    "website": "https://www.riteaid.com/locations/de/dover/1580-south-dupont-highway.html",
    "phone": "(302) 734-4788",
    "phoneUnformatted": "+13027344788",
    "claimThisBusiness": false,
    "location": {
      "lat": 39.1335042,
      "lng": -75.5292172
    },
    "permanentlyClosed": false,
    "temporarilyClosed": false,
    "placeId": null,
    "categories": [
      "Pharmacy"
    ],
    "fid": "0x89c77d0eddb48871:0x5175f72e106f0037",
    "cid": "5869869466563575863",
    "reviewsCount": 0,
    "imagesCount": 7,
    "imageCategories": [],
    "scrapedAt": "2025-06-22T07:27:57.684Z",
    "googleFoodUrl": null,
    "hotelAds": [],
    "openingHours": [
      {
        "day": "Monday",
        "hours": "9\u202fAM to 1:30\u202fPM, 2 to 9\u202fPM"
      },
      {
        "day": "Tuesday",
        "hours": "9\u202fAM to 1:30\u202fPM, 2 to 9\u202fPM"
      },
      {
        "day": "Wednesday",
        "hours": "9\u202fAM to 1:30\u202fPM, 2 to 9\u202fPM"
      },
      {
        "day": "Thursday",
        "hours": "9\u202fAM to 1:30\u202fPM, 2 to 9\u202fPM"
      },
      {
        "day": "Friday",
        "hours": "9\u202fAM to 1:30\u202fPM, 2 to 9\u202fPM"
      },
      {
        "day": "Saturday",
        "hours": "9\u202fAM to 1:30\u202fPM, 2 to 6\u202fPM"
      },
      {
        "day": "Sunday",
        "hours": "10\u202fAM to 1:30\u202fPM, 2 to 6\u202fPM"
      }
    ],
    "additionalOpeningHours": {
      "Drive through": [
        {
          "day": "Monday",
          "hours": "8\u202fAM\u20139\u202fPM"
        },
        {
          "day": "Tuesday",
          "hours": "8\u202fAM\u20139\u202fPM"
        },
        {
          "day": "Wednesday",
          "hours": "8\u202fAM\u20139\u202fPM"
        },
        {
          "day": "Thursday",
          "hours": "8\u202fAM\u20139\u202fPM"
        },
        {
          "day": "Friday",
          "hours": "8\u202fAM\u20139\u202fPM"
        },
        {
          "day": "Saturday",
          "hours": "9\u202fAM\u20139\u202fPM"
        },
        {
          "day": "Sunday",
          "hours": "9\u202fAM\u20139\u202fPM"
        }
      ]
    },
    "peopleAlsoSearch": [],
    "placesTags": [],
    "reviewsTags": [],
    "additionalInfo": {
      "Service options": [
        {
          "Delivery": true
        },
        {
          "Drive-through": true
        },
        {
          "In-store pickup": true
        },
        {
          "In-store shopping": true
        }
      ],
      "Accessibility": [
        {
          "Wheelchair accessible entrance": true
        },
        {
          "Wheelchair accessible parking lot": true
        }
      ],
      "Planning": [
        {
          "Quick visit": true
        }
      ],
      "Payments": [
        {
          "Checks": true
        },
        {
          "Credit cards": true
        },
        {
          "Debit cards": true
        },
        {
          "NFC mobile payments": true
        },
        {
          "Credit cards": true
        }
      ]
    },
    "gasPrices": [],
    "url": "https://www.google.com/maps/search/?api=1&query=Rite%20Aid%20Pharmacy&query_place_id=ChIJcYi03Q59x4kRNwBvEC73dVE",
    "searchPageUrl": "https://www.google.com/maps/search/independent%20pharmacy%20Dover%20DE/@33.954544952667874,-86.48607177164843,8z?hl=en",
    "searchString": "independent pharmacy Dover DE",
    "language": "en",
    "rank": 10,
    "isAdvertisement": false,
    "imageUrl": "https://lh3.googleusercontent.com/p/AF1QipMJh6iE2ZbjJNNhBD7hbMzHC_-fY1_m20zB5bAj=w408-h406-k-no",
    "kgmid": "/g/11v1bpsvnq",
    "classification": "chain",
    "is_independent": false,
    "is_compounding": false,
    "confidence": 1.0,
    "source": "perplexity",
    "method": "llm"
  },
  {
    "title": "CVS Pharmacy",
    "price": null,
    "categoryName": "Pharmacy",
    "address": "988 Forest St, Dover, DE 19904",
    "neighborhood": null,
    "street": "988 Forest St",
    "city": "Dover",
    "postalCode": "19904",
    "state": "Delaware",
    "countryCode": "US",
    "website": "https://www.cvs.com/store-locator/dover-de-pharmacies/988-forrest-st-dover-de-19904/storeid=2069?WT.mc_id=LS_GOOGLE_RX_2069",
    "phone": "(302) 744-9222",
    "phoneUnformatted": "+13027449222",
    "claimThisBusiness": false,
    "location": {
      "lat": 39.1582891,
      "lng": -75.5423148
    },
    "totalScore": 3.7,
    "permanentlyClosed": false,
    "temporarilyClosed": false,
    "placeId": null,
    "categories": [
      "Pharmacy"
    ],
    "fid": "0x89c77b5887d867f3:0x8b30eb1d428c0549",
    "cid": "10029774881057146185",
    "reviewsCount": 25,
    "imagesCount": 10,
    "imageCategories": [],
    "scrapedAt": "2025-06-22T07:27:57.684Z",
    "googleFoodUrl": null,
    "hotelAds": [],
    "openingHours": [
      {
        "day": "Monday",
        "hours": "9\u202fAM to 1:30\u202fPM, 2 to 7\u202fPM"
      },
      {
        "day": "Tuesday",
        "hours": "9\u202fAM to 1:30\u202fPM, 2 to 7\u202fPM"
      },
      {
        "day": "Wednesday",
        "hours": "9\u202fAM to 1:30\u202fPM, 2 to 7\u202fPM"
      },
      {
        "day": "Thursday",
        "hours": "9\u202fAM to 1:30\u202fPM, 2 to 7\u202fPM"
      },
      {
        "day": "Friday",
        "hours": "9\u202fAM to 1:30\u202fPM, 2 to 7\u202fPM"
      },
      {
        "day": "Saturday",
        "hours": "10\u202fAM to 1:30\u202fPM, 2 to 6\u202fPM"
      },
      {
        "day": "Sunday",
        "hours": "11\u202fAM to 1:30\u202fPM, 2 to 5\u202fPM"
      }
    ],
    "peopleAlsoSearch": [],
    "placesTags": [],
    "reviewsTags": [],
    "additionalInfo": {
      "Service options": [
        {
          "Delivery": true
        },
        {
          "Drive-through": true
        },
        {
          "In-store shopping": true
        }
      ],
      "Accessibility": [
        {
          "Wheelchair accessible entrance": true
        },
        {
          "Wheelchair accessible parking lot": true
        }
      ],
      "Offerings": [
        {
          "Naloxone": true
        },
        {
          "Passport photos": true
        }
      ],
      "Crowd": [
        {
          "LGBTQ+ friendly": true
        },
        {
          "Transgender safespace": true
        }
      ],
      "Planning": [
        {
          "Quick visit": true
        }
      ],
      "Payments": [
        {
          "Credit cards": true
        },
        {
          "Debit cards": true
        },
        {
          "NFC mobile payments": true
        },
        {
          "Credit cards": true
        }
      ]
    },
    "gasPrices": [],
    "url": "https://www.google.com/maps/search/?api=1&query=CVS%20Pharmacy&query_place_id=ChIJ82fYh1h7x4kRSQWMQh3rMIs",
    "searchPageUrl": "https://www.google.com/maps/search/independent%20pharmacy%20Dover%20DE/@33.954544952667874,-86.48607177164843,8z?hl=en",
    "searchString": "independent pharmacy Dover DE",
    "language": "en",
    "rank": 11,
    "isAdvertisement": false,
    "imageUrl": "https://lh3.googleusercontent.com/p/AF1QipPmkC3DdCSmLoURTb8DOEINE01n6Zz1eOKsVZRA=w408-h272-k-no",
    "kgmid": "/g/11c475c1pw",
    "classification": "chain",
    "is_independent": false,
    "is_compounding": false,
    "confidence": 0.99,
    "source": "perplexity",
    "method": "llm"
  },
  {
    "title": "CVS Pharmacy",
    "price": null,
    "categoryName": "Pharmacy",
    "address": "11 N Dupont Hwy, Dover, DE 19901",
    "neighborhood": null,
    "street": "11 N Dupont Hwy",
    "city": "Dover",
    "postalCode": "19901",
    "state": "Delaware",
    "countryCode": "US",
    "website": "https://www.cvs.com/store-locator/dover-de-pharmacies/11-north-dupont-hwy-dover-de-19901/storeid=1911?WT.mc_id=LS_GOOGLE_RX_1911",
    "phone": "(302) 672-7010",
    "phoneUnformatted": "+13026727010",
    "claimThisBusiness": false,
    "location": {
      "lat": 39.1640589,
      "lng": -75.5146131
    },
    "totalScore": 3.7,
    "permanentlyClosed": false,
    "temporarilyClosed": false,
    "placeId": null,
    "categories": [
      "Pharmacy"
    ],
    "fid": "0x89c764a54a3beb0d:0x3a9fd0b070df939a",
    "cid": "4224324431723336602",
    "reviewsCount": 28,
    "imagesCount": 8,
    "imageCategories": [],
    "scrapedAt": "2025-06-22T07:27:57.684Z",
    "googleFoodUrl": null,
    "hotelAds": [],
    "openingHours": [
      {
        "day": "Monday",
        "hours": "9\u202fAM to 1:30\u202fPM, 2 to 8\u202fPM"
      },
      {
        "day": "Tuesday",
        "hours": "9\u202fAM to 1:30\u202fPM, 2 to 8\u202fPM"
      },
      {
        "day": "Wednesday",
        "hours": "9\u202fAM to 1:30\u202fPM, 2 to 8\u202fPM"
      },
      {
        "day": "Thursday",
        "hours": "9\u202fAM to 1:30\u202fPM, 2 to 8\u202fPM"
      },
      {
        "day": "Friday",
        "hours": "9\u202fAM to 1:30\u202fPM, 2 to 8\u202fPM"
      },
      {
        "day": "Saturday",
        "hours": "10\u202fAM to 1:30\u202fPM, 2 to 5\u202fPM"
      },
      {
        "day": "Sunday",
        "hours": "10\u202fAM to 1:30\u202fPM, 2 to 5\u202fPM"
      }
    ],
    "peopleAlsoSearch": [],
    "placesTags": [],
    "reviewsTags": [],
    "additionalInfo": {
      "Service options": [
        {
          "Delivery": true
        },
        {
          "Drive-through": true
        },
        {
          "In-store pickup": true
        },
        {
          "In-store shopping": true
        },
        {
          "Onsite services": true
        }
      ],
      "Accessibility": [
        {
          "Wheelchair accessible entrance": true
        },
        {
          "Wheelchair accessible parking lot": true
        }
      ],
      "Offerings": [
        {
          "Medication disposal": true
        },
        {
          "Naloxone": true
        }
      ],
      "Crowd": [
        {
          "LGBTQ+ friendly": true
        },
        {
          "Transgender safespace": true
        }
      ],
      "Planning": [
        {
          "Quick visit": true
        }
      ],
      "Payments": [
        {
          "Credit cards": true
        },
        {
          "Debit cards": true
        },
        {
          "NFC mobile payments": true
        },
        {
          "Credit cards": true
        }
      ]
    },
    "gasPrices": [],
    "url": "https://www.google.com/maps/search/?api=1&query=CVS%20Pharmacy&query_place_id=ChIJDes7SqVkx4kRmpPfcLDQnzo",
    "searchPageUrl": "https://www.google.com/maps/search/independent%20pharmacy%20Dover%20DE/@33.954544952667874,-86.48607177164843,8z?hl=en",
    "searchString": "independent pharmacy Dover DE",
    "language": "en",
    "rank": 12,
    "isAdvertisement": false,
    "imageUrl": "https://lh3.googleusercontent.com/p/AF1QipO2c1kWAZiB0IPLn2DGHvs3etWkECOMvXSuLQAW=w408-h272-k-no",
    "kgmid": "/g/11fy_d8jyf",
    "classification": "chain",
    "is_independent": false,
    "is_compounding": false,
    "confidence": 1.0,
    "source": "perplexity",
    "method": "llm"
  },
  {
    "title": "Rite Aid Pharmacy",
    "price": null,
    "categoryName": "Pharmacy",
    "address": "41 Greentree Dr, Dover, DE 19904",
    "neighborhood": null,
    "street": "41 Greentree Dr",
    "city": "Dover",
    "postalCode": "19904",
    "state": "Delaware",
    "countryCode": "US",
    "website": "https://www.riteaid.com/locations/de/dover/41-greentree-drive.html",
    "phone": "(302) 678-2101",
    "phoneUnformatted": "+13026782101",
    "claimThisBusiness": false,
    "location": {
      "lat": 39.1604797,
      "lng": -75.5541507
    },
    "totalScore": 3,
    "permanentlyClosed": false,
    "temporarilyClosed": false,
    "placeId": null,
    "categories": [
      "Pharmacy"
    ],
    "fid": "0x89c77b280c4521db:0x6ec8fd17648866f1",
    "cid": "7982908616426940145",
    "reviewsCount": 1,
    "imagesCount": 7,
    "imageCategories": [],
    "scrapedAt": "2025-06-22T07:27:57.684Z",
    "googleFoodUrl": null,
    "hotelAds": [],
    "openingHours": [
      {
        "day": "Monday",
        "hours": "9\u202fAM to 1:30\u202fPM, 2 to 9\u202fPM"
      },
      {
        "day": "Tuesday",
        "hours": "9\u202fAM to 1:30\u202fPM, 2 to 9\u202fPM"
      },
      {
        "day": "Wednesday",
        "hours": "9\u202fAM to 1:30\u202fPM, 2 to 9\u202fPM"
      },
      {
        "day": "Thursday",
        "hours": "9\u202fAM to 1:30\u202fPM, 2 to 9\u202fPM"
      },
      {
        "day": "Friday",
        "hours": "9\u202fAM to 1:30\u202fPM, 2 to 9\u202fPM"
      },
      {
        "day": "Saturday",
        "hours": "10\u202fAM to 1:30\u202fPM, 2 to 5\u202fPM"
      },
      {
        "day": "Sunday",
        "hours": "10\u202fAM to 1:30\u202fPM, 2 to 5\u202fPM"
      }
    ],
    "additionalOpeningHours": {
      "Drive through": [
        {
          "day": "Monday",
          "hours": "9\u202fAM\u20138\u202fPM"
        },
        {
          "day": "Tuesday",
          "hours": "9\u202fAM\u20138\u202fPM"
        },
        {
          "day": "Wednesday",
          "hours": "9\u202fAM\u20138\u202fPM"
        },
        {
          "day": "Thursday",
          "hours": "9\u202fAM\u20138\u202fPM"
        },
        {
          "day": "Friday",
          "hours": "9\u202fAM\u20138\u202fPM"
        },
        {
          "day": "Saturday",
          "hours": "9\u202fAM\u20136\u202fPM"
        },
        {
          "day": "Sunday",
          "hours": "10\u202fAM\u20136\u202fPM"
        }
      ]
    },
    "peopleAlsoSearch": [],
    "placesTags": [],
    "reviewsTags": [],
    "additionalInfo": {
      "Service options": [
        {
          "Delivery": true
        },
        {
          "In-store pickup": true
        },
        {
          "In-store shopping": true
        }
      ],
      "Accessibility": [
        {
          "Wheelchair accessible entrance": true
        },
        {
          "Wheelchair accessible parking lot": true
        }
      ],
      "Planning": [
        {
          "Quick visit": true
        }
      ],
      "Payments": [
        {
          "Checks": true
        },
        {
          "Credit cards": true
        },
        {
          "Debit cards": true
        },
        {
          "NFC mobile payments": true
        },
        {
          "Credit cards": true
        }
      ]
    },
    "gasPrices": [],
    "url": "https://www.google.com/maps/search/?api=1&query=Rite%20Aid%20Pharmacy&query_place_id=ChIJ2yFFDCh7x4kR8WaIZBf9yG4",
    "searchPageUrl": "https://www.google.com/maps/search/independent%20pharmacy%20Dover%20DE/@33.954544952667874,-86.48607177164843,8z?hl=en",
    "searchString": "independent pharmacy Dover DE",
    "language": "en",
    "rank": 13,
    "isAdvertisement": false,
    "imageUrl": "https://lh3.googleusercontent.com/p/AF1QipMTA6CZIjqEsVPuAUtKheNWpWly5g2lvayB979D=w408-h406-k-no",
    "kgmid": "/g/11kqtgtn3w",
    "classification": "chain",
    "is_independent": false,
    "is_compounding": false,
    "confidence": 1.0,
    "source": "perplexity",
    "method": "llm"
  },
  {
    "title": "Walgreens Pharmacy",
    "description": "Department of the Walgreens chain providing prescription medications & other health-related items.",
    "price": "$$",
    "categoryName": "Pharmacy",
    "address": "1001 Forrest Ave, Dover, DE 19904",
    "neighborhood": null,
    "street": "1001 Forrest Ave",
    "city": "Dover",
    "postalCode": "19904",
    "state": "Delaware",
    "countryCode": "US",
    "website": "https://www.walgreens.com/locator/walgreens-1001+forrest+ave-dover-de-19904/id=9687",
    "phone": "(302) 678-9820",
    "phoneUnformatted": "+13026789820",
    "claimThisBusiness": false,
    "location": {
      "lat": 39.1594077,
      "lng": -75.5435827
    },
    "totalScore": 3.3,
    "permanentlyClosed": false,
    "temporarilyClosed": false,
    "placeId": null,
    "categories": [
      "Pharmacy"
    ],
    "fid": "0x89c77b58ea13886b:0xfe6dd5135c6a1dc9",
    "cid": "18333543937226710473",
    "reviewsCount": 37,
    "imagesCount": 5,
    "imageCategories": [],
    "scrapedAt": "2025-06-22T07:27:57.684Z",
    "googleFoodUrl": null,
    "hotelAds": [],
    "openingHours": [
      {
        "day": "Monday",
        "hours": "8\u202fAM to 1:30\u202fPM, 2 to 10\u202fPM"
      },
      {
        "day": "Tuesday",
        "hours": "8\u202fAM to 1:30\u202fPM, 2 to 10\u202fPM"
      },
      {
        "day": "Wednesday",
        "hours": "8\u202fAM to 1:30\u202fPM, 2 to 10\u202fPM"
      },
      {
        "day": "Thursday",
        "hours": "8\u202fAM to 1:30\u202fPM, 2 to 10\u202fPM"
      },
      {
        "day": "Friday",
        "hours": "8\u202fAM to 1:30\u202fPM, 2 to 10\u202fPM"
      },
      {
        "day": "Saturday",
        "hours": "8\u202fAM to 1:30\u202fPM, 2 to 10\u202fPM"
      },
      {
        "day": "Sunday",
        "hours": "8\u202fAM to 1:30\u202fPM, 2 to 10\u202fPM"
      }
    ],
    "additionalOpeningHours": {
      "Drive through": [
        {
          "day": "Monday",
          "hours": "8\u202fAM\u20131:30\u202fPM"
        },
        {
          "day": "Tuesday",
          "hours": "8\u202fAM\u20131:30\u202fPM"
        },
        {
          "day": "Wednesday",
          "hours": "8\u202fAM\u20131:30\u202fPM"
        },
        {
          "day": "Thursday",
          "hours": "8\u202fAM\u20131:30\u202fPM"
        },
        {
          "day": "Friday",
          "hours": "8\u202fAM\u20131:30\u202fPM"
        },
        {
          "day": "Saturday",
          "hours": "8\u202fAM\u20131:30\u202fPM"
        },
        {
          "day": "Sunday",
          "hours": "8\u202fAM\u20131:30\u202fPM"
        }
      ]
    },
    "peopleAlsoSearch": [],
    "placesTags": [],
    "reviewsTags": [],
    "additionalInfo": {
      "Service options": [
        {
          "Drive-through": true
        },
        {
          "In-store pickup": true
        },
        {
          "Onsite services": true
        }
      ],
      "Accessibility": [
        {
          "Wheelchair accessible entrance": true
        },
        {
          "Wheelchair accessible parking lot": true
        }
      ],
      "Planning": [
        {
          "Quick visit": true
        }
      ],
      "Payments": [
        {
          "Checks": true
        },
        {
          "Credit cards": true
        },
        {
          "Debit cards": true
        }
      ]
    },
    "gasPrices": [],
    "url": "https://www.google.com/maps/search/?api=1&query=Walgreens%20Pharmacy&query_place_id=ChIJa4gT6lh7x4kRyR1qXBPVbf4",
    "searchPageUrl": "https://www.google.com/maps/search/independent%20pharmacy%20Dover%20DE/@33.954544952667874,-86.48607177164843,8z?hl=en",
    "searchString": "independent pharmacy Dover DE",
    "language": "en",
    "rank": 14,
    "isAdvertisement": false,
    "imageUrl": "https://lh3.googleusercontent.com/gps-cs-s/AC9h4nppHTLFTRy1REd3d4UKrU1LGTxYsXyd6veUv6ZP9tNyG8y3i8pWSeJCzLWntBnovEJhz1d_IChPs75E2-VyB9aRNL3H_ZFDDWK2_PRg6uiBwpFLk7WgeeIPMUTS2qz3NUuFwHKE=w408-h544-k-no",
    "kgmid": "/g/11cn951vkl",
    "classification": "chain",
    "is_independent": false,
    "is_compounding": false,
    "confidence": 0.99,
    "source": "perplexity",
    "method": "llm"
  },
  {
    "title": "Walgreens Pharmacy",
    "description": "Department of the Walgreens chain providing prescription medications & other health-related items.",
    "price": null,
    "categoryName": "Pharmacy",
    "address": "20 N Dupont Hwy, Dover, DE 19901",
    "neighborhood": null,
    "street": "20 N Dupont Hwy",
    "city": "Dover",
    "postalCode": "19901",
    "state": "Delaware",
    "countryCode": "US",
    "website": "https://www.walgreens.com/locator/walgreens-20+n+dupont+hwy-dover-de-19901/id=21382",
    "phone": "(302) 730-5280",
    "phoneUnformatted": "+13027305280",
    "claimThisBusiness": false,
    "location": {
      "lat": 39.1633782,
      "lng": -75.5172862
    },
    "totalScore": 3.3,
    "permanentlyClosed": false,
    "temporarilyClosed": false,
    "placeId": null,
    "categories": [
      "Pharmacy"
    ],
    "fid": "0x89c765026a091b45:0x53646a080a2bb530",
    "cid": "6009044385582003504",
    "reviewsCount": 16,
    "imagesCount": 4,
    "imageCategories": [],
    "scrapedAt": "2025-06-22T07:28:28.823Z",
    "googleFoodUrl": null,
    "hotelAds": [],
    "openingHours": [
      {
        "day": "Monday",
        "hours": "9:30\u202fAM to 1:30\u202fPM, 2 to 6\u202fPM"
      },
      {
        "day": "Tuesday",
        "hours": "9:30\u202fAM to 1:30\u202fPM, 2 to 6\u202fPM"
      },
      {
        "day": "Wednesday",
        "hours": "9:30\u202fAM to 1:30\u202fPM, 2 to 6\u202fPM"
      },
      {
        "day": "Thursday",
        "hours": "9:30\u202fAM to 1:30\u202fPM, 2 to 6\u202fPM"
      },
      {
        "day": "Friday",
        "hours": "9:30\u202fAM to 1:30\u202fPM, 2 to 6\u202fPM"
      },
      {
        "day": "Saturday",
        "hours": "Closed"
      },
      {
        "day": "Sunday",
        "hours": "Closed"
      }
    ],
    "additionalOpeningHours": {
      "Drive through": [
        {
          "day": "Monday",
          "hours": "9:30\u202fAM\u20131:30\u202fPM"
        },
        {
          "day": "Tuesday",
          "hours": "9:30\u202fAM\u20131:30\u202fPM"
        },
        {
          "day": "Wednesday",
          "hours": "9:30\u202fAM\u20131:30\u202fPM"
        },
        {
          "day": "Thursday",
          "hours": "9:30\u202fAM\u20131:30\u202fPM"
        },
        {
          "day": "Friday",
          "hours": "9:30\u202fAM\u20131:30\u202fPM"
        },
        {
          "day": "Saturday",
          "hours": "Closed"
        },
        {
          "day": "Sunday",
          "hours": "Closed"
        }
      ]
    },
    "peopleAlsoSearch": [],
    "placesTags": [],
    "reviewsTags": [],
    "additionalInfo": {
      "Service options": [
        {
          "Curbside pickup": true
        },
        {
          "Drive-through": true
        },
        {
          "In-store pickup": true
        },
        {
          "Onsite services": true
        }
      ],
      "Accessibility": [
        {
          "Wheelchair accessible entrance": true
        },
        {
          "Wheelchair accessible parking lot": true
        }
      ],
      "Offerings": [
        {
          "Naloxone": true
        }
      ],
      "Planning": [
        {
          "Quick visit": true
        }
      ],
      "Payments": [
        {
          "Credit cards": true
        },
        {
          "Debit cards": true
        }
      ]
    },
    "gasPrices": [],
    "url": "https://www.google.com/maps/search/?api=1&query=Walgreens%20Pharmacy&query_place_id=ChIJRRsJagJlx4kRMLUrCghqZFM",
    "searchPageUrl": "https://www.google.com/maps/search/independent%20pharmacy%20Dover%20DE/@55.6612261832132,-157.74759435157458,13z?hl=en",
    "searchString": "independent pharmacy Dover DE",
    "language": "en",
    "rank": 11,
    "isAdvertisement": false,
    "imageUrl": "https://lh3.googleusercontent.com/gps-cs-s/AC9h4noF-mkZySny28cRUUlgpTWjLOzUx0joKCDQr6q3GQLETM5Bo25-Z0j15dhJ_EhdX4mebgapIFNocCqVJxxM6TOg0p_l0qPrE5uTxJg2u-6Dz_2SOVQkGnfpY9YzC4bgGdTPOPXAeA=w532-h240-k-no",
    "kgmid": "/g/11synq9dfv",
    "classification": "chain",
    "is_independent": false,
    "is_compounding": false,
    "confidence": 0.99,
    "source": "perplexity",
    "method": "llm"
  },
  {
    "title": "CVS Pharmacy",
    "description": "Drugstore chain selling a variety of beauty & health products, plus some grocery & household items.",
    "price": null,
    "categoryName": "Pharmacy",
    "address": "148 John Hunn Brown Rd, Dover, DE 19901",
    "neighborhood": null,
    "street": "148 John Hunn Brown Rd",
    "city": "Dover",
    "postalCode": "19901",
    "state": "Delaware",
    "countryCode": "US",
    "website": "https://www.cvs.com/store-locator/dover-de-pharmacies/148-john-hunn-brown-rd-dover-de-19901/storeid=16655?WT.mc_id=LS_GOOGLE_RX_16655",
    "phone": "(302) 741-0466",
    "phoneUnformatted": "+13027410466",
    "claimThisBusiness": false,
    "location": {
      "lat": 39.1599477,
      "lng": -75.5107459
    },
    "totalScore": 3.1,
    "permanentlyClosed": false,
    "temporarilyClosed": false,
    "placeId": null,
    "categories": [
      "Pharmacy"
    ],
    "fid": "0x89c764a477461aef:0xae35e6479043fd99",
    "cid": "12553192731402567065",
    "reviewsCount": 20,
    "imagesCount": 6,
    "imageCategories": [],
    "scrapedAt": "2025-06-22T07:28:28.823Z",
    "googleFoodUrl": null,
    "hotelAds": [],
    "openingHours": [
      {
        "day": "Monday",
        "hours": "10\u202fAM to 1:30\u202fPM, 2 to 7\u202fPM"
      },
      {
        "day": "Tuesday",
        "hours": "10\u202fAM to 1:30\u202fPM, 2 to 7\u202fPM"
      },
      {
        "day": "Wednesday",
        "hours": "10\u202fAM to 1:30\u202fPM, 2 to 7\u202fPM"
      },
      {
        "day": "Thursday",
        "hours": "10\u202fAM to 1:30\u202fPM, 2 to 7\u202fPM"
      },
      {
        "day": "Friday",
        "hours": "10\u202fAM to 1:30\u202fPM, 2 to 7\u202fPM"
      },
      {
        "day": "Saturday",
        "hours": "11\u202fAM to 1:30\u202fPM, 2 to 5\u202fPM"
      },
      {
        "day": "Sunday",
        "hours": "12 to 5\u202fPM"
      }
    ],
    "peopleAlsoSearch": [],
    "placesTags": [],
    "reviewsTags": [],
    "additionalInfo": {
      "Service options": [
        {
          "Delivery": true
        },
        {
          "In-store shopping": true
        },
        {
          "Onsite services": true
        }
      ],
      "Accessibility": [
        {
          "Wheelchair accessible entrance": true
        },
        {
          "Wheelchair accessible parking lot": true
        }
      ],
      "Offerings": [
        {
          "Naloxone": true
        }
      ],
      "Crowd": [
        {
          "LGBTQ+ friendly": true
        },
        {
          "Transgender safespace": true
        }
      ],
      "Planning": [
        {
          "Quick visit": true
        }
      ],
      "Payments": [
        {
          "Credit cards": true
        },
        {
          "Debit cards": true
        },
        {
          "Credit cards": true
        }
      ]
    },
    "gasPrices": [],
    "url": "https://www.google.com/maps/search/?api=1&query=CVS%20Pharmacy&query_place_id=ChIJ7xpGd6Rkx4kRmf1DkEfmNa4",
    "searchPageUrl": "https://www.google.com/maps/search/independent%20pharmacy%20Dover%20DE/@55.6612261832132,-157.74759435157458,13z?hl=en",
    "searchString": "independent pharmacy Dover DE",
    "language": "en",
    "rank": 12,
    "isAdvertisement": false,
    "imageUrl": "https://lh3.googleusercontent.com/p/AF1QipNbI5beNfEhuWDs7iLhYgacVlpt3kh7jYZ-zV4P=w408-h272-k-no",
    "kgmid": "/g/1vvdw5b9",
    "classification": "chain",
    "is_independent": false,
    "is_compounding": false,
    "confidence": 1.0,
    "source": "perplexity",
    "method": "llm"
  },
  {
    "title": "CVS",
    "description": "Drugstore chain selling a variety of beauty & health products, plus some grocery & household items.",
    "price": null,
    "categoryName": "Drug store",
    "address": "988 Forest St, Dover, DE 19904",
    "neighborhood": null,
    "street": "988 Forest St",
    "city": "Dover",
    "postalCode": "19904",
    "state": "Delaware",
    "countryCode": "US",
    "website": "https://www.cvs.com/store-locator/dover-de-pharmacies/988-forrest-st-dover-de-19904/storeid=2069?WT.mc_id=LS_GOOGLE_FS_2069",
    "phone": "(302) 744-9222",
    "phoneUnformatted": "+13027449222",
    "claimThisBusiness": false,
    "location": {
      "lat": 39.1582891,
      "lng": -75.5423148
    },
    "locatedIn": "CVS Pharmacy",
    "totalScore": 2.7,
    "permanentlyClosed": false,
    "temporarilyClosed": false,
    "placeId": null,
    "categories": [
      "Drug store",
      "Beauty supply store",
      "Convenience store",
      "Cosmetics store",
      "Greeting card shop",
      "Perfume store",
      "Stationery store",
      "Vitamin & supplements store"
    ],
    "fid": "0x89c77b588a98ee93:0xf2dd6f5ece33359b",
    "cid": "17500266180008687003",
    "reviewsCount": 77,
    "imagesCount": 19,
    "imageCategories": [],
    "scrapedAt": "2025-06-22T07:28:28.823Z",
    "googleFoodUrl": null,
    "hotelAds": [],
    "openingHours": [
      {
        "day": "Monday",
        "hours": "9\u202fAM to 9\u202fPM"
      },
      {
        "day": "Tuesday",
        "hours": "9\u202fAM to 9\u202fPM"
      },
      {
        "day": "Wednesday",
        "hours": "9\u202fAM to 9\u202fPM"
      },
      {
        "day": "Thursday",
        "hours": "9\u202fAM to 9\u202fPM"
      },
      {
        "day": "Friday",
        "hours": "9\u202fAM to 9\u202fPM"
      },
      {
        "day": "Saturday",
        "hours": "9\u202fAM to 9\u202fPM"
      },
      {
        "day": "Sunday",
        "hours": "9\u202fAM to 9\u202fPM"
      }
    ],
    "additionalOpeningHours": {
      "CVS Pharmacy": [
        {
          "day": "Monday",
          "hours": "9\u202fAM\u20131:30\u202fPM"
        },
        {
          "day": "Tuesday",
          "hours": "9\u202fAM\u20131:30\u202fPM"
        },
        {
          "day": "Wednesday",
          "hours": "9\u202fAM\u20131:30\u202fPM"
        },
        {
          "day": "Thursday",
          "hours": "9\u202fAM\u20131:30\u202fPM"
        },
        {
          "day": "Friday",
          "hours": "9\u202fAM\u20131:30\u202fPM"
        },
        {
          "day": "Saturday",
          "hours": "10\u202fAM\u20131:30\u202fPM"
        },
        {
          "day": "Sunday",
          "hours": "11\u202fAM\u20131:30\u202fPM"
        }
      ],
      "CVS Photo": [
        {
          "day": "Monday",
          "hours": "9\u202fAM\u20139\u202fPM"
        },
        {
          "day": "Tuesday",
          "hours": "9\u202fAM\u20139\u202fPM"
        },
        {
          "day": "Wednesday",
          "hours": "9\u202fAM\u20139\u202fPM"
        },
        {
          "day": "Thursday",
          "hours": "9\u202fAM\u20139\u202fPM"
        },
        {
          "day": "Friday",
          "hours": "9\u202fAM\u20139\u202fPM"
        },
        {
          "day": "Saturday",
          "hours": "9\u202fAM\u20139\u202fPM"
        },
        {
          "day": "Sunday",
          "hours": "9\u202fAM\u20139\u202fPM"
        }
      ],
      "LibertyX Bitcoin ATM": [
        {
          "day": "Monday",
          "hours": "8\u202fAM\u201310\u202fPM"
        },
        {
          "day": "Tuesday",
          "hours": "8\u202fAM\u201310\u202fPM"
        },
        {
          "day": "Wednesday",
          "hours": "8\u202fAM\u201310\u202fPM"
        },
        {
          "day": "Thursday",
          "hours": "8\u202fAM\u201310\u202fPM"
        },
        {
          "day": "Friday",
          "hours": "8\u202fAM\u201310\u202fPM"
        },
        {
          "day": "Saturday",
          "hours": "8\u202fAM\u201310\u202fPM"
        },
        {
          "day": "Sunday",
          "hours": "8\u202fAM\u201310\u202fPM"
        }
      ]
    },
    "peopleAlsoSearch": [],
    "placesTags": [],
    "reviewsTags": [],
    "additionalInfo": {
      "Service options": [
        {
          "Delivery": true
        },
        {
          "Drive-through": true
        },
        {
          "In-store pickup": true
        },
        {
          "In-store shopping": true
        },
        {
          "Same-day delivery": false
        }
      ],
      "Accessibility": [
        {
          "Wheelchair accessible entrance": true
        },
        {
          "Wheelchair accessible parking lot": true
        }
      ],
      "Offerings": [
        {
          "Passport photos": true
        }
      ],
      "Crowd": [
        {
          "LGBTQ+ friendly": true
        },
        {
          "Transgender safespace": true
        }
      ],
      "Planning": [
        {
          "Quick visit": true
        }
      ],
      "Payments": [
        {
          "Credit cards": true
        },
        {
          "Debit cards": true
        },
        {
          "SNAP/EBT": true
        },
        {
          "Credit cards": true
        }
      ]
    },
    "gasPrices": [],
    "url": "https://www.google.com/maps/search/?api=1&query=CVS&query_place_id=ChIJk-6Yilh7x4kRmzUzzl5v3fI",
    "searchPageUrl": "https://www.google.com/maps/search/independent%20pharmacy%20Dover%20DE/@55.6612261832132,-157.74759435157458,13z?hl=en",
    "searchString": "independent pharmacy Dover DE",
    "language": "en",
    "rank": 14,
    "isAdvertisement": false,
    "imageUrl": "https://lh3.googleusercontent.com/gps-cs-s/AC9h4nrCnTX15peFULrUg_4fZnLgfWFqHw-mZorgWaF-reM8YPnyPRZg0_mxFrRlpqujVxOgfHcdtYGzy5XvjLNPZUjGbRxYfYVaoBH2GGlM_W_qiwFR5AUKhCUE6bGg00GOVSCRqCmu=w408-h306-k-no",
    "kgmid": "/g/1vxw96wt",
    "classification": "chain",
    "is_independent": false,
    "is_compounding": false,
    "confidence": 0.99,
    "source": "perplexity",
    "method": "llm"
  },
  {
    "title": "Safeway Pharmacy",
    "price": "$$",
    "categoryName": "Pharmacy",
    "address": "190 John Hunn Brown Rd, Dover, DE 19901",
    "neighborhood": null,
    "street": "190 John Hunn Brown Rd",
    "city": "Dover",
    "postalCode": "19901",
    "state": "Delaware",
    "countryCode": "US",
    "website": "https://local.pharmacy.safeway.com/safeway/de/dover/190-john-hunn-brown-rd.html",
    "phone": "(302) 730-9101",
    "phoneUnformatted": "+13027309101",
    "claimThisBusiness": false,
    "location": {
      "lat": 39.1589256,
      "lng": -75.5087642
    },
    "totalScore": 4.8,
    "permanentlyClosed": false,
    "temporarilyClosed": false,
    "placeId": null,
    "categories": [
      "Pharmacy",
      "Drug store",
      "Vitamin & supplements store"
    ],
    "fid": "0x89c764a1e9ac5293:0x5386bba3581bd1",
    "cid": "23510563524451281",
    "reviewsCount": 17,
    "imagesCount": 4,
    "imageCategories": [],
    "scrapedAt": "2025-06-22T07:28:28.823Z",
    "googleFoodUrl": null,
    "hotelAds": [],
    "openingHours": [
      {
        "day": "Monday",
        "hours": "9\u202fAM to 1:30\u202fPM, 2 to 8\u202fPM"
      },
      {
        "day": "Tuesday",
        "hours": "9\u202fAM to 1:30\u202fPM, 2 to 8\u202fPM"
      },
      {
        "day": "Wednesday",
        "hours": "9\u202fAM to 1:30\u202fPM, 2 to 8\u202fPM"
      },
      {
        "day": "Thursday",
        "hours": "9\u202fAM to 1:30\u202fPM, 2 to 8\u202fPM"
      },
      {
        "day": "Friday",
        "hours": "9\u202fAM to 1:30\u202fPM, 2 to 8\u202fPM"
      },
      {
        "day": "Saturday",
        "hours": "9\u202fAM to 1:30\u202fPM, 2 to 5\u202fPM"
      },
      {
        "day": "Sunday",
        "hours": "10\u202fAM to 1:30\u202fPM, 2 to 5\u202fPM"
      }
    ],
    "peopleAlsoSearch": [],
    "placesTags": [],
    "reviewsTags": [],
    "additionalInfo": {
      "Service options": [
        {
          "Delivery": true
        },
        {
          "In-store pickup": true
        },
        {
          "In-store shopping": true
        },
        {
          "Same-day delivery": true
        }
      ],
      "Accessibility": [
        {
          "Wheelchair accessible entrance": true
        },
        {
          "Wheelchair accessible parking lot": true
        }
      ],
      "Crowd": [
        {
          "LGBTQ+ friendly": true
        }
      ],
      "Planning": [
        {
          "Appointment required": true
        },
        {
          "Quick visit": true
        }
      ],
      "Payments": [
        {
          "Checks": true
        },
        {
          "Debit cards": true
        },
        {
          "Credit cards": true
        }
      ]
    },
    "gasPrices": [],
    "url": "https://www.google.com/maps/search/?api=1&query=Safeway%20Pharmacy&query_place_id=ChIJk1Ks6aFkx4kR0RtYo7uGUwA",
    "searchPageUrl": "https://www.google.com/maps/search/independent%20pharmacy%20Dover%20DE/@55.6612261832132,-157.74759435157458,13z?hl=en",
    "searchString": "independent pharmacy Dover DE",
    "language": "en",
    "rank": 16,
    "isAdvertisement": false,
    "imageUrl": "https://lh3.googleusercontent.com/p/AF1QipNvSTBQiyFTJnv5OsiKTW1_arfWIVqpbRpT38v3=w426-h240-k-no",
    "kgmid": "/g/1tfpw715",
    "classification": "chain",
    "is_independent": false,
    "is_compounding": false,
    "confidence": 0.98,
    "source": "perplexity",
    "method": "llm"
  },
  {
    "title": "Walgreens",
    "description": "Drugstore chain with health & beauty aids, prescriptions & photo services, plus mini-mart basics.",
    "price": "\u20ac\u20ac",
    "categoryName": "Drug store",
    "address": "1001 Forrest Ave, Dover, DE 19904, United States",
    "neighborhood": null,
    "street": "1001 Forrest Ave",
    "city": "Dover",
    "postalCode": "19904",
    "state": "Delaware",
    "countryCode": "US",
    "website": "https://www.walgreens.com/locator/walgreens-1001+forrest+ave-dover-de-19904/id=9687",
    "phone": "+1 302-678-9820",
    "phoneUnformatted": "+13026789820",
    "claimThisBusiness": false,
    "location": {
      "lat": 39.1594367,
      "lng": -75.5435882
    },
    "locatedIn": "Walgreens Pharmacy",
    "totalScore": 2.6,
    "permanentlyClosed": false,
    "temporarilyClosed": false,
    "placeId": null,
    "categories": [
      "Drug store",
      "Beauty supply store",
      "Convenience store",
      "Cosmetics store",
      "Greeting card shop",
      "Perfume store",
      "Stationery store"
    ],
    "fid": "0x89c77b58ea51970f:0xf9da9dab0237adb8",
    "cid": "18003875818169150904",
    "reviewsCount": 117,
    "imagesCount": 72,
    "imageCategories": [],
    "scrapedAt": "2025-06-22T07:28:41.786Z",
    "googleFoodUrl": null,
    "hotelAds": [],
    "openingHours": [
      {
        "day": "Monday",
        "hours": "7\u202fAM to 12\u202fam"
      },
      {
        "day": "Tuesday",
        "hours": "7\u202fAM to 12\u202fam"
      },
      {
        "day": "Wednesday",
        "hours": "7\u202fAM to 12\u202fam"
      },
      {
        "day": "Thursday",
        "hours": "7\u202fAM to 12\u202fam"
      },
      {
        "day": "Friday",
        "hours": "7\u202fAM to 12\u202fam"
      },
      {
        "day": "Saturday",
        "hours": "7\u202fAM to 12\u202fam"
      },
      {
        "day": "Sunday",
        "hours": "7\u202fAM to 12\u202fam"
      }
    ],
    "additionalOpeningHours": {
      "Walgreens Pharmacy": [
        {
          "day": "Monday",
          "hours": "8\u202fam\u20131:30\u202fpm"
        },
        {
          "day": "Tuesday",
          "hours": "8\u202fam\u20131:30\u202fpm"
        },
        {
          "day": "Wednesday",
          "hours": "8\u202fam\u20131:30\u202fpm"
        },
        {
          "day": "Thursday",
          "hours": "8\u202fam\u20131:30\u202fpm"
        },
        {
          "day": "Friday",
          "hours": "8\u202fam\u20131:30\u202fpm"
        },
        {
          "day": "Saturday",
          "hours": "8\u202fam\u20131:30\u202fpm"
        },
        {
          "day": "Sunday",
          "hours": "8\u202fam\u20131:30\u202fpm"
        }
      ],
      "Walgreens Photo": [
        {
          "day": "Monday",
          "hours": "7\u202fam\u201312\u202fam"
        },
        {
          "day": "Tuesday",
          "hours": "7\u202fam\u201312\u202fam"
        },
        {
          "day": "Wednesday",
          "hours": "7\u202fam\u201312\u202fam"
        },
        {
          "day": "Thursday",
          "hours": "7\u202fam\u201312\u202fam"
        },
        {
          "day": "Friday",
          "hours": "7\u202fam\u201312\u202fam"
        },
        {
          "day": "Saturday",
          "hours": "7\u202fam\u201312\u202fam"
        },
        {
          "day": "Sunday",
          "hours": "7\u202fam\u201312\u202fam"
        }
      ],
      "Pickup": [
        {
          "day": "Monday",
          "hours": "7\u202fam\u201312\u202fam"
        },
        {
          "day": "Tuesday",
          "hours": "7\u202fam\u201312\u202fam"
        },
        {
          "day": "Wednesday",
          "hours": "7\u202fam\u201312\u202fam"
        },
        {
          "day": "Thursday",
          "hours": "7\u202fam\u201312\u202fam"
        },
        {
          "day": "Friday",
          "hours": "7\u202fam\u201312\u202fam"
        },
        {
          "day": "Saturday",
          "hours": "7\u202fam\u201312\u202fam"
        },
        {
          "day": "Sunday",
          "hours": "7\u202fam\u201312\u202fam"
        }
      ]
    },
    "peopleAlsoSearch": [],
    "placesTags": [],
    "reviewsTags": [],
    "additionalInfo": {
      "Service options": [
        {
          "Kerbside pickup": true
        },
        {
          "Delivery": true
        },
        {
          "Drive-through": true
        },
        {
          "In-store pick-up": true
        },
        {
          "On-site services": true
        }
      ],
      "Accessibility": [
        {
          "Wheelchair-accessible car park": true
        },
        {
          "Wheelchair-accessible entrance": true
        }
      ],
      "Offerings": [
        {
          "Medication disposal": true
        },
        {
          "Naloxone": true
        }
      ],
      "Planning": [
        {
          "Quick visit": true
        }
      ],
      "Payments": [
        {
          "Credit cards": true
        },
        {
          "Debit cards": true
        },
        {
          "NFC mobile payments": true
        },
        {
          "SNAP/EBT": true
        },
        {
          "Credit cards": true
        }
      ]
    },
    "gasPrices": [],
    "url": "https://www.google.com/maps/search/?api=1&query=Walgreens&query_place_id=ChIJD5dR6lh7x4kRuK03Aqud2vk",
    "searchPageUrl": "https://www.google.com/maps/search/independent%20pharmacy%20Dover%20DE/@53.926924098432366,-165.7692998137874,9z?hl=en",
    "searchString": "independent pharmacy Dover DE",
    "language": "en",
    "rank": 7,
    "isAdvertisement": false,
    "imageUrl": "https://lh3.googleusercontent.com/gps-cs-s/AC9h4npxycupDNHN_OG-tg89Z2sEbhLRUm0AQXjcsgP6wyg6pdt9F3h8Sm4RhQtwTx7VM63p4oTViiAioCCxQ7IRninexgaeS4hfsM7WbMvNs-YTr7k9OXiBduXk7BksOYixaTXgMQla=w408-h306-k-no",
    "kgmid": "/g/1tgq7m9m",
    "classification": "chain",
    "is_independent": false,
    "is_compounding": false,
    "confidence": 1.0,
    "source": "perplexity",
    "method": "llm"
  },
  {
    "title": "ayala pharma",
    "price": null,
    "categoryName": "Pharmacy",
    "address": "1313 N Market St, Wilmington, DE 19801, United States",
    "neighborhood": "Mid-town Brandywine",
    "street": "1313 N Market St",
    "city": "Wilmington",
    "postalCode": "19801",
    "state": "Delaware",
    "countryCode": "US",
    "website": "https://www.ayalapharma.com/contact/",
    "phone": "+1 857-444-0553",
    "phoneUnformatted": "+18574440553",
    "claimThisBusiness": true,
    "location": {
      "lat": 39.7490344,
      "lng": -75.5462751
    },
    "permanentlyClosed": false,
    "temporarilyClosed": false,
    "placeId": null,
    "categories": [
      "Pharmacy"
    ],
    "fid": "0x89c6fd3f20afffff:0x38ca24a4d8804066",
    "cid": "4092123501845037158",
    "reviewsCount": 0,
    "imagesCount": 1,
    "imageCategories": [],
    "scrapedAt": "2025-06-22T07:28:41.786Z",
    "googleFoodUrl": null,
    "hotelAds": [],
    "openingHours": [],
    "peopleAlsoSearch": [],
    "placesTags": [],
    "reviewsTags": [],
    "additionalInfo": {
      "Accessibility": [
        {
          "Wheelchair-accessible car park": true
        },
        {
          "Wheelchair-accessible entrance": true
        }
      ]
    },
    "gasPrices": [],
    "url": "https://www.google.com/maps/search/?api=1&query=ayala%20pharma&query_place_id=ChIJ__-vID_9xokRZkCA2KQkyjg",
    "searchPageUrl": "https://www.google.com/maps/search/independent%20pharmacy%20Dover%20DE/@53.926924098432366,-165.7692998137874,9z?hl=en",
    "searchString": "independent pharmacy Dover DE",
    "language": "en",
    "rank": 8,
    "isAdvertisement": false,
    "imageUrl": "https://streetviewpixels-pa.googleapis.com/v1/thumbnail?panoid=U6N6tNA0oJDa1kRDmGOLCQ&cb_client=search.gws-prod.gps&w=408&h=240&yaw=301.72964&pitch=0&thumbfov=100",
    "kgmid": "/g/11gmyx76zq",
    "classification": "independent",
    "is_independent": true,
    "is_compounding": false,
    "confidence": 0.85,
    "source": "perplexity",
    "method": "llm"
  }
]