[
  {
    "title": "MSP Pharmacy, Bridgeport CT",
    "price": null,
    "categoryName": "Pharmacy",
    "address": "2117 Boston Ave, Bridgeport, CT 06610",
    "neighborhood": "Boston Ave - Mill Hill",
    "street": "2117 Boston Ave",
    "city": "Bridgeport",
    "postalCode": "06610",
    "state": "Connecticut",
    "countryCode": "US",
    "website": "https://www.mymsprx.com/",
    "phone": "(203) 212-3800",
    "phoneUnformatted": "+12032123800",
    "claimThisBusiness": false,
    "location": {
      "lat": 41.1928557,
      "lng": -73.1551285
    },
    "totalScore": 4.7,
    "permanentlyClosed": false,
    "temporarilyClosed": false,
    "placeId": null,
    "categories": [
      "Pharmacy",
      "Faculty of pharmacy",
      "Pharmaceutical lab",
      "Veterinary pharmacy"
    ],
    "fid": "0x89e80e70c32abbab:0x94b75086a139a02a",
    "cid": "10716122377512132650",
    "reviewsCount": 43,
    "imagesCount": 9,
    "imageCategories": [],
    "scrapedAt": "2025-06-22T07:20:55.764Z",
    "googleFoodUrl": null,
    "hotelAds": [],
    "openingHours": [
      {
        "day": "Monday",
        "hours": "9\u202fAM to 5\u202fPM"
      },
      {
        "day": "Tuesday",
        "hours": "9\u202fAM to 5\u202fPM"
      },
      {
        "day": "Wednesday",
        "hours": "9\u202fAM to 5\u202fPM"
      },
      {
        "day": "Thursday",
        "hours": "9\u202fAM to 5\u202fPM"
      },
      {
        "day": "Friday",
        "hours": "9\u202fAM to 5\u202fPM"
      },
      {
        "day": "Saturday",
        "hours": "Closed"
      },
      {
        "day": "Sunday",
        "hours": "Closed"
      }
    ],
    "additionalOpeningHours": {
      "Delivery": [
        {
          "day": "Monday",
          "hours": "9\u202fAM\u20134:30\u202fPM"
        },
        {
          "day": "Tuesday",
          "hours": "9\u202fAM\u20134:30\u202fPM"
        },
        {
          "day": "Wednesday",
          "hours": "9\u202fAM\u20134:30\u202fPM"
        },
        {
          "day": "Thursday",
          "hours": "9\u202fAM\u20134:30\u202fPM"
        },
        {
          "day": "Friday",
          "hours": "9\u202fAM\u20134:30\u202fPM"
        },
        {
          "day": "Saturday",
          "hours": "Closed"
        },
        {
          "day": "Sunday",
          "hours": "Closed"
        }
      ],
      "Online service hours": [
        {
          "day": "Monday",
          "hours": "Open 24 hours"
        },
        {
          "day": "Tuesday",
          "hours": "Open 24 hours"
        },
        {
          "day": "Wednesday",
          "hours": "Open 24 hours"
        },
        {
          "day": "Thursday",
          "hours": "Open 24 hours"
        },
        {
          "day": "Friday",
          "hours": "Open 24 hours"
        },
        {
          "day": "Saturday",
          "hours": "Open 24 hours"
        },
        {
          "day": "Sunday",
          "hours": "Open 24 hours"
        }
      ]
    },
    "peopleAlsoSearch": [],
    "placesTags": [],
    "reviewsTags": [],
    "additionalInfo": {
      "From the business": [
        {
          "Identifies as Asian-owned": true
        },
        {
          "Identifies as women-owned": true
        },
        {
          "Small business": true
        }
      ],
      "Service options": [
        {
          "Curbside pickup": true
        },
        {
          "Delivery": true
        },
        {
          "In-store pickup": true
        },
        {
          "In-store shopping": true
        },
        {
          "Same-day delivery": true
        }
      ],
      "Accessibility": [
        {
          "Wheelchair accessible entrance": true
        },
        {
          "Wheelchair accessible parking lot": true
        },
        {
          "Wheelchair accessible seating": true
        }
      ],
      "Amenities": [
        {
          "Wi-Fi": true
        },
        {
          "Free Wi-Fi": true
        }
      ],
      "Crowd": [
        {
          "LGBTQ+ friendly": true
        },
        {
          "Transgender safespace": true
        }
      ],
      "Payments": [
        {
          "Checks": true
        },
        {
          "Credit cards": true
        },
        {
          "Debit cards": true
        },
        {
          "NFC mobile payments": true
        },
        {
          "Credit cards": true
        }
      ]
    },
    "gasPrices": [],
    "url": "https://www.google.com/maps/search/?api=1&query=MSP%20Pharmacy%2C%20Bridgeport%20CT&query_place_id=ChIJq7sqw3AO6IkRKqA5oYZQt5Q",
    "searchPageUrl": "https://www.google.com/maps/search/independent%20pharmacy%20Bridgeport%20CT/@52.00847926235162,-179.97595653707245,14z?hl=en",
    "searchString": "independent pharmacy Bridgeport CT",
    "language": "en",
    "rank": 1,
    "isAdvertisement": false,
    "imageUrl": "https://lh3.googleusercontent.com/gps-cs-s/AC9h4noJqNfghfC1LS5CfZZk6sVaxqdTwDaIdPbkaoDhlwNPegMdJloApMGQIJBoWy_ZhvTbTwNfNBRqaHTzpj4KOVavp3uprq3hHqE-aLZ5z2bXwrX7CrTcACF3s1kL9EF9UpPNh46Q=w408-h306-k-no",
    "kgmid": "/g/1thqbx31",
    "classification": "independent",
    "is_independent": true,
    "is_compounding": false,
    "confidence": 0.9,
    "source": "perplexity",
    "method": "llm",
    "query_location": "bridgeport_ct"
  },
  {
    "title": "Loft Chemists",
    "price": null,
    "categoryName": "Pharmacy",
    "address": "1184 Main St, Bridgeport, CT 06604",
    "neighborhood": "Downtown",
    "street": "1184 Main St",
    "city": "Bridgeport",
    "postalCode": "06604",
    "state": "Connecticut",
    "countryCode": "US",
    "phone": "(203) 549-9944",
    "phoneUnformatted": "+12035499944",
    "claimThisBusiness": false,
    "location": {
      "lat": 41.1806814,
      "lng": -73.1896655
    },
    "totalScore": 4.9,
    "permanentlyClosed": false,
    "temporarilyClosed": false,
    "placeId": null,
    "categories": [
      "Pharmacy"
    ],
    "fid": "0x89e80fd712e1555b:0xb10b0a5130b62830",
    "cid": "12757301713282934832",
    "reviewsCount": 54,
    "imagesCount": 2,
    "imageCategories": [],
    "scrapedAt": "2025-06-22T07:20:55.765Z",
    "googleFoodUrl": null,
    "hotelAds": [],
    "openingHours": [
      {
        "day": "Monday",
        "hours": "9\u202fAM to 6\u202fPM"
      },
      {
        "day": "Tuesday",
        "hours": "9\u202fAM to 6\u202fPM"
      },
      {
        "day": "Wednesday",
        "hours": "9\u202fAM to 6\u202fPM"
      },
      {
        "day": "Thursday",
        "hours": "9\u202fAM to 6\u202fPM"
      },
      {
        "day": "Friday",
        "hours": "9\u202fAM to 6\u202fPM"
      },
      {
        "day": "Saturday",
        "hours": "Closed"
      },
      {
        "day": "Sunday",
        "hours": "Closed"
      }
    ],
    "peopleAlsoSearch": [],
    "placesTags": [],
    "reviewsTags": [],
    "additionalInfo": {
      "From the business": [
        {
          "Small business": true
        }
      ],
      "Planning": [
        {
          "Quick visit": true
        }
      ],
      "Payments": [
        {
          "Credit cards": true
        },
        {
          "Debit cards": true
        },
        {
          "NFC mobile payments": true
        },
        {
          "Credit cards": true
        }
      ]
    },
    "gasPrices": [],
    "url": "https://www.google.com/maps/search/?api=1&query=Loft%20Chemists&query_place_id=ChIJW1XhEtcP6IkRMCi2MFEKC7E",
    "searchPageUrl": "https://www.google.com/maps/search/independent%20pharmacy%20Bridgeport%20CT/@52.00847926235162,-179.97595653707245,14z?hl=en",
    "searchString": "independent pharmacy Bridgeport CT",
    "language": "en",
    "rank": 2,
    "isAdvertisement": false,
    "imageUrl": "https://lh3.googleusercontent.com/p/AF1QipNK0ANShzXIKR3z2GcXzSQOAxOO7cGEU9fiZPWC=w408-h306-k-no",
    "kgmid": "/g/11l1_t0l30",
    "classification": "independent",
    "is_independent": true,
    "is_compounding": false,
    "confidence": 0.85,
    "source": "perplexity",
    "method": "llm",
    "query_location": "bridgeport_ct"
  },
  {
    "title": "DailyMed Pharmacy",
    "price": null,
    "categoryName": "Pharmacy",
    "address": "2366 Main St, Bridgeport, CT 06606",
    "neighborhood": "Brooklawn/St. Vincent",
    "street": "2366 Main St",
    "city": "Bridgeport",
    "postalCode": "06606",
    "state": "Connecticut",
    "countryCode": "US",
    "website": "http://dailymedpharmacy.com/",
    "phone": "(203) 666-4000",
    "phoneUnformatted": "+12036664000",
    "claimThisBusiness": false,
    "location": {
      "lat": 41.1951912,
      "lng": -73.1991271
    },
    "totalScore": 4.8,
    "permanentlyClosed": false,
    "temporarilyClosed": false,
    "placeId": null,
    "categories": [
      "Pharmacy"
    ],
    "fid": "0x89e80f4be8c1073d:0x8d4ea105adabedfc",
    "cid": "10182252853291904508",
    "reviewsCount": 54,
    "imagesCount": 12,
    "imageCategories": [],
    "scrapedAt": "2025-06-22T07:20:55.766Z",
    "googleFoodUrl": null,
    "hotelAds": [],
    "openingHours": [
      {
        "day": "Monday",
        "hours": "9\u202fAM to 6\u202fPM"
      },
      {
        "day": "Tuesday",
        "hours": "9\u202fAM to 6\u202fPM"
      },
      {
        "day": "Wednesday",
        "hours": "9\u202fAM to 6\u202fPM"
      },
      {
        "day": "Thursday",
        "hours": "9\u202fAM to 6\u202fPM"
      },
      {
        "day": "Friday",
        "hours": "9\u202fAM to 6\u202fPM"
      },
      {
        "day": "Saturday",
        "hours": "9\u202fAM to 1\u202fPM"
      },
      {
        "day": "Sunday",
        "hours": "Closed"
      }
    ],
    "peopleAlsoSearch": [],
    "placesTags": [],
    "reviewsTags": [],
    "additionalInfo": {
      "From the business": [
        {
          "Small business": true
        }
      ],
      "Service options": [
        {
          "Delivery": true
        },
        {
          "In-store pickup": true
        },
        {
          "In-store shopping": true
        },
        {
          "Same-day delivery": true
        }
      ],
      "Accessibility": [
        {
          "Wheelchair accessible entrance": true
        },
        {
          "Wheelchair accessible parking lot": true
        }
      ],
      "Planning": [
        {
          "Quick visit": true
        }
      ],
      "Payments": [
        {
          "Credit cards": true
        },
        {
          "Debit cards": true
        },
        {
          "NFC mobile payments": true
        },
        {
          "Credit cards": true
        }
      ]
    },
    "gasPrices": [],
    "url": "https://www.google.com/maps/search/?api=1&query=DailyMed%20Pharmacy&query_place_id=ChIJPQfB6EsP6IkR_O2rrQWhTo0",
    "searchPageUrl": "https://www.google.com/maps/search/independent%20pharmacy%20Bridgeport%20CT/@52.00847926235162,-179.97595653707245,14z?hl=en",
    "searchString": "independent pharmacy Bridgeport CT",
    "language": "en",
    "rank": 3,
    "isAdvertisement": false,
    "imageUrl": "https://lh3.googleusercontent.com/p/AF1QipPVuGA-9qGN31IyewZr8QTj_lor77tvXGbVEOE5=w408-h306-k-no",
    "kgmid": "/g/11p01vvw7w",
    "classification": "independent",
    "is_independent": true,
    "is_compounding": false,
    "confidence": 0.85,
    "source": "perplexity",
    "method": "llm",
    "query_location": "bridgeport_ct"
  },
  {
    "title": "Unity Pharmacy - Bridgeport",
    "price": null,
    "categoryName": "Pharmacy",
    "address": "679 Fairfield Ave, Bridgeport, CT 06604",
    "neighborhood": "Downtown",
    "street": "679 Fairfield Ave",
    "city": "Bridgeport",
    "postalCode": "06604",
    "state": "Connecticut",
    "countryCode": "US",
    "website": "http://www.unityrxs.com/",
    "phone": "(203) 690-1048",
    "phoneUnformatted": "+12036901048",
    "claimThisBusiness": false,
    "location": {
      "lat": 41.1750029,
      "lng": -73.1979839
    },
    "totalScore": 4.9,
    "permanentlyClosed": false,
    "temporarilyClosed": false,
    "placeId": null,
    "categories": [
      "Pharmacy"
    ],
    "fid": "0x89e80f9594823997:0x6862867cec32fa71",
    "cid": "7521722198758980209",
    "reviewsCount": 118,
    "imagesCount": 15,
    "imageCategories": [],
    "scrapedAt": "2025-06-22T07:20:55.766Z",
    "googleFoodUrl": null,
    "hotelAds": [],
    "openingHours": [
      {
        "day": "Monday",
        "hours": "10\u202fAM to 6\u202fPM"
      },
      {
        "day": "Tuesday",
        "hours": "10\u202fAM to 6\u202fPM"
      },
      {
        "day": "Wednesday",
        "hours": "10\u202fAM to 6\u202fPM"
      },
      {
        "day": "Thursday",
        "hours": "10\u202fAM to 6\u202fPM"
      },
      {
        "day": "Friday",
        "hours": "10\u202fAM to 6\u202fPM"
      },
      {
        "day": "Saturday",
        "hours": "Closed"
      },
      {
        "day": "Sunday",
        "hours": "Closed"
      }
    ],
    "peopleAlsoSearch": [],
    "placesTags": [],
    "reviewsTags": [],
    "additionalInfo": {
      "From the business": [
        {
          "Small business": true
        }
      ],
      "Service options": [
        {
          "Delivery": true
        },
        {
          "Drive-through": true
        },
        {
          "In-store pickup": true
        },
        {
          "Onsite services": true
        },
        {
          "Same-day delivery": true
        }
      ],
      "Accessibility": [
        {
          "Wheelchair accessible entrance": true
        },
        {
          "Wheelchair accessible parking lot": true
        }
      ],
      "Planning": [
        {
          "Quick visit": true
        }
      ],
      "Payments": [
        {
          "Credit cards": true
        }
      ]
    },
    "gasPrices": [],
    "url": "https://www.google.com/maps/search/?api=1&query=Unity%20Pharmacy%20-%20Bridgeport&query_place_id=ChIJlzmClJUP6IkRcfoy7HyGYmg",
    "searchPageUrl": "https://www.google.com/maps/search/independent%20pharmacy%20Bridgeport%20CT/@52.00847926235162,-179.97595653707245,14z?hl=en",
    "searchString": "independent pharmacy Bridgeport CT",
    "language": "en",
    "rank": 4,
    "isAdvertisement": false,
    "imageUrl": "https://lh3.googleusercontent.com/p/AF1QipNULKHMQ2XM9feEb3Xk4tbc6IfdKhLQTfgUVRyb=w408-h349-k-no",
    "kgmid": "/g/11rgbxm3tf",
    "classification": "independent",
    "is_independent": true,
    "is_compounding": false,
    "confidence": 0.9,
    "source": "perplexity",
    "method": "llm",
    "query_location": "bridgeport_ct"
  },
  {
    "title": "Bridgeport Pharmacy",
    "price": null,
    "categoryName": "Pharmacy",
    "address": "978 E Main St, Bridgeport, CT 06608",
    "neighborhood": "East Side",
    "street": "978 E Main St",
    "city": "Bridgeport",
    "postalCode": "06608",
    "state": "Connecticut",
    "countryCode": "US",
    "website": "https://www.bridgeportpharmacy.net/",
    "phone": "(203) 367-9000",
    "phoneUnformatted": "+12033679000",
    "claimThisBusiness": false,
    "location": {
      "lat": 41.1879384,
      "lng": -73.1805491
    },
    "totalScore": 4.1,
    "permanentlyClosed": false,
    "temporarilyClosed": false,
    "placeId": null,
    "categories": [
      "Pharmacy"
    ],
    "fid": "0x89e80dd5481e42dd:0x9052c6d7921cc194",
    "cid": "10399593118723522964",
    "reviewsCount": 55,
    "imagesCount": 13,
    "imageCategories": [],
    "scrapedAt": "2025-06-22T07:20:55.766Z",
    "googleFoodUrl": null,
    "hotelAds": [],
    "openingHours": [
      {
        "day": "Monday",
        "hours": "9\u202fAM to 6\u202fPM"
      },
      {
        "day": "Tuesday",
        "hours": "9\u202fAM to 6\u202fPM"
      },
      {
        "day": "Wednesday",
        "hours": "9\u202fAM to 6\u202fPM"
      },
      {
        "day": "Thursday",
        "hours": "9\u202fAM to 6\u202fPM"
      },
      {
        "day": "Friday",
        "hours": "9\u202fAM to 6\u202fPM"
      },
      {
        "day": "Saturday",
        "hours": "9\u202fAM to 3\u202fPM"
      },
      {
        "day": "Sunday",
        "hours": "Closed"
      }
    ],
    "peopleAlsoSearch": [],
    "placesTags": [],
    "reviewsTags": [],
    "additionalInfo": {
      "From the business": [
        {
          "Small business": true
        }
      ],
      "Service options": [
        {
          "Curbside pickup": true
        },
        {
          "Delivery": true
        },
        {
          "In-store pickup": true
        },
        {
          "In-store shopping": true
        },
        {
          "Same-day delivery": true
        }
      ],
      "Accessibility": [
        {
          "Wheelchair accessible entrance": true
        },
        {
          "Wheelchair accessible parking lot": true
        }
      ],
      "Amenities": [
        {
          "Wi-Fi": true
        },
        {
          "Free Wi-Fi": true
        }
      ],
      "Crowd": [
        {
          "LGBTQ+ friendly": true
        }
      ],
      "Planning": [
        {
          "Quick visit": true
        }
      ],
      "Payments": [
        {
          "Credit cards": true
        },
        {
          "Debit cards": true
        },
        {
          "NFC mobile payments": true
        }
      ]
    },
    "gasPrices": [],
    "url": "https://www.google.com/maps/search/?api=1&query=Bridgeport%20Pharmacy&query_place_id=ChIJ3UIeSNUN6IkRlMEcktfGUpA",
    "searchPageUrl": "https://www.google.com/maps/search/independent%20pharmacy%20Bridgeport%20CT/@52.00847926235162,-179.97595653707245,14z?hl=en",
    "searchString": "independent pharmacy Bridgeport CT",
    "language": "en",
    "rank": 5,
    "isAdvertisement": false,
    "imageUrl": "https://lh3.googleusercontent.com/p/AF1QipPdpWmk2RpTK7ndUx1z_5Od-szxfVpQ96pACsb3=w426-h240-k-no",
    "kgmid": "/g/1tlgy_0d",
    "classification": "independent",
    "is_independent": true,
    "is_compounding": false,
    "confidence": 0.9,
    "source": "perplexity",
    "method": "llm",
    "query_location": "bridgeport_ct"
  },
  {
    "title": "Bridgeport Community Pharmacy, LLC.",
    "price": null,
    "categoryName": "Pharmacy",
    "address": "850 State St, Bridgeport, CT 06604",
    "neighborhood": "West End/West Side",
    "street": "850 State St",
    "city": "Bridgeport",
    "postalCode": "06604",
    "state": "Connecticut",
    "countryCode": "US",
    "phone": "(203) 330-9191",
    "phoneUnformatted": "+12033309191",
    "claimThisBusiness": false,
    "location": {
      "lat": 41.1733238,
      "lng": -73.200745
    },
    "totalScore": 4.2,
    "permanentlyClosed": false,
    "temporarilyClosed": false,
    "placeId": null,
    "categories": [
      "Pharmacy"
    ],
    "fid": "0x89e80e708acc4b25:0x56294f468f4b1423",
    "cid": "6208580725777306659",
    "reviewsCount": 11,
    "imagesCount": 6,
    "imageCategories": [],
    "scrapedAt": "2025-06-22T07:20:55.766Z",
    "googleFoodUrl": null,
    "hotelAds": [],
    "openingHours": [
      {
        "day": "Monday",
        "hours": "9\u202fAM to 5\u202fPM"
      },
      {
        "day": "Tuesday",
        "hours": "9\u202fAM to 5\u202fPM"
      },
      {
        "day": "Wednesday",
        "hours": "9\u202fAM to 5\u202fPM"
      },
      {
        "day": "Thursday",
        "hours": "9\u202fAM to 5\u202fPM"
      },
      {
        "day": "Friday",
        "hours": "9\u202fAM to 5\u202fPM"
      },
      {
        "day": "Saturday",
        "hours": "Closed"
      },
      {
        "day": "Sunday",
        "hours": "Closed"
      }
    ],
    "peopleAlsoSearch": [],
    "placesTags": [],
    "reviewsTags": [],
    "additionalInfo": {
      "From the business": [
        {
          "Small business": true
        }
      ],
      "Service options": [
        {
          "Delivery": true
        },
        {
          "In-store pickup": true
        },
        {
          "In-store shopping": true
        },
        {
          "Same-day delivery": true
        }
      ],
      "Accessibility": [
        {
          "Wheelchair accessible entrance": true
        },
        {
          "Wheelchair accessible parking lot": true
        }
      ],
      "Payments": [
        {
          "Credit cards": true
        },
        {
          "Debit cards": true
        },
        {
          "NFC mobile payments": true
        }
      ]
    },
    "gasPrices": [],
    "url": "https://www.google.com/maps/search/?api=1&query=Bridgeport%20Community%20Pharmacy%2C%20LLC.&query_place_id=ChIJJUvMinAO6IkRIxRLj0ZPKVY",
    "searchPageUrl": "https://www.google.com/maps/search/independent%20pharmacy%20Bridgeport%20CT/@52.00847926235162,-179.97595653707245,14z?hl=en",
    "searchString": "independent pharmacy Bridgeport CT",
    "language": "en",
    "rank": 6,
    "isAdvertisement": false,
    "imageUrl": "https://lh3.googleusercontent.com/p/AF1QipPkSZW-FOwJbvs2iEjUhok4JSmYm4g3fc2MYiAF=w408-h306-k-no",
    "kgmid": "/g/11c48666vd",
    "classification": "independent",
    "is_independent": true,
    "is_compounding": false,
    "confidence": 0.85,
    "source": "perplexity",
    "method": "llm",
    "query_location": "bridgeport_ct"
  },
  {
    "title": "BridgeCare Pharmacy",
    "price": null,
    "categoryName": "Pharmacy",
    "address": "161 Boston Ave Suite F, Bridgeport, CT 06610",
    "neighborhood": "North Bridgeport",
    "street": "161 Boston Ave Suite F",
    "city": "Bridgeport",
    "postalCode": "06610",
    "state": "Connecticut",
    "countryCode": "US",
    "phone": "(203) 345-0545",
    "phoneUnformatted": "+12033450545",
    "claimThisBusiness": false,
    "location": {
      "lat": 41.2025634,
      "lng": -73.1861261
    },
    "totalScore": 5,
    "permanentlyClosed": false,
    "temporarilyClosed": false,
    "placeId": null,
    "categories": [
      "Pharmacy"
    ],
    "fid": "0x89e80f13f11ae41d:0xbcbad0205eb313c4",
    "cid": "13599410862244959172",
    "reviewsCount": 13,
    "imagesCount": 33,
    "imageCategories": [],
    "scrapedAt": "2025-06-22T07:20:55.766Z",
    "googleFoodUrl": null,
    "hotelAds": [],
    "openingHours": [
      {
        "day": "Monday",
        "hours": "9\u202fAM to 7\u202fPM"
      },
      {
        "day": "Tuesday",
        "hours": "9\u202fAM to 7\u202fPM"
      },
      {
        "day": "Wednesday",
        "hours": "9\u202fAM to 7\u202fPM"
      },
      {
        "day": "Thursday",
        "hours": "9\u202fAM to 7\u202fPM"
      },
      {
        "day": "Friday",
        "hours": "9\u202fAM to 7\u202fPM"
      },
      {
        "day": "Saturday",
        "hours": "10\u202fAM to 2\u202fPM"
      },
      {
        "day": "Sunday",
        "hours": "Closed"
      }
    ],
    "peopleAlsoSearch": [],
    "placesTags": [],
    "reviewsTags": [],
    "additionalInfo": {
      "From the business": [
        {
          "Small business": true
        }
      ],
      "Accessibility": [
        {
          "Wheelchair accessible entrance": true
        },
        {
          "Wheelchair accessible parking lot": true
        }
      ],
      "Payments": [
        {
          "Credit cards": true
        },
        {
          "Debit cards": true
        },
        {
          "NFC mobile payments": true
        },
        {
          "Credit cards": true
        }
      ]
    },
    "gasPrices": [],
    "url": "https://www.google.com/maps/search/?api=1&query=BridgeCare%20Pharmacy&query_place_id=ChIJHeQa8RMP6IkRxBOzXiDQurw",
    "searchPageUrl": "https://www.google.com/maps/search/independent%20pharmacy%20Bridgeport%20CT/@52.00847926235162,-179.97595653707245,14z?hl=en",
    "searchString": "independent pharmacy Bridgeport CT",
    "language": "en",
    "rank": 7,
    "isAdvertisement": false,
    "imageUrl": "https://lh3.googleusercontent.com/p/AF1QipOLZKgYakKhBOkV9X6Ls1NWghsufkq1TpB6Fas6=w408-h306-k-no",
    "kgmid": "/g/11kqnz2wyq",
    "classification": "independent",
    "is_independent": true,
    "is_compounding": false,
    "confidence": 0.85,
    "source": "perplexity",
    "method": "llm",
    "query_location": "bridgeport_ct"
  },
  {
    "title": "Hancock Pharmacy II",
    "price": null,
    "categoryName": "Pharmacy",
    "address": "1020 Fairfield Ave, Bridgeport, CT 06605",
    "neighborhood": "West End/West Side",
    "street": "1020 Fairfield Ave",
    "city": "Bridgeport",
    "postalCode": "06605",
    "state": "Connecticut",
    "countryCode": "US",
    "website": "https://www.hancockpharmacy2.com/",
    "phone": "(203) 576-9000",
    "phoneUnformatted": "+12035769000",
    "claimThisBusiness": false,
    "location": {
      "lat": 41.1747042,
      "lng": -73.2039378
    },
    "totalScore": 4.6,
    "permanentlyClosed": false,
    "temporarilyClosed": false,
    "placeId": null,
    "categories": [
      "Pharmacy"
    ],
    "fid": "0x89e80e6af1803a41:0xb437b986ea8a852",
    "cid": "811628252478613586",
    "reviewsCount": 43,
    "imagesCount": null,
    "imageCategories": [],
    "scrapedAt": "2025-06-22T07:20:55.767Z",
    "googleFoodUrl": null,
    "hotelAds": [],
    "openingHours": [
      {
        "day": "Monday",
        "hours": "9\u202fAM to 6:30\u202fPM"
      },
      {
        "day": "Tuesday",
        "hours": "9\u202fAM to 6:30\u202fPM"
      },
      {
        "day": "Wednesday",
        "hours": "9\u202fAM to 6:30\u202fPM"
      },
      {
        "day": "Thursday",
        "hours": "9\u202fAM to 6:30\u202fPM"
      },
      {
        "day": "Friday",
        "hours": "9\u202fAM to 6:30\u202fPM"
      },
      {
        "day": "Saturday",
        "hours": "9\u202fAM to 2\u202fPM"
      },
      {
        "day": "Sunday",
        "hours": "Closed"
      }
    ],
    "peopleAlsoSearch": [],
    "placesTags": [],
    "reviewsTags": [],
    "additionalInfo": {
      "Service options": [
        {
          "Delivery": true
        },
        {
          "In-store pickup": true
        },
        {
          "In-store shopping": true
        },
        {
          "Same-day delivery": true
        }
      ],
      "Accessibility": [
        {
          "Wheelchair accessible entrance": true
        },
        {
          "Wheelchair accessible parking lot": true
        }
      ],
      "Payments": [
        {
          "Credit cards": true
        },
        {
          "Debit cards": true
        },
        {
          "NFC mobile payments": true
        },
        {
          "Credit cards": true
        }
      ]
    },
    "gasPrices": [],
    "url": "https://www.google.com/maps/search/?api=1&query=Hancock%20Pharmacy%20II&query_place_id=ChIJQTqA8WoO6IkRUqiobph7Qws",
    "searchPageUrl": "https://www.google.com/maps/search/independent%20pharmacy%20Bridgeport%20CT/@52.00847926235162,-179.97595653707245,14z?hl=en",
    "searchString": "independent pharmacy Bridgeport CT",
    "language": "en",
    "rank": 9,
    "isAdvertisement": false,
    "kgmid": "/g/1td1qxx6",
    "classification": "independent",
    "is_independent": true,
    "is_compounding": false,
    "confidence": 0.85,
    "source": "perplexity",
    "method": "llm",
    "query_location": "bridgeport_ct"
  },
  {
    "title": "Hancock Pharmacy",
    "price": null,
    "categoryName": "Pharmacy",
    "address": "1407 Fairfield Ave, Bridgeport, CT 06605",
    "neighborhood": "West End/West Side",
    "street": "1407 Fairfield Ave",
    "city": "Bridgeport",
    "postalCode": "06605",
    "state": "Connecticut",
    "countryCode": "US",
    "website": "http://hancockrx.com/",
    "phone": "(203) 367-4571",
    "phoneUnformatted": "+12033674571",
    "claimThisBusiness": false,
    "location": {
      "lat": 41.172569,
      "lng": -73.2102231
    },
    "totalScore": 4.2,
    "permanentlyClosed": false,
    "temporarilyClosed": false,
    "placeId": null,
    "categories": [
      "Pharmacy"
    ],
    "fid": "0x89e80e3f5ccf55bb:0xe07807f0647d7720",
    "cid": "16174686790760625952",
    "reviewsCount": 69,
    "imagesCount": 2,
    "imageCategories": [],
    "scrapedAt": "2025-06-22T07:20:55.767Z",
    "googleFoodUrl": null,
    "hotelAds": [],
    "openingHours": [
      {
        "day": "Monday",
        "hours": "8\u202fAM to 6:30\u202fPM"
      },
      {
        "day": "Tuesday",
        "hours": "8\u202fAM to 6:30\u202fPM"
      },
      {
        "day": "Wednesday",
        "hours": "8\u202fAM to 6:30\u202fPM"
      },
      {
        "day": "Thursday",
        "hours": "8\u202fAM to 6:30\u202fPM"
      },
      {
        "day": "Friday",
        "hours": "8\u202fAM to 6:30\u202fPM"
      },
      {
        "day": "Saturday",
        "hours": "9\u202fAM to 4\u202fPM"
      },
      {
        "day": "Sunday",
        "hours": "9\u202fAM to 2\u202fPM"
      }
    ],
    "peopleAlsoSearch": [],
    "placesTags": [],
    "reviewsTags": [],
    "additionalInfo": {
      "Service options": [
        {
          "Delivery": true
        },
        {
          "In-store pickup": true
        },
        {
          "Same-day delivery": true
        }
      ],
      "Accessibility": [
        {
          "Wheelchair accessible entrance": true
        },
        {
          "Wheelchair accessible parking lot": true
        }
      ],
      "Planning": [
        {
          "Quick visit": true
        }
      ],
      "Payments": [
        {
          "Credit cards": true
        },
        {
          "Debit cards": true
        },
        {
          "NFC mobile payments": true
        },
        {
          "Credit cards": true
        }
      ]
    },
    "gasPrices": [],
    "url": "https://www.google.com/maps/search/?api=1&query=Hancock%20Pharmacy&query_place_id=ChIJu1XPXD8O6IkRIHd9ZPAHeOA",
    "searchPageUrl": "https://www.google.com/maps/search/independent%20pharmacy%20Bridgeport%20CT/@52.00847926235162,-179.97595653707245,14z?hl=en",
    "searchString": "independent pharmacy Bridgeport CT",
    "language": "en",
    "rank": 10,
    "isAdvertisement": false,
    "imageUrl": "https://lh3.googleusercontent.com/p/AF1QipMBmpk9WulJy7o5w_hSZa2i4Y2mmIV6ZJezkzZ3=w426-h240-k-no",
    "kgmid": "/g/11b7chb_j0",
    "classification": "independent",
    "is_independent": true,
    "is_compounding": false,
    "confidence": 0.9,
    "source": "perplexity",
    "method": "llm",
    "query_location": "bridgeport_ct"
  },
  {
    "title": "CVS Pharmacy",
    "price": null,
    "categoryName": "Pharmacy",
    "address": "3710 Main St, Bridgeport, CT 06606",
    "neighborhood": "North End",
    "street": "3710 Main St",
    "city": "Bridgeport",
    "postalCode": "06606",
    "state": "Connecticut",
    "countryCode": "US",
    "website": "https://www.cvs.com/store-locator/bridgeport-ct-pharmacies/3710-main-street-bridgeport-ct-06606/storeid=2143?WT.mc_id=LS_GOOGLE_RX_2143",
    "phone": "(203) 371-1280",
    "phoneUnformatted": "+12033711280",
    "claimThisBusiness": false,
    "location": {
      "lat": 41.2121006,
      "lng": -73.2097691
    },
    "totalScore": 4.1,
    "permanentlyClosed": false,
    "temporarilyClosed": false,
    "placeId": "ChIJFxBFceoO6IkR4Hd4KByfX_0",
    "categories": [
      "Pharmacy"
    ],
    "fid": "0x89e80eea71451017:0xfd5f9f1c287877e0",
    "cid": "18257486357670164448",
    "reviewsCount": 56,
    "imagesCount": 20,
    "imageCategories": [],
    "scrapedAt": "2025-06-22T07:20:55.767Z",
    "googleFoodUrl": null,
    "hotelAds": [],
    "openingHours": [
      {
        "day": "Monday",
        "hours": "12\u202fAM to 1:30\u202fPM, 2\u202fPM to 12\u202fAM"
      },
      {
        "day": "Tuesday",
        "hours": "12\u202fAM to 1:30\u202fPM, 2\u202fPM to 12\u202fAM"
      },
      {
        "day": "Wednesday",
        "hours": "12\u202fAM to 1:30\u202fPM, 2\u202fPM to 12\u202fAM"
      },
      {
        "day": "Thursday",
        "hours": "12\u202fAM to 1:30\u202fPM, 2\u202fPM to 12\u202fAM"
      },
      {
        "day": "Friday",
        "hours": "12\u202fAM to 1:30\u202fPM, 2\u202fPM to 12\u202fAM"
      },
      {
        "day": "Saturday",
        "hours": "12\u202fAM to 1:30\u202fPM, 2\u202fPM to 12\u202fAM"
      },
      {
        "day": "Sunday",
        "hours": "12\u202fAM to 1:30\u202fPM, 2\u202fPM to 12\u202fAM"
      }
    ],
    "peopleAlsoSearch": [],
    "placesTags": [],
    "reviewsTags": [],
    "additionalInfo": {
      "Service options": [
        {
          "Delivery": true
        },
        {
          "In-store shopping": true
        }
      ],
      "Accessibility": [
        {
          "Wheelchair accessible entrance": true
        },
        {
          "Wheelchair accessible parking lot": true
        }
      ],
      "Offerings": [
        {
          "Naloxone": true
        },
        {
          "Passport photos": true
        }
      ],
      "Crowd": [
        {
          "LGBTQ+ friendly": true
        },
        {
          "Transgender safespace": true
        }
      ],
      "Planning": [
        {
          "Quick visit": true
        }
      ],
      "Payments": [
        {
          "Credit cards": true
        },
        {
          "Debit cards": true
        },
        {
          "NFC mobile payments": true
        },
        {
          "SNAP/EBT": true
        },
        {
          "Credit cards": true
        }
      ]
    },
    "gasPrices": [],
    "url": "https://www.google.com/maps/search/?api=1&query=CVS%20Pharmacy&query_place_id=ChIJFxBFceoO6IkR4Hd4KByfX_0",
    "searchPageUrl": "https://www.google.com/maps/search/independent%20pharmacy%20Bridgeport%20CT/@52.00847926235162,-179.97595653707245,14z?hl=en",
    "searchString": "independent pharmacy Bridgeport CT",
    "language": "en",
    "rank": 11,
    "isAdvertisement": false,
    "imageUrl": "https://lh3.googleusercontent.com/p/AF1QipNAIqsT-1MCbeF-Q9O9G7U4rf5-59VfRFR7KUU8=w408-h272-k-no",
    "kgmid": "/g/11c468w694",
    "classification": "chain",
    "is_independent": false,
    "confidence": 1.0,
    "source": "rule-based"
  },
  {
    "title": "St Vincent's Outpatient Pharmacy",
    "price": null,
    "categoryName": "Pharmacy",
    "address": "2800 Main St, Bridgeport, CT 06606",
    "neighborhood": "Brooklawn/St. Vincent",
    "street": "2800 Main St",
    "city": "Bridgeport",
    "postalCode": "06606",
    "state": "Connecticut",
    "countryCode": "US",
    "website": "http://stvincents.org/services/outpatient-pharmacy",
    "phone": "(203) 576-5713",
    "phoneUnformatted": "+12035765713",
    "claimThisBusiness": false,
    "location": {
      "lat": 41.2004212,
      "lng": -73.2023294
    },
    "totalScore": 5,
    "permanentlyClosed": false,
    "temporarilyClosed": false,
    "placeId": "ChIJmd_i0doO6IkR5ngeCbiXiSg",
    "categories": [
      "Pharmacy"
    ],
    "fid": "0x89e80edad1e2df99:0x288997b8091e78e6",
    "cid": "2921032650009245926",
    "reviewsCount": 5,
    "imagesCount": 3,
    "imageCategories": [],
    "scrapedAt": "2025-06-22T07:20:55.768Z",
    "googleFoodUrl": null,
    "hotelAds": [],
    "openingHours": [
      {
        "day": "Monday",
        "hours": "9\u202fAM to 5:30\u202fPM"
      },
      {
        "day": "Tuesday",
        "hours": "9\u202fAM to 5:30\u202fPM"
      },
      {
        "day": "Wednesday",
        "hours": "9\u202fAM to 5:30\u202fPM"
      },
      {
        "day": "Thursday",
        "hours": "9\u202fAM to 5:30\u202fPM"
      },
      {
        "day": "Friday",
        "hours": "9\u202fAM to 5:30\u202fPM"
      },
      {
        "day": "Saturday",
        "hours": "9\u202fAM to 1\u202fPM"
      },
      {
        "day": "Sunday",
        "hours": "Closed"
      }
    ],
    "peopleAlsoSearch": [],
    "placesTags": [],
    "reviewsTags": [],
    "additionalInfo": {
      "Service options": [
        {
          "Delivery": true
        }
      ],
      "Accessibility": [
        {
          "Wheelchair accessible entrance": true
        },
        {
          "Wheelchair accessible parking lot": true
        }
      ],
      "Payments": [
        {
          "Credit cards": true
        }
      ]
    },
    "gasPrices": [],
    "url": "https://www.google.com/maps/search/?api=1&query=St%20Vincent's%20Outpatient%20Pharmacy&query_place_id=ChIJmd_i0doO6IkR5ngeCbiXiSg",
    "searchPageUrl": "https://www.google.com/maps/search/independent%20pharmacy%20Bridgeport%20CT/@52.00847926235162,-179.97595653707245,14z?hl=en",
    "searchString": "independent pharmacy Bridgeport CT",
    "language": "en",
    "rank": 12,
    "isAdvertisement": false,
    "imageUrl": "https://lh3.googleusercontent.com/p/AF1QipPq1OeY79wY5AZCKio54YePphO2Y-muwX6K41dz=w408-h255-k-no",
    "kgmid": "/g/1tf7t4zp",
    "classification": "hospital",
    "is_independent": false,
    "confidence": 1.0,
    "source": "rule-based"
  },
  {
    "title": "Bridgeport Family Pharmacy",
    "price": null,
    "categoryName": "Pharmacy",
    "address": "54 W 4th St Suite 38, Bridgeport, PA 19405",
    "neighborhood": null,
    "street": "54 W 4th St Suite 38",
    "city": "Bridgeport",
    "postalCode": "19405",
    "state": "Pennsylvania",
    "countryCode": "US",
    "website": "https://www.bridgeportrx.com/",
    "phone": "(484) 370-2675",
    "phoneUnformatted": "+14843702675",
    "claimThisBusiness": false,
    "location": {
      "lat": 40.1052993,
      "lng": -75.3429965
    },
    "totalScore": 4.8,
    "permanentlyClosed": false,
    "temporarilyClosed": false,
    "placeId": null,
    "categories": [
      "Pharmacy",
      "Drug store",
      "Vitamin & supplements store"
    ],
    "fid": "0x89c696004b96f465:0xf5bbdfec47703b49",
    "cid": "17706992565841050441",
    "reviewsCount": 35,
    "imagesCount": 5,
    "imageCategories": [],
    "scrapedAt": "2025-06-22T07:20:55.768Z",
    "googleFoodUrl": null,
    "hotelAds": [],
    "openingHours": [
      {
        "day": "Monday",
        "hours": "9\u202fAM to 5\u202fPM"
      },
      {
        "day": "Tuesday",
        "hours": "9\u202fAM to 5\u202fPM"
      },
      {
        "day": "Wednesday",
        "hours": "9\u202fAM to 5\u202fPM"
      },
      {
        "day": "Thursday",
        "hours": "9\u202fAM to 5\u202fPM"
      },
      {
        "day": "Friday",
        "hours": "9\u202fAM to 5\u202fPM"
      },
      {
        "day": "Saturday",
        "hours": "10\u202fAM to 2\u202fPM"
      },
      {
        "day": "Sunday",
        "hours": "Closed"
      }
    ],
    "peopleAlsoSearch": [],
    "placesTags": [],
    "reviewsTags": [],
    "additionalInfo": {
      "From the business": [
        {
          "Small business": true
        }
      ],
      "Service options": [
        {
          "Curbside pickup": true
        },
        {
          "Delivery": true
        },
        {
          "In-store pickup": true
        },
        {
          "In-store shopping": true
        },
        {
          "Same-day delivery": true
        }
      ],
      "Accessibility": [
        {
          "Wheelchair accessible entrance": true
        },
        {
          "Wheelchair accessible parking lot": true
        }
      ],
      "Planning": [
        {
          "Quick visit": true
        }
      ],
      "Payments": [
        {
          "Credit cards": true
        },
        {
          "NFC mobile payments": true
        }
      ],
      "Parking": [
        {
          "Free parking lot": true
        }
      ]
    },
    "gasPrices": [],
    "url": "https://www.google.com/maps/search/?api=1&query=Bridgeport%20Family%20Pharmacy&query_place_id=ChIJZfSWSwCWxokRSTtwR-zfu_U",
    "searchPageUrl": "https://www.google.com/maps/search/independent%20pharmacy%20Bridgeport%20CT/@52.00847926235162,-179.97595653707245,14z?hl=en",
    "searchString": "independent pharmacy Bridgeport CT",
    "language": "en",
    "rank": 13,
    "isAdvertisement": false,
    "imageUrl": "https://lh3.googleusercontent.com/p/AF1QipNJBCchO9C5f7EHNjDbLzW8IxjaJhuJeZJ1M0H2=w408-h544-k-no",
    "kgmid": "/g/11bzq0jrgm",
    "classification": "independent",
    "is_independent": true,
    "is_compounding": false,
    "confidence": 0.9,
    "source": "perplexity",
    "method": "llm",
    "query_location": "bridgeport_ct"
  },
  {
    "title": "Stop & Shop Pharmacy",
    "price": "$$",
    "categoryName": "Pharmacy",
    "address": "4531 Main St, Bridgeport, CT 06606",
    "neighborhood": "North End",
    "street": "4531 Main St",
    "city": "Bridgeport",
    "postalCode": "06606",
    "state": "Connecticut",
    "countryCode": "US",
    "website": "https://pharmacy.stopandshop.com/ct/bridgeport/4531-main-st?y_source=1_MTEyMTM4MTctNzE1LWxvY2F0aW9uLndlYnNpdGU%3D",
    "phone": "(203) 372-6538",
    "phoneUnformatted": "+12033726538",
    "claimThisBusiness": false,
    "location": {
      "lat": 41.22126,
      "lng": -73.21794
    },
    "totalScore": 4.6,
    "permanentlyClosed": false,
    "temporarilyClosed": false,
    "placeId": "ChIJ0eMC1doO6IkR_bdmsj38q9s",
    "categories": [
      "Pharmacy"
    ],
    "fid": "0x89e80edad502e3d1:0xdbabfc3db266b7fd",
    "cid": "15829022657240020989",
    "reviewsCount": 14,
    "imagesCount": 5,
    "imageCategories": [],
    "scrapedAt": "2025-06-22T07:20:55.768Z",
    "googleFoodUrl": null,
    "hotelAds": [],
    "openingHours": [
      {
        "day": "Monday",
        "hours": "8\u202fAM to 1:30\u202fPM, 2 to 8\u202fPM"
      },
      {
        "day": "Tuesday",
        "hours": "8\u202fAM to 1:30\u202fPM, 2 to 8\u202fPM"
      },
      {
        "day": "Wednesday",
        "hours": "8\u202fAM to 1:30\u202fPM, 2 to 8\u202fPM"
      },
      {
        "day": "Thursday",
        "hours": "8\u202fAM to 1:30\u202fPM, 2 to 8\u202fPM"
      },
      {
        "day": "Friday",
        "hours": "8\u202fAM to 1:30\u202fPM, 2 to 8\u202fPM"
      },
      {
        "day": "Saturday",
        "hours": "9\u202fAM to 1:30\u202fPM, 2 to 5\u202fPM"
      },
      {
        "day": "Sunday",
        "hours": "9\u202fAM to 1:30\u202fPM, 2 to 5\u202fPM"
      }
    ],
    "peopleAlsoSearch": [],
    "placesTags": [],
    "reviewsTags": [],
    "additionalInfo": {
      "Service options": [
        {
          "In-store pickup": true
        },
        {
          "Onsite services": true
        }
      ],
      "Accessibility": [
        {
          "Wheelchair accessible entrance": true
        },
        {
          "Wheelchair accessible parking lot": true
        }
      ],
      "Planning": [
        {
          "Quick visit": true
        }
      ],
      "Payments": [
        {
          "Credit cards": true
        }
      ]
    },
    "gasPrices": [],
    "url": "https://www.google.com/maps/search/?api=1&query=Stop%20%26%20Shop%20Pharmacy&query_place_id=ChIJ0eMC1doO6IkR_bdmsj38q9s",
    "searchPageUrl": "https://www.google.com/maps/search/independent%20pharmacy%20Bridgeport%20CT/@52.00847926235162,-179.97595653707245,14z?hl=en",
    "searchString": "independent pharmacy Bridgeport CT",
    "language": "en",
    "rank": 14,
    "isAdvertisement": false,
    "imageUrl": "https://lh3.googleusercontent.com/p/AF1QipM3ekDGsX5lZ4MJsOjILes4QKGqx6BBPrUGWwag=w408-h277-k-no",
    "kgmid": "/g/11b66j62jw",
    "classification": "chain",
    "is_independent": false,
    "confidence": 1.0,
    "source": "rule-based"
  },
  {
    "title": "Walgreens Specialty Pharmacy",
    "description": "Department of the Walgreens chain providing prescription medications & other health-related items.",
    "price": "$$",
    "categoryName": "Pharmacy",
    "address": "300 Fairfield Ave Suite 103, Bridgeport, CT 06604",
    "neighborhood": "Downtown",
    "street": "300 Fairfield Ave Suite 103",
    "city": "Bridgeport",
    "postalCode": "06604",
    "state": "Connecticut",
    "countryCode": "US",
    "website": "https://www.walgreens.com/locator/walgreens-300+fairfield+ave-bridgeport-ct-06604/id=16548",
    "phone": "(203) 923-0054",
    "phoneUnformatted": "+12039230054",
    "claimThisBusiness": false,
    "location": {
      "lat": 41.1784476,
      "lng": -73.1927399
    },
    "totalScore": 4.8,
    "permanentlyClosed": false,
    "temporarilyClosed": false,
    "placeId": "ChIJQzL6NXoP6IkRNHFsYlaPG_Y",
    "categories": [
      "Pharmacy"
    ],
    "fid": "0x89e80f7a35fa3243:0xf61b8f56626c7134",
    "cid": "17733925558882693428",
    "reviewsCount": 4,
    "imagesCount": 2,
    "imageCategories": [],
    "scrapedAt": "2025-06-22T07:20:55.768Z",
    "googleFoodUrl": null,
    "hotelAds": [],
    "openingHours": [
      {
        "day": "Monday",
        "hours": "8:30\u202fAM to 1:30\u202fPM, 2 to 5\u202fPM"
      },
      {
        "day": "Tuesday",
        "hours": "8:30\u202fAM to 1:30\u202fPM, 2 to 5\u202fPM"
      },
      {
        "day": "Wednesday",
        "hours": "8:30\u202fAM to 1:30\u202fPM, 2 to 5\u202fPM"
      },
      {
        "day": "Thursday",
        "hours": "8:30\u202fAM to 1:30\u202fPM, 2 to 5\u202fPM"
      },
      {
        "day": "Friday",
        "hours": "8:30\u202fAM to 1:30\u202fPM, 2 to 5\u202fPM"
      },
      {
        "day": "Saturday",
        "hours": "Closed"
      },
      {
        "day": "Sunday",
        "hours": "Closed"
      }
    ],
    "peopleAlsoSearch": [],
    "placesTags": [],
    "reviewsTags": [],
    "additionalInfo": {
      "Service options": [
        {
          "Drive-through": true
        },
        {
          "In-store pickup": true
        }
      ],
      "Accessibility": [
        {
          "Wheelchair accessible entrance": true
        },
        {
          "Wheelchair accessible parking lot": true
        }
      ],
      "Planning": [
        {
          "Quick visit": true
        }
      ],
      "Payments": [
        {
          "Credit cards": true
        }
      ]
    },
    "gasPrices": [],
    "url": "https://www.google.com/maps/search/?api=1&query=Walgreens%20Specialty%20Pharmacy&query_place_id=ChIJQzL6NXoP6IkRNHFsYlaPG_Y",
    "searchPageUrl": "https://www.google.com/maps/search/independent%20pharmacy%20Bridgeport%20CT/@52.00847926235162,-179.97595653707245,14z?hl=en",
    "searchString": "independent pharmacy Bridgeport CT",
    "language": "en",
    "rank": 15,
    "isAdvertisement": false,
    "imageUrl": "https://streetviewpixels-pa.googleapis.com/v1/thumbnail?panoid=4m5q34OLDJL5IVxjoZtPDQ&cb_client=search.gws-prod.gps&w=408&h=240&yaw=300.95813&pitch=0&thumbfov=100",
    "kgmid": "/g/11g078tc9x",
    "classification": "chain",
    "is_independent": false,
    "confidence": 1.0,
    "source": "rule-based"
  },
  {
    "title": "Albion hancock pharmacy",
    "price": null,
    "categoryName": "Pharmacy",
    "address": "2125 Fairfield Ave, Bridgeport, CT 06605",
    "neighborhood": "Black Rock",
    "street": "2125 Fairfield Ave",
    "city": "Bridgeport",
    "postalCode": "06605",
    "state": "Connecticut",
    "countryCode": "US",
    "website": "http://www.albionhancockrx.com/",
    "phone": "(203) 331-9200",
    "phoneUnformatted": "+12033319200",
    "claimThisBusiness": false,
    "location": {
      "lat": 41.1651944,
      "lng": -73.2184837
    },
    "totalScore": 4,
    "permanentlyClosed": false,
    "temporarilyClosed": false,
    "placeId": null,
    "categories": [
      "Pharmacy"
    ],
    "fid": "0x89e80e3a631ccc4d:0x262164ba38b2eb16",
    "cid": "2747587998650657558",
    "reviewsCount": 8,
    "imagesCount": 4,
    "imageCategories": [],
    "scrapedAt": "2025-06-22T07:20:55.768Z",
    "googleFoodUrl": null,
    "hotelAds": [],
    "openingHours": [
      {
        "day": "Monday",
        "hours": "9\u202fAM to 6\u202fPM"
      },
      {
        "day": "Tuesday",
        "hours": "9\u202fAM to 6\u202fPM"
      },
      {
        "day": "Wednesday",
        "hours": "9\u202fAM to 6\u202fPM"
      },
      {
        "day": "Thursday",
        "hours": "9\u202fAM to 6\u202fPM"
      },
      {
        "day": "Friday",
        "hours": "9\u202fAM to 6\u202fPM"
      },
      {
        "day": "Saturday",
        "hours": "Closed"
      },
      {
        "day": "Sunday",
        "hours": "Closed"
      }
    ],
    "additionalOpeningHours": {
      "Delivery": [
        {
          "day": "Monday",
          "hours": "9\u202fAM\u20135\u202fPM"
        },
        {
          "day": "Tuesday",
          "hours": "9\u202fAM\u20135\u202fPM"
        },
        {
          "day": "Wednesday",
          "hours": "9\u202fAM\u20135\u202fPM"
        },
        {
          "day": "Thursday",
          "hours": "9\u202fAM\u20135\u202fPM"
        },
        {
          "day": "Friday",
          "hours": "9\u202fAM\u20135\u202fPM"
        },
        {
          "day": "Saturday",
          "hours": "Closed"
        },
        {
          "day": "Sunday",
          "hours": "Closed"
        }
      ]
    },
    "peopleAlsoSearch": [],
    "placesTags": [],
    "reviewsTags": [],
    "additionalInfo": {
      "Service options": [
        {
          "Delivery": true
        },
        {
          "In-store pickup": true
        },
        {
          "Same-day delivery": true
        }
      ],
      "Accessibility": [
        {
          "Wheelchair accessible entrance": true
        },
        {
          "Wheelchair accessible parking lot": true
        }
      ],
      "Planning": [
        {
          "Quick visit": true
        }
      ],
      "Payments": [
        {
          "Credit cards": true
        },
        {
          "Debit cards": true
        },
        {
          "NFC mobile payments": true
        },
        {
          "Credit cards": true
        }
      ]
    },
    "gasPrices": [],
    "url": "https://www.google.com/maps/search/?api=1&query=Albion%20hancock%20pharmacy&query_place_id=ChIJTcwcYzoO6IkRFuuyOLpkISY",
    "searchPageUrl": "https://www.google.com/maps/search/independent%20pharmacy%20Bridgeport%20CT/@52.00847926235162,-179.97595653707245,14z?hl=en",
    "searchString": "independent pharmacy Bridgeport CT",
    "language": "en",
    "rank": 16,
    "isAdvertisement": false,
    "imageUrl": "https://lh3.googleusercontent.com/p/AF1QipPUbaoDiqt7ovhu9LgCbHh4GHwWbPjWWxr22zlC=w408-h281-k-no",
    "kgmid": "/g/11hczy8yxs",
    "classification": "independent",
    "is_independent": true,
    "is_compounding": false,
    "confidence": 0.9,
    "source": "perplexity",
    "method": "llm",
    "query_location": "bridgeport_ct"
  },
  {
    "title": "Madison Pharmacy with Drive Thru",
    "price": null,
    "categoryName": "Pharmacy",
    "address": "4180 Madison Ave, Trumbull, CT 06611",
    "neighborhood": null,
    "street": "4180 Madison Ave",
    "city": "Trumbull",
    "postalCode": "06611",
    "state": "Connecticut",
    "countryCode": "US",
    "website": "http://www.trumbullmadisonpharmacy.com/",
    "phone": "(203) 502-8231",
    "phoneUnformatted": "+12035028231",
    "claimThisBusiness": false,
    "location": {
      "lat": 41.2301498,
      "lng": -73.2324416
    },
    "totalScore": 4.8,
    "permanentlyClosed": false,
    "temporarilyClosed": false,
    "placeId": null,
    "categories": [
      "Pharmacy"
    ],
    "fid": "0x89e80f70eb57ad8f:0xd04aa70712c02fa",
    "cid": "938062022311674618",
    "reviewsCount": 100,
    "imagesCount": 56,
    "imageCategories": [],
    "scrapedAt": "2025-06-22T07:20:55.768Z",
    "googleFoodUrl": null,
    "hotelAds": [],
    "openingHours": [
      {
        "day": "Monday",
        "hours": "10\u202fAM to 7\u202fPM"
      },
      {
        "day": "Tuesday",
        "hours": "10\u202fAM to 7\u202fPM"
      },
      {
        "day": "Wednesday",
        "hours": "10\u202fAM to 7\u202fPM"
      },
      {
        "day": "Thursday",
        "hours": "10\u202fAM to 7\u202fPM"
      },
      {
        "day": "Friday",
        "hours": "10\u202fAM to 7\u202fPM"
      },
      {
        "day": "Saturday",
        "hours": "11\u202fAM to 6\u202fPM"
      },
      {
        "day": "Sunday",
        "hours": "Closed"
      }
    ],
    "additionalOpeningHours": {
      "Drive through": [
        {
          "day": "Monday",
          "hours": "10\u202fAM\u20137\u202fPM"
        },
        {
          "day": "Tuesday",
          "hours": "10\u202fAM\u20137\u202fPM"
        },
        {
          "day": "Wednesday",
          "hours": "10\u202fAM\u20137\u202fPM"
        },
        {
          "day": "Thursday",
          "hours": "10\u202fAM\u20137\u202fPM"
        },
        {
          "day": "Friday",
          "hours": "10\u202fAM\u20137\u202fPM"
        },
        {
          "day": "Saturday",
          "hours": "11\u202fAM\u20136\u202fPM"
        },
        {
          "day": "Sunday",
          "hours": "Closed"
        }
      ],
      "Delivery": [
        {
          "day": "Monday",
          "hours": "5\u20137\u202fPM"
        },
        {
          "day": "Tuesday",
          "hours": "5\u20137\u202fPM"
        },
        {
          "day": "Wednesday",
          "hours": "5\u20137\u202fPM"
        },
        {
          "day": "Thursday",
          "hours": "5\u20137\u202fPM"
        },
        {
          "day": "Friday",
          "hours": "5\u20137\u202fPM"
        },
        {
          "day": "Saturday",
          "hours": "4\u20136\u202fPM"
        },
        {
          "day": "Sunday",
          "hours": "Closed"
        }
      ]
    },
    "peopleAlsoSearch": [],
    "placesTags": [],
    "reviewsTags": [],
    "additionalInfo": {
      "From the business": [
        {
          "Small business": true
        }
      ],
      "Service options": [
        {
          "Delivery": true
        },
        {
          "Drive-through": true
        },
        {
          "In-store pickup": true
        },
        {
          "In-store shopping": true
        },
        {
          "Same-day delivery": true
        },
        {
          "Arabic": true
        }
      ],
      "Accessibility": [
        {
          "Wheelchair accessible entrance": true
        },
        {
          "Wheelchair accessible parking lot": true
        },
        {
          "Wheelchair accessible restroom": true
        },
        {
          "Wheelchair accessible seating": true
        }
      ],
      "Planning": [
        {
          "Quick visit": true
        }
      ],
      "Payments": [
        {
          "Checks": true
        },
        {
          "Credit cards": true
        },
        {
          "Debit cards": true
        },
        {
          "NFC mobile payments": true
        },
        {
          "Credit cards": true
        }
      ]
    },
    "gasPrices": [],
    "url": "https://www.google.com/maps/search/?api=1&query=Madison%20Pharmacy%20with%20Drive%20Thru&query_place_id=ChIJj61X63AP6IkR-gIscXCqBA0",
    "searchPageUrl": "https://www.google.com/maps/search/independent%20pharmacy%20Bridgeport%20CT/@52.00847926235162,-179.97595653707245,14z?hl=en",
    "searchString": "independent pharmacy Bridgeport CT",
    "language": "en",
    "rank": 17,
    "isAdvertisement": false,
    "imageUrl": "https://lh3.googleusercontent.com/p/AF1QipMeJG2-AAtsKT5yp70c_zSLS6Xepm1kpy-tMbom=w408-h306-k-no",
    "kgmid": "/g/11ry8m88nt",
    "classification": "independent",
    "is_independent": true,
    "is_compounding": false,
    "confidence": 0.9,
    "source": "perplexity",
    "method": "llm",
    "query_location": "bridgeport_ct"
  },
  {
    "title": "Walgreens Pharmacy",
    "description": "Department of the Walgreens chain providing prescription medications & other health-related items.",
    "price": "$$",
    "categoryName": "Pharmacy",
    "address": "1000 Park Ave, Bridgeport, CT 06604",
    "neighborhood": "Downtown",
    "street": "1000 Park Ave",
    "city": "Bridgeport",
    "postalCode": "06604",
    "state": "Connecticut",
    "countryCode": "US",
    "website": "https://www.walgreens.com/locator/walgreens-1000+park+ave-bridgeport-ct-06604/id=9521",
    "phone": "(203) 696-0127",
    "phoneUnformatted": "+12036960127",
    "claimThisBusiness": false,
    "location": {
      "lat": 41.1756478,
      "lng": -73.1980811
    },
    "locatedIn": "Walgreens",
    "totalScore": 3.2,
    "permanentlyClosed": false,
    "temporarilyClosed": false,
    "placeId": "ChIJyRlnPGwO6IkR7WaXohtkxmk",
    "categories": [
      "Pharmacy"
    ],
    "fid": "0x89e80e6c3c6719c9:0x69c6641ba29766ed",
    "cid": "7621889489225869037",
    "reviewsCount": 123,
    "imagesCount": 16,
    "imageCategories": [],
    "scrapedAt": "2025-06-22T07:20:55.769Z",
    "googleFoodUrl": null,
    "hotelAds": [],
    "openingHours": [
      {
        "day": "Monday",
        "hours": "9\u202fAM to 1:30\u202fPM, 2 to 9\u202fPM"
      },
      {
        "day": "Tuesday",
        "hours": "9\u202fAM to 1:30\u202fPM, 2 to 9\u202fPM"
      },
      {
        "day": "Wednesday",
        "hours": "9\u202fAM to 1:30\u202fPM, 2 to 9\u202fPM"
      },
      {
        "day": "Thursday",
        "hours": "9\u202fAM to 1:30\u202fPM, 2 to 9\u202fPM"
      },
      {
        "day": "Friday",
        "hours": "9\u202fAM to 1:30\u202fPM, 2 to 9\u202fPM"
      },
      {
        "day": "Saturday",
        "hours": "9\u202fAM to 1:30\u202fPM, 2 to 6\u202fPM"
      },
      {
        "day": "Sunday",
        "hours": "10\u202fAM to 1:30\u202fPM, 2 to 6\u202fPM"
      }
    ],
    "additionalOpeningHours": {
      "Walgreens": [
        {
          "day": "Monday",
          "hours": "7\u202fAM\u201312\u202fAM"
        },
        {
          "day": "Tuesday",
          "hours": "7\u202fAM\u201312\u202fAM"
        },
        {
          "day": "Wednesday",
          "hours": "7\u202fAM\u201312\u202fAM"
        },
        {
          "day": "Thursday",
          "hours": "7\u202fAM\u201312\u202fAM"
        },
        {
          "day": "Friday",
          "hours": "7\u202fAM\u201312\u202fAM"
        },
        {
          "day": "Saturday",
          "hours": "7\u202fAM\u201312\u202fAM"
        },
        {
          "day": "Sunday",
          "hours": "7\u202fAM\u201312\u202fAM"
        }
      ],
      "Walgreens Photo": [
        {
          "day": "Monday",
          "hours": "7\u202fAM\u201312\u202fAM"
        },
        {
          "day": "Tuesday",
          "hours": "7\u202fAM\u201312\u202fAM"
        },
        {
          "day": "Wednesday",
          "hours": "7\u202fAM\u201312\u202fAM"
        },
        {
          "day": "Thursday",
          "hours": "7\u202fAM\u201312\u202fAM"
        },
        {
          "day": "Friday",
          "hours": "7\u202fAM\u201312\u202fAM"
        },
        {
          "day": "Saturday",
          "hours": "7\u202fAM\u201312\u202fAM"
        },
        {
          "day": "Sunday",
          "hours": "7\u202fAM\u201312\u202fAM"
        }
      ],
      "Drive through": [
        {
          "day": "Monday",
          "hours": "9\u202fAM\u20131:30\u202fPM"
        },
        {
          "day": "Tuesday",
          "hours": "9\u202fAM\u20131:30\u202fPM"
        },
        {
          "day": "Wednesday",
          "hours": "9\u202fAM\u20131:30\u202fPM"
        },
        {
          "day": "Thursday",
          "hours": "9\u202fAM\u20131:30\u202fPM"
        },
        {
          "day": "Friday",
          "hours": "9\u202fAM\u20131:30\u202fPM"
        },
        {
          "day": "Saturday",
          "hours": "9\u202fAM\u20131:30\u202fPM"
        },
        {
          "day": "Sunday",
          "hours": "10\u202fAM\u20131:30\u202fPM"
        }
      ]
    },
    "peopleAlsoSearch": [],
    "placesTags": [],
    "reviewsTags": [],
    "additionalInfo": {
      "Service options": [
        {
          "Curbside pickup": true
        },
        {
          "Drive-through": true
        },
        {
          "In-store pickup": true
        },
        {
          "Onsite services": true
        }
      ],
      "Accessibility": [
        {
          "Wheelchair accessible entrance": true
        },
        {
          "Wheelchair accessible parking lot": true
        }
      ],
      "Offerings": [
        {
          "Naloxone": true
        },
        {
          "Passport photos": true
        }
      ],
      "Planning": [
        {
          "Quick visit": true
        }
      ],
      "Payments": [
        {
          "Credit cards": true
        },
        {
          "Debit cards": true
        },
        {
          "NFC mobile payments": true
        },
        {
          "Credit cards": true
        }
      ]
    },
    "gasPrices": [],
    "url": "https://www.google.com/maps/search/?api=1&query=Walgreens%20Pharmacy&query_place_id=ChIJyRlnPGwO6IkR7WaXohtkxmk",
    "searchPageUrl": "https://www.google.com/maps/search/independent%20pharmacy%20Bridgeport%20CT/@52.00847926235162,-179.97595653707245,14z?hl=en",
    "searchString": "independent pharmacy Bridgeport CT",
    "language": "en",
    "rank": 18,
    "isAdvertisement": false,
    "imageUrl": "https://lh3.googleusercontent.com/gps-cs-s/AC9h4nqq6gtSYomL8ENp8Hfp89gqm56aes6ltoyeovwhoGgJvkU9A8hZO6ka5TH_Aw5XcHH4b7wqoqzgVn4YWwHZjnCH5O0_sXPy1yZ6wuzSczgryJjRv_z21gjzeRHATa9Y7ZPZoL2KpA=w426-h240-k-no",
    "kgmid": "/g/1thpxw62",
    "classification": "chain",
    "is_independent": false,
    "confidence": 1.0,
    "source": "rule-based"
  },
  {
    "title": "Community Pharmacy",
    "price": null,
    "categoryName": "Pharmacy",
    "address": "1557 Fairfield Ave, Bridgeport, CT 06605",
    "neighborhood": "West End/West Side",
    "street": "1557 Fairfield Ave",
    "city": "Bridgeport",
    "postalCode": "06605",
    "state": "Connecticut",
    "countryCode": "US",
    "website": "http://communitypharmacynetwork.net/",
    "phone": "(203) 384-1000",
    "phoneUnformatted": "+12033841000",
    "claimThisBusiness": true,
    "location": {
      "lat": 41.1711139,
      "lng": -73.2121914
    },
    "permanentlyClosed": false,
    "temporarilyClosed": true,
    "placeId": null,
    "categories": [
      "Pharmacy"
    ],
    "fid": "0x89e80e3929d5619b:0x2e383adda8633a2e",
    "cid": "3330476648127740462",
    "reviewsCount": 0,
    "imagesCount": 1,
    "imageCategories": [],
    "scrapedAt": "2025-06-22T07:20:55.769Z",
    "googleFoodUrl": null,
    "hotelAds": [],
    "openingHours": [],
    "peopleAlsoSearch": [],
    "placesTags": [],
    "reviewsTags": [],
    "gasPrices": [],
    "url": "https://www.google.com/maps/search/?api=1&query=Community%20Pharmacy&query_place_id=ChIJm2HVKTkO6IkRLjpjqN06OC4",
    "searchPageUrl": "https://www.google.com/maps/search/independent%20pharmacy%20Bridgeport%20CT/@52.00847926235162,-179.97595653707245,14z?hl=en",
    "searchString": "independent pharmacy Bridgeport CT",
    "language": "en",
    "rank": 19,
    "isAdvertisement": false,
    "imageUrl": "https://streetviewpixels-pa.googleapis.com/v1/thumbnail?panoid=6VzkUonTNfUbjTGTydlRBg&cb_client=search.gws-prod.gps&w=408&h=240&yaw=96.52364&pitch=0&thumbfov=100",
    "kgmid": "/g/11bwqbmmzm",
    "classification": "independent",
    "is_independent": true,
    "is_compounding": false,
    "confidence": 0.9,
    "source": "perplexity",
    "method": "llm",
    "query_location": "bridgeport_ct"
  },
  {
    "title": "Walgreens Pharmacy",
    "description": "Department of the Walgreens chain providing prescription medications & other health-related items.",
    "price": "$$",
    "categoryName": "Pharmacy",
    "address": "4083 Main St, Bridgeport, CT 06606",
    "neighborhood": "North End",
    "street": "4083 Main St",
    "city": "Bridgeport",
    "postalCode": "06606",
    "state": "Connecticut",
    "countryCode": "US",
    "website": "https://www.walgreens.com/locator/walgreens-4083+main+st-bridgeport-ct-06606/id=7522",
    "phone": "(203) 374-2819",
    "phoneUnformatted": "+12033742819",
    "claimThisBusiness": false,
    "location": {
      "lat": 41.216115,
      "lng": -73.214335
    },
    "locatedIn": "Walgreens",
    "totalScore": 3.3,
    "permanentlyClosed": false,
    "temporarilyClosed": false,
    "placeId": "ChIJxcmwqMMO6IkR66D17ekQIdU",
    "categories": [
      "Pharmacy"
    ],
    "fid": "0x89e80ec3a8b0c9c5:0xd52110e9edf5a0eb",
    "cid": "15357574801215824107",
    "reviewsCount": 66,
    "imagesCount": 14,
    "imageCategories": [],
    "scrapedAt": "2025-06-22T07:20:57.805Z",
    "googleFoodUrl": null,
    "hotelAds": [],
    "openingHours": [
      {
        "day": "Monday",
        "hours": "9\u202fAM to 1:30\u202fPM, 2 to 7\u202fPM"
      },
      {
        "day": "Tuesday",
        "hours": "9\u202fAM to 1:30\u202fPM, 2 to 7\u202fPM"
      },
      {
        "day": "Wednesday",
        "hours": "9\u202fAM to 1:30\u202fPM, 2 to 7\u202fPM"
      },
      {
        "day": "Thursday",
        "hours": "9\u202fAM to 1:30\u202fPM, 2 to 7\u202fPM"
      },
      {
        "day": "Friday",
        "hours": "9\u202fAM to 1:30\u202fPM, 2 to 7\u202fPM"
      },
      {
        "day": "Saturday",
        "hours": "9\u202fAM to 1:30\u202fPM, 2 to 6\u202fPM"
      },
      {
        "day": "Sunday",
        "hours": "10\u202fAM to 1:30\u202fPM, 2 to 6\u202fPM"
      }
    ],
    "additionalOpeningHours": {
      "Walgreens": [
        {
          "day": "Monday",
          "hours": "6\u202fAM\u201310\u202fPM"
        },
        {
          "day": "Tuesday",
          "hours": "6\u202fAM\u201310\u202fPM"
        },
        {
          "day": "Wednesday",
          "hours": "6\u202fAM\u201310\u202fPM"
        },
        {
          "day": "Thursday",
          "hours": "6\u202fAM\u201310\u202fPM"
        },
        {
          "day": "Friday",
          "hours": "6\u202fAM\u201310\u202fPM"
        },
        {
          "day": "Saturday",
          "hours": "7\u202fAM\u201310\u202fPM"
        },
        {
          "day": "Sunday",
          "hours": "7\u202fAM\u201310\u202fPM"
        }
      ],
      "Walgreens Photo": [
        {
          "day": "Monday",
          "hours": "6\u202fAM\u201310\u202fPM"
        },
        {
          "day": "Tuesday",
          "hours": "6\u202fAM\u201310\u202fPM"
        },
        {
          "day": "Wednesday",
          "hours": "6\u202fAM\u201310\u202fPM"
        },
        {
          "day": "Thursday",
          "hours": "6\u202fAM\u201310\u202fPM"
        },
        {
          "day": "Friday",
          "hours": "6\u202fAM\u201310\u202fPM"
        },
        {
          "day": "Saturday",
          "hours": "7\u202fAM\u201310\u202fPM"
        },
        {
          "day": "Sunday",
          "hours": "7\u202fAM\u201310\u202fPM"
        }
      ],
      "Drive through": [
        {
          "day": "Monday",
          "hours": "9\u202fAM\u20131:30\u202fPM"
        },
        {
          "day": "Tuesday",
          "hours": "9\u202fAM\u20131:30\u202fPM"
        },
        {
          "day": "Wednesday",
          "hours": "9\u202fAM\u20131:30\u202fPM"
        },
        {
          "day": "Thursday",
          "hours": "9\u202fAM\u20131:30\u202fPM"
        },
        {
          "day": "Friday",
          "hours": "9\u202fAM\u20131:30\u202fPM"
        },
        {
          "day": "Saturday",
          "hours": "9\u202fAM\u20131:30\u202fPM"
        },
        {
          "day": "Sunday",
          "hours": "10\u202fAM\u20131:30\u202fPM"
        }
      ]
    },
    "peopleAlsoSearch": [],
    "placesTags": [],
    "reviewsTags": [],
    "additionalInfo": {
      "Service options": [
        {
          "Curbside pickup": true
        },
        {
          "Delivery": true
        },
        {
          "Drive-through": true
        },
        {
          "In-store pickup": true
        },
        {
          "Onsite services": true
        }
      ],
      "Accessibility": [
        {
          "Wheelchair accessible entrance": true
        },
        {
          "Wheelchair accessible parking lot": true
        }
      ],
      "Offerings": [
        {
          "Naloxone": true
        },
        {
          "Passport photos": true
        }
      ],
      "Planning": [
        {
          "Quick visit": true
        }
      ],
      "Payments": [
        {
          "Credit cards": true
        },
        {
          "Debit cards": true
        },
        {
          "NFC mobile payments": true
        },
        {
          "Credit cards": true
        }
      ]
    },
    "gasPrices": [],
    "url": "https://www.google.com/maps/search/?api=1&query=Walgreens%20Pharmacy&query_place_id=ChIJxcmwqMMO6IkR66D17ekQIdU",
    "searchPageUrl": "https://www.google.com/maps/search/independent%20pharmacy%20Bridgeport%20CT/@62.95881800455232,-153.11051097135197,9z?hl=en",
    "searchString": "independent pharmacy Bridgeport CT",
    "language": "en",
    "rank": 19,
    "isAdvertisement": false,
    "imageUrl": "https://lh3.googleusercontent.com/gps-cs-s/AC9h4nqr3Mtttxym901Se1oJeXERnmH4VPJl6BjxWcwZtbgYZlghTQFh-SZZkvpbmJmRAV-_YP5R7jQ1ZK5MR_VZ-Jl1CPpKWpomvDJSvtQNBB2MDt6jJY05aLdxDSf6ojLgN4OL3QqfIg=w408-h544-k-no",
    "kgmid": "/g/1vgw9nr0",
    "classification": "chain",
    "is_independent": false,
    "confidence": 1.0,
    "source": "rule-based"
  }
]