[
  {
    "title": "Olive Tree Compounding Pharmacy",
    "price": null,
    "categoryName": "Pharmacy",
    "address": "1713 Wellspring Ave SE, Rio Rancho, NM 87124",
    "neighborhood": "Unser Gateway",
    "street": "1713 Wellspring Ave SE",
    "city": "Rio Rancho",
    "postalCode": "87124",
    "state": "New Mexico",
    "countryCode": "US",
    "website": "http://olivetreecompounding.com/",
    "phone": "(505) 738-3328",
    "phoneUnformatted": "+15057383328",
    "claimThisBusiness": false,
    "location": {
      "lat": 35.2240886,
      "lng": -106.7018624
    },
    "totalScore": 4.8,
    "permanentlyClosed": false,
    "temporarilyClosed": false,
    "placeId": null,
    "categories": [
      "Pharmacy"
    ],
    "fid": "0x8722704ba85f1423:0xd92f25bbb3310e4b",
    "cid": "15649768718231211595",
    "reviewsCount": 68,
    "imagesCount": 21,
    "imageCategories": [],
    "scrapedAt": "2025-06-22T09:03:17.339Z",
    "googleFoodUrl": null,
    "hotelAds": [],
    "openingHours": [
      {
        "day": "Monday",
        "hours": "9\u202fAM to 6\u202fPM"
      },
      {
        "day": "Tuesday",
        "hours": "9\u202fAM to 6\u202fPM"
      },
      {
        "day": "Wednesday",
        "hours": "9\u202fAM to 6\u202fPM"
      },
      {
        "day": "Thursday",
        "hours": "9\u202fAM to 6\u202fPM"
      },
      {
        "day": "Friday",
        "hours": "9\u202fAM to 6\u202fPM"
      },
      {
        "day": "Saturday",
        "hours": "Closed"
      },
      {
        "day": "Sunday",
        "hours": "Closed"
      }
    ],
    "peopleAlsoSearch": [],
    "placesTags": [],
    "reviewsTags": [],
    "additionalInfo": {
      "From the business": [
        {
          "Small business": true
        }
      ],
      "Service options": [
        {
          "Delivery": true
        },
        {
          "Same-day delivery": true
        }
      ],
      "Accessibility": [
        {
          "Wheelchair accessible entrance": true
        },
        {
          "Wheelchair accessible parking lot": true
        },
        {
          "Wheelchair accessible restroom": true
        },
        {
          "Wheelchair accessible seating": true
        }
      ],
      "Amenities": [
        {
          "Gender-neutral restroom": true
        },
        {
          "Wi-Fi": true
        },
        {
          "Free Wi-Fi": true
        }
      ],
      "Crowd": [
        {
          "LGBTQ+ friendly": true
        },
        {
          "Transgender safespace": true
        }
      ],
      "Payments": [
        {
          "Credit cards": true
        },
        {
          "Debit cards": true
        },
        {
          "NFC mobile payments": true
        }
      ],
      "Parking": [
        {
          "Free parking lot": true
        },
        {
          "On-site parking": true
        }
      ]
    },
    "gasPrices": [],
    "url": "https://www.google.com/maps/search/?api=1&query=Olive%20Tree%20Compounding%20Pharmacy&query_place_id=ChIJIxRfqEtwIocRSw4xs7slL9k",
    "searchPageUrl": "https://www.google.com/maps/search/independent%20pharmacy%20Rio%20Rancho%20NM/@55.6612261832132,-157.74759435157458,13z?hl=en",
    "searchString": "independent pharmacy Rio Rancho NM",
    "language": "en",
    "rank": 1,
    "isAdvertisement": false,
    "imageUrl": "https://lh3.googleusercontent.com/p/AF1QipMOS9ytxU7t1W7vwgc7yGi5bdXHFiSxgai2nn_s=w408-h306-k-no",
    "kgmid": "/g/11c6cypmm2",
    "classification": "independent",
    "is_independent": true,
    "is_compounding": true,
    "confidence": 0.95,
    "source": "perplexity",
    "method": "llm",
    "query_location": "rio_rancho_nm"
  },
  {
    "title": "CVS Pharmacy",
    "price": null,
    "categoryName": "Pharmacy",
    "address": "1001 New Mexico 528, South East, Rio Rancho, NM 87124",
    "neighborhood": "Urban Center",
    "street": "1001 New Mexico 528, South East",
    "city": "Rio Rancho",
    "postalCode": "87124",
    "state": "NM",
    "countryCode": "US",
    "website": "https://www.cvs.com/store-locator/rio-rancho-nm-pharmacies/1001-new-mexico-hwy-528-se-rio-rancho-nm-87124/storeid=7552?WT.mc_id=LS_GOOGLE_RX_7552",
    "phone": "(505) 896-2078",
    "phoneUnformatted": "+15058962078",
    "claimThisBusiness": false,
    "location": {
      "lat": 35.2407072,
      "lng": -106.6569011
    },
    "totalScore": 3.6,
    "permanentlyClosed": false,
    "temporarilyClosed": false,
    "placeId": "ChIJ3RKJ5uhwIocRd4jGiS4PjpQ",
    "categories": [
      "Pharmacy"
    ],
    "fid": "0x872270e8e68912dd:0x948e0f2e89c68877",
    "cid": "10704510056860649591",
    "reviewsCount": 41,
    "imagesCount": 38,
    "imageCategories": [],
    "scrapedAt": "2025-06-22T09:03:17.341Z",
    "googleFoodUrl": null,
    "hotelAds": [],
    "openingHours": [
      {
        "day": "Monday",
        "hours": "12\u202fAM to 1:30\u202fPM, 2\u202fPM to 12\u202fAM"
      },
      {
        "day": "Tuesday",
        "hours": "12\u202fAM to 1:30\u202fPM, 2\u202fPM to 12\u202fAM"
      },
      {
        "day": "Wednesday",
        "hours": "12\u202fAM to 1:30\u202fPM, 2\u202fPM to 12\u202fAM"
      },
      {
        "day": "Thursday",
        "hours": "12\u202fAM to 1:30\u202fPM, 2\u202fPM to 12\u202fAM"
      },
      {
        "day": "Friday",
        "hours": "12\u202fAM to 1:30\u202fPM, 2\u202fPM to 12\u202fAM"
      },
      {
        "day": "Saturday",
        "hours": "12\u202fAM to 1:30\u202fPM, 2\u202fPM to 12\u202fAM"
      },
      {
        "day": "Sunday",
        "hours": "12\u202fAM to 1:30\u202fPM, 2\u202fPM to 12\u202fAM"
      }
    ],
    "peopleAlsoSearch": [],
    "placesTags": [],
    "reviewsTags": [],
    "additionalInfo": {
      "Service options": [
        {
          "Delivery": true
        },
        {
          "Drive-through": true
        },
        {
          "In-store pickup": true
        },
        {
          "In-store shopping": true
        }
      ],
      "Accessibility": [
        {
          "Wheelchair accessible entrance": true
        },
        {
          "Wheelchair accessible parking lot": true
        }
      ],
      "Offerings": [
        {
          "Medication disposal": true
        },
        {
          "Naloxone": true
        },
        {
          "Passport photos": true
        }
      ],
      "Crowd": [
        {
          "LGBTQ+ friendly": true
        },
        {
          "Transgender safespace": true
        }
      ],
      "Planning": [
        {
          "Quick visit": true
        }
      ],
      "Payments": [
        {
          "Credit cards": true
        },
        {
          "Debit cards": true
        },
        {
          "NFC mobile payments": true
        },
        {
          "SNAP/EBT": true
        },
        {
          "Credit cards": true
        }
      ]
    },
    "gasPrices": [],
    "url": "https://www.google.com/maps/search/?api=1&query=CVS%20Pharmacy&query_place_id=ChIJ3RKJ5uhwIocRd4jGiS4PjpQ",
    "searchPageUrl": "https://www.google.com/maps/search/independent%20pharmacy%20Rio%20Rancho%20NM/@55.6612261832132,-157.74759435157458,13z?hl=en",
    "searchString": "independent pharmacy Rio Rancho NM",
    "language": "en",
    "rank": 2,
    "isAdvertisement": false,
    "imageUrl": "https://lh3.googleusercontent.com/p/AF1QipOGFYe_-6E5mzSXu4Pz5PFwxgtROtTIo9Cdy1Da=w408-h275-k-no",
    "kgmid": "/g/11bx5p_w65",
    "classification": "chain",
    "is_independent": false,
    "confidence": 1.0,
    "source": "rule-based"
  },
  {
    "title": "Albertsons Market Pharmacy",
    "price": null,
    "categoryName": "Pharmacy",
    "address": "4300 Ridgecrest Dr SE, Rio Rancho, NM 87124",
    "neighborhood": "Rio Rancho Marketplace Mall",
    "street": "4300 Ridgecrest Dr SE",
    "city": "Rio Rancho",
    "postalCode": "87124",
    "state": "New Mexico",
    "countryCode": "US",
    "website": "https://local.pharmacy.albertsonsmarket.com/nm/rio-rancho/4300-ridgecrest-dr.html",
    "phone": "(505) 892-2262",
    "phoneUnformatted": "+15058922262",
    "claimThisBusiness": false,
    "location": {
      "lat": 35.2538769,
      "lng": -106.6502818
    },
    "totalScore": 3.4,
    "permanentlyClosed": false,
    "temporarilyClosed": false,
    "placeId": "ChIJ1bfqRb5wIocROZiTDVBjWQY",
    "categories": [
      "Pharmacy"
    ],
    "fid": "0x872270be45eab7d5:0x65963500d939839",
    "cid": "457506032631126073",
    "reviewsCount": 17,
    "imagesCount": 3,
    "imageCategories": [],
    "scrapedAt": "2025-06-22T09:03:17.341Z",
    "googleFoodUrl": null,
    "hotelAds": [],
    "openingHours": [
      {
        "day": "Monday",
        "hours": "9\u202fAM to 7\u202fPM"
      },
      {
        "day": "Tuesday",
        "hours": "9\u202fAM to 7\u202fPM"
      },
      {
        "day": "Wednesday",
        "hours": "9\u202fAM to 7\u202fPM"
      },
      {
        "day": "Thursday",
        "hours": "9\u202fAM to 7\u202fPM"
      },
      {
        "day": "Friday",
        "hours": "9\u202fAM to 7\u202fPM"
      },
      {
        "day": "Saturday",
        "hours": "9\u202fAM to 5\u202fPM"
      },
      {
        "day": "Sunday",
        "hours": "10\u202fAM to 4\u202fPM"
      }
    ],
    "peopleAlsoSearch": [],
    "placesTags": [],
    "reviewsTags": [],
    "additionalInfo": {
      "Service options": [
        {
          "In-store pickup": true
        }
      ],
      "Accessibility": [
        {
          "Wheelchair accessible parking lot": true
        }
      ],
      "Planning": [
        {
          "Quick visit": true
        }
      ],
      "Payments": [
        {
          "Credit cards": true
        }
      ]
    },
    "gasPrices": [],
    "url": "https://www.google.com/maps/search/?api=1&query=Albertsons%20Market%20Pharmacy&query_place_id=ChIJ1bfqRb5wIocROZiTDVBjWQY",
    "searchPageUrl": "https://www.google.com/maps/search/independent%20pharmacy%20Rio%20Rancho%20NM/@55.6612261832132,-157.74759435157458,13z?hl=en",
    "searchString": "independent pharmacy Rio Rancho NM",
    "language": "en",
    "rank": 3,
    "isAdvertisement": false,
    "imageUrl": "https://lh3.googleusercontent.com/p/AF1QipMmCUgFd90tNQCKIuwxkx8fXmkMhjqwn39t1lxd=w427-h240-k-no",
    "kgmid": "/g/11cjkvmxnq",
    "classification": "chain",
    "is_independent": false,
    "confidence": 1.0,
    "source": "rule-based"
  },
  {
    "title": "Smith's Pharmacy",
    "price": null,
    "categoryName": "Pharmacy",
    "address": "1000 Rio Rancho Dr Se, Rio Rancho, NM 87124",
    "neighborhood": "Urban Center",
    "street": "1000 Rio Rancho Dr Se",
    "city": "Rio Rancho",
    "postalCode": "87124",
    "state": "New Mexico",
    "countryCode": "US",
    "website": "https://www.smithsfoodanddrug.com/rx/pharmacy/details/706/00413?cid=loc_70600413P_gmb",
    "phone": "(505) 892-1866",
    "phoneUnformatted": "+15058921866",
    "claimThisBusiness": false,
    "location": {
      "lat": 35.2399843,
      "lng": -106.6548479
    },
    "totalScore": 3.7,
    "permanentlyClosed": false,
    "temporarilyClosed": false,
    "placeId": "ChIJhfTAaOhwIocRuuAbEbVa0HQ",
    "categories": [
      "Pharmacy",
      "Drug store",
      "Health counselor",
      "Home health care service"
    ],
    "fid": "0x872270e868c0f485:0x74d05ab5111be0ba",
    "cid": "8417327437278077114",
    "reviewsCount": 23,
    "imagesCount": 20,
    "imageCategories": [],
    "scrapedAt": "2025-06-22T09:03:17.342Z",
    "googleFoodUrl": null,
    "hotelAds": [],
    "openingHours": [
      {
        "day": "Monday",
        "hours": "9\u202fAM to 1\u202fPM, 1:30 to 8\u202fPM"
      },
      {
        "day": "Tuesday",
        "hours": "9\u202fAM to 1\u202fPM, 1:30 to 8\u202fPM"
      },
      {
        "day": "Wednesday",
        "hours": "9\u202fAM to 1\u202fPM, 1:30 to 8\u202fPM"
      },
      {
        "day": "Thursday",
        "hours": "9\u202fAM to 1\u202fPM, 1:30 to 8\u202fPM"
      },
      {
        "day": "Friday",
        "hours": "9\u202fAM to 1\u202fPM, 1:30 to 8\u202fPM"
      },
      {
        "day": "Saturday",
        "hours": "10\u202fAM to 1\u202fPM, 1:30 to 6\u202fPM"
      },
      {
        "day": "Sunday",
        "hours": "10\u202fAM to 1\u202fPM, 1:30 to 5\u202fPM"
      }
    ],
    "peopleAlsoSearch": [],
    "placesTags": [],
    "reviewsTags": [],
    "additionalInfo": {
      "Service options": [
        {
          "Curbside pickup": true
        },
        {
          "Delivery": true
        },
        {
          "In-store pickup": true
        },
        {
          "In-store shopping": true
        },
        {
          "Same-day delivery": true
        }
      ],
      "Accessibility": [
        {
          "Wheelchair accessible entrance": true
        },
        {
          "Wheelchair accessible parking lot": true
        },
        {
          "Wheelchair accessible restroom": true
        },
        {
          "Wheelchair accessible seating": true
        }
      ],
      "Offerings": [
        {
          "Passport photos": true
        }
      ],
      "Crowd": [
        {
          "LGBTQ+ friendly": true
        },
        {
          "Transgender safespace": true
        }
      ],
      "Planning": [
        {
          "Quick visit": true
        }
      ],
      "Payments": [
        {
          "Checks": true
        },
        {
          "Credit cards": true
        },
        {
          "Debit cards": true
        },
        {
          "NFC mobile payments": true
        },
        {
          "Credit cards": true
        }
      ]
    },
    "gasPrices": [],
    "url": "https://www.google.com/maps/search/?api=1&query=Smith's%20Pharmacy&query_place_id=ChIJhfTAaOhwIocRuuAbEbVa0HQ",
    "searchPageUrl": "https://www.google.com/maps/search/independent%20pharmacy%20Rio%20Rancho%20NM/@55.6612261832132,-157.74759435157458,13z?hl=en",
    "searchString": "independent pharmacy Rio Rancho NM",
    "language": "en",
    "rank": 4,
    "isAdvertisement": false,
    "imageUrl": "https://lh3.googleusercontent.com/gps-cs-s/AC9h4nreiXwUOnA8Atq_rjAYA3E770EGSBqTNpPO3ZRFbnbmjG0IqQxmowQ0pKAH7eHWvOYzuniOKojyb_pI2UYNPOOV_r-ovjGaU-0IwO5a1fgV2Xw0WzfXXKuAJUlXzg-pTlFycss=w408-h306-k-no",
    "kgmid": "/g/1yfjfv5pb",
    "classification": "chain",
    "is_independent": false,
    "confidence": 1.0,
    "source": "rule-based"
  },
  {
    "title": "Walgreens Pharmacy",
    "description": "Department of the Walgreens chain providing prescription medications & other health-related items.",
    "price": "$$",
    "categoryName": "Pharmacy",
    "address": "4051 Southern Blvd SE, Rio Rancho, NM 87124",
    "neighborhood": "Urban Center",
    "street": "4051 Southern Blvd SE",
    "city": "Rio Rancho",
    "postalCode": "87124",
    "state": "New Mexico",
    "countryCode": "US",
    "website": "https://www.walgreens.com/locator/walgreens-4051+southern+blvd+se-rio+rancho-nm-87124/id=5158",
    "phone": "(505) 892-6690",
    "phoneUnformatted": "+15058926690",
    "claimThisBusiness": false,
    "location": {
      "lat": 35.2420715,
      "lng": -106.6564999
    },
    "totalScore": 2.1,
    "permanentlyClosed": false,
    "temporarilyClosed": false,
    "placeId": "ChIJ_1rJEelwIocRdeOh3M_559w",
    "categories": [
      "Pharmacy"
    ],
    "fid": "0x872270e911c95aff:0xdce7f9cfdca1e375",
    "cid": "15917966079119450997",
    "reviewsCount": 53,
    "imagesCount": 4,
    "imageCategories": [],
    "scrapedAt": "2025-06-22T09:03:17.342Z",
    "googleFoodUrl": null,
    "hotelAds": [],
    "openingHours": [
      {
        "day": "Monday",
        "hours": "2\u202fAM to 1:30\u202fPM, 2\u202fPM to 1:30\u202fAM"
      },
      {
        "day": "Tuesday",
        "hours": "2\u202fAM to 1:30\u202fPM, 2\u202fPM to 1:30\u202fAM"
      },
      {
        "day": "Wednesday",
        "hours": "2\u202fAM to 1:30\u202fPM, 2\u202fPM to 1:30\u202fAM"
      },
      {
        "day": "Thursday",
        "hours": "2\u202fAM to 1:30\u202fPM, 2\u202fPM to 12\u202fAM"
      },
      {
        "day": "Friday",
        "hours": "2\u202fAM to 1:30\u202fAM"
      },
      {
        "day": "Saturday",
        "hours": "2\u202fAM to 1:30\u202fAM"
      },
      {
        "day": "Sunday",
        "hours": "2\u202fAM to 1:30\u202fAM"
      }
    ],
    "additionalOpeningHours": {
      "Drive through": [
        {
          "day": "Monday",
          "hours": "12\u202fAM\u20131:30\u202fPM"
        },
        {
          "day": "Tuesday",
          "hours": "12\u202fAM\u20131:30\u202fPM"
        },
        {
          "day": "Wednesday",
          "hours": "12\u202fAM\u20131:30\u202fPM"
        },
        {
          "day": "Thursday",
          "hours": "12\u202fAM\u20131:30\u202fPM"
        },
        {
          "day": "Friday",
          "hours": "8\u202fAM\u20131:30\u202fPM"
        },
        {
          "day": "Saturday",
          "hours": "8\u202fAM\u20131:30\u202fPM"
        },
        {
          "day": "Sunday",
          "hours": "8\u202fAM\u20131:30\u202fPM"
        }
      ]
    },
    "peopleAlsoSearch": [],
    "placesTags": [],
    "reviewsTags": [],
    "additionalInfo": {
      "Service options": [
        {
          "Drive-through": true
        },
        {
          "In-store pickup": true
        },
        {
          "Onsite services": true
        }
      ],
      "Accessibility": [
        {
          "Wheelchair accessible entrance": true
        },
        {
          "Wheelchair accessible parking lot": true
        }
      ],
      "Offerings": [
        {
          "Medication disposal": true
        },
        {
          "Naloxone": true
        }
      ],
      "Planning": [
        {
          "Quick visit": true
        }
      ],
      "Payments": [
        {
          "Checks": true
        },
        {
          "Credit cards": true
        },
        {
          "Debit cards": true
        }
      ]
    },
    "gasPrices": [],
    "url": "https://www.google.com/maps/search/?api=1&query=Walgreens%20Pharmacy&query_place_id=ChIJ_1rJEelwIocRdeOh3M_559w",
    "searchPageUrl": "https://www.google.com/maps/search/independent%20pharmacy%20Rio%20Rancho%20NM/@55.6612261832132,-157.74759435157458,13z?hl=en",
    "searchString": "independent pharmacy Rio Rancho NM",
    "language": "en",
    "rank": 5,
    "isAdvertisement": false,
    "imageUrl": "https://lh3.googleusercontent.com/p/AF1QipOBXpO9sF6PgwXGUnJoItw-OX0QGhfOwHHfCE2O=w525-h240-k-no",
    "kgmid": "/g/11cn951vhq",
    "classification": "chain",
    "is_independent": false,
    "confidence": 1.0,
    "source": "rule-based"
  },
  {
    "title": "CVS",
    "description": "Drugstore chain selling a variety of beauty & health products, plus some grocery & household items.",
    "price": null,
    "categoryName": "Drug store",
    "address": "1001 New Mexico 528, South East, Rio Rancho, NM 87124",
    "neighborhood": "Urban Center",
    "street": "1001 New Mexico 528, South East",
    "city": "Rio Rancho",
    "postalCode": "87124",
    "state": "NM",
    "countryCode": "US",
    "website": "https://www.cvs.com/store-locator/rio-rancho-nm-pharmacies/1001-new-mexico-hwy-528-se-rio-rancho-nm-87124/storeid=7552?WT.mc_id=LS_GOOGLE_FS_7552",
    "phone": "(505) 896-2078",
    "phoneUnformatted": "+15058962078",
    "claimThisBusiness": false,
    "location": {
      "lat": 35.2407072,
      "lng": -106.6569011
    },
    "locatedIn": "CVS Pharmacy",
    "totalScore": 2.9,
    "permanentlyClosed": false,
    "temporarilyClosed": false,
    "placeId": "ChIJw14lnOlwIocR1Gu2RrRqTrM",
    "categories": [
      "Drug store"
    ],
    "fid": "0x872270e99c255ec3:0xb34e6ab446b66bd4",
    "cid": "12920381703485549524",
    "reviewsCount": 169,
    "imagesCount": 15,
    "imageCategories": [],
    "scrapedAt": "2025-06-22T09:03:17.342Z",
    "googleFoodUrl": null,
    "hotelAds": [],
    "openingHours": [
      {
        "day": "Monday",
        "hours": "Open 24 hours"
      },
      {
        "day": "Tuesday",
        "hours": "Open 24 hours"
      },
      {
        "day": "Wednesday",
        "hours": "Open 24 hours"
      },
      {
        "day": "Thursday",
        "hours": "Open 24 hours"
      },
      {
        "day": "Friday",
        "hours": "Open 24 hours"
      },
      {
        "day": "Saturday",
        "hours": "Open 24 hours"
      },
      {
        "day": "Sunday",
        "hours": "Open 24 hours"
      }
    ],
    "additionalOpeningHours": {
      "CVS Pharmacy": [
        {
          "day": "Monday",
          "hours": "12\u202fAM\u20131:30\u202fPM"
        },
        {
          "day": "Tuesday",
          "hours": "12\u202fAM\u20131:30\u202fPM"
        },
        {
          "day": "Wednesday",
          "hours": "12\u202fAM\u20131:30\u202fPM"
        },
        {
          "day": "Thursday",
          "hours": "12\u202fAM\u20131:30\u202fPM"
        },
        {
          "day": "Friday",
          "hours": "12\u202fAM\u20131:30\u202fPM"
        },
        {
          "day": "Saturday",
          "hours": "12\u202fAM\u20131:30\u202fPM"
        },
        {
          "day": "Sunday",
          "hours": "12\u202fAM\u20131:30\u202fPM"
        }
      ],
      "CVS Photo": [
        {
          "day": "Monday",
          "hours": "Open 24 hours"
        },
        {
          "day": "Tuesday",
          "hours": "Open 24 hours"
        },
        {
          "day": "Wednesday",
          "hours": "Open 24 hours"
        },
        {
          "day": "Thursday",
          "hours": "Open 24 hours"
        },
        {
          "day": "Friday",
          "hours": "Open 24 hours"
        },
        {
          "day": "Saturday",
          "hours": "Open 24 hours"
        },
        {
          "day": "Sunday",
          "hours": "Open 24 hours"
        }
      ],
      "LibertyX Bitcoin ATM": [
        {
          "day": "Monday",
          "hours": "8\u202fAM\u201310\u202fPM"
        },
        {
          "day": "Tuesday",
          "hours": "8\u202fAM\u201310\u202fPM"
        },
        {
          "day": "Wednesday",
          "hours": "8\u202fAM\u201310\u202fPM"
        },
        {
          "day": "Thursday",
          "hours": "8\u202fAM\u201310\u202fPM"
        },
        {
          "day": "Friday",
          "hours": "8\u202fAM\u201310\u202fPM"
        },
        {
          "day": "Saturday",
          "hours": "8\u202fAM\u201310\u202fPM"
        },
        {
          "day": "Sunday",
          "hours": "8\u202fAM\u201310\u202fPM"
        }
      ],
      "MinuteClinic at CVS": [
        {
          "day": "Monday",
          "hours": "8\u202fAM\u20137\u202fPM"
        },
        {
          "day": "Tuesday",
          "hours": "8\u202fAM\u20137\u202fPM"
        },
        {
          "day": "Wednesday",
          "hours": "8\u202fAM\u20137\u202fPM"
        },
        {
          "day": "Thursday",
          "hours": "8\u202fAM\u20137\u202fPM"
        },
        {
          "day": "Friday",
          "hours": "8\u202fAM\u20137\u202fPM"
        },
        {
          "day": "Saturday",
          "hours": "9\u202fAM\u20135:30\u202fPM"
        },
        {
          "day": "Sunday",
          "hours": "9\u202fAM\u20134:30\u202fPM"
        }
      ]
    },
    "peopleAlsoSearch": [],
    "placesTags": [],
    "reviewsTags": [],
    "additionalInfo": {
      "Service options": [
        {
          "Delivery": true
        },
        {
          "Drive-through": true
        },
        {
          "In-store pickup": true
        },
        {
          "In-store shopping": true
        },
        {
          "Onsite services": true
        },
        {
          "Same-day delivery": false
        }
      ],
      "Accessibility": [
        {
          "Wheelchair accessible entrance": true
        },
        {
          "Wheelchair accessible parking lot": true
        }
      ],
      "Offerings": [
        {
          "Passport photos": true
        }
      ],
      "Crowd": [
        {
          "LGBTQ+ friendly": true
        },
        {
          "Transgender safespace": true
        }
      ],
      "Planning": [
        {
          "Quick visit": true
        }
      ],
      "Payments": [
        {
          "Credit cards": true
        },
        {
          "Debit cards": true
        },
        {
          "Credit cards": true
        }
      ]
    },
    "gasPrices": [],
    "url": "https://www.google.com/maps/search/?api=1&query=CVS&query_place_id=ChIJw14lnOlwIocR1Gu2RrRqTrM",
    "searchPageUrl": "https://www.google.com/maps/search/independent%20pharmacy%20Rio%20Rancho%20NM/@55.6612261832132,-157.74759435157458,13z?hl=en",
    "searchString": "independent pharmacy Rio Rancho NM",
    "language": "en",
    "rank": 6,
    "isAdvertisement": false,
    "imageUrl": "https://lh3.googleusercontent.com/gps-cs-s/AC9h4nr5vt50S9jstsWojD2PcXR4gzxSaCwT93lwn6QyXc5kxNwhyEKpx0wxRWD58FrOrENrbpQRdJ6zg3v__fgd07LWIHrjGsdEJzVxkVP8MNqnBtDUu_GOvtJqiu3TkB5ztGFV-LV_=w408-h544-k-no",
    "kgmid": "/g/1v7tlvcq",
    "classification": "chain",
    "is_independent": false,
    "confidence": 1.0,
    "source": "rule-based"
  },
  {
    "title": "Walgreens Pharmacy",
    "description": "Department of the Walgreens chain providing prescription medications & other health-related items.",
    "price": "$$",
    "categoryName": "Pharmacy",
    "address": "2101 Northern Blvd NE, Rio Rancho, NM 87124",
    "neighborhood": "Sagecrest",
    "street": "2101 Northern Blvd NE",
    "city": "Rio Rancho",
    "postalCode": "87124",
    "state": "New Mexico",
    "countryCode": "US",
    "website": "https://www.walgreens.com/locator/walgreens-2101+northern+blvd+ne-rio+rancho-nm-87124/id=12270",
    "phone": "(505) 217-3980",
    "phoneUnformatted": "+15052173980",
    "claimThisBusiness": false,
    "location": {
      "lat": 35.2749691,
      "lng": -106.6962836
    },
    "totalScore": 3.6,
    "permanentlyClosed": false,
    "temporarilyClosed": false,
    "placeId": "ChIJq2-42pl6IocRWd6H_t5iZoI",
    "categories": [
      "Pharmacy"
    ],
    "fid": "0x87227a99dab86fab:0x826662defe87de59",
    "cid": "9396306382447697497",
    "reviewsCount": 20,
    "imagesCount": 4,
    "imageCategories": [],
    "scrapedAt": "2025-06-22T09:03:17.342Z",
    "googleFoodUrl": null,
    "hotelAds": [],
    "openingHours": [
      {
        "day": "Monday",
        "hours": "8\u202fAM to 1:30\u202fPM, 2 to 10\u202fPM"
      },
      {
        "day": "Tuesday",
        "hours": "8\u202fAM to 1:30\u202fPM, 2 to 10\u202fPM"
      },
      {
        "day": "Wednesday",
        "hours": "8\u202fAM to 1:30\u202fPM, 2 to 10\u202fPM"
      },
      {
        "day": "Thursday",
        "hours": "8\u202fAM to 1:30\u202fPM, 2 to 10\u202fPM"
      },
      {
        "day": "Friday",
        "hours": "8\u202fAM to 1:30\u202fPM, 2 to 10\u202fPM"
      },
      {
        "day": "Saturday",
        "hours": "9\u202fAM to 1:30\u202fPM, 2 to 6\u202fPM"
      },
      {
        "day": "Sunday",
        "hours": "10\u202fAM to 1:30\u202fPM, 2 to 6\u202fPM"
      }
    ],
    "additionalOpeningHours": {
      "Drive through": [
        {
          "day": "Monday",
          "hours": "8\u202fAM\u20131:30\u202fPM"
        },
        {
          "day": "Tuesday",
          "hours": "8\u202fAM\u20131:30\u202fPM"
        },
        {
          "day": "Wednesday",
          "hours": "8\u202fAM\u20131:30\u202fPM"
        },
        {
          "day": "Thursday",
          "hours": "8\u202fAM\u20131:30\u202fPM"
        },
        {
          "day": "Friday",
          "hours": "8\u202fAM\u20131:30\u202fPM"
        },
        {
          "day": "Saturday",
          "hours": "9\u202fAM\u20131:30\u202fPM"
        },
        {
          "day": "Sunday",
          "hours": "10\u202fAM\u20131:30\u202fPM"
        }
      ]
    },
    "peopleAlsoSearch": [],
    "placesTags": [],
    "reviewsTags": [],
    "additionalInfo": {
      "Service options": [
        {
          "Drive-through": true
        },
        {
          "In-store pickup": true
        }
      ],
      "Accessibility": [
        {
          "Wheelchair accessible entrance": true
        },
        {
          "Wheelchair accessible parking lot": true
        }
      ],
      "Offerings": [
        {
          "Naloxone": true
        },
        {
          "Passport photos": true
        }
      ],
      "Planning": [
        {
          "Quick visit": true
        }
      ],
      "Payments": [
        {
          "Checks": true
        },
        {
          "Credit cards": true
        },
        {
          "Debit cards": true
        }
      ]
    },
    "gasPrices": [],
    "url": "https://www.google.com/maps/search/?api=1&query=Walgreens%20Pharmacy&query_place_id=ChIJq2-42pl6IocRWd6H_t5iZoI",
    "searchPageUrl": "https://www.google.com/maps/search/independent%20pharmacy%20Rio%20Rancho%20NM/@55.6612261832132,-157.74759435157458,13z?hl=en",
    "searchString": "independent pharmacy Rio Rancho NM",
    "language": "en",
    "rank": 7,
    "isAdvertisement": false,
    "imageUrl": "https://lh3.googleusercontent.com/gps-cs-s/AC9h4nqxruz9SwciTx0RJ_FQCAVgZC8J5QhbLSZC-HGWaW3F6m9Wm88QRwj2xRYv1Zyc3QFCpwVQf16WU89TkbPT03Zk79UwFLkqzBpP8E05czU_xnoopZ990SAgr6gtmipAVRYGC6qu6A=w408-h544-k-no",
    "kgmid": "/g/11cn94tsnm",
    "classification": "chain",
    "is_independent": false,
    "confidence": 1.0,
    "source": "rule-based"
  },
  {
    "title": "Walmart Pharmacy",
    "price": "$",
    "categoryName": "Pharmacy",
    "address": "901 Unser Blvd SE, Rio Rancho, NM 87124",
    "neighborhood": "Southern Business Park & Plaza",
    "street": "901 Unser Blvd SE",
    "city": "Rio Rancho",
    "postalCode": "87124",
    "state": "New Mexico",
    "countryCode": "US",
    "website": "https://www.walmart.com/store/3732-rio-rancho-nm/pharmacy/?veh=seo_loc",
    "phone": "(505) 962-9239",
    "phoneUnformatted": "+15059629239",
    "claimThisBusiness": false,
    "location": {
      "lat": 35.2431528,
      "lng": -106.7001531
    },
    "totalScore": 2.6,
    "permanentlyClosed": false,
    "temporarilyClosed": false,
    "placeId": "ChIJLVPDoGpwIocRDPrh4rjh264",
    "categories": [
      "Pharmacy",
      "Herbal medicine store",
      "Medical supply store",
      "Parapharmacy",
      "Vitamin & supplements store"
    ],
    "fid": "0x8722706aa0c3532d:0xaedbe1b8e2e1fa0c",
    "cid": "12599912566695787020",
    "reviewsCount": 36,
    "imagesCount": 6,
    "imageCategories": [],
    "scrapedAt": "2025-06-22T09:03:17.343Z",
    "googleFoodUrl": null,
    "hotelAds": [],
    "openingHours": [
      {
        "day": "Monday",
        "hours": "9\u202fAM to 7\u202fPM"
      },
      {
        "day": "Tuesday",
        "hours": "9\u202fAM to 7\u202fPM"
      },
      {
        "day": "Wednesday",
        "hours": "9\u202fAM to 7\u202fPM"
      },
      {
        "day": "Thursday",
        "hours": "9\u202fAM to 7\u202fPM"
      },
      {
        "day": "Friday",
        "hours": "9\u202fAM to 7\u202fPM"
      },
      {
        "day": "Saturday",
        "hours": "9\u202fAM to 7\u202fPM"
      },
      {
        "day": "Sunday",
        "hours": "10\u202fAM to 6\u202fPM"
      }
    ],
    "peopleAlsoSearch": [],
    "placesTags": [],
    "reviewsTags": [],
    "additionalInfo": {
      "Service options": [
        {
          "Curbside pickup": true
        },
        {
          "Delivery": true
        },
        {
          "Drive-through": true
        },
        {
          "In-store pickup": true
        },
        {
          "In-store shopping": true
        }
      ],
      "Accessibility": [
        {
          "Wheelchair accessible entrance": true
        },
        {
          "Wheelchair accessible parking lot": true
        },
        {
          "Wheelchair accessible restroom": true
        }
      ],
      "Offerings": [
        {
          "Passport photos": true
        }
      ],
      "Amenities": [
        {
          "Wi-Fi": true
        },
        {
          "Free Wi-Fi": true
        }
      ],
      "Planning": [
        {
          "Quick visit": true
        }
      ],
      "Payments": [
        {
          "Credit cards": true
        },
        {
          "Debit cards": true
        },
        {
          "Credit cards": true
        }
      ]
    },
    "gasPrices": [],
    "url": "https://www.google.com/maps/search/?api=1&query=Walmart%20Pharmacy&query_place_id=ChIJLVPDoGpwIocRDPrh4rjh264",
    "searchPageUrl": "https://www.google.com/maps/search/independent%20pharmacy%20Rio%20Rancho%20NM/@55.6612261832132,-157.74759435157458,13z?hl=en",
    "searchString": "independent pharmacy Rio Rancho NM",
    "language": "en",
    "rank": 8,
    "isAdvertisement": false,
    "imageUrl": "https://lh3.googleusercontent.com/p/AF1QipNKk30ChADLWpCrXGleeG0wYQ2N97IikjaePkXY=w408-h271-k-no",
    "kgmid": "/g/1hfdnnz8w",
    "classification": "chain",
    "is_independent": false,
    "confidence": 1.0,
    "source": "rule-based"
  },
  {
    "title": "Walgreens",
    "description": "Drugstore chain with health & beauty aids, prescriptions & photo services, plus mini-mart basics.",
    "price": "\u20ac\u20ac",
    "categoryName": "Drug store",
    "address": "4051 Southern Blvd SE, Rio Rancho, NM 87124, United States",
    "neighborhood": "Urban Center",
    "street": "4051 Southern Blvd SE",
    "city": "Rio Rancho",
    "postalCode": "87124",
    "state": "New Mexico",
    "countryCode": "US",
    "website": "https://www.walgreens.com/locator/walgreens-4051+southern+blvd+se-rio+rancho-nm-87124/id=5158",
    "phone": "+1 505-892-6690",
    "phoneUnformatted": "+15058926690",
    "claimThisBusiness": false,
    "location": {
      "lat": 35.2420704,
      "lng": -106.6564791
    },
    "locatedIn": "Walgreens Pharmacy",
    "totalScore": 2,
    "permanentlyClosed": false,
    "temporarilyClosed": false,
    "placeId": "ChIJpwi6I-lwIocRqSLQc82dVMQ",
    "categories": [
      "Drug store",
      "Beauty supply store",
      "Convenience store",
      "Cosmetics store",
      "Greeting card shop",
      "Perfume store",
      "Stationery store"
    ],
    "fid": "0x872270e923ba08a7:0xc4549dcd73d022a9",
    "cid": "14147105835214447273",
    "reviewsCount": 240,
    "imagesCount": 21,
    "imageCategories": [],
    "scrapedAt": "2025-06-22T09:03:19.926Z",
    "googleFoodUrl": null,
    "hotelAds": [],
    "openingHours": [
      {
        "day": "Monday",
        "hours": "Open 24 hours"
      },
      {
        "day": "Tuesday",
        "hours": "Open 24 hours"
      },
      {
        "day": "Wednesday",
        "hours": "Open 24 hours"
      },
      {
        "day": "Thursday",
        "hours": "Open 24 hours"
      },
      {
        "day": "Friday",
        "hours": "Open 24 hours"
      },
      {
        "day": "Saturday",
        "hours": "Open 24 hours"
      },
      {
        "day": "Sunday",
        "hours": "Open 24 hours"
      }
    ],
    "additionalOpeningHours": {
      "Walgreens Pharmacy": [
        {
          "day": "Monday",
          "hours": "2\u202fam\u20131:30\u202fpm"
        },
        {
          "day": "Tuesday",
          "hours": "2\u202fam\u20131:30\u202fpm"
        },
        {
          "day": "Wednesday",
          "hours": "2\u202fam\u20131:30\u202fpm"
        },
        {
          "day": "Thursday",
          "hours": "2\u202fam\u20131:30\u202fpm"
        },
        {
          "day": "Friday",
          "hours": "2\u202fam\u20131:30\u202fam"
        },
        {
          "day": "Saturday",
          "hours": "2\u202fam\u20131:30\u202fam"
        },
        {
          "day": "Sunday",
          "hours": "2\u202fam\u20131:30\u202fam"
        }
      ],
      "Walgreens Photo": [
        {
          "day": "Monday",
          "hours": "Open 24 hours"
        },
        {
          "day": "Tuesday",
          "hours": "Open 24 hours"
        },
        {
          "day": "Wednesday",
          "hours": "Open 24 hours"
        },
        {
          "day": "Thursday",
          "hours": "Open 24 hours"
        },
        {
          "day": "Friday",
          "hours": "Open 24 hours"
        },
        {
          "day": "Saturday",
          "hours": "Open 24 hours"
        },
        {
          "day": "Sunday",
          "hours": "Open 24 hours"
        }
      ],
      "Pickup": [
        {
          "day": "Monday",
          "hours": "Open 24 hours"
        },
        {
          "day": "Tuesday",
          "hours": "Open 24 hours"
        },
        {
          "day": "Wednesday",
          "hours": "Open 24 hours"
        },
        {
          "day": "Thursday",
          "hours": "Open 24 hours"
        },
        {
          "day": "Friday",
          "hours": "Open 24 hours"
        },
        {
          "day": "Saturday",
          "hours": "Open 24 hours"
        },
        {
          "day": "Sunday",
          "hours": "Open 24 hours"
        }
      ]
    },
    "peopleAlsoSearch": [],
    "placesTags": [],
    "reviewsTags": [],
    "additionalInfo": {
      "Service options": [
        {
          "Kerbside pickup": true
        },
        {
          "Delivery": true
        },
        {
          "Drive-through": true
        },
        {
          "In-store pick-up": true
        },
        {
          "On-site services": true
        }
      ],
      "Accessibility": [
        {
          "Wheelchair-accessible car park": true
        },
        {
          "Wheelchair-accessible entrance": true
        }
      ],
      "Planning": [
        {
          "Appointment required": true
        },
        {
          "Quick visit": true
        }
      ],
      "Payments": [
        {
          "Cheques": true
        },
        {
          "Credit cards": true
        },
        {
          "Debit cards": true
        },
        {
          "NFC mobile payments": true
        },
        {
          "SNAP/EBT": true
        },
        {
          "Credit cards": true
        }
      ]
    },
    "gasPrices": [],
    "url": "https://www.google.com/maps/search/?api=1&query=Walgreens&query_place_id=ChIJpwi6I-lwIocRqSLQc82dVMQ",
    "searchPageUrl": "https://www.google.com/maps/search/independent%20pharmacy%20Rio%20Rancho%20NM/@62.95881800455232,-164.61850082811145,9z?hl=en",
    "searchString": "independent pharmacy Rio Rancho NM",
    "language": "en",
    "rank": 8,
    "isAdvertisement": false,
    "imageUrl": "https://lh3.googleusercontent.com/gps-cs-s/AC9h4npCWB0hpciZLYa2z-eR_xHwZiNiYGZ4tjUhadgyq8gc8Vd6kR6DTyv17aeuf8OOTHLstY8qwVW4ecVOXYVDhLJ4Tb3CO90SnIfRqAr7MZIPiOTzTj3bT1czT8iABvXI1Y14IiI=w408-h305-k-no",
    "kgmid": "/g/1wtbvbmp",
    "classification": "chain",
    "is_independent": false,
    "confidence": 1.0,
    "source": "rule-based"
  },
  {
    "title": "Arnett Local Pharmacy & Compounding",
    "price": null,
    "categoryName": "Pharmacy",
    "address": "7120 Wyoming Blvd NE #6, Albuquerque, NM 87109, United States",
    "neighborhood": "North Wyoming",
    "street": "7120 Wyoming Blvd NE #6",
    "city": "Albuquerque",
    "postalCode": "87109",
    "state": "New Mexico",
    "countryCode": "US",
    "website": "http://www.samsregentrx.com/",
    "phone": "+1 505-346-0533",
    "phoneUnformatted": "+15053460533",
    "claimThisBusiness": false,
    "location": {
      "lat": 35.1607279,
      "lng": -106.5594317
    },
    "totalScore": 5,
    "permanentlyClosed": false,
    "temporarilyClosed": false,
    "placeId": null,
    "categories": [
      "Pharmacy"
    ],
    "fid": "0x872275a1f2c167d5:0x13e23ca28b3b17b1",
    "cid": "1432774300275513265",
    "reviewsCount": 45,
    "imagesCount": 6,
    "imageCategories": [],
    "scrapedAt": "2025-06-22T09:03:19.926Z",
    "googleFoodUrl": null,
    "hotelAds": [],
    "openingHours": [
      {
        "day": "Monday",
        "hours": "9\u202fAM to 6\u202fPM"
      },
      {
        "day": "Tuesday",
        "hours": "9\u202fAM to 6\u202fPM"
      },
      {
        "day": "Wednesday",
        "hours": "9\u202fAM to 6\u202fPM"
      },
      {
        "day": "Thursday",
        "hours": "9\u202fAM to 6\u202fPM"
      },
      {
        "day": "Friday",
        "hours": "9\u202fAM to 6\u202fPM"
      },
      {
        "day": "Saturday",
        "hours": "9\u202fAM to 2\u202fPM"
      },
      {
        "day": "Sunday",
        "hours": "Closed"
      }
    ],
    "peopleAlsoSearch": [],
    "placesTags": [],
    "reviewsTags": [],
    "additionalInfo": {
      "From the business": [
        {
          "Small Business": true
        }
      ],
      "Service options": [
        {
          "Delivery": true
        },
        {
          "In-store pick-up": true
        },
        {
          "On-site services": true
        },
        {
          "Same-day delivery": true
        }
      ],
      "Accessibility": [
        {
          "Wheelchair-accessible car park": true
        },
        {
          "Wheelchair-accessible entrance": true
        }
      ],
      "Planning": [
        {
          "Quick visit": true
        }
      ],
      "Payments": [
        {
          "Credit cards": true
        },
        {
          "Debit cards": true
        },
        {
          "NFC mobile payments": true
        },
        {
          "Credit cards": true
        }
      ]
    },
    "gasPrices": [],
    "url": "https://www.google.com/maps/search/?api=1&query=Arnett%20Local%20Pharmacy%20%26%20Compounding&query_place_id=ChIJ1WfB8qF1IocRsRc7i6I84hM",
    "searchPageUrl": "https://www.google.com/maps/search/independent%20pharmacy%20Rio%20Rancho%20NM/@62.95881800455232,-164.61850082811145,9z?hl=en",
    "searchString": "independent pharmacy Rio Rancho NM",
    "language": "en",
    "rank": 9,
    "isAdvertisement": false,
    "imageUrl": "https://lh3.googleusercontent.com/gps-cs-s/AC9h4nrSHC1s-8R3adTCEGIcX1ywmbGrzFE39_iFFuP5b2cwUwk0LQkyhfMs8C1PcaI4LyTMRnR5Gzd-3H0ot2qR-CQAeUNRrF6ZKSCP5JjLbcnn7ycPFclZaRnoC_Ozqe2rcv4i4CQB=w408-h544-k-no",
    "kgmid": "/g/1w9y1kf1",
    "classification": "independent",
    "is_independent": true,
    "is_compounding": true,
    "confidence": 0.95,
    "source": "perplexity",
    "method": "llm",
    "query_location": "rio_rancho_nm"
  },
  {
    "title": "Contigo Compounding Pharmacy",
    "price": null,
    "categoryName": "Pharmacy",
    "address": "8300 Carmel Ave NE STE 601, Albuquerque, NM 87122, United States",
    "neighborhood": "Nor Este",
    "street": "8300 Carmel Ave NE STE 601",
    "city": "Albuquerque",
    "postalCode": "87122",
    "state": "New Mexico",
    "countryCode": "US",
    "website": "https://contigocompounding.com/",
    "phone": "+1 505-677-8842",
    "phoneUnformatted": "+15056778842",
    "claimThisBusiness": false,
    "location": {
      "lat": 35.1754756,
      "lng": -106.5523974
    },
    "totalScore": 4.9,
    "permanentlyClosed": false,
    "temporarilyClosed": false,
    "placeId": null,
    "categories": [
      "Pharmacy",
      "Health consultant",
      "Veterinary pharmacy"
    ],
    "fid": "0x87227585cc8a2c95:0xe871e9fea3cde9d2",
    "cid": "16749425769046731218",
    "reviewsCount": 438,
    "imagesCount": 6,
    "imageCategories": [],
    "scrapedAt": "2025-06-22T09:03:24.000Z",
    "googleFoodUrl": null,
    "hotelAds": [],
    "openingHours": [
      {
        "day": "Monday",
        "hours": "9\u202fAM to 5\u202fPM"
      },
      {
        "day": "Tuesday",
        "hours": "9\u202fAM to 5\u202fPM"
      },
      {
        "day": "Wednesday",
        "hours": "9\u202fAM to 5\u202fPM"
      },
      {
        "day": "Thursday",
        "hours": "9\u202fAM to 5\u202fPM"
      },
      {
        "day": "Friday",
        "hours": "9\u202fAM to 5\u202fPM"
      },
      {
        "day": "Saturday",
        "hours": "Closed"
      },
      {
        "day": "Sunday",
        "hours": "Closed"
      }
    ],
    "peopleAlsoSearch": [],
    "placesTags": [],
    "reviewsTags": [],
    "additionalInfo": {
      "From the business": [
        {
          "Small Business": true
        }
      ],
      "Service options": [
        {
          "Delivery": true
        },
        {
          "In-store pick-up": true
        }
      ],
      "Accessibility": [
        {
          "Wheelchair-accessible car park": true
        },
        {
          "Wheelchair-accessible entrance": true
        }
      ],
      "Payments": [
        {
          "Credit cards": true
        },
        {
          "Debit cards": true
        },
        {
          "Credit cards": true
        }
      ]
    },
    "gasPrices": [],
    "url": "https://www.google.com/maps/search/?api=1&query=Contigo%20Compounding%20Pharmacy&query_place_id=ChIJlSyKzIV1IocR0unNo_7pceg",
    "searchPageUrl": "https://www.google.com/maps/search/independent%20pharmacy%20Rio%20Rancho%20NM/@60.447283950000006,-172.9390442428424,12z?hl=en",
    "searchString": "independent pharmacy Rio Rancho NM",
    "language": "en",
    "rank": 9,
    "isAdvertisement": false,
    "imageUrl": "https://lh3.googleusercontent.com/p/AF1QipONKE7YRxuaF4OPcjRRhq19gZEOqJbE5MaTTlOL=w408-h306-k-no",
    "kgmid": "/g/11n8mkf_gd",
    "classification": "independent",
    "is_independent": true,
    "is_compounding": true,
    "confidence": 0.95,
    "source": "perplexity",
    "method": "llm",
    "query_location": "rio_rancho_nm"
  },
  {
    "title": "John's Pharmacy",
    "price": null,
    "categoryName": "Pharmacy",
    "address": "9134 Central Ave SE, Albuquerque, NM 87123, United States",
    "neighborhood": "Trumbull Village",
    "street": "9134 Central Ave SE",
    "city": "Albuquerque",
    "postalCode": "87123",
    "state": "New Mexico",
    "countryCode": "US",
    "website": "http://www.johnspharmacyabq.com/",
    "phone": "+1 505-299-6169",
    "phoneUnformatted": "+15052996169",
    "claimThisBusiness": false,
    "location": {
      "lat": 35.0730213,
      "lng": -106.5457603
    },
    "totalScore": 4.9,
    "permanentlyClosed": false,
    "temporarilyClosed": false,
    "placeId": null,
    "categories": [
      "Pharmacy"
    ],
    "fid": "0x87220b22a3100967:0xfc0c432ddeabdb89",
    "cid": "18161965261566761865",
    "reviewsCount": 132,
    "imagesCount": 28,
    "imageCategories": [],
    "scrapedAt": "2025-06-22T09:03:24.000Z",
    "googleFoodUrl": null,
    "hotelAds": [],
    "openingHours": [
      {
        "day": "Monday",
        "hours": "9\u202fAM to 6\u202fPM"
      },
      {
        "day": "Tuesday",
        "hours": "9\u202fAM to 6\u202fPM"
      },
      {
        "day": "Wednesday",
        "hours": "9\u202fAM to 6\u202fPM"
      },
      {
        "day": "Thursday",
        "hours": "9\u202fAM to 6\u202fPM"
      },
      {
        "day": "Friday",
        "hours": "9\u202fAM to 6\u202fPM"
      },
      {
        "day": "Saturday",
        "hours": "9\u202fAM to 12\u202fPM"
      },
      {
        "day": "Sunday",
        "hours": "Closed"
      }
    ],
    "peopleAlsoSearch": [],
    "placesTags": [],
    "reviewsTags": [],
    "additionalInfo": {
      "From the business": [
        {
          "Small Business": true
        }
      ],
      "Service options": [
        {
          "Delivery": true
        },
        {
          "In-store pick-up": true
        },
        {
          "In-store shopping": true
        }
      ],
      "Accessibility": [
        {
          "Wheelchair-accessible car park": true
        },
        {
          "Wheelchair-accessible entrance": true
        }
      ],
      "Crowd": [
        {
          "LGBTQ+ friendly": true
        },
        {
          "Transgender safe space": true
        }
      ],
      "Planning": [
        {
          "Quick visit": true
        }
      ],
      "Payments": [
        {
          "Credit cards": true
        },
        {
          "Debit cards": true
        },
        {
          "NFC mobile payments": true
        },
        {
          "Credit cards": true
        }
      ]
    },
    "gasPrices": [],
    "url": "https://www.google.com/maps/search/?api=1&query=John's%20Pharmacy&query_place_id=ChIJZwkQoyILIocRidur3i1DDPw",
    "searchPageUrl": "https://www.google.com/maps/search/independent%20pharmacy%20Rio%20Rancho%20NM/@60.447283950000006,-172.9390442428424,12z?hl=en",
    "searchString": "independent pharmacy Rio Rancho NM",
    "language": "en",
    "rank": 10,
    "isAdvertisement": false,
    "imageUrl": "https://lh3.googleusercontent.com/p/AF1QipMwaicVol3nVrehIW7sv0B6Q6A4ofOujghkCNBc=w408-h408-k-no",
    "kgmid": "/g/11h6q_vs7p",
    "classification": "independent",
    "is_independent": true,
    "is_compounding": false,
    "confidence": 0.9,
    "source": "perplexity",
    "method": "llm",
    "query_location": "rio_rancho_nm"
  },
  {
    "title": "Menaul Compounding Pharmacy",
    "price": null,
    "categoryName": "Pharmacy",
    "address": "11417 Menaul Blvd NE, Albuquerque, NM 87112, United States",
    "neighborhood": "Enchanted Park",
    "street": "11417 Menaul Blvd NE",
    "city": "Albuquerque",
    "postalCode": "87112",
    "state": "New Mexico",
    "countryCode": "US",
    "website": "http://www.menaulcompoundingpharmacy.com/",
    "phone": "+1 505-291-1600",
    "phoneUnformatted": "+15052911600",
    "claimThisBusiness": false,
    "location": {
      "lat": 35.109029,
      "lng": -106.5133805
    },
    "totalScore": 4.4,
    "permanentlyClosed": false,
    "temporarilyClosed": false,
    "placeId": null,
    "categories": [
      "Pharmacy"
    ],
    "fid": "0x8718a01826ff60b5:0x6ca68c3195345115",
    "cid": "7829099146814705941",
    "reviewsCount": 394,
    "imagesCount": 33,
    "imageCategories": [],
    "scrapedAt": "2025-06-22T09:03:24.000Z",
    "googleFoodUrl": null,
    "hotelAds": [],
    "openingHours": [
      {
        "day": "Monday",
        "hours": "8:30\u202fAM to 6:30\u202fPM"
      },
      {
        "day": "Tuesday",
        "hours": "8:30\u202fAM to 6:30\u202fPM"
      },
      {
        "day": "Wednesday",
        "hours": "8:30\u202fAM to 6:30\u202fPM"
      },
      {
        "day": "Thursday",
        "hours": "8:30\u202fAM to 6:30\u202fPM"
      },
      {
        "day": "Friday",
        "hours": "8:30\u202fAM to 6:30\u202fPM"
      },
      {
        "day": "Saturday",
        "hours": "9\u202fAM to 1\u202fPM"
      },
      {
        "day": "Sunday",
        "hours": "Closed"
      }
    ],
    "peopleAlsoSearch": [],
    "placesTags": [],
    "reviewsTags": [],
    "additionalInfo": {
      "From the business": [
        {
          "Small Business": true
        }
      ],
      "Service options": [
        {
          "Delivery": true
        },
        {
          "In-store pick-up": true
        },
        {
          "On-site services": true
        }
      ],
      "Accessibility": [
        {
          "Wheelchair-accessible car park": true
        },
        {
          "Wheelchair-accessible entrance": true
        }
      ],
      "Payments": [
        {
          "Credit cards": true
        },
        {
          "Debit cards": true
        },
        {
          "NFC mobile payments": true
        },
        {
          "Credit cards": true
        }
      ]
    },
    "gasPrices": [],
    "url": "https://www.google.com/maps/search/?api=1&query=Menaul%20Compounding%20Pharmacy&query_place_id=ChIJtWD_JhigGIcRFVE0lTGMpmw",
    "searchPageUrl": "https://www.google.com/maps/search/independent%20pharmacy%20Rio%20Rancho%20NM/@60.447283950000006,-172.9390442428424,12z?hl=en",
    "searchString": "independent pharmacy Rio Rancho NM",
    "language": "en",
    "rank": 12,
    "isAdvertisement": false,
    "imageUrl": "https://lh3.googleusercontent.com/gps-cs-s/AC9h4nqH5EOrVUW8Fl2wV8bze6PakMzLkF9t-JAt_QcseIu8WlgogebkZgsciQpg2U4uwADhpzGcLcuPJqYlDki3xhzqpYsgEQq731a1Rv5OZ2W5XXGqcgP-1l3sPo-jTbERbt2D7A9h=w408-h541-k-no",
    "kgmid": "/g/1txc7h9p",
    "classification": "independent",
    "is_independent": true,
    "is_compounding": true,
    "confidence": 0.95,
    "source": "perplexity",
    "method": "llm",
    "query_location": "rio_rancho_nm"
  },
  {
    "title": "Modern Alchemist Compounding Pharmacy",
    "price": null,
    "categoryName": "Pharmacy",
    "address": "7900 San Pedro Dr NE Suite A8, Albuquerque, NM 87109, United States",
    "neighborhood": null,
    "street": "7900 San Pedro Dr NE Suite A8",
    "city": "Albuquerque",
    "postalCode": "87109",
    "state": "New Mexico",
    "countryCode": "US",
    "website": "https://modernalchemistrx.com/",
    "phone": "+1 505-200-0033",
    "phoneUnformatted": "+15052000033",
    "claimThisBusiness": false,
    "location": {
      "lat": 35.1720812,
      "lng": -106.5766842
    },
    "totalScore": 4.9,
    "permanentlyClosed": false,
    "temporarilyClosed": false,
    "placeId": "ChIJZygnF4B1IocRbk0idxDIFgI",
    "categories": [
      "Pharmacy"
    ],
    "fid": "0x8722758017272867:0x216c81077224d6e",
    "cid": "150527610607258990",
    "reviewsCount": 131,
    "imagesCount": 22,
    "imageCategories": [],
    "scrapedAt": "2025-06-22T09:03:24.000Z",
    "googleFoodUrl": null,
    "hotelAds": [],
    "openingHours": [
      {
        "day": "Monday",
        "hours": "9\u202fAM to 6\u202fPM"
      },
      {
        "day": "Tuesday",
        "hours": "9\u202fAM to 6\u202fPM"
      },
      {
        "day": "Wednesday",
        "hours": "9\u202fAM to 6\u202fPM"
      },
      {
        "day": "Thursday",
        "hours": "9\u202fAM to 6\u202fPM"
      },
      {
        "day": "Friday",
        "hours": "9\u202fAM to 6\u202fPM"
      },
      {
        "day": "Saturday",
        "hours": "9\u202fAM to 1\u202fPM"
      },
      {
        "day": "Sunday",
        "hours": "Closed"
      }
    ],
    "peopleAlsoSearch": [],
    "placesTags": [],
    "reviewsTags": [],
    "additionalInfo": {
      "From the business": [
        {
          "Small Business": true
        }
      ],
      "Service options": [
        {
          "In-store pick-up": true
        },
        {
          "In-store shopping": true
        }
      ],
      "Accessibility": [
        {
          "Wheelchair-accessible car park": true
        },
        {
          "Wheelchair-accessible entrance": true
        }
      ],
      "Planning": [
        {
          "Quick visit": true
        }
      ],
      "Payments": [
        {
          "Credit cards": true
        },
        {
          "Debit cards": true
        },
        {
          "NFC mobile payments": true
        },
        {
          "Credit cards": true
        }
      ]
    },
    "gasPrices": [],
    "url": "https://www.google.com/maps/search/?api=1&query=Modern%20Alchemist%20Compounding%20Pharmacy&query_place_id=ChIJZygnF4B1IocRbk0idxDIFgI",
    "searchPageUrl": "https://www.google.com/maps/search/independent%20pharmacy%20Rio%20Rancho%20NM/@60.447283950000006,-172.9390442428424,12z?hl=en",
    "searchString": "independent pharmacy Rio Rancho NM",
    "language": "en",
    "rank": 13,
    "isAdvertisement": false,
    "imageUrl": "https://lh3.googleusercontent.com/p/AF1QipN06GXRCdyFsF1JMENiHEuWxnZSVMIPWvwnMBNM=w421-h240-k-no",
    "kgmid": "/g/11kzkl9p5c",
    "classification": "hospital",
    "is_independent": false,
    "confidence": 1.0,
    "source": "rule-based"
  },
  {
    "title": "Pharmacy Plus",
    "price": null,
    "categoryName": "Pharmacy",
    "address": "407 US-550, Bernalillo, NM 87004, United States",
    "neighborhood": null,
    "street": "407 US-550",
    "city": "Bernalillo",
    "postalCode": "87004",
    "state": "New Mexico",
    "countryCode": "US",
    "website": "http://www.pharmacyplusnm.com/",
    "phone": "+1 505-867-2336",
    "phoneUnformatted": "+15058672336",
    "claimThisBusiness": false,
    "location": {
      "lat": 35.320473,
      "lng": -106.5529145
    },
    "totalScore": 4.6,
    "permanentlyClosed": false,
    "temporarilyClosed": false,
    "placeId": null,
    "categories": [
      "Pharmacy"
    ],
    "fid": "0x8722787afc8beb69:0x737d2e0d5f3b42dc",
    "cid": "8321858321417716444",
    "reviewsCount": 30,
    "imagesCount": 5,
    "imageCategories": [],
    "scrapedAt": "2025-06-22T09:03:24.000Z",
    "googleFoodUrl": null,
    "hotelAds": [],
    "openingHours": [
      {
        "day": "Monday",
        "hours": "8:30\u202fAM to 6:30\u202fPM"
      },
      {
        "day": "Tuesday",
        "hours": "8:30\u202fAM to 6:30\u202fPM"
      },
      {
        "day": "Wednesday",
        "hours": "8:30\u202fAM to 6:30\u202fPM"
      },
      {
        "day": "Thursday",
        "hours": "8:30\u202fAM to 6:30\u202fPM"
      },
      {
        "day": "Friday",
        "hours": "8:30\u202fAM to 6:30\u202fPM"
      },
      {
        "day": "Saturday",
        "hours": "9\u202fAM to 3\u202fPM"
      },
      {
        "day": "Sunday",
        "hours": "Closed"
      }
    ],
    "peopleAlsoSearch": [],
    "placesTags": [],
    "reviewsTags": [],
    "additionalInfo": {
      "From the business": [
        {
          "Small Business": true
        }
      ],
      "Service options": [
        {
          "Delivery": true
        },
        {
          "Drive-through": true
        },
        {
          "In-store pick-up": true
        },
        {
          "In-store shopping": true
        },
        {
          "Same-day delivery": true
        }
      ],
      "Accessibility": [
        {
          "Wheelchair-accessible car park": true
        },
        {
          "Wheelchair-accessible entrance": true
        }
      ],
      "Planning": [
        {
          "Quick visit": true
        }
      ],
      "Payments": [
        {
          "Credit cards": true
        },
        {
          "Debit cards": true
        },
        {
          "NFC mobile payments": true
        },
        {
          "Credit cards": true
        }
      ]
    },
    "gasPrices": [],
    "url": "https://www.google.com/maps/search/?api=1&query=Pharmacy%20Plus&query_place_id=ChIJaeuL_Hp4IocR3EI7Xw0ufXM",
    "searchPageUrl": "https://www.google.com/maps/search/independent%20pharmacy%20Rio%20Rancho%20NM/@60.447283950000006,-172.9390442428424,12z?hl=en",
    "searchString": "independent pharmacy Rio Rancho NM",
    "language": "en",
    "rank": 14,
    "isAdvertisement": false,
    "imageUrl": "https://lh3.googleusercontent.com/p/AF1QipP8zNR7zqJ9qcTAjAmwKn8zKJlkwf8Scc-KU8T7=w408-h544-k-no",
    "kgmid": "/g/1tfrscvh",
    "classification": "independent",
    "is_independent": true,
    "is_compounding": false,
    "confidence": 0.9,
    "source": "perplexity",
    "method": "llm",
    "query_location": "rio_rancho_nm"
  },
  {
    "title": "Walgreens Pharmacy",
    "description": "Department of the Walgreens chain providing prescription medications & other health-related items.",
    "price": "$$",
    "categoryName": "Pharmacy",
    "address": "7850 Enchanted Hills Blvd NE, Rio Rancho, NM 87144",
    "neighborhood": "Commercial Center",
    "street": "7850 Enchanted Hills Blvd NE",
    "city": "Rio Rancho",
    "postalCode": "87144",
    "state": "New Mexico",
    "countryCode": "US",
    "website": "https://www.walgreens.com/locator/walgreens-7850+enchanted+hills+blvd+ne-rio+rancho-nm-87144/id=5732",
    "phone": "(505) 771-2777",
    "phoneUnformatted": "+15057712777",
    "claimThisBusiness": false,
    "location": {
      "lat": 35.322494,
      "lng": -106.5754589
    },
    "totalScore": 2.8,
    "permanentlyClosed": false,
    "temporarilyClosed": false,
    "placeId": "ChIJ25Mde1Z4IocRQ_gDYaAAbN4",
    "categories": [
      "Pharmacy"
    ],
    "fid": "0x872278567b1d93db:0xde6c00a06103f843",
    "cid": "16027185862727170115",
    "reviewsCount": 18,
    "imagesCount": 2,
    "imageCategories": [],
    "scrapedAt": "2025-06-22T09:03:30.800Z",
    "googleFoodUrl": null,
    "hotelAds": [],
    "openingHours": [
      {
        "day": "Monday",
        "hours": "9\u202fAM to 1:30\u202fPM, 2 to 9\u202fPM"
      },
      {
        "day": "Tuesday",
        "hours": "9\u202fAM to 1:30\u202fPM, 2 to 9\u202fPM"
      },
      {
        "day": "Wednesday",
        "hours": "9\u202fAM to 1:30\u202fPM, 2 to 9\u202fPM"
      },
      {
        "day": "Thursday",
        "hours": "9\u202fAM to 1:30\u202fPM, 2 to 9\u202fPM"
      },
      {
        "day": "Friday",
        "hours": "9\u202fAM to 1:30\u202fPM, 2 to 9\u202fPM"
      },
      {
        "day": "Saturday",
        "hours": "9\u202fAM to 1:30\u202fPM, 2 to 6\u202fPM"
      },
      {
        "day": "Sunday",
        "hours": "10\u202fAM to 1:30\u202fPM, 2 to 6\u202fPM"
      }
    ],
    "additionalOpeningHours": {
      "Drive through": [
        {
          "day": "Monday",
          "hours": "9\u202fAM\u20131:30\u202fPM"
        },
        {
          "day": "Tuesday",
          "hours": "9\u202fAM\u20131:30\u202fPM"
        },
        {
          "day": "Wednesday",
          "hours": "9\u202fAM\u20131:30\u202fPM"
        },
        {
          "day": "Thursday",
          "hours": "9\u202fAM\u20131:30\u202fPM"
        },
        {
          "day": "Friday",
          "hours": "9\u202fAM\u20131:30\u202fPM"
        },
        {
          "day": "Saturday",
          "hours": "9\u202fAM\u20131:30\u202fPM"
        },
        {
          "day": "Sunday",
          "hours": "10\u202fAM\u20131:30\u202fPM"
        }
      ]
    },
    "peopleAlsoSearch": [],
    "placesTags": [],
    "reviewsTags": [],
    "additionalInfo": {
      "Service options": [
        {
          "Drive-through": true
        },
        {
          "In-store pickup": true
        }
      ],
      "Accessibility": [
        {
          "Wheelchair accessible entrance": true
        },
        {
          "Wheelchair accessible parking lot": true
        }
      ],
      "Offerings": [
        {
          "Naloxone": true
        },
        {
          "Passport photos": true
        }
      ],
      "Planning": [
        {
          "Quick visit": true
        }
      ],
      "Payments": [
        {
          "Checks": true
        },
        {
          "Credit cards": true
        },
        {
          "Debit cards": true
        }
      ]
    },
    "gasPrices": [],
    "url": "https://www.google.com/maps/search/?api=1&query=Walgreens%20Pharmacy&query_place_id=ChIJ25Mde1Z4IocRQ_gDYaAAbN4",
    "searchPageUrl": "https://www.google.com/maps/search/independent%20pharmacy%20Rio%20Rancho%20NM/@59.485012656044645,-153.11051097135197,9z?hl=en",
    "searchString": "independent pharmacy Rio Rancho NM",
    "language": "en",
    "rank": 6,
    "isAdvertisement": false,
    "imageUrl": "https://lh3.googleusercontent.com/p/AF1QipOw4fX9Xoa9msukgBPsuJDopr8P_a9ObLF-9SmT=w427-h240-k-no",
    "kgmid": "/g/11cn96mysr",
    "classification": "chain",
    "is_independent": false,
    "confidence": 1.0,
    "source": "rule-based"
  },
  {
    "title": "ASP Cares",
    "price": null,
    "categoryName": "Pharmacy",
    "address": "7600 Jefferson St NE STE 6, Albuquerque, NM 87109, United States",
    "neighborhood": null,
    "street": "7600 Jefferson St NE STE 6",
    "city": "Albuquerque",
    "postalCode": "87109",
    "state": "New Mexico",
    "countryCode": "US",
    "website": "http://aspcares.com/",
    "phone": "+1 505-908-9623",
    "phoneUnformatted": "+15059089623",
    "claimThisBusiness": false,
    "location": {
      "lat": 35.1656394,
      "lng": -106.5910492
    },
    "permanentlyClosed": false,
    "temporarilyClosed": false,
    "placeId": null,
    "categories": [
      "Pharmacy"
    ],
    "fid": "0x8722744f1d3d203d:0x56837e14caf0dba4",
    "cid": "6233964936980126628",
    "reviewsCount": 0,
    "imagesCount": 1,
    "imageCategories": [],
    "scrapedAt": "2025-06-22T09:03:36.719Z",
    "googleFoodUrl": null,
    "hotelAds": [],
    "openingHours": [],
    "peopleAlsoSearch": [],
    "placesTags": [],
    "reviewsTags": [],
    "additionalInfo": {
      "Accessibility": [
        {
          "Wheelchair-accessible car park": true
        },
        {
          "Wheelchair-accessible entrance": true
        }
      ]
    },
    "gasPrices": [],
    "url": "https://www.google.com/maps/search/?api=1&query=ASP%20Cares&query_place_id=ChIJPSA9HU90IocRpNvwyhR-g1Y",
    "searchPageUrl": "https://www.google.com/maps/search/independent%20pharmacy%20Rio%20Rancho%20NM/@65.04310121365691,-156.56290792837981,9z?hl=en",
    "searchString": "independent pharmacy Rio Rancho NM",
    "language": "en",
    "rank": 10,
    "isAdvertisement": false,
    "imageUrl": "https://streetviewpixels-pa.googleapis.com/v1/thumbnail?panoid=-BWQ5eaYNORl9t7GM6pwRg&cb_client=search.gws-prod.gps&w=408&h=240&yaw=234.65263&pitch=0&thumbfov=100",
    "kgmid": "/g/11g9vmlq00",
    "classification": "independent",
    "is_independent": true,
    "is_compounding": false,
    "confidence": 0.85,
    "source": "perplexity",
    "method": "llm",
    "query_location": "rio_rancho_nm"
  }
]