[
  {
    "title": "Stormont Vail Retail Pharmacy",
    "price": null,
    "categoryName": "Pharmacy",
    "address": "830 SW Lane St Suite B, Topeka, KS 66606",
    "neighborhood": "Old Town",
    "street": "830 SW Lane St Suite B",
    "city": "Topeka",
    "postalCode": "66606",
    "state": "Kansas",
    "countryCode": "US",
    "website": "https://www.stormontvail.org/health-care-services/retail-pharmacy/",
    "phone": "(785) 235-8796",
    "phoneUnformatted": "+17852358796",
    "claimThisBusiness": false,
    "location": {
      "lat": 39.0524606,
      "lng": -95.6930122
    },
    "totalScore": 4.2,
    "permanentlyClosed": false,
    "temporarilyClosed": false,
    "placeId": null,
    "categories": [
      "Pharmacy"
    ],
    "fid": "0x87bf02f47424f11b:0xf9015b036872c624",
    "cid": "17942722460616148516",
    "reviewsCount": 25,
    "imagesCount": 2,
    "imageCategories": [],
    "scrapedAt": "2025-06-22T08:06:36.393Z",
    "googleFoodUrl": null,
    "hotelAds": [],
    "openingHours": [
      {
        "day": "Monday",
        "hours": "7:30\u202fAM to 6\u202fPM"
      },
      {
        "day": "Tuesday",
        "hours": "7:30\u202fAM to 6\u202fPM"
      },
      {
        "day": "Wednesday",
        "hours": "7:30\u202fAM to 6\u202fPM"
      },
      {
        "day": "Thursday",
        "hours": "7:30\u202fAM to 6\u202fPM"
      },
      {
        "day": "Friday",
        "hours": "7:30\u202fAM to 6\u202fPM"
      },
      {
        "day": "Saturday",
        "hours": "8:30\u202fAM to 12\u202fPM"
      },
      {
        "day": "Sunday",
        "hours": "Closed"
      }
    ],
    "additionalOpeningHours": {
      "Drive through": [
        {
          "day": "Monday",
          "hours": "7:30\u202fAM\u20136\u202fPM"
        },
        {
          "day": "Tuesday",
          "hours": "7:30\u202fAM\u20136\u202fPM"
        },
        {
          "day": "Wednesday",
          "hours": "7:30\u202fAM\u20136\u202fPM"
        },
        {
          "day": "Thursday",
          "hours": "7:30\u202fAM\u20136\u202fPM"
        },
        {
          "day": "Friday",
          "hours": "7:30\u202fAM\u20136\u202fPM"
        },
        {
          "day": "Saturday",
          "hours": "8:30\u202fAM\u201312\u202fPM"
        },
        {
          "day": "Sunday",
          "hours": "Closed"
        }
      ]
    },
    "peopleAlsoSearch": [],
    "placesTags": [],
    "reviewsTags": [],
    "additionalInfo": {
      "Service options": [
        {
          "Delivery": true
        },
        {
          "Drive-through": true
        },
        {
          "In-store pickup": true
        },
        {
          "Same-day delivery": true
        }
      ],
      "Accessibility": [
        {
          "Wheelchair accessible entrance": true
        },
        {
          "Wheelchair accessible parking lot": true
        }
      ],
      "Payments": [
        {
          "Credit cards": true
        }
      ]
    },
    "gasPrices": [],
    "url": "https://www.google.com/maps/search/?api=1&query=Stormont%20Vail%20Retail%20Pharmacy&query_place_id=ChIJG_EkdPQCv4cRJMZyaANbAfk",
    "searchPageUrl": "https://www.google.com/maps/search/independent%20pharmacy%20Topeka%20KS/@69.9064287015676,-156.56290792837981,9z?hl=en",
    "searchString": "independent pharmacy Topeka KS",
    "language": "en",
    "rank": 1,
    "isAdvertisement": false,
    "imageUrl": "https://lh3.googleusercontent.com/p/AF1QipNIP9C-L_4l3n5ACHendNtOviyRB9YFXndQGtzQ=w426-h240-k-no",
    "kgmid": "/g/1w9y1m9p",
    "classification": "independent",
    "is_independent": true,
    "is_compounding": false,
    "confidence": 0.85,
    "source": "perplexity",
    "method": "llm"
  },
  {
    "title": "Senior Rx Care Pharmacy",
    "price": null,
    "categoryName": "Pharmacy",
    "address": "121 SE 6th St # 1, Topeka, KS 66603",
    "neighborhood": "Downtown",
    "street": "121 SE 6th St # 1",
    "city": "Topeka",
    "postalCode": "66603",
    "state": "Kansas",
    "countryCode": "US",
    "website": "http://www.seniorrxpharmacy.com/",
    "phone": "(877) 232-4601",
    "phoneUnformatted": "+18772324601",
    "claimThisBusiness": false,
    "location": {
      "lat": 39.0510379,
      "lng": -95.6722059
    },
    "totalScore": 4.3,
    "permanentlyClosed": false,
    "temporarilyClosed": false,
    "placeId": null,
    "categories": [
      "Pharmacy"
    ],
    "fid": "0x87bf030e9d946e2d:0xb29b755b9709bfe9",
    "cid": "12870009396377796585",
    "reviewsCount": 3,
    "imagesCount": 1,
    "imageCategories": [],
    "scrapedAt": "2025-06-22T08:06:36.394Z",
    "googleFoodUrl": null,
    "hotelAds": [],
    "openingHours": [
      {
        "day": "Monday",
        "hours": "Open 24 hours"
      },
      {
        "day": "Tuesday",
        "hours": "Open 24 hours"
      },
      {
        "day": "Wednesday",
        "hours": "Open 24 hours"
      },
      {
        "day": "Thursday",
        "hours": "Open 24 hours"
      },
      {
        "day": "Friday",
        "hours": "Open 24 hours"
      },
      {
        "day": "Saturday",
        "hours": "Open 24 hours"
      },
      {
        "day": "Sunday",
        "hours": "Open 24 hours"
      }
    ],
    "peopleAlsoSearch": [],
    "placesTags": [],
    "reviewsTags": [],
    "additionalInfo": {
      "Accessibility": [
        {
          "Wheelchair accessible entrance": true
        },
        {
          "Wheelchair accessible parking lot": true
        }
      ],
      "Payments": [
        {
          "Debit cards": true
        },
        {
          "Credit cards": true
        }
      ]
    },
    "gasPrices": [],
    "url": "https://www.google.com/maps/search/?api=1&query=Senior%20Rx%20Care%20Pharmacy&query_place_id=ChIJLW6UnQ4Dv4cR6b8Jl1t1m7I",
    "searchPageUrl": "https://www.google.com/maps/search/independent%20pharmacy%20Topeka%20KS/@69.9064287015676,-156.56290792837981,9z?hl=en",
    "searchString": "independent pharmacy Topeka KS",
    "language": "en",
    "rank": 2,
    "isAdvertisement": false,
    "imageUrl": "https://streetviewpixels-pa.googleapis.com/v1/thumbnail?panoid=5EQJnbIJbHDlJaZlIBTI-A&cb_client=search.gws-prod.gps&w=408&h=240&yaw=288.57724&pitch=0&thumbfov=100",
    "kgmid": "/g/1tgcb0k9",
    "classification": "independent",
    "is_independent": true,
    "is_compounding": false,
    "confidence": 0.9,
    "source": "perplexity",
    "method": "llm"
  },
  {
    "title": "King Pharmacy",
    "price": null,
    "categoryName": "Pharmacy",
    "address": "4033 SW 10th Ave, Topeka, KS 66604",
    "neighborhood": "West Southwest 2",
    "street": "4033 SW 10th Ave",
    "city": "Topeka",
    "postalCode": "66604",
    "state": "Kansas",
    "countryCode": "US",
    "website": "http://www.kingpharmacytopeka.com/",
    "phone": "(785) 271-1700",
    "phoneUnformatted": "+17852711700",
    "claimThisBusiness": false,
    "location": {
      "lat": 39.0496799,
      "lng": -95.7270409
    },
    "totalScore": 5,
    "permanentlyClosed": false,
    "temporarilyClosed": false,
    "placeId": null,
    "categories": [
      "Pharmacy"
    ],
    "fid": "0x87bf02816fdeaa1f:0xd2a31910175483a4",
    "cid": "15178002726070289316",
    "reviewsCount": 3,
    "imagesCount": 6,
    "imageCategories": [],
    "scrapedAt": "2025-06-22T08:06:36.394Z",
    "googleFoodUrl": null,
    "hotelAds": [],
    "openingHours": [
      {
        "day": "Monday",
        "hours": "9\u202fAM to 5\u202fPM"
      },
      {
        "day": "Tuesday",
        "hours": "9\u202fAM to 5\u202fPM"
      },
      {
        "day": "Wednesday",
        "hours": "9\u202fAM to 5\u202fPM"
      },
      {
        "day": "Thursday",
        "hours": "9\u202fAM to 5\u202fPM"
      },
      {
        "day": "Friday",
        "hours": "9\u202fAM to 5\u202fPM"
      },
      {
        "day": "Saturday",
        "hours": "Closed"
      },
      {
        "day": "Sunday",
        "hours": "Closed"
      }
    ],
    "peopleAlsoSearch": [],
    "placesTags": [],
    "reviewsTags": [],
    "additionalInfo": {
      "From the business": [
        {
          "Small business": true
        }
      ],
      "Service options": [
        {
          "In-store pickup": true
        },
        {
          "In-store shopping": true
        }
      ],
      "Accessibility": [
        {
          "Wheelchair accessible entrance": true
        },
        {
          "Wheelchair accessible parking lot": true
        },
        {
          "Wheelchair accessible seating": true
        }
      ],
      "Planning": [
        {
          "Quick visit": true
        }
      ],
      "Payments": [
        {
          "Checks": true
        },
        {
          "Credit cards": true
        },
        {
          "Debit cards": true
        },
        {
          "NFC mobile payments": true
        },
        {
          "Credit cards": true
        }
      ]
    },
    "gasPrices": [],
    "url": "https://www.google.com/maps/search/?api=1&query=King%20Pharmacy&query_place_id=ChIJH6reb4ECv4cRpINUFxAZo9I",
    "searchPageUrl": "https://www.google.com/maps/search/independent%20pharmacy%20Topeka%20KS/@69.9064287015676,-156.56290792837981,9z?hl=en",
    "searchString": "independent pharmacy Topeka KS",
    "language": "en",
    "rank": 3,
    "isAdvertisement": false,
    "imageUrl": "https://lh3.googleusercontent.com/p/AF1QipNwb4bb_zU2C0So-j20M07d75jHzgdkWRLd1ImJ=w408-h271-k-no",
    "kgmid": "/g/1vzn622p",
    "classification": "independent",
    "is_independent": true,
    "is_compounding": false,
    "confidence": 0.9,
    "source": "perplexity",
    "method": "llm"
  },
  {
    "title": "Genoa Healthcare",
    "price": null,
    "categoryName": "Pharmacy",
    "address": "325 SW Frazier Ave #210, Topeka, KS 66606",
    "neighborhood": "Central Topeka 1",
    "street": "325 SW Frazier Ave #210",
    "city": "Topeka",
    "postalCode": "66606",
    "state": "Kansas",
    "countryCode": "US",
    "website": "http://www.genoahealthcare.com/",
    "phone": "(785) 338-8899",
    "phoneUnformatted": "+17853388899",
    "claimThisBusiness": false,
    "location": {
      "lat": 39.0622758,
      "lng": -95.7197293
    },
    "totalScore": 5,
    "permanentlyClosed": false,
    "temporarilyClosed": false,
    "placeId": null,
    "categories": [
      "Pharmacy"
    ],
    "fid": "0x87bf0264b2bf0069:0xd80da4d443aa4b5a",
    "cid": "15568280718464928602",
    "reviewsCount": 9,
    "imagesCount": 1,
    "imageCategories": [],
    "scrapedAt": "2025-06-22T08:06:36.394Z",
    "googleFoodUrl": null,
    "hotelAds": [],
    "openingHours": [
      {
        "day": "Monday",
        "hours": "9\u202fAM to 12:30\u202fPM, 1 to 5:30\u202fPM"
      },
      {
        "day": "Tuesday",
        "hours": "8:30\u202fAM to 12:30\u202fPM, 1 to 5\u202fPM"
      },
      {
        "day": "Wednesday",
        "hours": "9\u202fAM to 12:30\u202fPM, 1 to 5:30\u202fPM"
      },
      {
        "day": "Thursday",
        "hours": "8:30\u202fAM to 12:30\u202fPM, 1 to 5\u202fPM"
      },
      {
        "day": "Friday",
        "hours": "8:30\u202fAM to 12:30\u202fPM, 1 to 5\u202fPM"
      },
      {
        "day": "Saturday",
        "hours": "Closed"
      },
      {
        "day": "Sunday",
        "hours": "Closed"
      }
    ],
    "peopleAlsoSearch": [],
    "placesTags": [],
    "reviewsTags": [],
    "additionalInfo": {
      "Accessibility": [
        {
          "Wheelchair accessible entrance": true
        },
        {
          "Wheelchair accessible parking lot": true
        }
      ],
      "Payments": [
        {
          "Credit cards": true
        },
        {
          "Debit cards": true
        },
        {
          "NFC mobile payments": true
        },
        {
          "Credit cards": true
        }
      ]
    },
    "gasPrices": [],
    "url": "https://www.google.com/maps/search/?api=1&query=Genoa%20Healthcare&query_place_id=ChIJaQC_smQCv4cRWkuqQ9SkDdg",
    "searchPageUrl": "https://www.google.com/maps/search/independent%20pharmacy%20Topeka%20KS/@69.9064287015676,-156.56290792837981,9z?hl=en",
    "searchString": "independent pharmacy Topeka KS",
    "language": "en",
    "rank": 4,
    "isAdvertisement": false,
    "imageUrl": "https://streetviewpixels-pa.googleapis.com/v1/thumbnail?panoid=hRg_9IMhNjx1dr57X1g9pA&cb_client=search.gws-prod.gps&w=408&h=240&yaw=324.66605&pitch=0&thumbfov=100",
    "kgmid": "/g/11bbrhdhjs",
    "classification": "chain",
    "is_independent": false,
    "is_compounding": false,
    "confidence": 0.95,
    "source": "perplexity",
    "method": "llm"
  },
  {
    "title": "Continental Pharmacy",
    "price": null,
    "categoryName": "Pharmacy",
    "address": "821 SW 6th Ave, Topeka, KS 66603",
    "neighborhood": "Old Town",
    "street": "821 SW 6th Ave",
    "city": "Topeka",
    "postalCode": "66603",
    "state": "Kansas",
    "countryCode": "US",
    "website": "https://www.mygnp.com/pharmacies/continental-pharmacy-llc-topeka-ks-66603/?utm_source=google&utm_medium=local&utm_campaign=localmaps&utm_content=1707073",
    "phone": "(785) 232-6975",
    "phoneUnformatted": "+17852326975",
    "claimThisBusiness": false,
    "location": {
      "lat": 39.0543306,
      "lng": -95.684534
    },
    "totalScore": 3.9,
    "permanentlyClosed": false,
    "temporarilyClosed": false,
    "placeId": null,
    "categories": [
      "Pharmacy",
      "Drug store"
    ],
    "fid": "0x87bf02f88c275a29:0x420d61bf0bc39726",
    "cid": "4759567854364497702",
    "reviewsCount": 29,
    "imagesCount": 2,
    "imageCategories": [],
    "scrapedAt": "2025-06-22T08:06:36.394Z",
    "googleFoodUrl": null,
    "hotelAds": [],
    "openingHours": [
      {
        "day": "Monday",
        "hours": "8:30\u202fAM to 6\u202fPM"
      },
      {
        "day": "Tuesday",
        "hours": "8:30\u202fAM to 6\u202fPM"
      },
      {
        "day": "Wednesday",
        "hours": "8:30\u202fAM to 6\u202fPM"
      },
      {
        "day": "Thursday",
        "hours": "8:30\u202fAM to 6\u202fPM"
      },
      {
        "day": "Friday",
        "hours": "8:30\u202fAM to 6\u202fPM"
      },
      {
        "day": "Saturday",
        "hours": "Closed"
      },
      {
        "day": "Sunday",
        "hours": "Closed"
      }
    ],
    "peopleAlsoSearch": [],
    "placesTags": [],
    "reviewsTags": [],
    "additionalInfo": {
      "Service options": [
        {
          "Delivery": true
        },
        {
          "Drive-through": true
        },
        {
          "Onsite services": true
        },
        {
          "Same-day delivery": true
        }
      ],
      "Accessibility": [
        {
          "Wheelchair accessible entrance": true
        },
        {
          "Wheelchair accessible parking lot": true
        }
      ],
      "Payments": [
        {
          "Credit cards": true
        },
        {
          "Debit cards": true
        },
        {
          "NFC mobile payments": true
        },
        {
          "Credit cards": true
        }
      ]
    },
    "gasPrices": [],
    "url": "https://www.google.com/maps/search/?api=1&query=Continental%20Pharmacy&query_place_id=ChIJKVonjPgCv4cRJpfDC79hDUI",
    "searchPageUrl": "https://www.google.com/maps/search/independent%20pharmacy%20Topeka%20KS/@69.9064287015676,-156.56290792837981,9z?hl=en",
    "searchString": "independent pharmacy Topeka KS",
    "language": "en",
    "rank": 5,
    "isAdvertisement": false,
    "imageUrl": "https://lh3.googleusercontent.com/gps-cs-s/AC9h4noiJbb4PJZfOCZw5AvwZ4TErG94tiChQLyJzjJoHT3EgHwUcsZShYQc0ER6t3pR-UbfJTAwNDi-PHcWtlyw1NUy3LcuBXXvCm1LcKwcuraRKw_2JcRc28TjUGvmwCtyLL40--L62w=w408-h725-k-no",
    "kgmid": "/g/1tcw8ptf",
    "classification": "independent",
    "is_independent": true,
    "is_compounding": false,
    "confidence": 0.9,
    "source": "perplexity",
    "method": "llm"
  },
  {
    "title": "Jayhawk Custom Pharmacy",
    "price": null,
    "categoryName": "Pharmacy",
    "address": "2860 SW Mission Woods Dr, Topeka, KS 66614",
    "neighborhood": "Southwest Topeka",
    "street": "2860 SW Mission Woods Dr",
    "city": "Topeka",
    "postalCode": "66614",
    "state": "Kansas",
    "countryCode": "US",
    "website": "http://www.jayhawkpharmacy.com/",
    "phone": "(785) 228-9740",
    "phoneUnformatted": "+17852289740",
    "claimThisBusiness": false,
    "location": {
      "lat": 39.0150739,
      "lng": -95.7786812
    },
    "totalScore": 5,
    "permanentlyClosed": false,
    "temporarilyClosed": false,
    "placeId": null,
    "categories": [
      "Pharmacy"
    ],
    "fid": "0x87befcd3b0c67bad:0xa36b15b2f46f17be",
    "cid": "11775529509039577022",
    "reviewsCount": 1,
    "imagesCount": 1,
    "imageCategories": [],
    "scrapedAt": "2025-06-22T08:06:36.394Z",
    "googleFoodUrl": null,
    "hotelAds": [],
    "openingHours": [
      {
        "day": "Monday",
        "hours": "10\u202fAM to 6\u202fPM"
      },
      {
        "day": "Tuesday",
        "hours": "10\u202fAM to 6\u202fPM"
      },
      {
        "day": "Wednesday",
        "hours": "10\u202fAM to 6\u202fPM"
      },
      {
        "day": "Thursday",
        "hours": "10\u202fAM to 6\u202fPM"
      },
      {
        "day": "Friday",
        "hours": "10\u202fAM to 6\u202fPM"
      },
      {
        "day": "Saturday",
        "hours": "Closed"
      },
      {
        "day": "Sunday",
        "hours": "Closed"
      }
    ],
    "peopleAlsoSearch": [],
    "placesTags": [],
    "reviewsTags": [],
    "additionalInfo": {
      "Service options": [
        {
          "Delivery": true
        },
        {
          "Drive-through": true
        }
      ],
      "Accessibility": [
        {
          "Wheelchair accessible entrance": true
        },
        {
          "Wheelchair accessible parking lot": true
        }
      ],
      "Payments": [
        {
          "Credit cards": true
        }
      ]
    },
    "gasPrices": [],
    "url": "https://www.google.com/maps/search/?api=1&query=Jayhawk%20Custom%20Pharmacy&query_place_id=ChIJrXvGsNP8vocRvhdv9LIVa6M",
    "searchPageUrl": "https://www.google.com/maps/search/independent%20pharmacy%20Topeka%20KS/@69.9064287015676,-156.56290792837981,9z?hl=en",
    "searchString": "independent pharmacy Topeka KS",
    "language": "en",
    "rank": 6,
    "isAdvertisement": false,
    "imageUrl": "https://streetviewpixels-pa.googleapis.com/v1/thumbnail?panoid=PWmQuT5EepAGK0JC_pmSaw&cb_client=search.gws-prod.gps&w=408&h=240&yaw=312.85303&pitch=0&thumbfov=100",
    "kgmid": "/g/11gpfgc6l8",
    "classification": "independent",
    "is_independent": true,
    "is_compounding": false,
    "confidence": 0.9,
    "source": "perplexity",
    "method": "llm"
  },
  {
    "title": "Jayhawk Pharmacy and Patient Supply",
    "price": null,
    "categoryName": "Pharmacy",
    "address": "2860 SW Mission Woods Dr, Topeka, KS 66614",
    "neighborhood": "Southwest Topeka",
    "street": "2860 SW Mission Woods Dr",
    "city": "Topeka",
    "postalCode": "66614",
    "state": "Kansas",
    "countryCode": "US",
    "website": "http://jayhawkpharmacy.com/",
    "phone": "(785) 228-9700",
    "phoneUnformatted": "+17852289700",
    "claimThisBusiness": false,
    "location": {
      "lat": 39.0150515,
      "lng": -95.7786608
    },
    "totalScore": 3.8,
    "permanentlyClosed": false,
    "temporarilyClosed": false,
    "placeId": null,
    "categories": [
      "Pharmacy",
      "Drug store"
    ],
    "fid": "0x87befcd396573f5d:0xa908226db9550971",
    "cid": "12180023046879644017",
    "reviewsCount": 38,
    "imagesCount": 1,
    "imageCategories": [],
    "scrapedAt": "2025-06-22T08:06:36.394Z",
    "googleFoodUrl": null,
    "hotelAds": [],
    "openingHours": [
      {
        "day": "Monday",
        "hours": "8:30\u202fAM to 6\u202fPM"
      },
      {
        "day": "Tuesday",
        "hours": "8:30\u202fAM to 6\u202fPM"
      },
      {
        "day": "Wednesday",
        "hours": "8:30\u202fAM to 6\u202fPM"
      },
      {
        "day": "Thursday",
        "hours": "8:30\u202fAM to 6\u202fPM"
      },
      {
        "day": "Friday",
        "hours": "8:30\u202fAM to 6\u202fPM"
      },
      {
        "day": "Saturday",
        "hours": "8:30\u202fAM to 1\u202fPM"
      },
      {
        "day": "Sunday",
        "hours": "Closed"
      }
    ],
    "peopleAlsoSearch": [],
    "placesTags": [],
    "reviewsTags": [],
    "additionalInfo": {
      "Service options": [
        {
          "Delivery": true
        },
        {
          "In-store pickup": true
        },
        {
          "Same-day delivery": true
        }
      ],
      "Accessibility": [
        {
          "Wheelchair accessible entrance": true
        },
        {
          "Wheelchair accessible parking lot": true
        }
      ],
      "Planning": [
        {
          "Quick visit": true
        }
      ],
      "Payments": [
        {
          "Checks": true
        },
        {
          "Credit cards": true
        },
        {
          "Debit cards": true
        },
        {
          "NFC mobile payments": true
        },
        {
          "Credit cards": true
        }
      ]
    },
    "gasPrices": [],
    "url": "https://www.google.com/maps/search/?api=1&query=Jayhawk%20Pharmacy%20and%20Patient%20Supply&query_place_id=ChIJXT9XltP8vocRcQlVuW0iCKk",
    "searchPageUrl": "https://www.google.com/maps/search/independent%20pharmacy%20Topeka%20KS/@69.9064287015676,-156.56290792837981,9z?hl=en",
    "searchString": "independent pharmacy Topeka KS",
    "language": "en",
    "rank": 7,
    "isAdvertisement": false,
    "imageUrl": "https://streetviewpixels-pa.googleapis.com/v1/thumbnail?panoid=PWmQuT5EepAGK0JC_pmSaw&cb_client=search.gws-prod.gps&w=408&h=240&yaw=311.40503&pitch=0&thumbfov=100",
    "kgmid": "/g/1tmqm958",
    "classification": "independent",
    "is_independent": true,
    "is_compounding": false,
    "confidence": 0.9,
    "source": "perplexity",
    "method": "llm"
  },
  {
    "title": "Tallgrass Pharmacy",
    "price": null,
    "categoryName": "Pharmacy",
    "address": "601 SW Corporate View, Topeka, KS 66615",
    "neighborhood": "West Southwest 2",
    "street": "601 SW Corporate View",
    "city": "Topeka",
    "postalCode": "66615",
    "state": "Kansas",
    "countryCode": "US",
    "website": "http://www.tallgrasspharmacy.com/",
    "phone": "(785) 271-8000",
    "phoneUnformatted": "+17852718000",
    "claimThisBusiness": true,
    "location": {
      "lat": 39.0572807,
      "lng": -95.7671932
    },
    "totalScore": 4.9,
    "permanentlyClosed": false,
    "temporarilyClosed": false,
    "placeId": null,
    "categories": [
      "Pharmacy",
      "Drug store"
    ],
    "fid": "0x87befda95c978753:0xb18a0439211bca9c",
    "cid": "12793042334914431644",
    "reviewsCount": 17,
    "imagesCount": 1,
    "imageCategories": [],
    "scrapedAt": "2025-06-22T08:06:36.394Z",
    "googleFoodUrl": null,
    "hotelAds": [],
    "openingHours": [
      {
        "day": "Monday",
        "hours": "9\u202fAM to 6\u202fPM"
      },
      {
        "day": "Tuesday",
        "hours": "9\u202fAM to 6\u202fPM"
      },
      {
        "day": "Wednesday",
        "hours": "9\u202fAM to 6\u202fPM"
      },
      {
        "day": "Thursday",
        "hours": "9\u202fAM to 6\u202fPM"
      },
      {
        "day": "Friday",
        "hours": "9\u202fAM to 6\u202fPM"
      },
      {
        "day": "Saturday",
        "hours": "9\u202fAM to 12\u202fPM"
      },
      {
        "day": "Sunday",
        "hours": "Closed"
      }
    ],
    "peopleAlsoSearch": [],
    "placesTags": [],
    "reviewsTags": [],
    "additionalInfo": {
      "Service options": [
        {
          "Delivery": true
        },
        {
          "Same-day delivery": true
        }
      ],
      "Accessibility": [
        {
          "Wheelchair accessible entrance": true
        },
        {
          "Wheelchair accessible parking lot": true
        }
      ],
      "Planning": [
        {
          "Quick visit": true
        }
      ],
      "Payments": [
        {
          "Checks": true
        },
        {
          "Credit cards": true
        },
        {
          "Debit cards": true
        },
        {
          "NFC mobile payments": true
        },
        {
          "Credit cards": true
        }
      ]
    },
    "gasPrices": [],
    "url": "https://www.google.com/maps/search/?api=1&query=Tallgrass%20Pharmacy&query_place_id=ChIJU4eXXKn9vocRnMobITkEirE",
    "searchPageUrl": "https://www.google.com/maps/search/independent%20pharmacy%20Topeka%20KS/@69.9064287015676,-156.56290792837981,9z?hl=en",
    "searchString": "independent pharmacy Topeka KS",
    "language": "en",
    "rank": 8,
    "isAdvertisement": false,
    "imageUrl": "https://streetviewpixels-pa.googleapis.com/v1/thumbnail?panoid=CVKBFpdrTFjkCgvTympisg&cb_client=search.gws-prod.gps&w=408&h=240&yaw=222.84499&pitch=0&thumbfov=100",
    "kgmid": "/g/1w0h80kv",
    "classification": "independent",
    "is_independent": true,
    "is_compounding": false,
    "confidence": 0.9,
    "source": "perplexity",
    "method": "llm"
  },
  {
    "title": "Canada Drug Of Topeka",
    "price": null,
    "categoryName": "Pharmacy",
    "address": "5654 SW 29th St, Topeka, KS 66614",
    "neighborhood": "Southwest Topeka",
    "street": "5654 SW 29th St",
    "city": "Topeka",
    "postalCode": "66614",
    "state": "Kansas",
    "countryCode": "US",
    "website": "http://canadadrugoftopeka.com/",
    "phone": "(785) 272-6100",
    "phoneUnformatted": "+17852726100",
    "claimThisBusiness": false,
    "location": {
      "lat": 39.015275,
      "lng": -95.751871
    },
    "totalScore": 5,
    "permanentlyClosed": false,
    "temporarilyClosed": false,
    "placeId": null,
    "categories": [
      "Pharmacy"
    ],
    "fid": "0x87befd3565a6348b:0x7b7886910ebd8a0e",
    "cid": "8897009021446097422",
    "reviewsCount": 5,
    "imagesCount": 6,
    "imageCategories": [],
    "scrapedAt": "2025-06-22T08:06:36.395Z",
    "googleFoodUrl": null,
    "hotelAds": [],
    "openingHours": [
      {
        "day": "Monday",
        "hours": "9\u202fAM to 5\u202fPM"
      },
      {
        "day": "Tuesday",
        "hours": "9\u202fAM to 5\u202fPM"
      },
      {
        "day": "Wednesday",
        "hours": "9\u202fAM to 5\u202fPM"
      },
      {
        "day": "Thursday",
        "hours": "9\u202fAM to 5\u202fPM"
      },
      {
        "day": "Friday",
        "hours": "9\u202fAM to 5\u202fPM"
      },
      {
        "day": "Saturday",
        "hours": "Closed"
      },
      {
        "day": "Sunday",
        "hours": "Closed"
      }
    ],
    "peopleAlsoSearch": [],
    "placesTags": [],
    "reviewsTags": [],
    "additionalInfo": {
      "From the business": [
        {
          "Small business": true
        }
      ],
      "Service options": [
        {
          "Delivery": true
        }
      ],
      "Accessibility": [
        {
          "Wheelchair accessible entrance": true
        },
        {
          "Wheelchair accessible parking lot": true
        },
        {
          "Wheelchair accessible restroom": true
        },
        {
          "Wheelchair accessible seating": true
        }
      ],
      "Payments": [
        {
          "Checks": true
        }
      ]
    },
    "gasPrices": [],
    "url": "https://www.google.com/maps/search/?api=1&query=Canada%20Drug%20Of%20Topeka&query_place_id=ChIJizSmZTX9vocRDoq9DpGGeHs",
    "searchPageUrl": "https://www.google.com/maps/search/independent%20pharmacy%20Topeka%20KS/@69.9064287015676,-156.56290792837981,9z?hl=en",
    "searchString": "independent pharmacy Topeka KS",
    "language": "en",
    "rank": 9,
    "isAdvertisement": false,
    "imageUrl": "https://lh3.googleusercontent.com/gps-cs-s/AC9h4nq_NaKJhTejs2dKhlWCoVlyQsRVHoTvHw4gakTuDppJQUgzLtkkfIMuOQY-3UF-9bAdP1xj-GEm1dNpxNkZTOpCKDvQc0-Vv80rx_LC6lKAkAU4kX4zkrv4AWRlU3cobm6I7ew2=w408-h272-k-no",
    "kgmid": "/g/11b7hv_6k8",
    "classification": "independent",
    "is_independent": true,
    "is_compounding": false,
    "confidence": 0.85,
    "source": "perplexity",
    "method": "llm"
  },
  {
    "title": "Topeka Pharmacy",
    "price": null,
    "categoryName": "Pharmacy",
    "address": "101 N Main St, Topeka, IN 46571",
    "neighborhood": null,
    "street": "101 N Main St",
    "city": "Topeka",
    "postalCode": "46571",
    "state": "Indiana",
    "countryCode": "US",
    "website": "http://www.topekapharmacy.net/",
    "phone": "(260) 593-2252",
    "phoneUnformatted": "+12605932252",
    "claimThisBusiness": false,
    "location": {
      "lat": 41.5394869,
      "lng": -85.5398879
    },
    "totalScore": 4.5,
    "permanentlyClosed": false,
    "temporarilyClosed": false,
    "placeId": null,
    "categories": [
      "Pharmacy",
      "Drug store"
    ],
    "fid": "0x88165e6a682a0143:0x639d20452e60a325",
    "cid": "7177928862601356069",
    "reviewsCount": 28,
    "imagesCount": 7,
    "imageCategories": [],
    "scrapedAt": "2025-06-22T08:06:36.395Z",
    "googleFoodUrl": null,
    "hotelAds": [],
    "openingHours": [
      {
        "day": "Monday",
        "hours": "9\u202fAM to 5\u202fPM"
      },
      {
        "day": "Tuesday",
        "hours": "10\u202fAM to 6\u202fPM"
      },
      {
        "day": "Wednesday",
        "hours": "9\u202fAM to 5\u202fPM"
      },
      {
        "day": "Thursday",
        "hours": "10\u202fAM to 6\u202fPM"
      },
      {
        "day": "Friday",
        "hours": "9\u202fAM to 5\u202fPM"
      },
      {
        "day": "Saturday",
        "hours": "8\u202fAM to 12\u202fPM"
      },
      {
        "day": "Sunday",
        "hours": "Closed"
      }
    ],
    "peopleAlsoSearch": [],
    "placesTags": [],
    "reviewsTags": [],
    "additionalInfo": {
      "Service options": [
        {
          "Curbside pickup": true
        },
        {
          "Delivery": true
        },
        {
          "In-store pickup": true
        },
        {
          "In-store shopping": true
        },
        {
          "Onsite services": true
        }
      ],
      "Accessibility": [
        {
          "Wheelchair accessible entrance": true
        },
        {
          "Wheelchair accessible parking lot": true
        }
      ],
      "Planning": [
        {
          "Quick visit": true
        }
      ],
      "Payments": [
        {
          "Checks": true
        },
        {
          "Credit cards": true
        },
        {
          "Debit cards": true
        },
        {
          "NFC mobile payments": true
        },
        {
          "Credit cards": true
        }
      ]
    },
    "gasPrices": [],
    "url": "https://www.google.com/maps/search/?api=1&query=Topeka%20Pharmacy&query_place_id=ChIJQwEqaGpeFogRJaNgLkUgnWM",
    "searchPageUrl": "https://www.google.com/maps/search/independent%20pharmacy%20Topeka%20KS/@69.9064287015676,-156.56290792837981,9z?hl=en",
    "searchString": "independent pharmacy Topeka KS",
    "language": "en",
    "rank": 10,
    "isAdvertisement": false,
    "imageUrl": "https://lh3.googleusercontent.com/gps-cs-s/AC9h4nrzfenjQHzTRgFweuBBCMXtl8nP37ojlfQBBMFS7ROxjmxND2GoxXopSyHOwxprrOt-uXco4mFiYt8u9BEQ7p0CpWJ9lwIBdmBVWUaWFYLVeD8BadpjjexgMG9GTyWlggqmKttR_A=w408-h306-k-no",
    "kgmid": "/g/1tr9p0fw",
    "classification": "independent",
    "is_independent": true,
    "is_compounding": false,
    "confidence": 0.9,
    "source": "perplexity",
    "method": "llm"
  },
  {
    "title": "Hy-Vee Pharmacy",
    "price": "$$",
    "categoryName": "Pharmacy",
    "address": "2951 SW Wanamaker Rd, Topeka, KS 66614",
    "neighborhood": "Southwest Topeka",
    "street": "2951 SW Wanamaker Rd",
    "city": "Topeka",
    "postalCode": "66614",
    "state": "Kansas",
    "countryCode": "US",
    "website": "https://www.hy-vee.com/my-pharmacy/pharmacy-finder/topeka-2951-sw-wanamaker-rd-topeka-ks/1658?utm_source=google&utm_medium=organic&utm_campaign=gmb-listing",
    "phone": "(785) 271-0764",
    "phoneUnformatted": "+17852710764",
    "claimThisBusiness": false,
    "location": {
      "lat": 39.0122672,
      "lng": -95.76394
    },
    "locatedIn": "Hy-Vee Gas",
    "totalScore": 3,
    "permanentlyClosed": false,
    "temporarilyClosed": false,
    "placeId": null,
    "categories": [
      "Pharmacy",
      "Drug store",
      "Herbal medicine store",
      "Homeopathic pharmacy",
      "Local medical services",
      "Medical Center",
      "Organic drug store",
      "Pharmaceutical company",
      "Pharmaceutical lab",
      "Toiletries store"
    ],
    "fid": "0x87befd2d28e465b9:0xa14786ef9626b8c6",
    "cid": "11621405727027280070",
    "reviewsCount": 32,
    "imagesCount": 12,
    "imageCategories": [],
    "scrapedAt": "2025-06-22T08:06:36.395Z",
    "googleFoodUrl": null,
    "hotelAds": [],
    "openingHours": [
      {
        "day": "Monday",
        "hours": "8\u202fAM to 8\u202fPM"
      },
      {
        "day": "Tuesday",
        "hours": "8\u202fAM to 8\u202fPM"
      },
      {
        "day": "Wednesday",
        "hours": "8\u202fAM to 8\u202fPM"
      },
      {
        "day": "Thursday",
        "hours": "8\u202fAM to 8\u202fPM"
      },
      {
        "day": "Friday",
        "hours": "8\u202fAM to 8\u202fPM"
      },
      {
        "day": "Saturday",
        "hours": "9\u202fAM to 5\u202fPM"
      },
      {
        "day": "Sunday",
        "hours": "9\u202fAM to 5\u202fPM"
      }
    ],
    "additionalOpeningHours": {
      "Hy-Vee Gas": [
        {
          "day": "Monday",
          "hours": "5:30\u202fAM\u201310\u202fPM"
        },
        {
          "day": "Tuesday",
          "hours": "5:30\u202fAM\u201310\u202fPM"
        },
        {
          "day": "Wednesday",
          "hours": "5:30\u202fAM\u201310\u202fPM"
        },
        {
          "day": "Thursday",
          "hours": "5:30\u202fAM\u201310\u202fPM"
        },
        {
          "day": "Friday",
          "hours": "5:30\u202fAM\u201310\u202fPM"
        },
        {
          "day": "Saturday",
          "hours": "5:30\u202fAM\u201310\u202fPM"
        },
        {
          "day": "Sunday",
          "hours": "5:30\u202fAM\u201310\u202fPM"
        }
      ]
    },
    "peopleAlsoSearch": [],
    "placesTags": [],
    "reviewsTags": [],
    "additionalInfo": {
      "Service options": [
        {
          "Delivery": true
        },
        {
          "Drive-through": true
        },
        {
          "In-store pickup": true
        },
        {
          "Same-day delivery": true
        }
      ],
      "Accessibility": [
        {
          "Wheelchair accessible entrance": true
        },
        {
          "Wheelchair accessible parking lot": true
        },
        {
          "Wheelchair accessible restroom": true
        },
        {
          "Wheelchair accessible seating": true
        }
      ],
      "Amenities": [
        {
          "Wi-Fi": true
        }
      ],
      "Planning": [
        {
          "Quick visit": true
        }
      ],
      "Payments": [
        {
          "Credit cards": true
        },
        {
          "Debit cards": true
        },
        {
          "NFC mobile payments": true
        },
        {
          "Credit cards": true
        }
      ]
    },
    "gasPrices": [],
    "url": "https://www.google.com/maps/search/?api=1&query=Hy-Vee%20Pharmacy&query_place_id=ChIJuWXkKC39vocRxrgmlu-GR6E",
    "searchPageUrl": "https://www.google.com/maps/search/independent%20pharmacy%20Topeka%20KS/@69.9064287015676,-156.56290792837981,9z?hl=en",
    "searchString": "independent pharmacy Topeka KS",
    "language": "en",
    "rank": 13,
    "isAdvertisement": false,
    "imageUrl": "https://lh3.googleusercontent.com/p/AF1QipPiZBTP04iKfQXOi2-AeGtM3MffV-OAK8dV7Y9A=w408-h408-k-no",
    "kgmid": "/g/11gbq__6l9",
    "classification": "chain",
    "is_independent": false,
    "is_compounding": false,
    "confidence": 0.95,
    "source": "perplexity",
    "method": "llm"
  },
  {
    "title": "CVS Pharmacy",
    "price": null,
    "categoryName": "Pharmacy",
    "address": "3901 SW 21st St, Topeka, KS 66604",
    "neighborhood": "West Southwest 3",
    "street": "3901 SW 21st St",
    "city": "Topeka",
    "postalCode": "66604",
    "state": "Kansas",
    "countryCode": "US",
    "website": "https://www.cvs.com/store-locator/topeka-ks-pharmacies/3901-sw-21st-st-topeka-ks-66604/storeid=10244?WT.mc_id=LS_GOOGLE_RX_10244",
    "phone": "(785) 273-1106",
    "phoneUnformatted": "+17852731106",
    "claimThisBusiness": false,
    "location": {
      "lat": 39.0289418,
      "lng": -95.7257387
    },
    "totalScore": 3.4,
    "permanentlyClosed": false,
    "temporarilyClosed": false,
    "placeId": null,
    "categories": [
      "Pharmacy"
    ],
    "fid": "0x87bf02a6b99b2ba1:0x1513d1a125540b20",
    "cid": "1518787989400193824",
    "reviewsCount": 24,
    "imagesCount": 9,
    "imageCategories": [],
    "scrapedAt": "2025-06-22T08:06:36.395Z",
    "googleFoodUrl": null,
    "hotelAds": [],
    "openingHours": [
      {
        "day": "Monday",
        "hours": "8\u202fAM to 1:30\u202fPM, 2 to 8\u202fPM"
      },
      {
        "day": "Tuesday",
        "hours": "8\u202fAM to 1:30\u202fPM, 2 to 8\u202fPM"
      },
      {
        "day": "Wednesday",
        "hours": "8\u202fAM to 1:30\u202fPM, 2 to 8\u202fPM"
      },
      {
        "day": "Thursday",
        "hours": "8\u202fAM to 1:30\u202fPM, 2 to 8\u202fPM"
      },
      {
        "day": "Friday",
        "hours": "8\u202fAM to 1:30\u202fPM, 2 to 8\u202fPM"
      },
      {
        "day": "Saturday",
        "hours": "9\u202fAM to 1:30\u202fPM, 2 to 5\u202fPM"
      },
      {
        "day": "Sunday",
        "hours": "10\u202fAM to 1:30\u202fPM, 2 to 5\u202fPM"
      }
    ],
    "peopleAlsoSearch": [],
    "placesTags": [],
    "reviewsTags": [],
    "additionalInfo": {
      "Service options": [
        {
          "Delivery": true
        },
        {
          "Drive-through": true
        },
        {
          "In-store shopping": true
        }
      ],
      "Accessibility": [
        {
          "Wheelchair accessible entrance": true
        },
        {
          "Wheelchair accessible parking lot": true
        }
      ],
      "Offerings": [
        {
          "Medication disposal": true
        },
        {
          "Naloxone": true
        },
        {
          "Passport photos": true
        }
      ],
      "Crowd": [
        {
          "LGBTQ+ friendly": true
        },
        {
          "Transgender safespace": true
        }
      ],
      "Planning": [
        {
          "Quick visit": true
        }
      ],
      "Payments": [
        {
          "Credit cards": true
        },
        {
          "Debit cards": true
        },
        {
          "NFC mobile payments": true
        },
        {
          "Credit cards": true
        }
      ]
    },
    "gasPrices": [],
    "url": "https://www.google.com/maps/search/?api=1&query=CVS%20Pharmacy&query_place_id=ChIJoSubuaYCv4cRIAtUJaHRExU",
    "searchPageUrl": "https://www.google.com/maps/search/independent%20pharmacy%20Topeka%20KS/@69.9064287015676,-156.56290792837981,9z?hl=en",
    "searchString": "independent pharmacy Topeka KS",
    "language": "en",
    "rank": 14,
    "isAdvertisement": false,
    "imageUrl": "https://lh3.googleusercontent.com/p/AF1QipPtC3g0E_KVU4xdfAg-w_yKfyCvfWMjt6G8pHcs=w408-h272-k-no",
    "kgmid": "/g/11c4676qzf",
    "classification": "chain",
    "is_independent": false,
    "is_compounding": false,
    "confidence": 0.99,
    "source": "perplexity",
    "method": "llm"
  },
  {
    "title": "Dillons Pharmacy",
    "price": null,
    "categoryName": "Pharmacy",
    "address": "6829 SW 29th St, Topeka, KS 66614",
    "neighborhood": null,
    "street": "6829 SW 29th St",
    "city": "Topeka",
    "postalCode": "66614",
    "state": "Kansas",
    "countryCode": "US",
    "website": "https://www.dillons.com/rx/pharmacy/details/615/00037?cid=loc_61500037P_gmb",
    "phone": "(785) 228-4204",
    "phoneUnformatted": "+17852284204",
    "claimThisBusiness": false,
    "location": {
      "lat": 39.0133485,
      "lng": -95.7822981
    },
    "totalScore": 2.5,
    "permanentlyClosed": false,
    "temporarilyClosed": false,
    "placeId": null,
    "categories": [
      "Pharmacy",
      "Drug store",
      "Health counselor",
      "Home health care service"
    ],
    "fid": "0x87befcd278bc6049:0xdee1675c77233589",
    "cid": "16060231393013347721",
    "reviewsCount": 50,
    "imagesCount": 10,
    "imageCategories": [],
    "scrapedAt": "2025-06-22T08:06:36.395Z",
    "googleFoodUrl": null,
    "hotelAds": [],
    "openingHours": [
      {
        "day": "Monday",
        "hours": "8\u202fAM to 1\u202fPM, 1:30 to 8\u202fPM"
      },
      {
        "day": "Tuesday",
        "hours": "8\u202fAM to 1\u202fPM, 1:30 to 8\u202fPM"
      },
      {
        "day": "Wednesday",
        "hours": "8\u202fAM to 1\u202fPM, 1:30 to 8\u202fPM"
      },
      {
        "day": "Thursday",
        "hours": "8\u202fAM to 1\u202fPM, 1:30 to 8\u202fPM"
      },
      {
        "day": "Friday",
        "hours": "8\u202fAM to 1\u202fPM, 1:30 to 8\u202fPM"
      },
      {
        "day": "Saturday",
        "hours": "9\u202fAM to 1\u202fPM, 1:30 to 6\u202fPM"
      },
      {
        "day": "Sunday",
        "hours": "11\u202fAM to 1\u202fPM, 1:30 to 6\u202fPM"
      }
    ],
    "additionalOpeningHours": {
      "Drive through": [
        {
          "day": "Monday",
          "hours": "8\u202fAM\u20131\u202fPM"
        },
        {
          "day": "Tuesday",
          "hours": "8\u202fAM\u20131\u202fPM"
        },
        {
          "day": "Wednesday",
          "hours": "8\u202fAM\u20131\u202fPM"
        },
        {
          "day": "Thursday",
          "hours": "8\u202fAM\u20131\u202fPM"
        },
        {
          "day": "Friday",
          "hours": "8\u202fAM\u20131\u202fPM"
        },
        {
          "day": "Saturday",
          "hours": "9\u202fAM\u20131\u202fPM"
        },
        {
          "day": "Sunday",
          "hours": "11\u202fAM\u20131\u202fPM"
        }
      ]
    },
    "peopleAlsoSearch": [],
    "placesTags": [],
    "reviewsTags": [],
    "additionalInfo": {
      "Service options": [
        {
          "Curbside pickup": true
        },
        {
          "Drive-through": true
        },
        {
          "In-store pickup": true
        },
        {
          "In-store shopping": true
        },
        {
          "Onsite services": true
        },
        {
          "Same-day delivery": false
        }
      ],
      "Accessibility": [
        {
          "Wheelchair accessible entrance": true
        },
        {
          "Wheelchair accessible parking lot": true
        },
        {
          "Wheelchair accessible restroom": true
        },
        {
          "Wheelchair accessible seating": true
        }
      ],
      "Crowd": [
        {
          "LGBTQ+ friendly": true
        },
        {
          "Transgender safespace": true
        }
      ],
      "Planning": [
        {
          "Quick visit": true
        }
      ],
      "Payments": [
        {
          "Checks": true
        },
        {
          "Credit cards": true
        },
        {
          "Debit cards": true
        },
        {
          "NFC mobile payments": true
        },
        {
          "Credit cards": true
        }
      ]
    },
    "gasPrices": [],
    "url": "https://www.google.com/maps/search/?api=1&query=Dillons%20Pharmacy&query_place_id=ChIJSWC8eNL8vocRiTUjd1xn4d4",
    "searchPageUrl": "https://www.google.com/maps/search/independent%20pharmacy%20Topeka%20KS/@69.9064287015676,-156.56290792837981,9z?hl=en",
    "searchString": "independent pharmacy Topeka KS",
    "language": "en",
    "rank": 15,
    "isAdvertisement": false,
    "imageUrl": "https://lh3.googleusercontent.com/p/AF1QipNe5iGLeVQ-NNAA3MxTmk6SdTx7GFv-Qq3PMek=w426-h240-k-no",
    "kgmid": "/g/1yfjdwl0v",
    "classification": "chain",
    "is_independent": false,
    "is_compounding": false,
    "confidence": 0.95,
    "source": "perplexity",
    "method": "llm"
  },
  {
    "title": "D.C. Drug",
    "price": null,
    "categoryName": "Pharmacy",
    "address": "101 N Main St, Troy, KS 66087",
    "neighborhood": null,
    "street": "101 N Main St",
    "city": "Troy",
    "postalCode": "66087",
    "state": "Kansas",
    "countryCode": "US",
    "website": "http://doniphandrug.com/",
    "phone": "(785) 982-2500",
    "phoneUnformatted": "+17859822500",
    "claimThisBusiness": false,
    "location": {
      "lat": 39.7868352,
      "lng": -95.0899094
    },
    "totalScore": 5,
    "permanentlyClosed": false,
    "temporarilyClosed": false,
    "placeId": null,
    "categories": [
      "Pharmacy"
    ],
    "fid": "0x87bfff32cac4f3db:0x94de99ac30666a12",
    "cid": "10727180327268542994",
    "reviewsCount": 11,
    "imagesCount": 3,
    "imageCategories": [],
    "scrapedAt": "2025-06-22T08:06:36.395Z",
    "googleFoodUrl": null,
    "hotelAds": [],
    "openingHours": [
      {
        "day": "Monday",
        "hours": "9\u202fAM to 6\u202fPM"
      },
      {
        "day": "Tuesday",
        "hours": "9\u202fAM to 6\u202fPM"
      },
      {
        "day": "Wednesday",
        "hours": "9\u202fAM to 6\u202fPM"
      },
      {
        "day": "Thursday",
        "hours": "9\u202fAM to 6\u202fPM"
      },
      {
        "day": "Friday",
        "hours": "9\u202fAM to 6\u202fPM"
      },
      {
        "day": "Saturday",
        "hours": "Closed"
      },
      {
        "day": "Sunday",
        "hours": "Closed"
      }
    ],
    "peopleAlsoSearch": [],
    "placesTags": [],
    "reviewsTags": [],
    "additionalInfo": {
      "From the business": [
        {
          "Small business": true
        }
      ],
      "Service options": [
        {
          "Delivery": true
        },
        {
          "In-store pickup": true
        },
        {
          "In-store shopping": true
        },
        {
          "Same-day delivery": true
        }
      ],
      "Accessibility": [
        {
          "Wheelchair accessible entrance": true
        },
        {
          "Wheelchair accessible parking lot": true
        },
        {
          "Wheelchair accessible seating": true
        }
      ],
      "Planning": [
        {
          "Quick visit": true
        }
      ],
      "Payments": [
        {
          "Checks": true
        },
        {
          "Credit cards": true
        },
        {
          "Debit cards": true
        },
        {
          "NFC mobile payments": true
        },
        {
          "Credit cards": true
        }
      ],
      "Parking": [
        {
          "Free parking lot": true
        },
        {
          "Free street parking": true
        },
        {
          "On-site parking": true
        }
      ]
    },
    "gasPrices": [],
    "url": "https://www.google.com/maps/search/?api=1&query=D.C.%20Drug&query_place_id=ChIJ2_PEyjL_v4cREmpmMKyZ3pQ",
    "searchPageUrl": "https://www.google.com/maps/search/independent%20pharmacy%20Topeka%20KS/@69.9064287015676,-156.56290792837981,9z?hl=en",
    "searchString": "independent pharmacy Topeka KS",
    "language": "en",
    "rank": 16,
    "isAdvertisement": false,
    "imageUrl": "https://lh3.googleusercontent.com/p/AF1QipN0DPm0pC0ni-H9gK0gmFScTHYrsH9I0NTUkLRF=w408-h306-k-no",
    "kgmid": "/g/11gcx_76cf",
    "classification": "independent",
    "is_independent": true,
    "is_compounding": false,
    "confidence": 0.9,
    "source": "perplexity",
    "method": "llm"
  },
  {
    "title": "Walgreens Pharmacy",
    "description": "Department of the Walgreens chain providing prescription medications & other health-related items.",
    "price": "$$",
    "categoryName": "Pharmacy",
    "address": "2101 NW Topeka Blvd, Topeka, KS 66608",
    "neighborhood": "North Topeka East",
    "street": "2101 NW Topeka Blvd",
    "city": "Topeka",
    "postalCode": "66608",
    "state": "Kansas",
    "countryCode": "US",
    "website": "https://www.walgreens.com/locator/walgreens-2101+nw+topeka+blvd-topeka-ks-66608/id=15601",
    "phone": "(785) 232-2591",
    "phoneUnformatted": "+17852322591",
    "claimThisBusiness": false,
    "location": {
      "lat": 39.0884738,
      "lng": -95.6637244
    },
    "totalScore": 4.1,
    "permanentlyClosed": false,
    "temporarilyClosed": false,
    "placeId": null,
    "categories": [
      "Pharmacy"
    ],
    "fid": "0x87bf03e8f2f55a8f:0x456cc6fa8fecd7cc",
    "cid": "5002592065560565708",
    "reviewsCount": 24,
    "imagesCount": 3,
    "imageCategories": [],
    "scrapedAt": "2025-06-22T08:06:36.396Z",
    "googleFoodUrl": null,
    "hotelAds": [],
    "openingHours": [
      {
        "day": "Monday",
        "hours": "8\u202fAM to 1:30\u202fPM, 2 to 10\u202fPM"
      },
      {
        "day": "Tuesday",
        "hours": "8\u202fAM to 1:30\u202fPM, 2 to 10\u202fPM"
      },
      {
        "day": "Wednesday",
        "hours": "8\u202fAM to 1:30\u202fPM, 2 to 10\u202fPM"
      },
      {
        "day": "Thursday",
        "hours": "8\u202fAM to 1:30\u202fPM, 2 to 10\u202fPM"
      },
      {
        "day": "Friday",
        "hours": "8\u202fAM to 1:30\u202fPM, 2 to 10\u202fPM"
      },
      {
        "day": "Saturday",
        "hours": "9\u202fAM to 1:30\u202fPM, 2 to 6\u202fPM"
      },
      {
        "day": "Sunday",
        "hours": "10\u202fAM to 1:30\u202fPM, 2 to 6\u202fPM"
      }
    ],
    "additionalOpeningHours": {
      "Drive through": [
        {
          "day": "Monday",
          "hours": "8\u202fAM\u20131:30\u202fPM"
        },
        {
          "day": "Tuesday",
          "hours": "8\u202fAM\u20131:30\u202fPM"
        },
        {
          "day": "Wednesday",
          "hours": "8\u202fAM\u20131:30\u202fPM"
        },
        {
          "day": "Thursday",
          "hours": "8\u202fAM\u20131:30\u202fPM"
        },
        {
          "day": "Friday",
          "hours": "8\u202fAM\u20131:30\u202fPM"
        },
        {
          "day": "Saturday",
          "hours": "9\u202fAM\u20131:30\u202fPM"
        },
        {
          "day": "Sunday",
          "hours": "10\u202fAM\u20131:30\u202fPM"
        }
      ]
    },
    "peopleAlsoSearch": [],
    "placesTags": [],
    "reviewsTags": [],
    "additionalInfo": {
      "Service options": [
        {
          "Drive-through": true
        },
        {
          "In-store pickup": true
        }
      ],
      "Accessibility": [
        {
          "Wheelchair accessible entrance": true
        },
        {
          "Wheelchair accessible parking lot": true
        }
      ],
      "Offerings": [
        {
          "Naloxone": true
        }
      ],
      "Planning": [
        {
          "Quick visit": true
        }
      ],
      "Payments": [
        {
          "Checks": true
        },
        {
          "Credit cards": true
        },
        {
          "Debit cards": true
        }
      ]
    },
    "gasPrices": [],
    "url": "https://www.google.com/maps/search/?api=1&query=Walgreens%20Pharmacy&query_place_id=ChIJj1r18ugDv4cRzNfsj_rGbEU",
    "searchPageUrl": "https://www.google.com/maps/search/independent%20pharmacy%20Topeka%20KS/@69.9064287015676,-156.56290792837981,9z?hl=en",
    "searchString": "independent pharmacy Topeka KS",
    "language": "en",
    "rank": 18,
    "isAdvertisement": false,
    "imageUrl": "https://lh3.googleusercontent.com/p/AF1QipNNYilbpxOZTQbgl9QseywR6OjQo4ZgtlKlLjqj=w525-h240-k-no",
    "kgmid": "/g/11cn96g137",
    "classification": "chain",
    "is_independent": false,
    "is_compounding": false,
    "confidence": 1.0,
    "source": "perplexity",
    "method": "llm"
  },
  {
    "title": "Jayhawk Patient Supply",
    "price": null,
    "categoryName": "Pharmacy",
    "address": "2620 SW 6th Ave, Topeka, KS 66606",
    "neighborhood": "Central Topeka 1",
    "street": "2620 SW 6th Ave",
    "city": "Topeka",
    "postalCode": "66606",
    "state": "Kansas",
    "countryCode": "US",
    "website": "http://www.jayhawkpharmacy.com/",
    "phone": "(785) 235-9700",
    "phoneUnformatted": "+17852359700",
    "claimThisBusiness": false,
    "location": {
      "lat": 39.0592325,
      "lng": -95.7078599
    },
    "totalScore": 2.7,
    "permanentlyClosed": false,
    "temporarilyClosed": false,
    "placeId": null,
    "categories": [
      "Pharmacy",
      "Motor scooter dealer",
      "Orthotics & prosthetics service",
      "Oxygen equipment supplier",
      "Medical supply store",
      "Wheelchair store"
    ],
    "fid": "0x87bf025fce1f4543:0x6e589f2bc4c4b67b",
    "cid": "7951280152456246907",
    "reviewsCount": 24,
    "imagesCount": 30,
    "imageCategories": [],
    "scrapedAt": "2025-06-22T08:06:36.396Z",
    "googleFoodUrl": null,
    "hotelAds": [],
    "openingHours": [
      {
        "day": "Monday",
        "hours": "8\u202fAM to 5\u202fPM"
      },
      {
        "day": "Tuesday",
        "hours": "8\u202fAM to 5\u202fPM"
      },
      {
        "day": "Wednesday",
        "hours": "8\u202fAM to 5\u202fPM"
      },
      {
        "day": "Thursday",
        "hours": "8\u202fAM to 5\u202fPM"
      },
      {
        "day": "Friday",
        "hours": "8\u202fAM to 5\u202fPM"
      },
      {
        "day": "Saturday",
        "hours": "Closed"
      },
      {
        "day": "Sunday",
        "hours": "Closed"
      }
    ],
    "peopleAlsoSearch": [],
    "placesTags": [],
    "reviewsTags": [],
    "additionalInfo": {
      "Service options": [
        {
          "Delivery": true
        },
        {
          "In-store pickup": true
        },
        {
          "Same-day delivery": true
        }
      ],
      "Accessibility": [
        {
          "Wheelchair accessible entrance": true
        },
        {
          "Wheelchair accessible parking lot": true
        }
      ],
      "Payments": [
        {
          "Credit cards": true
        },
        {
          "Debit cards": true
        }
      ]
    },
    "gasPrices": [],
    "url": "https://www.google.com/maps/search/?api=1&query=Jayhawk%20Patient%20Supply&query_place_id=ChIJQ0Ufzl8Cv4cRe7bExCufWG4",
    "searchPageUrl": "https://www.google.com/maps/search/independent%20pharmacy%20Topeka%20KS/@69.9064287015676,-156.56290792837981,9z?hl=en",
    "searchString": "independent pharmacy Topeka KS",
    "language": "en",
    "rank": 19,
    "isAdvertisement": false,
    "imageUrl": "https://lh3.googleusercontent.com/gps-cs-s/AC9h4nrsnFdu6sum-ms4la4P_l_yYuaMwS2Qsj1ReCDbhxMrAnQmDHTY6p-kKcAricVGPjk04isk1NOMU2RddMWOStwYJKSVUL1ewc8JHn60nTXPeJpbsSlmQtPFHpwQp7qb5BWuBd7s=w444-h240-k-no",
    "kgmid": "/g/1tdqv162",
    "classification": "independent",
    "is_independent": true,
    "is_compounding": false,
    "confidence": 0.85,
    "source": "perplexity",
    "method": "llm"
  },
  {
    "title": "Walgreens Pharmacy",
    "description": "Department of the Walgreens chain providing prescription medications & other health-related items.",
    "price": "$$",
    "categoryName": "Pharmacy",
    "address": "1001 SW Gage Blvd, Topeka, KS 66604",
    "neighborhood": "West Southwest 2",
    "street": "1001 SW Gage Blvd",
    "city": "Topeka",
    "postalCode": "66604",
    "state": "Kansas",
    "countryCode": "US",
    "website": "https://www.walgreens.com/locator/walgreens-1001+sw+gage+blvd-topeka-ks-66604/id=7778",
    "phone": "(785) 272-3015",
    "phoneUnformatted": "+17852723015",
    "claimThisBusiness": false,
    "location": {
      "lat": 39.0506643,
      "lng": -95.7259241
    },
    "totalScore": 3.7,
    "permanentlyClosed": false,
    "temporarilyClosed": false,
    "placeId": null,
    "categories": [
      "Pharmacy"
    ],
    "fid": "0x87bf0283e1ffb71b:0xa815d6adecdc278d",
    "cid": "12111822815374354317",
    "reviewsCount": 10,
    "imagesCount": 10,
    "imageCategories": [],
    "scrapedAt": "2025-06-22T08:06:36.396Z",
    "googleFoodUrl": null,
    "hotelAds": [],
    "openingHours": [
      {
        "day": "Monday",
        "hours": "8\u202fAM to 1:30\u202fPM, 2 to 10\u202fPM"
      },
      {
        "day": "Tuesday",
        "hours": "8\u202fAM to 1:30\u202fPM, 2 to 10\u202fPM"
      },
      {
        "day": "Wednesday",
        "hours": "8\u202fAM to 1:30\u202fPM, 2 to 10\u202fPM"
      },
      {
        "day": "Thursday",
        "hours": "8\u202fAM to 1:30\u202fPM, 2 to 10\u202fPM"
      },
      {
        "day": "Friday",
        "hours": "8\u202fAM to 1:30\u202fPM, 2 to 10\u202fPM"
      },
      {
        "day": "Saturday",
        "hours": "9\u202fAM to 1:30\u202fPM, 2 to 6\u202fPM"
      },
      {
        "day": "Sunday",
        "hours": "10\u202fAM to 1:30\u202fPM, 2 to 6\u202fPM"
      }
    ],
    "additionalOpeningHours": {
      "Drive through": [
        {
          "day": "Monday",
          "hours": "8\u202fAM\u20131:30\u202fPM"
        },
        {
          "day": "Tuesday",
          "hours": "8\u202fAM\u20131:30\u202fPM"
        },
        {
          "day": "Wednesday",
          "hours": "8\u202fAM\u20131:30\u202fPM"
        },
        {
          "day": "Thursday",
          "hours": "8\u202fAM\u20131:30\u202fPM"
        },
        {
          "day": "Friday",
          "hours": "8\u202fAM\u20131:30\u202fPM"
        },
        {
          "day": "Saturday",
          "hours": "9\u202fAM\u20131:30\u202fPM"
        },
        {
          "day": "Sunday",
          "hours": "10\u202fAM\u20131:30\u202fPM"
        }
      ]
    },
    "peopleAlsoSearch": [],
    "placesTags": [],
    "reviewsTags": [],
    "additionalInfo": {
      "Service options": [
        {
          "Curbside pickup": true
        },
        {
          "Drive-through": true
        },
        {
          "In-store pickup": true
        }
      ],
      "Accessibility": [
        {
          "Wheelchair accessible entrance": true
        },
        {
          "Wheelchair accessible parking lot": true
        }
      ],
      "Offerings": [
        {
          "Naloxone": true
        }
      ],
      "Planning": [
        {
          "Quick visit": true
        }
      ],
      "Payments": [
        {
          "Checks": true
        },
        {
          "Credit cards": true
        },
        {
          "Debit cards": true
        }
      ]
    },
    "gasPrices": [],
    "url": "https://www.google.com/maps/search/?api=1&query=Walgreens%20Pharmacy&query_place_id=ChIJG7f_4YMCv4cRjSfc7K3WFag",
    "searchPageUrl": "https://www.google.com/maps/search/independent%20pharmacy%20Topeka%20KS/@69.9064287015676,-156.56290792837981,9z?hl=en",
    "searchString": "independent pharmacy Topeka KS",
    "language": "en",
    "rank": 20,
    "isAdvertisement": false,
    "imageUrl": "https://lh3.googleusercontent.com/p/AF1QipOLhylGYblOH4xblE5-1TuLIzC1eUqF9By7Jh5a=w525-h240-k-no",
    "kgmid": "/g/11cn94zmjb",
    "classification": "chain",
    "is_independent": false,
    "is_compounding": false,
    "confidence": 1.0,
    "source": "perplexity",
    "method": "llm"
  }
]