[
  {
    "title": "Lawrence Drug & Compounding Lab",
    "price": null,
    "categoryName": "Pharmacy",
    "address": "1454 E Republic Rd, Springfield, MO 65804",
    "neighborhood": null,
    "street": "1454 E Republic Rd",
    "city": "Springfield",
    "postalCode": "65804",
    "state": "Missouri",
    "countryCode": "US",
    "website": "http://www.lawrencedrug.com/",
    "phone": "(417) 886-6880",
    "phoneUnformatted": "+14178866880",
    "claimThisBusiness": false,
    "location": {
      "lat": 37.1369334,
      "lng": -93.2703715
    },
    "totalScore": 4.8,
    "permanentlyClosed": false,
    "temporarilyClosed": false,
    "placeId": null,
    "categories": [
      "Pharmacy"
    ],
    "fid": "0x87cf64c5a1a33c4d:0xcea872aa1c5801ea",
    "cid": "14891278242846081514",
    "reviewsCount": 174,
    "imagesCount": 15,
    "imageCategories": [],
    "scrapedAt": "2025-06-22T06:02:43.570Z",
    "googleFoodUrl": null,
    "hotelAds": [],
    "openingHours": [
      {
        "day": "Monday",
        "hours": "9\u202fAM to 6\u202fPM"
      },
      {
        "day": "Tuesday",
        "hours": "9\u202fAM to 6\u202fPM"
      },
      {
        "day": "Wednesday",
        "hours": "9\u202fAM to 6\u202fPM"
      },
      {
        "day": "Thursday",
        "hours": "9\u202fAM to 6\u202fPM"
      },
      {
        "day": "Friday",
        "hours": "9\u202fAM to 6\u202fPM"
      },
      {
        "day": "Saturday",
        "hours": "9\u202fAM to 1\u202fPM"
      },
      {
        "day": "Sunday",
        "hours": "Closed"
      }
    ],
    "peopleAlsoSearch": [],
    "placesTags": [],
    "reviewsTags": [],
    "additionalInfo": {
      "From the business": [
        {
          "Small business": true
        }
      ],
      "Service options": [
        {
          "Delivery": true
        },
        {
          "In-store pickup": true
        }
      ],
      "Accessibility": [
        {
          "Wheelchair accessible entrance": true
        },
        {
          "Wheelchair accessible parking lot": true
        }
      ],
      "Planning": [
        {
          "Quick visit": true
        }
      ],
      "Payments": [
        {
          "Credit cards": true
        },
        {
          "Debit cards": true
        },
        {
          "NFC mobile payments": true
        }
      ]
    },
    "gasPrices": [],
    "url": "https://www.google.com/maps/search/?api=1&query=Lawrence%20Drug%20%26%20Compounding%20Lab&query_place_id=ChIJTTyjocVkz4cR6gFYHKpyqM4",
    "searchPageUrl": "https://www.google.com/maps/search/independent%20pharmacy%20Springfield%20MO/@31.09059240533574,-102.31720148556776,8z?hl=en",
    "searchString": "independent pharmacy Springfield MO",
    "language": "en",
    "rank": 1,
    "isAdvertisement": false,
    "imageUrl": "https://lh3.googleusercontent.com/gps-cs-s/AC9h4npdMKsmBNYtX9dhEWjfeAlYl0KGQ9FfX08LW35UcW8IcElF0qdb7S1af_1MXF7IT0U1rprqn_1sjmfXk6HrF0PsU8VShxQAt2DO6wzw07VDBZuIiMPoqF-gqIzzkQ76VZQyLqb8=w408-h306-k-no",
    "kgmid": "/g/1tmpl0vv",
    "classification": "independent",
    "is_independent": true,
    "is_compounding": true,
    "confidence": 0.95,
    "source": "perplexity",
    "method": "llm"
  },
  {
    "title": "Grove Pharmacy",
    "price": null,
    "categoryName": "Pharmacy",
    "address": "3050 S National Ave #109, Springfield, MO 65804",
    "neighborhood": "Bradford Park",
    "street": "3050 S National Ave #109",
    "city": "Springfield",
    "postalCode": "65804",
    "state": "Missouri",
    "countryCode": "US",
    "website": "http://www.grovepharmacy.com/",
    "phone": "(417) 881-8822",
    "phoneUnformatted": "+14178818822",
    "claimThisBusiness": false,
    "location": {
      "lat": 37.1583515,
      "lng": -93.2768725
    },
    "totalScore": 4.7,
    "permanentlyClosed": false,
    "temporarilyClosed": false,
    "placeId": null,
    "categories": [
      "Pharmacy"
    ],
    "fid": "0x87cf64a260d7c7ad:0xa0e539960ee7e97f",
    "cid": "11593736132393167231",
    "reviewsCount": 249,
    "imagesCount": 33,
    "imageCategories": [],
    "scrapedAt": "2025-06-22T06:02:43.572Z",
    "googleFoodUrl": null,
    "hotelAds": [],
    "openingHours": [
      {
        "day": "Monday",
        "hours": "9\u202fAM to 6\u202fPM"
      },
      {
        "day": "Tuesday",
        "hours": "9\u202fAM to 6\u202fPM"
      },
      {
        "day": "Wednesday",
        "hours": "9\u202fAM to 6\u202fPM"
      },
      {
        "day": "Thursday",
        "hours": "9\u202fAM to 6\u202fPM"
      },
      {
        "day": "Friday",
        "hours": "9\u202fAM to 6\u202fPM"
      },
      {
        "day": "Saturday",
        "hours": "9\u202fAM to 1\u202fPM"
      },
      {
        "day": "Sunday",
        "hours": "Closed"
      }
    ],
    "peopleAlsoSearch": [],
    "placesTags": [],
    "reviewsTags": [],
    "additionalInfo": {
      "From the business": [
        {
          "Small business": true
        }
      ],
      "Service options": [
        {
          "Delivery": true
        },
        {
          "Drive-through": true
        },
        {
          "In-store pickup": true
        },
        {
          "In-store shopping": true
        },
        {
          "Same-day delivery": true
        }
      ],
      "Accessibility": [
        {
          "Wheelchair accessible entrance": true
        },
        {
          "Wheelchair accessible parking lot": true
        }
      ],
      "Planning": [
        {
          "Quick visit": true
        }
      ],
      "Payments": [
        {
          "Credit cards": true
        },
        {
          "Debit cards": true
        }
      ]
    },
    "gasPrices": [],
    "url": "https://www.google.com/maps/search/?api=1&query=Grove%20Pharmacy&query_place_id=ChIJrcfXYKJkz4cRf-nnDpY55aA",
    "searchPageUrl": "https://www.google.com/maps/search/independent%20pharmacy%20Springfield%20MO/@31.09059240533574,-102.31720148556776,8z?hl=en",
    "searchString": "independent pharmacy Springfield MO",
    "language": "en",
    "rank": 2,
    "isAdvertisement": false,
    "imageUrl": "https://lh3.googleusercontent.com/p/AF1QipMTiHr0sz9EHozhbhnIp3bggGQWIezd713bHG-R=w436-h240-k-no",
    "kgmid": "/g/1td5xpjy",
    "classification": "independent",
    "is_independent": true,
    "is_compounding": false,
    "confidence": 0.9,
    "source": "perplexity",
    "method": "llm"
  },
  {
    "title": "Alps Pharmacy",
    "price": null,
    "categoryName": "Pharmacy",
    "address": "2650 W Kearney St, Springfield, MO 65803",
    "neighborhood": "Tom Watkins",
    "street": "2650 W Kearney St",
    "city": "Springfield",
    "postalCode": "65803",
    "state": "Missouri",
    "countryCode": "US",
    "website": "http://alpspharmacy.com/",
    "phone": "(417) 865-1547",
    "phoneUnformatted": "+14178651547",
    "claimThisBusiness": false,
    "location": {
      "lat": 37.2404749,
      "lng": -93.3285822
    },
    "totalScore": 4.8,
    "permanentlyClosed": false,
    "temporarilyClosed": false,
    "placeId": null,
    "categories": [
      "Pharmacy"
    ],
    "fid": "0x87cf620f8b58a697:0x2075931b57bcf243",
    "cid": "2338937327134241347",
    "reviewsCount": 284,
    "imagesCount": 10,
    "imageCategories": [],
    "scrapedAt": "2025-06-22T06:02:43.572Z",
    "googleFoodUrl": null,
    "hotelAds": [],
    "openingHours": [
      {
        "day": "Monday",
        "hours": "8:30\u202fAM to 6:30\u202fPM"
      },
      {
        "day": "Tuesday",
        "hours": "8:30\u202fAM to 6:30\u202fPM"
      },
      {
        "day": "Wednesday",
        "hours": "8:30\u202fAM to 6:30\u202fPM"
      },
      {
        "day": "Thursday",
        "hours": "8:30\u202fAM to 6:30\u202fPM"
      },
      {
        "day": "Friday",
        "hours": "8:30\u202fAM to 6:30\u202fPM"
      },
      {
        "day": "Saturday",
        "hours": "8:30\u202fAM to 3\u202fPM"
      },
      {
        "day": "Sunday",
        "hours": "Closed"
      }
    ],
    "peopleAlsoSearch": [],
    "placesTags": [],
    "reviewsTags": [],
    "additionalInfo": {
      "Service options": [
        {
          "Delivery": true
        },
        {
          "Drive-through": true
        },
        {
          "In-store pickup": true
        },
        {
          "In-store shopping": true
        },
        {
          "Onsite services": true
        },
        {
          "Same-day delivery": true
        }
      ],
      "Accessibility": [
        {
          "Wheelchair accessible entrance": true
        },
        {
          "Wheelchair accessible parking lot": true
        }
      ],
      "Planning": [
        {
          "Quick visit": true
        }
      ],
      "Payments": [
        {
          "Credit cards": true
        },
        {
          "Debit cards": true
        },
        {
          "NFC mobile payments": true
        },
        {
          "Credit cards": true
        }
      ]
    },
    "gasPrices": [],
    "url": "https://www.google.com/maps/search/?api=1&query=Alps%20Pharmacy&query_place_id=ChIJl6ZYiw9iz4cRQ_K8VxuTdSA",
    "searchPageUrl": "https://www.google.com/maps/search/independent%20pharmacy%20Springfield%20MO/@31.09059240533574,-102.31720148556776,8z?hl=en",
    "searchString": "independent pharmacy Springfield MO",
    "language": "en",
    "rank": 3,
    "isAdvertisement": false,
    "imageUrl": "https://lh3.googleusercontent.com/p/AF1QipPMJVCOCpwT_81LBxS6xL2rl0usFhOxuVnoRmmo=w408-h271-k-no",
    "kgmid": "/g/1tdsk9n4",
    "classification": "independent",
    "is_independent": true,
    "is_compounding": false,
    "confidence": 0.9,
    "source": "perplexity",
    "method": "llm"
  },
  {
    "title": "Bass Pro Shops Family Health Center Pharmacy",
    "price": null,
    "categoryName": "Pharmacy",
    "address": "2425 E Kearney St Ste 200, Springfield, MO 65803",
    "neighborhood": null,
    "street": "2425 E Kearney St Ste 200",
    "city": "Springfield",
    "postalCode": "65803",
    "state": "Missouri",
    "countryCode": "US",
    "phone": "(417) 520-1993",
    "phoneUnformatted": "+14175201993",
    "claimThisBusiness": false,
    "location": {
      "lat": 37.2401052,
      "lng": -93.2468524
    },
    "totalScore": 5,
    "permanentlyClosed": false,
    "temporarilyClosed": false,
    "placeId": null,
    "categories": [
      "Pharmacy"
    ],
    "fid": "0x87cf7d3847ad7f15:0x107f663274cbbbd9",
    "cid": "1188781193543007193",
    "reviewsCount": 6,
    "imagesCount": 7,
    "imageCategories": [],
    "scrapedAt": "2025-06-22T06:02:43.572Z",
    "googleFoodUrl": null,
    "hotelAds": [],
    "openingHours": [
      {
        "day": "Monday",
        "hours": "9\u202fAM to 5\u202fPM"
      },
      {
        "day": "Tuesday",
        "hours": "10:30\u202fAM to 6:30\u202fPM"
      },
      {
        "day": "Wednesday",
        "hours": "9\u202fAM to 5\u202fPM"
      },
      {
        "day": "Thursday",
        "hours": "9\u202fAM to 5\u202fPM"
      },
      {
        "day": "Friday",
        "hours": "8\u202fAM to 4\u202fPM"
      },
      {
        "day": "Saturday",
        "hours": "Closed"
      },
      {
        "day": "Sunday",
        "hours": "Closed"
      }
    ],
    "peopleAlsoSearch": [],
    "placesTags": [],
    "reviewsTags": [],
    "additionalInfo": {
      "Service options": [
        {
          "Delivery": true
        },
        {
          "Drive-through": true
        },
        {
          "In-store shopping": true
        },
        {
          "Onsite services": true
        },
        {
          "Same-day delivery": false
        },
        {
          "English": true
        }
      ],
      "Accessibility": [
        {
          "Wheelchair accessible entrance": true
        },
        {
          "Wheelchair accessible parking lot": true
        }
      ],
      "Payments": [
        {
          "Credit cards": true
        }
      ],
      "Parking": [
        {
          "Free parking lot": true
        }
      ]
    },
    "gasPrices": [],
    "url": "https://www.google.com/maps/search/?api=1&query=Bass%20Pro%20Shops%20Family%20Health%20Center%20Pharmacy&query_place_id=ChIJFX-tRzh9z4cR2bvLdDJmfxA",
    "searchPageUrl": "https://www.google.com/maps/search/independent%20pharmacy%20Springfield%20MO/@31.09059240533574,-102.31720148556776,8z?hl=en",
    "searchString": "independent pharmacy Springfield MO",
    "language": "en",
    "rank": 4,
    "isAdvertisement": false,
    "imageUrl": "https://lh3.googleusercontent.com/gps-cs-s/AC9h4noNixQSRuHqtTW_6vz4BrKuLAZi_h8AF3qcj3avZXaXJMBjN0YA5paZk_E02K40S9QR_du43oTF6_ZR8yuhfpWTQ9TXsA5Lq40bOgZW9kNXn7OhGwjI-M16mPzVWeJwKmYz2LJbmg=w408-h541-k-no",
    "kgmid": "/g/11kpg7k3k8",
    "classification": "not_a_pharmacy",
    "is_independent": false,
    "is_compounding": false,
    "confidence": 0.9,
    "source": "perplexity",
    "method": "llm"
  },
  {
    "title": "Springfield MediCenter Pharmacy",
    "price": null,
    "categoryName": "Pharmacy",
    "address": "1474 N Boonville Ave, Springfield, MO 65802",
    "neighborhood": "Midtown",
    "street": "1474 N Boonville Ave",
    "city": "Springfield",
    "postalCode": "65802",
    "state": "Missouri",
    "countryCode": "US",
    "website": "https://www.medicenterpharmacy.com/springfield",
    "phone": "(417) 869-1866",
    "phoneUnformatted": "+14178691866",
    "claimThisBusiness": false,
    "location": {
      "lat": 37.2258729,
      "lng": -93.2917187
    },
    "totalScore": 4.5,
    "permanentlyClosed": false,
    "temporarilyClosed": false,
    "placeId": null,
    "categories": [
      "Pharmacy"
    ],
    "fid": "0x87cf62f3c60c5279:0x411b77d1e88608b8",
    "cid": "4691475180269471928",
    "reviewsCount": 76,
    "imagesCount": 10,
    "imageCategories": [],
    "scrapedAt": "2025-06-22T06:02:43.573Z",
    "googleFoodUrl": null,
    "hotelAds": [],
    "openingHours": [
      {
        "day": "Monday",
        "hours": "9\u202fAM to 6\u202fPM"
      },
      {
        "day": "Tuesday",
        "hours": "9\u202fAM to 6\u202fPM"
      },
      {
        "day": "Wednesday",
        "hours": "9\u202fAM to 6\u202fPM"
      },
      {
        "day": "Thursday",
        "hours": "9\u202fAM to 6\u202fPM"
      },
      {
        "day": "Friday",
        "hours": "9\u202fAM to 6\u202fPM"
      },
      {
        "day": "Saturday",
        "hours": "9\u202fAM to 1\u202fPM"
      },
      {
        "day": "Sunday",
        "hours": "Closed"
      }
    ],
    "peopleAlsoSearch": [],
    "placesTags": [],
    "reviewsTags": [],
    "additionalInfo": {
      "From the business": [
        {
          "Small business": true
        }
      ],
      "Service options": [
        {
          "Delivery": true
        },
        {
          "Drive-through": true
        },
        {
          "In-store pickup": true
        },
        {
          "In-store shopping": true
        },
        {
          "Same-day delivery": true
        }
      ],
      "Accessibility": [
        {
          "Wheelchair accessible entrance": true
        },
        {
          "Wheelchair accessible parking lot": true
        }
      ],
      "Planning": [
        {
          "Quick visit": true
        }
      ],
      "Payments": [
        {
          "Credit cards": true
        },
        {
          "Debit cards": true
        },
        {
          "NFC mobile payments": true
        },
        {
          "Credit cards": true
        }
      ]
    },
    "gasPrices": [],
    "url": "https://www.google.com/maps/search/?api=1&query=Springfield%20MediCenter%20Pharmacy&query_place_id=ChIJeVIMxvNiz4cRuAiG6NF3G0E",
    "searchPageUrl": "https://www.google.com/maps/search/independent%20pharmacy%20Springfield%20MO/@31.09059240533574,-102.31720148556776,8z?hl=en",
    "searchString": "independent pharmacy Springfield MO",
    "language": "en",
    "rank": 5,
    "isAdvertisement": false,
    "imageUrl": "https://lh3.googleusercontent.com/gps-cs-s/AC9h4npwTsFScDLFoMh3GAZDSh7tjlwdQR9Ol-8HVLdQwyjLGA5nwvD0bYktNL_HxJ0zsvZ89ywEf66qcpX7iXPOS_FEUVKmcauihzpUNdLffKAmc2JRDFZpw3jzju96ia7RABTF17k=w408-h306-k-no",
    "kgmid": "/g/11h92dtycn",
    "classification": "independent",
    "is_independent": true,
    "is_compounding": false,
    "confidence": 0.9,
    "source": "perplexity",
    "method": "llm"
  },
  {
    "title": "Mercy Outpatient Pharmacy - Springfield",
    "price": null,
    "categoryName": "Pharmacy",
    "address": "1235 E Cherokee St, Springfield, MO 65804",
    "neighborhood": null,
    "street": "1235 E Cherokee St",
    "city": "Springfield",
    "postalCode": "65804",
    "state": "Missouri",
    "countryCode": "US",
    "website": "https://www.mercy.net/practice/mercy-outpatient-pharmacy-springfield?utm_source=google&utm_medium=organic_search&utm_campaign=yext&utm_term=Central&utm_content=website&y_source=1_MTI5OTYxOTYtNzE1LWxvY2F0aW9uLndlYnNpdGU%3D",
    "phone": "(417) 820-2752",
    "phoneUnformatted": "+14178202752",
    "claimThisBusiness": false,
    "location": {
      "lat": 37.1792676,
      "lng": -93.2744858
    },
    "totalScore": 4.6,
    "permanentlyClosed": false,
    "temporarilyClosed": false,
    "placeId": "ChIJu1M0nUNjz4cR2uv4TpeGvOU",
    "categories": [
      "Pharmacy",
      "Medical supply store"
    ],
    "fid": "0x87cf63439d3453bb:0xe5bc86974ef8ebda",
    "cid": "16554254314730220506",
    "reviewsCount": 17,
    "imagesCount": 2,
    "imageCategories": [],
    "scrapedAt": "2025-06-22T06:02:43.573Z",
    "googleFoodUrl": null,
    "hotelAds": [],
    "openingHours": [
      {
        "day": "Monday",
        "hours": "7\u202fAM to 9\u202fPM"
      },
      {
        "day": "Tuesday",
        "hours": "7\u202fAM to 9\u202fPM"
      },
      {
        "day": "Wednesday",
        "hours": "7\u202fAM to 9\u202fPM"
      },
      {
        "day": "Thursday",
        "hours": "7\u202fAM to 9\u202fPM"
      },
      {
        "day": "Friday",
        "hours": "7\u202fAM to 9\u202fPM"
      },
      {
        "day": "Saturday",
        "hours": "8\u202fAM to 4\u202fPM"
      },
      {
        "day": "Sunday",
        "hours": "8\u202fAM to 4\u202fPM"
      }
    ],
    "peopleAlsoSearch": [],
    "placesTags": [],
    "reviewsTags": [],
    "additionalInfo": {
      "Service options": [
        {
          "Delivery": true
        },
        {
          "In-store pickup": true
        }
      ],
      "Accessibility": [
        {
          "Wheelchair accessible entrance": true
        },
        {
          "Wheelchair accessible parking lot": true
        }
      ],
      "Payments": [
        {
          "Checks": true
        },
        {
          "Credit cards": true
        },
        {
          "Debit cards": true
        },
        {
          "NFC mobile payments": true
        },
        {
          "Credit cards": true
        }
      ]
    },
    "gasPrices": [],
    "url": "https://www.google.com/maps/search/?api=1&query=Mercy%20Outpatient%20Pharmacy%20-%20Springfield&query_place_id=ChIJu1M0nUNjz4cR2uv4TpeGvOU",
    "searchPageUrl": "https://www.google.com/maps/search/independent%20pharmacy%20Springfield%20MO/@31.09059240533574,-102.31720148556776,8z?hl=en",
    "searchString": "independent pharmacy Springfield MO",
    "language": "en",
    "rank": 6,
    "isAdvertisement": false,
    "imageUrl": "https://lh3.googleusercontent.com/p/AF1QipPq6u4X8ToFprGADsVZFycDs0Z5RJF_w16HW-7w=w408-h408-k-no",
    "kgmid": "/g/1hc2x6kcj",
    "classification": "hospital",
    "is_independent": false,
    "confidence": 1.0,
    "source": "rule-based"
  },
  {
    "title": "Integrity Pharmacy",
    "price": null,
    "categoryName": "Pharmacy",
    "address": "509 S Union Ave, Springfield, MO 65802",
    "neighborhood": null,
    "street": "509 S Union Ave",
    "city": "Springfield",
    "postalCode": "65802",
    "state": "Missouri",
    "countryCode": "US",
    "website": "https://www.integritypharmacy.com/",
    "phone": "(417) 865-2900",
    "phoneUnformatted": "+14178652900",
    "claimThisBusiness": false,
    "location": {
      "lat": 37.2042501,
      "lng": -93.2339911
    },
    "totalScore": 3.8,
    "permanentlyClosed": false,
    "temporarilyClosed": false,
    "placeId": null,
    "categories": [
      "Pharmacy",
      "Registered general nurse"
    ],
    "fid": "0x87cf7ce6ba5a7e17:0x80d5acd6527512ae",
    "cid": "9283516243400528558",
    "reviewsCount": 22,
    "imagesCount": 9,
    "imageCategories": [],
    "scrapedAt": "2025-06-22T06:02:43.573Z",
    "googleFoodUrl": null,
    "hotelAds": [],
    "openingHours": [
      {
        "day": "Monday",
        "hours": "8\u202fAM to 5\u202fPM"
      },
      {
        "day": "Tuesday",
        "hours": "8\u202fAM to 5\u202fPM"
      },
      {
        "day": "Wednesday",
        "hours": "8\u202fAM to 5\u202fPM"
      },
      {
        "day": "Thursday",
        "hours": "8\u202fAM to 5\u202fPM"
      },
      {
        "day": "Friday",
        "hours": "8\u202fAM to 5\u202fPM"
      },
      {
        "day": "Saturday",
        "hours": "Closed"
      },
      {
        "day": "Sunday",
        "hours": "Closed"
      }
    ],
    "peopleAlsoSearch": [],
    "placesTags": [],
    "reviewsTags": [],
    "additionalInfo": {
      "From the business": [
        {
          "Small business": true
        }
      ],
      "Service options": [
        {
          "Delivery": true
        },
        {
          "Drive-through": true
        },
        {
          "Same-day delivery": true
        }
      ],
      "Accessibility": [
        {
          "Wheelchair accessible entrance": true
        },
        {
          "Wheelchair accessible parking lot": true
        }
      ],
      "Payments": [
        {
          "Checks": true
        },
        {
          "Credit cards": true
        },
        {
          "Debit cards": true
        }
      ]
    },
    "gasPrices": [],
    "url": "https://www.google.com/maps/search/?api=1&query=Integrity%20Pharmacy&query_place_id=ChIJF35auuZ8z4cRrhJ1Utas1YA",
    "searchPageUrl": "https://www.google.com/maps/search/independent%20pharmacy%20Springfield%20MO/@31.09059240533574,-102.31720148556776,8z?hl=en",
    "searchString": "independent pharmacy Springfield MO",
    "language": "en",
    "rank": 7,
    "isAdvertisement": false,
    "imageUrl": "https://lh3.googleusercontent.com/p/AF1QipOucktQOWkui9R7koYzBqLxf5In1eZMCFQRHjoa=w408-h272-k-no",
    "kgmid": "/g/1vxvjd11",
    "classification": "independent",
    "is_independent": true,
    "is_compounding": false,
    "confidence": 0.9,
    "source": "perplexity",
    "method": "llm"
  },
  {
    "title": "Guardian Pharmacy of the Heartland",
    "price": null,
    "categoryName": "Pharmacy",
    "address": "2107 E Rockhurst St Suite C, Springfield, MO 65802",
    "neighborhood": null,
    "street": "2107 E Rockhurst St Suite C",
    "city": "Springfield",
    "postalCode": "65802",
    "state": "Missouri",
    "countryCode": "US",
    "website": "https://guardianpharmacyheartland.com/",
    "phone": "(866) 860-4179",
    "phoneUnformatted": "+18668604179",
    "claimThisBusiness": false,
    "location": {
      "lat": 37.2137267,
      "lng": -93.2538108
    },
    "totalScore": 4.5,
    "permanentlyClosed": false,
    "temporarilyClosed": false,
    "placeId": null,
    "categories": [
      "Pharmacy"
    ],
    "fid": "0x87cf7d2b8338ebe9:0xabec7cfc3b083b0d",
    "cid": "12388414097753389837",
    "reviewsCount": 2,
    "imagesCount": 5,
    "imageCategories": [],
    "scrapedAt": "2025-06-22T06:02:43.573Z",
    "googleFoodUrl": null,
    "hotelAds": [],
    "openingHours": [
      {
        "day": "Monday",
        "hours": "8:30\u202fAM to 5\u202fPM"
      },
      {
        "day": "Tuesday",
        "hours": "8:30\u202fAM to 5\u202fPM"
      },
      {
        "day": "Wednesday",
        "hours": "8:30\u202fAM to 5\u202fPM"
      },
      {
        "day": "Thursday",
        "hours": "8:30\u202fAM to 5\u202fPM"
      },
      {
        "day": "Friday",
        "hours": "8:30\u202fAM to 5\u202fPM"
      },
      {
        "day": "Saturday",
        "hours": "1 to 5\u202fPM"
      },
      {
        "day": "Sunday",
        "hours": "1 to 5\u202fPM"
      }
    ],
    "peopleAlsoSearch": [],
    "placesTags": [],
    "reviewsTags": [],
    "additionalInfo": {
      "Accessibility": [
        {
          "Wheelchair accessible entrance": true
        },
        {
          "Wheelchair accessible parking lot": true
        }
      ],
      "Payments": [
        {
          "Credit cards": true
        },
        {
          "Debit cards": true
        },
        {
          "Credit cards": true
        }
      ]
    },
    "gasPrices": [],
    "url": "https://www.google.com/maps/search/?api=1&query=Guardian%20Pharmacy%20of%20the%20Heartland&query_place_id=ChIJ6es4gyt9z4cRDTsIO_x87Ks",
    "searchPageUrl": "https://www.google.com/maps/search/independent%20pharmacy%20Springfield%20MO/@31.09059240533574,-102.31720148556776,8z?hl=en",
    "searchString": "independent pharmacy Springfield MO",
    "language": "en",
    "rank": 8,
    "isAdvertisement": false,
    "imageUrl": "https://lh3.googleusercontent.com/p/AF1QipP2r0el4B8VcpHqmEMJNWLX-jAYlhEpu8Ovk3Jk=w408-h272-k-no",
    "kgmid": "/g/11g6_3bx99",
    "classification": "independent",
    "is_independent": true,
    "is_compounding": false,
    "confidence": 0.9,
    "source": "perplexity",
    "method": "llm"
  },
  {
    "title": "APO Pharmacy",
    "price": null,
    "categoryName": "Pharmacy",
    "address": "1636 S Glenstone Ave suite 108, Springfield, MO 65804",
    "neighborhood": "Oak Grove",
    "street": "1636 S Glenstone Ave suite 108",
    "city": "Springfield",
    "postalCode": "65804",
    "state": "Missouri",
    "countryCode": "US",
    "website": "https://apo-ozarkspharmacy.org/",
    "phone": "(417) 450-4848",
    "phoneUnformatted": "+14174504848",
    "claimThisBusiness": false,
    "location": {
      "lat": 37.1842041,
      "lng": -93.2617022
    },
    "totalScore": 5,
    "permanentlyClosed": false,
    "temporarilyClosed": false,
    "placeId": null,
    "categories": [
      "Pharmacy"
    ],
    "fid": "0x87cf639fdca11005:0xe082592f9f978792",
    "cid": "16177590872544085906",
    "reviewsCount": 1,
    "imagesCount": 7,
    "imageCategories": [],
    "scrapedAt": "2025-06-22T06:02:43.573Z",
    "googleFoodUrl": null,
    "hotelAds": [],
    "openingHours": [
      {
        "day": "Monday",
        "hours": "9\u202fAM to 6\u202fPM"
      },
      {
        "day": "Tuesday",
        "hours": "9\u202fAM to 6\u202fPM"
      },
      {
        "day": "Wednesday",
        "hours": "9\u202fAM to 6\u202fPM"
      },
      {
        "day": "Thursday",
        "hours": "9\u202fAM to 6\u202fPM"
      },
      {
        "day": "Friday",
        "hours": "9\u202fAM to 6\u202fPM"
      },
      {
        "day": "Saturday",
        "hours": "Closed"
      },
      {
        "day": "Sunday",
        "hours": "Closed"
      }
    ],
    "peopleAlsoSearch": [],
    "placesTags": [],
    "reviewsTags": [],
    "additionalInfo": {
      "Accessibility": [
        {
          "Wheelchair accessible entrance": true
        },
        {
          "Wheelchair accessible parking lot": true
        }
      ],
      "Payments": [
        {
          "Credit cards": true
        },
        {
          "Debit cards": true
        },
        {
          "NFC mobile payments": true
        },
        {
          "Credit cards": true
        }
      ]
    },
    "gasPrices": [],
    "url": "https://www.google.com/maps/search/?api=1&query=APO%20Pharmacy&query_place_id=ChIJBRCh3J9jz4cRkoeXny9ZguA",
    "searchPageUrl": "https://www.google.com/maps/search/independent%20pharmacy%20Springfield%20MO/@31.09059240533574,-102.31720148556776,8z?hl=en",
    "searchString": "independent pharmacy Springfield MO",
    "language": "en",
    "rank": 9,
    "isAdvertisement": false,
    "imageUrl": "https://lh3.googleusercontent.com/p/AF1QipNx8H8Hb1mGnhl94YevQrOGYTaqhNu7rdDlH7K4=w463-h240-k-no",
    "kgmid": "/g/11vx3cbz_n",
    "classification": "independent",
    "is_independent": true,
    "is_compounding": false,
    "confidence": 0.9,
    "source": "perplexity",
    "method": "llm"
  },
  {
    "title": "Mercy Pharmacy - Fremont",
    "price": null,
    "categoryName": "Pharmacy",
    "address": "1965 S Fremont Ave Suite 140, Springfield, MO 65804",
    "neighborhood": null,
    "street": "1965 S Fremont Ave Suite 140",
    "city": "Springfield",
    "postalCode": "65804",
    "state": "Missouri",
    "countryCode": "US",
    "website": "https://www.mercy.net/practice/mercy-pharmacy-fremont?utm_source=google&utm_medium=organic_search&utm_campaign=yext&utm_term=Central&utm_content=website&y_source=1_MTI5OTYyMDUtNzE1LWxvY2F0aW9uLndlYnNpdGU%3D",
    "phone": "(417) 820-3577",
    "phoneUnformatted": "+14178203577",
    "claimThisBusiness": false,
    "location": {
      "lat": 37.1785611,
      "lng": -93.2724267
    },
    "totalScore": 4.2,
    "permanentlyClosed": false,
    "temporarilyClosed": false,
    "placeId": "ChIJVUV_6ERjz4cRSJHKwykc6Fs",
    "categories": [
      "Pharmacy",
      "Medical supply store"
    ],
    "fid": "0x87cf6344e87f4555:0x5be81c29c3ca9148",
    "cid": "6622574217752383816",
    "reviewsCount": 18,
    "imagesCount": 5,
    "imageCategories": [],
    "scrapedAt": "2025-06-22T06:02:43.574Z",
    "googleFoodUrl": null,
    "hotelAds": [],
    "openingHours": [
      {
        "day": "Monday",
        "hours": "8:30\u202fAM to 1:30\u202fPM, 2 to 6\u202fPM"
      },
      {
        "day": "Tuesday",
        "hours": "8:30\u202fAM to 1:30\u202fPM, 2 to 6\u202fPM"
      },
      {
        "day": "Wednesday",
        "hours": "8:30\u202fAM to 1:30\u202fPM, 2 to 6\u202fPM"
      },
      {
        "day": "Thursday",
        "hours": "8:30\u202fAM to 1:30\u202fPM, 2 to 6\u202fPM"
      },
      {
        "day": "Friday",
        "hours": "8:30\u202fAM to 1:30\u202fPM, 2 to 6\u202fPM"
      },
      {
        "day": "Saturday",
        "hours": "Closed"
      },
      {
        "day": "Sunday",
        "hours": "Closed"
      }
    ],
    "peopleAlsoSearch": [],
    "placesTags": [],
    "reviewsTags": [],
    "additionalInfo": {
      "Service options": [
        {
          "Curbside pickup": true
        },
        {
          "Delivery": true
        },
        {
          "In-store pickup": true
        },
        {
          "In-store shopping": true
        }
      ],
      "Accessibility": [
        {
          "Wheelchair accessible entrance": true
        },
        {
          "Wheelchair accessible parking lot": true
        }
      ],
      "Payments": [
        {
          "Credit cards": true
        },
        {
          "Debit cards": true
        },
        {
          "NFC mobile payments": true
        },
        {
          "Credit cards": true
        }
      ]
    },
    "gasPrices": [],
    "url": "https://www.google.com/maps/search/?api=1&query=Mercy%20Pharmacy%20-%20Fremont&query_place_id=ChIJVUV_6ERjz4cRSJHKwykc6Fs",
    "searchPageUrl": "https://www.google.com/maps/search/independent%20pharmacy%20Springfield%20MO/@31.09059240533574,-102.31720148556776,8z?hl=en",
    "searchString": "independent pharmacy Springfield MO",
    "language": "en",
    "rank": 10,
    "isAdvertisement": false,
    "imageUrl": "https://lh3.googleusercontent.com/gps-cs-s/AC9h4noUR-zpMa7zJTZHJ_KuRVmnV8IfWjRK3h-sMXRTLaLEUjec-T2z8RwNXaJ5F-qGaLZL4W2W8AfDE58FcqEWP3pk_uqdMVPEIEsFwoMkKfCFzeMRtNl8FmZ7mZwhctcedNpoTlq3dw=w408-h725-k-no",
    "kgmid": "/g/1v3h_h_t",
    "classification": "hospital",
    "is_independent": false,
    "confidence": 1.0,
    "source": "rule-based"
  },
  {
    "title": "Orchard Hills Pharmacy",
    "price": null,
    "categoryName": "Pharmacy",
    "address": "3816 W Chestnut Expy, Springfield, MO 65802",
    "neighborhood": null,
    "street": "3816 W Chestnut Expy",
    "city": "Springfield",
    "postalCode": "65802",
    "state": "Missouri",
    "countryCode": "US",
    "website": "https://orchardhillspharmacy.com/",
    "phone": "(417) 868-8288",
    "phoneUnformatted": "+14178688288",
    "claimThisBusiness": false,
    "location": {
      "lat": 37.2118355,
      "lng": -93.3564124
    },
    "totalScore": 4.4,
    "permanentlyClosed": false,
    "temporarilyClosed": false,
    "placeId": null,
    "categories": [
      "Pharmacy",
      "Drug store"
    ],
    "fid": "0x87cf619ed81179c5:0x43bed47876cb6ac3",
    "cid": "4881572659970403011",
    "reviewsCount": 68,
    "imagesCount": 11,
    "imageCategories": [],
    "scrapedAt": "2025-06-22T06:02:43.574Z",
    "googleFoodUrl": null,
    "hotelAds": [],
    "openingHours": [
      {
        "day": "Monday",
        "hours": "8:30\u202fAM to 6\u202fPM"
      },
      {
        "day": "Tuesday",
        "hours": "8:30\u202fAM to 6\u202fPM"
      },
      {
        "day": "Wednesday",
        "hours": "8:30\u202fAM to 6\u202fPM"
      },
      {
        "day": "Thursday",
        "hours": "8:30\u202fAM to 6\u202fPM"
      },
      {
        "day": "Friday",
        "hours": "8:30\u202fAM to 6\u202fPM"
      },
      {
        "day": "Saturday",
        "hours": "8:30\u202fAM to 12\u202fPM"
      },
      {
        "day": "Sunday",
        "hours": "Closed"
      }
    ],
    "peopleAlsoSearch": [],
    "placesTags": [],
    "reviewsTags": [],
    "additionalInfo": {
      "Service options": [
        {
          "Curbside pickup": true
        },
        {
          "Delivery": true
        },
        {
          "Drive-through": true
        },
        {
          "In-store pickup": true
        },
        {
          "In-store shopping": true
        },
        {
          "Onsite services": true
        },
        {
          "Same-day delivery": true
        }
      ],
      "Accessibility": [
        {
          "Wheelchair accessible entrance": true
        },
        {
          "Wheelchair accessible parking lot": true
        }
      ],
      "Planning": [
        {
          "Quick visit": true
        }
      ],
      "Payments": [
        {
          "Credit cards": true
        },
        {
          "Debit cards": true
        },
        {
          "NFC mobile payments": true
        },
        {
          "Credit cards": true
        }
      ]
    },
    "gasPrices": [],
    "url": "https://www.google.com/maps/search/?api=1&query=Orchard%20Hills%20Pharmacy&query_place_id=ChIJxXkR2J5hz4cRw2rLdnjUvkM",
    "searchPageUrl": "https://www.google.com/maps/search/independent%20pharmacy%20Springfield%20MO/@31.09059240533574,-102.31720148556776,8z?hl=en",
    "searchString": "independent pharmacy Springfield MO",
    "language": "en",
    "rank": 11,
    "isAdvertisement": false,
    "imageUrl": "https://lh3.googleusercontent.com/gps-cs-s/AC9h4noSrhV1YI-gw1JE-Eiwl9viVqONLUmXkl8F5PmWm-E1GswwhRlOw7Nrv-qrPQUIjzdF6pnvHb3wQ960yOQ3nK-cF7z3ow68c2-2O0CAbxMhYuvldfw8dTerUSsqGkFz-iw2-55D=w426-h240-k-no",
    "kgmid": "/g/1tph283k",
    "classification": "independent",
    "is_independent": true,
    "is_compounding": false,
    "confidence": 0.9,
    "source": "perplexity",
    "method": "llm"
  },
  {
    "title": "CVS Pharmacy",
    "price": null,
    "categoryName": "Pharmacy",
    "address": "1153 E Elm St, Springfield, MO 65806",
    "neighborhood": "Walnut Street",
    "street": "1153 E Elm St",
    "city": "Springfield",
    "postalCode": "65806",
    "state": "Missouri",
    "countryCode": "US",
    "website": "https://www.cvs.com/store-locator/springfield-mo-pharmacies/1153-elm-st-springfield-mo-65806/storeid=10417?WT.mc_id=LS_GOOGLE_RX_10417",
    "phone": "(417) 831-0380",
    "phoneUnformatted": "+14178310380",
    "claimThisBusiness": false,
    "location": {
      "lat": 37.2056231,
      "lng": -93.2766209
    },
    "totalScore": 3.4,
    "permanentlyClosed": false,
    "temporarilyClosed": false,
    "placeId": "ChIJDxWloyFjz4cRhDj3FKjAmQs",
    "categories": [
      "Pharmacy"
    ],
    "fid": "0x87cf6321a3a5150f:0xb99c0a814f73884",
    "cid": "835911033992722564",
    "reviewsCount": 23,
    "imagesCount": 34,
    "imageCategories": [],
    "scrapedAt": "2025-06-22T06:02:43.574Z",
    "googleFoodUrl": null,
    "hotelAds": [],
    "openingHours": [
      {
        "day": "Monday",
        "hours": "9\u202fAM to 1:30\u202fPM, 2 to 7\u202fPM"
      },
      {
        "day": "Tuesday",
        "hours": "9\u202fAM to 1:30\u202fPM, 2 to 7\u202fPM"
      },
      {
        "day": "Wednesday",
        "hours": "9\u202fAM to 1:30\u202fPM, 2 to 7\u202fPM"
      },
      {
        "day": "Thursday",
        "hours": "9\u202fAM to 1:30\u202fPM, 2 to 7\u202fPM"
      },
      {
        "day": "Friday",
        "hours": "9\u202fAM to 1:30\u202fPM, 2 to 7\u202fPM"
      },
      {
        "day": "Saturday",
        "hours": "10\u202fAM to 1:30\u202fPM, 2 to 6\u202fPM"
      },
      {
        "day": "Sunday",
        "hours": "11\u202fAM to 1:30\u202fPM, 2 to 5\u202fPM"
      }
    ],
    "peopleAlsoSearch": [],
    "placesTags": [],
    "reviewsTags": [],
    "additionalInfo": {
      "Service options": [
        {
          "Delivery": true
        },
        {
          "Drive-through": true
        },
        {
          "In-store shopping": true
        }
      ],
      "Accessibility": [
        {
          "Wheelchair accessible entrance": true
        },
        {
          "Wheelchair accessible parking lot": true
        }
      ],
      "Offerings": [
        {
          "Naloxone": true
        }
      ],
      "Crowd": [
        {
          "LGBTQ+ friendly": true
        },
        {
          "Transgender safespace": true
        }
      ],
      "Planning": [
        {
          "Quick visit": true
        }
      ],
      "Payments": [
        {
          "Credit cards": true
        },
        {
          "Debit cards": true
        },
        {
          "NFC mobile payments": true
        },
        {
          "Credit cards": true
        }
      ]
    },
    "gasPrices": [],
    "url": "https://www.google.com/maps/search/?api=1&query=CVS%20Pharmacy&query_place_id=ChIJDxWloyFjz4cRhDj3FKjAmQs",
    "searchPageUrl": "https://www.google.com/maps/search/independent%20pharmacy%20Springfield%20MO/@31.09059240533574,-102.31720148556776,8z?hl=en",
    "searchString": "independent pharmacy Springfield MO",
    "language": "en",
    "rank": 12,
    "isAdvertisement": false,
    "imageUrl": "https://lh3.googleusercontent.com/p/AF1QipO_euQn8_7MQbOSmdZMJ4aY6nnpiR1GvPGnzcns=w408-h272-k-no",
    "kgmid": "/g/11c4675d35",
    "classification": "chain",
    "is_independent": false,
    "confidence": 1.0,
    "source": "rule-based"
  },
  {
    "title": "Battlefield Pharmacy",
    "price": null,
    "categoryName": "Pharmacy",
    "address": "4062 W Republic Rd, Battlefield, MO 65619",
    "neighborhood": null,
    "street": "4062 W Republic Rd",
    "city": "Battlefield",
    "postalCode": "65619",
    "state": "Missouri",
    "countryCode": "US",
    "website": "http://www.bfdrx.com/",
    "phone": "(417) 730-1456",
    "phoneUnformatted": "+14177301456",
    "claimThisBusiness": false,
    "location": {
      "lat": 37.1382868,
      "lng": -93.3636462
    },
    "totalScore": 4.8,
    "permanentlyClosed": false,
    "temporarilyClosed": false,
    "placeId": null,
    "categories": [
      "Pharmacy"
    ],
    "fid": "0x87cf67044f527035:0xc010d88bf9bf8553",
    "cid": "13839799750611666259",
    "reviewsCount": 45,
    "imagesCount": 14,
    "imageCategories": [],
    "scrapedAt": "2025-06-22T06:02:43.574Z",
    "googleFoodUrl": null,
    "hotelAds": [],
    "openingHours": [
      {
        "day": "Monday",
        "hours": "8:30\u202fAM to 6:30\u202fPM"
      },
      {
        "day": "Tuesday",
        "hours": "8:30\u202fAM to 6:30\u202fPM"
      },
      {
        "day": "Wednesday",
        "hours": "8:30\u202fAM to 6:30\u202fPM"
      },
      {
        "day": "Thursday",
        "hours": "8:30\u202fAM to 6:30\u202fPM"
      },
      {
        "day": "Friday",
        "hours": "8:30\u202fAM to 6:30\u202fPM"
      },
      {
        "day": "Saturday",
        "hours": "9\u202fAM to 1\u202fPM"
      },
      {
        "day": "Sunday",
        "hours": "Closed"
      }
    ],
    "peopleAlsoSearch": [],
    "placesTags": [],
    "reviewsTags": [],
    "additionalInfo": {
      "From the business": [
        {
          "Small business": true
        }
      ],
      "Service options": [
        {
          "Delivery": true
        },
        {
          "Drive-through": true
        },
        {
          "In-store pickup": true
        },
        {
          "Same-day delivery": true
        }
      ],
      "Accessibility": [
        {
          "Wheelchair accessible entrance": true
        },
        {
          "Wheelchair accessible parking lot": true
        }
      ],
      "Amenities": [
        {
          "Wi-Fi": true
        },
        {
          "Free Wi-Fi": true
        }
      ],
      "Planning": [
        {
          "Quick visit": true
        }
      ],
      "Payments": [
        {
          "Credit cards": true
        },
        {
          "Debit cards": true
        },
        {
          "NFC mobile payments": true
        },
        {
          "Credit cards": true
        }
      ]
    },
    "gasPrices": [],
    "url": "https://www.google.com/maps/search/?api=1&query=Battlefield%20Pharmacy&query_place_id=ChIJNXBSTwRnz4cRU4W_-YvYEMA",
    "searchPageUrl": "https://www.google.com/maps/search/independent%20pharmacy%20Springfield%20MO/@31.09059240533574,-102.31720148556776,8z?hl=en",
    "searchString": "independent pharmacy Springfield MO",
    "language": "en",
    "rank": 13,
    "isAdvertisement": false,
    "imageUrl": "https://lh3.googleusercontent.com/gps-cs-s/AC9h4nrwZrt3rn0ustTaod-SlG36RIj39Pii1RV4Ue_rEfxIhO7azX65XKOqwdGmjYXxsKa0Vp9ZJQplG5n-pUW5JvmiIWLxNZm4hfI5j7PApe_4hqud2Pyf8EsnJklLWN787IAO7rM=w408-h272-k-no",
    "kgmid": "/g/11hy9kg0bz",
    "classification": "independent",
    "is_independent": true,
    "is_compounding": false,
    "confidence": 0.9,
    "source": "perplexity",
    "method": "llm"
  },
  {
    "title": "Walgreens Specialty Pharmacy",
    "description": "Department of the Walgreens chain providing prescription medications & other health-related items.",
    "price": "$$",
    "categoryName": "Pharmacy",
    "address": "1500 E Sunshine St Suite 148, Springfield, MO 65804",
    "neighborhood": null,
    "street": "1500 E Sunshine St Suite 148",
    "city": "Springfield",
    "postalCode": "65804",
    "state": "Missouri",
    "countryCode": "US",
    "website": "https://www.walgreens.com/locator/walgreens-1500+e+sunshine+st-springfield-mo-65804/id=16534",
    "phone": "(417) 520-0607",
    "phoneUnformatted": "+14175200607",
    "claimThisBusiness": false,
    "location": {
      "lat": 37.181232,
      "lng": -93.268843
    },
    "totalScore": 4.4,
    "permanentlyClosed": false,
    "temporarilyClosed": false,
    "placeId": "ChIJF6kdDMdjz4cRNbo5AAehluk",
    "categories": [
      "Pharmacy"
    ],
    "fid": "0x87cf63c70c1da917:0xe996a1070039ba35",
    "cid": "16831817708784433717",
    "reviewsCount": 23,
    "imagesCount": 2,
    "imageCategories": [],
    "scrapedAt": "2025-06-22T06:02:43.575Z",
    "googleFoodUrl": null,
    "hotelAds": [],
    "openingHours": [
      {
        "day": "Monday",
        "hours": "8:30\u202fAM to 1:30\u202fPM, 2 to 5\u202fPM"
      },
      {
        "day": "Tuesday",
        "hours": "8:30\u202fAM to 1:30\u202fPM, 2 to 5\u202fPM"
      },
      {
        "day": "Wednesday",
        "hours": "8:30\u202fAM to 1:30\u202fPM, 2 to 5\u202fPM"
      },
      {
        "day": "Thursday",
        "hours": "8:30\u202fAM to 1:30\u202fPM, 2 to 5\u202fPM"
      },
      {
        "day": "Friday",
        "hours": "8:30\u202fAM to 1:30\u202fPM, 2 to 5\u202fPM"
      },
      {
        "day": "Saturday",
        "hours": "Closed"
      },
      {
        "day": "Sunday",
        "hours": "Closed"
      }
    ],
    "peopleAlsoSearch": [],
    "placesTags": [],
    "reviewsTags": [],
    "additionalInfo": {
      "Service options": [
        {
          "In-store pickup": true
        }
      ],
      "Accessibility": [
        {
          "Wheelchair accessible entrance": true
        },
        {
          "Wheelchair accessible parking lot": true
        }
      ],
      "Planning": [
        {
          "Quick visit": true
        }
      ],
      "Payments": [
        {
          "Credit cards": true
        }
      ]
    },
    "gasPrices": [],
    "url": "https://www.google.com/maps/search/?api=1&query=Walgreens%20Specialty%20Pharmacy&query_place_id=ChIJF6kdDMdjz4cRNbo5AAehluk",
    "searchPageUrl": "https://www.google.com/maps/search/independent%20pharmacy%20Springfield%20MO/@31.09059240533574,-102.31720148556776,8z?hl=en",
    "searchString": "independent pharmacy Springfield MO",
    "language": "en",
    "rank": 14,
    "isAdvertisement": false,
    "imageUrl": "https://lh3.googleusercontent.com/p/AF1QipOD0kMpJ6chXaWhzxa2M5c1Vive5XqErgng5WGN=w427-h240-k-no",
    "kgmid": "/g/11ghdq_z_q",
    "classification": "chain",
    "is_independent": false,
    "confidence": 1.0,
    "source": "rule-based"
  },
  {
    "title": "Mercy Pharmacy - Smith Glynn Callaway",
    "price": null,
    "categoryName": "Pharmacy",
    "address": "3231 S National Ave Suite 110, Springfield, MO 65807",
    "neighborhood": null,
    "street": "3231 S National Ave Suite 110",
    "city": "Springfield",
    "postalCode": "65807",
    "state": "Missouri",
    "countryCode": "US",
    "website": "https://www.mercy.net/practice/mercy-pharmacy-smith-glynn-callaway?utm_source=google&utm_medium=organic_search&utm_campaign=yext&utm_term=Central&utm_content=website&y_source=1_MTI5OTYyMDctNzE1LWxvY2F0aW9uLndlYnNpdGU%3D",
    "phone": "(417) 841-0116",
    "phoneUnformatted": "+14178410116",
    "claimThisBusiness": false,
    "location": {
      "lat": 37.1554548,
      "lng": -93.2795499
    },
    "totalScore": 3.7,
    "permanentlyClosed": false,
    "temporarilyClosed": false,
    "placeId": "ChIJ-03PDXJkz4cR_0VQcEjfTvQ",
    "categories": [
      "Pharmacy",
      "Medical supply store"
    ],
    "fid": "0x87cf64720dcf4dfb:0xf44edf48705045ff",
    "cid": "17604253495652795903",
    "reviewsCount": 21,
    "imagesCount": 12,
    "imageCategories": [],
    "scrapedAt": "2025-06-22T06:02:43.575Z",
    "googleFoodUrl": null,
    "hotelAds": [],
    "openingHours": [
      {
        "day": "Monday",
        "hours": "8\u202fAM to 1:30\u202fPM, 2 to 6\u202fPM"
      },
      {
        "day": "Tuesday",
        "hours": "8\u202fAM to 1:30\u202fPM, 2 to 6\u202fPM"
      },
      {
        "day": "Wednesday",
        "hours": "8\u202fAM to 1:30\u202fPM, 2 to 6\u202fPM"
      },
      {
        "day": "Thursday",
        "hours": "8\u202fAM to 1:30\u202fPM, 2 to 6\u202fPM"
      },
      {
        "day": "Friday",
        "hours": "8\u202fAM to 1:30\u202fPM, 2 to 6\u202fPM"
      },
      {
        "day": "Saturday",
        "hours": "9\u202fAM to 1\u202fPM"
      },
      {
        "day": "Sunday",
        "hours": "Closed"
      }
    ],
    "peopleAlsoSearch": [],
    "placesTags": [],
    "reviewsTags": [],
    "additionalInfo": {
      "Service options": [
        {
          "Curbside pickup": true
        },
        {
          "Delivery": true
        },
        {
          "In-store pickup": true
        },
        {
          "In-store shopping": true
        }
      ],
      "Accessibility": [
        {
          "Wheelchair accessible entrance": true
        },
        {
          "Wheelchair accessible parking lot": true
        }
      ],
      "Planning": [
        {
          "Quick visit": true
        }
      ],
      "Payments": [
        {
          "Checks": true
        },
        {
          "Credit cards": true
        },
        {
          "Debit cards": true
        },
        {
          "NFC mobile payments": true
        },
        {
          "Credit cards": true
        }
      ]
    },
    "gasPrices": [],
    "url": "https://www.google.com/maps/search/?api=1&query=Mercy%20Pharmacy%20-%20Smith%20Glynn%20Callaway&query_place_id=ChIJ-03PDXJkz4cR_0VQcEjfTvQ",
    "searchPageUrl": "https://www.google.com/maps/search/independent%20pharmacy%20Springfield%20MO/@31.09059240533574,-102.31720148556776,8z?hl=en",
    "searchString": "independent pharmacy Springfield MO",
    "language": "en",
    "rank": 15,
    "isAdvertisement": false,
    "imageUrl": "https://lh3.googleusercontent.com/gps-cs-s/AC9h4noOveMLD9xfdX7vEzQYO7-GZmXzaVGhcV4xQpTr8MCAYAV0-prko-N7FHSuuMa943_jLpjizAtjIWkO5bxjQfUtwb1qvPkPqQJtwKjaDGPXwV0WkPlL-CWrZDnJDfL1DpjbcqNF=w408-h544-k-no",
    "kgmid": "/g/1hc2fdy3r",
    "classification": "hospital",
    "is_independent": false,
    "confidence": 1.0,
    "source": "rule-based"
  },
  {
    "title": "Grove Pharmacy Glenstone -- CLOSED, now APO Pharmacy",
    "price": null,
    "categoryName": "Pharmacy",
    "address": "1925 S Glenstone Ave, Springfield, MO 65804",
    "neighborhood": null,
    "street": "1925 S Glenstone Ave",
    "city": "Springfield",
    "postalCode": "65804",
    "state": "Missouri",
    "countryCode": "US",
    "claimThisBusiness": true,
    "location": {
      "lat": 37.1793244,
      "lng": -93.2635686
    },
    "totalScore": 4.6,
    "permanentlyClosed": false,
    "temporarilyClosed": false,
    "placeId": null,
    "categories": [
      "Pharmacy"
    ],
    "fid": "0x87cf63905fdf0f81:0x86ba7a70d1ecddec",
    "cid": "9708206571727412716",
    "reviewsCount": 42,
    "imagesCount": 2,
    "imageCategories": [],
    "scrapedAt": "2025-06-22T06:02:43.575Z",
    "googleFoodUrl": null,
    "hotelAds": [],
    "openingHours": [
      {
        "day": "Monday",
        "hours": "9\u202fAM to 6\u202fPM"
      },
      {
        "day": "Tuesday",
        "hours": "9\u202fAM to 6\u202fPM"
      },
      {
        "day": "Wednesday",
        "hours": "9\u202fAM to 6\u202fPM"
      },
      {
        "day": "Thursday",
        "hours": "9\u202fAM to 6\u202fPM"
      },
      {
        "day": "Friday",
        "hours": "9\u202fAM to 6\u202fPM"
      },
      {
        "day": "Saturday",
        "hours": "Closed"
      },
      {
        "day": "Sunday",
        "hours": "Closed"
      }
    ],
    "peopleAlsoSearch": [],
    "placesTags": [],
    "reviewsTags": [],
    "additionalInfo": {
      "From the business": [
        {
          "Small business": true
        }
      ],
      "Service options": [
        {
          "Delivery": true
        },
        {
          "In-store pickup": true
        }
      ],
      "Accessibility": [
        {
          "Wheelchair accessible entrance": true
        },
        {
          "Wheelchair accessible parking lot": true
        }
      ],
      "Payments": [
        {
          "Credit cards": true
        },
        {
          "Debit cards": true
        },
        {
          "NFC mobile payments": true
        },
        {
          "Credit cards": true
        }
      ]
    },
    "gasPrices": [],
    "url": "https://www.google.com/maps/search/?api=1&query=Grove%20Pharmacy%20Glenstone%20--%20CLOSED%2C%20now%20APO%20Pharmacy&query_place_id=ChIJgQ_fX5Bjz4cR7N3s0XB6uoY",
    "searchPageUrl": "https://www.google.com/maps/search/independent%20pharmacy%20Springfield%20MO/@31.09059240533574,-102.31720148556776,8z?hl=en",
    "searchString": "independent pharmacy Springfield MO",
    "language": "en",
    "rank": 16,
    "isAdvertisement": false,
    "imageUrl": "https://lh3.googleusercontent.com/gps-cs-s/AC9h4no2mEtF8ki4e3UvxSZoGMFJLYjHwPCrXNWFawKDGQZgSHnZWejjb5mhDzfJvnY6FMaPPlRFzlOmqKYEyv9H5x6eW8-tRt4g6s4uVvujahmxkIlxa9RD9VVX3hJKSHKWEbbwr8K12g=w408-h1187-k-no",
    "kgmid": "/g/11f5qt9th7",
    "classification": "chain",
    "is_independent": false,
    "is_compounding": false,
    "confidence": 0.85,
    "source": "perplexity",
    "method": "llm"
  },
  {
    "title": "CoxHealth Community Pharmacy: Wheeler",
    "price": null,
    "categoryName": "Pharmacy",
    "address": "3800 S National Ave, Springfield, MO 65807",
    "neighborhood": "Bradford Park",
    "street": "3800 S National Ave",
    "city": "Springfield",
    "postalCode": "65807",
    "state": "Missouri",
    "countryCode": "US",
    "website": "https://www.coxhealth.com/",
    "phone": "(417) 269-5988",
    "phoneUnformatted": "+14172695988",
    "claimThisBusiness": false,
    "location": {
      "lat": 37.1463948,
      "lng": -93.2771335
    },
    "totalScore": 4.2,
    "permanentlyClosed": false,
    "temporarilyClosed": false,
    "placeId": null,
    "categories": [
      "Pharmacy"
    ],
    "fid": "0x87cf64bfe81bf8b5:0x4a20ad67c4754ee6",
    "cid": "5341459819250667238",
    "reviewsCount": 5,
    "imagesCount": 3,
    "imageCategories": [],
    "scrapedAt": "2025-06-22T06:02:43.575Z",
    "googleFoodUrl": null,
    "hotelAds": [],
    "openingHours": [
      {
        "day": "Monday",
        "hours": "9\u202fAM to 5:30\u202fPM"
      },
      {
        "day": "Tuesday",
        "hours": "9\u202fAM to 5:30\u202fPM"
      },
      {
        "day": "Wednesday",
        "hours": "9\u202fAM to 5:30\u202fPM"
      },
      {
        "day": "Thursday",
        "hours": "9\u202fAM to 5:30\u202fPM"
      },
      {
        "day": "Friday",
        "hours": "9\u202fAM to 5:30\u202fPM"
      },
      {
        "day": "Saturday",
        "hours": "Closed"
      },
      {
        "day": "Sunday",
        "hours": "Closed"
      }
    ],
    "peopleAlsoSearch": [],
    "placesTags": [],
    "reviewsTags": [],
    "additionalInfo": {
      "Service options": [
        {
          "Drive-through": true
        }
      ],
      "Accessibility": [
        {
          "Wheelchair accessible entrance": true
        },
        {
          "Wheelchair accessible parking lot": true
        }
      ],
      "Offerings": [
        {
          "Medication disposal": true
        }
      ],
      "Amenities": [
        {
          "Wi-Fi": true
        },
        {
          "Free Wi-Fi": true
        }
      ],
      "Payments": [
        {
          "Credit cards": true
        }
      ]
    },
    "gasPrices": [],
    "url": "https://www.google.com/maps/search/?api=1&query=CoxHealth%20Community%20Pharmacy%3A%20Wheeler&query_place_id=ChIJtfgb6L9kz4cR5k51xGetIEo",
    "searchPageUrl": "https://www.google.com/maps/search/independent%20pharmacy%20Springfield%20MO/@31.09059240533574,-102.31720148556776,8z?hl=en",
    "searchString": "independent pharmacy Springfield MO",
    "language": "en",
    "rank": 17,
    "isAdvertisement": false,
    "imageUrl": "https://lh3.googleusercontent.com/p/AF1QipOenGd-SIn37GuFyZ5XhzCSnh7_xsKt-kk60kxj=w426-h240-k-no",
    "kgmid": "/g/1vxzb4k6",
    "classification": "hospital",
    "is_independent": false,
    "is_compounding": false,
    "confidence": 0.95,
    "source": "perplexity",
    "method": "llm"
  },
  {
    "title": "Alps Specialty & Compounding Pharmacy",
    "price": null,
    "categoryName": "Pharmacy",
    "address": "105 S Ridgecrest Ave Suite 3A, Nixa, MO 65714",
    "neighborhood": null,
    "street": "105 S Ridgecrest Ave Suite 3A",
    "city": "Nixa",
    "postalCode": "65714",
    "state": "Missouri",
    "countryCode": "US",
    "website": "https://www.alpspharmacy.com/specialty",
    "phone": "(417) 719-4510",
    "phoneUnformatted": "+14177194510",
    "claimThisBusiness": false,
    "location": {
      "lat": 37.0428554,
      "lng": -93.2851844
    },
    "totalScore": 5,
    "permanentlyClosed": false,
    "temporarilyClosed": false,
    "placeId": null,
    "categories": [
      "Pharmacy",
      "Specialized clinic"
    ],
    "fid": "0x87cf63bb78251443:0x5e3394a66b18671c",
    "cid": "6787932505859712796",
    "reviewsCount": 296,
    "imagesCount": 5,
    "imageCategories": [],
    "scrapedAt": "2025-06-22T06:02:43.575Z",
    "googleFoodUrl": null,
    "hotelAds": [],
    "openingHours": [
      {
        "day": "Monday",
        "hours": "9\u202fAM to 5\u202fPM"
      },
      {
        "day": "Tuesday",
        "hours": "9\u202fAM to 5\u202fPM"
      },
      {
        "day": "Wednesday",
        "hours": "9\u202fAM to 5\u202fPM"
      },
      {
        "day": "Thursday",
        "hours": "9\u202fAM to 5\u202fPM"
      },
      {
        "day": "Friday",
        "hours": "9\u202fAM to 5\u202fPM"
      },
      {
        "day": "Saturday",
        "hours": "Closed"
      },
      {
        "day": "Sunday",
        "hours": "Closed"
      }
    ],
    "peopleAlsoSearch": [],
    "placesTags": [],
    "reviewsTags": [],
    "additionalInfo": {
      "From the business": [
        {
          "Small business": true
        }
      ],
      "Service options": [
        {
          "Delivery": true
        },
        {
          "English": true
        }
      ],
      "Accessibility": [
        {
          "Wheelchair accessible entrance": true
        },
        {
          "Wheelchair accessible parking lot": true
        },
        {
          "Wheelchair accessible restroom": true
        }
      ],
      "Payments": [
        {
          "Credit cards": true
        }
      ]
    },
    "gasPrices": [],
    "url": "https://www.google.com/maps/search/?api=1&query=Alps%20Specialty%20%26%20Compounding%20Pharmacy&query_place_id=ChIJQxQleLtjz4cRHGcYa6aUM14",
    "searchPageUrl": "https://www.google.com/maps/search/independent%20pharmacy%20Springfield%20MO/@31.09059240533574,-102.31720148556776,8z?hl=en",
    "searchString": "independent pharmacy Springfield MO",
    "language": "en",
    "rank": 18,
    "isAdvertisement": false,
    "imageUrl": "https://lh3.googleusercontent.com/p/AF1QipOuOfY0S2qmU9Yx1tTXoFxevMIoDo_hI1V_xR2C=w408-h392-k-no",
    "kgmid": "/g/11gl4t203d",
    "classification": "independent",
    "is_independent": true,
    "is_compounding": true,
    "confidence": 0.95,
    "source": "perplexity",
    "method": "llm"
  },
  {
    "title": "Walgreens Pharmacy",
    "description": "Department of the Walgreens chain providing prescription medications & other health-related items.",
    "price": "$$",
    "categoryName": "Pharmacy",
    "address": "1930 W Grand St, Springfield, MO 65802",
    "neighborhood": "Westside Community Betterment",
    "street": "1930 W Grand St",
    "city": "Springfield",
    "postalCode": "65802",
    "state": "Missouri",
    "countryCode": "US",
    "website": "https://www.walgreens.com/locator/walgreens-1930+w+grand+st-springfield-mo-65802/id=5286",
    "phone": "(417) 863-6416",
    "phoneUnformatted": "+14178636416",
    "claimThisBusiness": false,
    "location": {
      "lat": 37.196495,
      "lng": -93.3183861
    },
    "totalScore": 3.3,
    "permanentlyClosed": false,
    "temporarilyClosed": false,
    "placeId": "ChIJ3fIlD7hjz4cRScG4-isFj0U",
    "categories": [
      "Pharmacy"
    ],
    "fid": "0x87cf63b80f25f2dd:0x458f052bfab8c149",
    "cid": "5012230596734796105",
    "reviewsCount": 22,
    "imagesCount": 4,
    "imageCategories": [],
    "scrapedAt": "2025-06-22T06:02:43.575Z",
    "googleFoodUrl": null,
    "hotelAds": [],
    "openingHours": [
      {
        "day": "Monday",
        "hours": "9\u202fAM to 12\u202fPM"
      },
      {
        "day": "Tuesday",
        "hours": "Closed"
      },
      {
        "day": "Wednesday",
        "hours": "9\u202fAM to 1:30\u202fPM, 2 to 6\u202fPM"
      },
      {
        "day": "Thursday",
        "hours": "9\u202fAM to 1:30\u202fPM, 2 to 6\u202fPM"
      },
      {
        "day": "Friday",
        "hours": "9\u202fAM to 1:30\u202fPM, 2 to 6\u202fPM"
      },
      {
        "day": "Saturday",
        "hours": "Closed"
      },
      {
        "day": "Sunday",
        "hours": "Closed"
      }
    ],
    "additionalOpeningHours": {
      "Drive through": [
        {
          "day": "Monday",
          "hours": "9\u202fAM\u201312\u202fPM"
        },
        {
          "day": "Tuesday",
          "hours": "Closed"
        },
        {
          "day": "Wednesday",
          "hours": "9\u202fAM\u20131:30\u202fPM"
        },
        {
          "day": "Thursday",
          "hours": "9\u202fAM\u20131:30\u202fPM"
        },
        {
          "day": "Friday",
          "hours": "9\u202fAM\u20131:30\u202fPM"
        },
        {
          "day": "Saturday",
          "hours": "Closed"
        },
        {
          "day": "Sunday",
          "hours": "Closed"
        }
      ]
    },
    "peopleAlsoSearch": [],
    "placesTags": [],
    "reviewsTags": [],
    "additionalInfo": {
      "Service options": [
        {
          "Drive-through": true
        },
        {
          "In-store pickup": true
        }
      ],
      "Accessibility": [
        {
          "Wheelchair accessible entrance": true
        },
        {
          "Wheelchair accessible parking lot": true
        }
      ],
      "Offerings": [
        {
          "Naloxone": true
        }
      ],
      "Planning": [
        {
          "Quick visit": true
        }
      ],
      "Payments": [
        {
          "Credit cards": true
        },
        {
          "Debit cards": true
        }
      ]
    },
    "gasPrices": [],
    "url": "https://www.google.com/maps/search/?api=1&query=Walgreens%20Pharmacy&query_place_id=ChIJ3fIlD7hjz4cRScG4-isFj0U",
    "searchPageUrl": "https://www.google.com/maps/search/independent%20pharmacy%20Springfield%20MO/@31.09059240533574,-102.31720148556776,8z?hl=en",
    "searchString": "independent pharmacy Springfield MO",
    "language": "en",
    "rank": 19,
    "isAdvertisement": false,
    "imageUrl": "https://lh3.googleusercontent.com/p/AF1QipPRZOCBMv2H14mSshxL1fr1k3BXFSi0PY7WFO1v=w525-h240-k-no",
    "kgmid": "/g/11cn93sp4t",
    "classification": "chain",
    "is_independent": false,
    "confidence": 1.0,
    "source": "rule-based"
  },
  {
    "title": "Walgreens Pharmacy at Jordan Valley Community Health Center",
    "description": "Department of the Walgreens chain providing prescription medications & other health-related items.",
    "price": "$$",
    "categoryName": "Pharmacy",
    "address": "440 E Tampa St, Springfield, MO 65806",
    "neighborhood": null,
    "street": "440 E Tampa St",
    "city": "Springfield",
    "postalCode": "65806",
    "state": "Missouri",
    "countryCode": "US",
    "website": "https://www.walgreens.com/locator/walgreens-440+e+tampa+st-springfield-mo-65806/id=16250",
    "phone": "(417) 831-0001",
    "phoneUnformatted": "+14178310001",
    "claimThisBusiness": false,
    "location": {
      "lat": 37.2134507,
      "lng": -93.2884385
    },
    "totalScore": 4.3,
    "permanentlyClosed": false,
    "temporarilyClosed": false,
    "placeId": "ChIJfeotSuNiz4cR3hoJTHIVSAE",
    "categories": [
      "Pharmacy"
    ],
    "fid": "0x87cf62e34a2dea7d:0x14815724c091ade",
    "cid": "92347373007215326",
    "reviewsCount": 62,
    "imagesCount": 4,
    "imageCategories": [],
    "scrapedAt": "2025-06-22T06:02:43.576Z",
    "googleFoodUrl": null,
    "hotelAds": [],
    "openingHours": [
      {
        "day": "Monday",
        "hours": "7:30\u202fAM to 7\u202fPM"
      },
      {
        "day": "Tuesday",
        "hours": "7:30\u202fAM to 7\u202fPM"
      },
      {
        "day": "Wednesday",
        "hours": "7:30\u202fAM to 7\u202fPM"
      },
      {
        "day": "Thursday",
        "hours": "7:30\u202fAM to 7\u202fPM"
      },
      {
        "day": "Friday",
        "hours": "7:30\u202fAM to 7\u202fPM"
      },
      {
        "day": "Saturday",
        "hours": "8\u202fAM to 12\u202fPM"
      },
      {
        "day": "Sunday",
        "hours": "Closed"
      }
    ],
    "additionalOpeningHours": {
      "Pickup": [
        {
          "day": "Monday",
          "hours": "7:30\u202fAM\u20137\u202fPM"
        },
        {
          "day": "Tuesday",
          "hours": "7:30\u202fAM\u20137\u202fPM"
        },
        {
          "day": "Wednesday",
          "hours": "7:30\u202fAM\u20137\u202fPM"
        },
        {
          "day": "Thursday",
          "hours": "7:30\u202fAM\u20137\u202fPM"
        },
        {
          "day": "Friday",
          "hours": "7:30\u202fAM\u20137\u202fPM"
        },
        {
          "day": "Saturday",
          "hours": "8\u202fAM\u201312\u202fPM"
        },
        {
          "day": "Sunday",
          "hours": "Closed"
        }
      ]
    },
    "peopleAlsoSearch": [],
    "placesTags": [],
    "reviewsTags": [],
    "additionalInfo": {
      "Service options": [
        {
          "In-store pickup": true
        },
        {
          "Onsite services": true
        },
        {
          "Same-day delivery": false
        }
      ],
      "Accessibility": [
        {
          "Wheelchair accessible entrance": true
        },
        {
          "Wheelchair accessible parking lot": true
        }
      ],
      "Offerings": [
        {
          "Passport photos": true
        }
      ],
      "Planning": [
        {
          "Quick visit": true
        }
      ],
      "Payments": [
        {
          "Checks": true
        },
        {
          "Credit cards": true
        },
        {
          "Debit cards": true
        },
        {
          "NFC mobile payments": true
        },
        {
          "Credit cards": true
        }
      ]
    },
    "gasPrices": [],
    "url": "https://www.google.com/maps/search/?api=1&query=Walgreens%20Pharmacy%20at%20Jordan%20Valley%20Community%20Health%20Center&query_place_id=ChIJfeotSuNiz4cR3hoJTHIVSAE",
    "searchPageUrl": "https://www.google.com/maps/search/independent%20pharmacy%20Springfield%20MO/@31.09059240533574,-102.31720148556776,8z?hl=en",
    "searchString": "independent pharmacy Springfield MO",
    "language": "en",
    "rank": 20,
    "isAdvertisement": false,
    "imageUrl": "https://lh3.googleusercontent.com/gps-cs-s/AC9h4np1_y3i6Ez93fZeL2CPcLIAeAItudA_bF0UGkBAItTh1UkB8pd9-nSH9jgvVlukl-k0aE75M7Kv_Vd7-ofaHnKDwqQeZRYowbv2n7MYkR3xASERW-KeYZJLqsDDiyr5X2F9btaW9A=w408-h725-k-no",
    "kgmid": "/g/11dzw8bfhh",
    "classification": "chain",
    "is_independent": false,
    "confidence": 1.0,
    "source": "rule-based"
  }
]