[
  {
    "title": "Peoples Pharmacy, LLC",
    "price": null,
    "categoryName": "Pharmacy",
    "address": "1446 Church St suite c, Norfolk, VA 23504",
    "neighborhood": "Olde Huntersville",
    "street": "1446 Church St suite c",
    "city": "Norfolk",
    "postalCode": "23504",
    "state": "Virginia",
    "countryCode": "US",
    "website": "http://www.peoplespharmacyrx.com/",
    "phone": "(757) 227-4677",
    "phoneUnformatted": "+17572274677",
    "claimThisBusiness": false,
    "location": {
      "lat": 36.8612411,
      "lng": -76.2780777
    },
    "totalScore": 5,
    "permanentlyClosed": false,
    "temporarilyClosed": false,
    "placeId": null,
    "categories": [
      "Pharmacy",
      "Diabetes center",
      "Drug store",
      "Health consultant",
      "Holistic medicine practitioner"
    ],
    "fid": "0x89ba9822126b458d:0x6eb5df59b00a862b",
    "cid": "7977527891255264811",
    "reviewsCount": 49,
    "imagesCount": 25,
    "imageCategories": [],
    "scrapedAt": "2025-06-22T06:44:13.725Z",
    "googleFoodUrl": null,
    "hotelAds": [],
    "openingHours": [
      {
        "day": "Monday",
        "hours": "9\u202fAM to 5\u202fPM"
      },
      {
        "day": "Tuesday",
        "hours": "9\u202fAM to 5\u202fPM"
      },
      {
        "day": "Wednesday",
        "hours": "9\u202fAM to 5\u202fPM"
      },
      {
        "day": "Thursday",
        "hours": "9\u202fAM to 5\u202fPM"
      },
      {
        "day": "Friday",
        "hours": "9\u202fAM to 5\u202fPM"
      },
      {
        "day": "Saturday",
        "hours": "Closed"
      },
      {
        "day": "Sunday",
        "hours": "Closed"
      }
    ],
    "additionalOpeningHours": {
      "Pickup": [
        {
          "day": "Monday",
          "hours": "9\u202fAM\u20135\u202fPM"
        },
        {
          "day": "Tuesday",
          "hours": "9\u202fAM\u20135\u202fPM"
        },
        {
          "day": "Wednesday",
          "hours": "9\u202fAM\u20135\u202fPM"
        },
        {
          "day": "Thursday",
          "hours": "9\u202fAM\u20135\u202fPM"
        },
        {
          "day": "Friday",
          "hours": "9\u202fAM\u20135\u202fPM"
        },
        {
          "day": "Saturday",
          "hours": "Closed"
        },
        {
          "day": "Sunday",
          "hours": "Closed"
        }
      ]
    },
    "peopleAlsoSearch": [],
    "placesTags": [],
    "reviewsTags": [],
    "additionalInfo": {
      "From the business": [
        {
          "Identifies as Black-owned": true
        },
        {
          "Identifies as women-owned": true
        },
        {
          "Small business": true
        }
      ],
      "Service options": [
        {
          "Curbside pickup": true
        },
        {
          "Delivery": true
        },
        {
          "In-store pickup": true
        },
        {
          "In-store shopping": true
        },
        {
          "Onsite services": true
        },
        {
          "Same-day delivery": true
        }
      ],
      "Accessibility": [
        {
          "Wheelchair accessible entrance": true
        },
        {
          "Wheelchair accessible parking lot": true
        }
      ],
      "Crowd": [
        {
          "LGBTQ+ friendly": true
        },
        {
          "Transgender safespace": true
        }
      ],
      "Planning": [
        {
          "Appointment required": true
        }
      ],
      "Payments": [
        {
          "Credit cards": true
        },
        {
          "Debit cards": true
        },
        {
          "NFC mobile payments": true
        },
        {
          "Credit cards": true
        }
      ],
      "Parking": [
        {
          "Free parking lot": true
        },
        {
          "Free street parking": true
        },
        {
          "On-site parking": true
        }
      ]
    },
    "gasPrices": [],
    "url": "https://www.google.com/maps/search/?api=1&query=Peoples%20Pharmacy%2C%20LLC&query_place_id=ChIJjUVrEiKYuokRK4YKsFnftW4",
    "searchPageUrl": "https://www.google.com/maps/search/independent%20pharmacy%20Norfolk%20VA/@62.264056934850785,-143.9041190859444,9z?hl=en",
    "searchString": "independent pharmacy Norfolk VA",
    "language": "en",
    "rank": 1,
    "isAdvertisement": false,
    "imageUrl": "https://lh3.googleusercontent.com/gps-cs-s/AC9h4nonKaTk1DfZ4X0eYKqR8WElA1ZLOImcD7DTLtDiufqNgxrGjREe8AJ_bTW6EYpfzupeiy9XToRBPrsUMqAnO3-l6kql-ngqKbimyS7A8WuznpsRJf925cnaU5tmf6KV351QywlR=w408-h306-k-no",
    "kgmid": "/g/11g5zvb43l",
    "classification": "independent",
    "is_independent": true,
    "is_compounding": false,
    "confidence": 0.9,
    "source": "perplexity",
    "method": "llm"
  },
  {
    "title": "Bayview SRC Pharmacy",
    "price": null,
    "categoryName": "Pharmacy",
    "address": "710 E Little Creek Rd, Norfolk, VA 23518",
    "neighborhood": null,
    "street": "710 E Little Creek Rd",
    "city": "Norfolk",
    "postalCode": "23518",
    "state": "Virginia",
    "countryCode": "US",
    "website": "http://www.bayviewsrcpharmacy.com/",
    "phone": "(757) 819-4636",
    "phoneUnformatted": "+17578194636",
    "claimThisBusiness": false,
    "location": {
      "lat": 36.9164716,
      "lng": -76.253372
    },
    "totalScore": 4.8,
    "permanentlyClosed": false,
    "temporarilyClosed": false,
    "placeId": null,
    "categories": [
      "Pharmacy",
      "Drug store"
    ],
    "fid": "0x89ba974bf9070961:0x2a5fa90aeba20312",
    "cid": "3053344936748516114",
    "reviewsCount": 50,
    "imagesCount": 15,
    "imageCategories": [],
    "scrapedAt": "2025-06-22T06:44:13.726Z",
    "googleFoodUrl": null,
    "hotelAds": [],
    "openingHours": [
      {
        "day": "Monday",
        "hours": "9\u202fAM to 6\u202fPM"
      },
      {
        "day": "Tuesday",
        "hours": "9\u202fAM to 6\u202fPM"
      },
      {
        "day": "Wednesday",
        "hours": "9\u202fAM to 6\u202fPM"
      },
      {
        "day": "Thursday",
        "hours": "9\u202fAM to 6\u202fPM"
      },
      {
        "day": "Friday",
        "hours": "9\u202fAM to 6\u202fPM"
      },
      {
        "day": "Saturday",
        "hours": "9\u202fAM to 2\u202fPM"
      },
      {
        "day": "Sunday",
        "hours": "Closed"
      }
    ],
    "peopleAlsoSearch": [],
    "placesTags": [],
    "reviewsTags": [],
    "additionalInfo": {
      "From the business": [
        {
          "Small business": true
        }
      ],
      "Service options": [
        {
          "Delivery": true
        },
        {
          "In-store pickup": true
        },
        {
          "Onsite services": true
        },
        {
          "Same-day delivery": true
        }
      ],
      "Accessibility": [
        {
          "Wheelchair accessible entrance": true
        },
        {
          "Wheelchair accessible parking lot": true
        }
      ],
      "Planning": [
        {
          "Quick visit": true
        }
      ],
      "Payments": [
        {
          "Checks": true
        },
        {
          "Credit cards": true
        },
        {
          "Debit cards": true
        },
        {
          "NFC mobile payments": true
        },
        {
          "Credit cards": true
        }
      ]
    },
    "gasPrices": [],
    "url": "https://www.google.com/maps/search/?api=1&query=Bayview%20SRC%20Pharmacy&query_place_id=ChIJYQkH-UuXuokREgOi6wqpXyo",
    "searchPageUrl": "https://www.google.com/maps/search/independent%20pharmacy%20Norfolk%20VA/@62.264056934850785,-143.9041190859444,9z?hl=en",
    "searchString": "independent pharmacy Norfolk VA",
    "language": "en",
    "rank": 2,
    "isAdvertisement": false,
    "imageUrl": "https://lh3.googleusercontent.com/gps-cs-s/AC9h4npuSfPdcZWwF1qY8yjil2n62dSnwitmqCyYJT-AvWepVhzKEx7_XAnWLlZONMYsGkH0G5BsYBTuyfS7a7aFqCW7Rk67kR9a0kf2F3ijQwLZybUamq3NI_GA-Pofz2U18q2EbUi8=w408-h306-k-no",
    "kgmid": "/g/11cly5ty_q",
    "classification": "independent",
    "is_independent": true,
    "is_compounding": false,
    "confidence": 0.85,
    "source": "perplexity",
    "method": "llm"
  },
  {
    "title": "Walgreens Specialty Pharmacy",
    "description": "Department of the Walgreens chain providing prescription medications & other health-related items.",
    "price": "$$",
    "categoryName": "Pharmacy",
    "address": "201 W 21st St STE 6, Norfolk, VA 23517",
    "neighborhood": "Ghent",
    "street": "201 W 21st St STE 6",
    "city": "Norfolk",
    "postalCode": "23517",
    "state": "Virginia",
    "countryCode": "US",
    "website": "https://www.walgreens.com/locator/walgreens-201+w+21st+st-norfolk-va-23517/id=16570",
    "phone": "(757) 278-2577",
    "phoneUnformatted": "+17572782577",
    "claimThisBusiness": false,
    "location": {
      "lat": 36.8679691,
      "lng": -76.287641
    },
    "totalScore": 4.4,
    "permanentlyClosed": false,
    "temporarilyClosed": false,
    "placeId": null,
    "categories": [
      "Pharmacy"
    ],
    "fid": "0x89ba983bee219c5b:0x7791533052ca2ffd",
    "cid": "8615759029148987389",
    "reviewsCount": 14,
    "imagesCount": 4,
    "imageCategories": [],
    "scrapedAt": "2025-06-22T06:44:13.726Z",
    "googleFoodUrl": null,
    "hotelAds": [],
    "openingHours": [
      {
        "day": "Monday",
        "hours": "8:30\u202fAM to 1:30\u202fPM, 2 to 5\u202fPM"
      },
      {
        "day": "Tuesday",
        "hours": "8:30\u202fAM to 1:30\u202fPM, 2 to 5\u202fPM"
      },
      {
        "day": "Wednesday",
        "hours": "8:30\u202fAM to 1:30\u202fPM, 2 to 5\u202fPM"
      },
      {
        "day": "Thursday",
        "hours": "8:30\u202fAM to 1:30\u202fPM, 2 to 5\u202fPM"
      },
      {
        "day": "Friday",
        "hours": "8:30\u202fAM to 1:30\u202fPM, 2 to 5\u202fPM"
      },
      {
        "day": "Saturday",
        "hours": "Closed"
      },
      {
        "day": "Sunday",
        "hours": "Closed"
      }
    ],
    "peopleAlsoSearch": [],
    "placesTags": [],
    "reviewsTags": [],
    "additionalInfo": {
      "Service options": [
        {
          "In-store pickup": true
        }
      ],
      "Accessibility": [
        {
          "Wheelchair accessible entrance": true
        },
        {
          "Wheelchair accessible parking lot": true
        }
      ],
      "Planning": [
        {
          "Quick visit": true
        }
      ],
      "Payments": [
        {
          "Credit cards": true
        },
        {
          "Credit cards": true
        }
      ]
    },
    "gasPrices": [],
    "url": "https://www.google.com/maps/search/?api=1&query=Walgreens%20Specialty%20Pharmacy&query_place_id=ChIJW5wh7juYuokR_S_KUjBTkXc",
    "searchPageUrl": "https://www.google.com/maps/search/independent%20pharmacy%20Norfolk%20VA/@62.264056934850785,-143.9041190859444,9z?hl=en",
    "searchString": "independent pharmacy Norfolk VA",
    "language": "en",
    "rank": 3,
    "isAdvertisement": false,
    "imageUrl": "https://lh3.googleusercontent.com/gps-cs-s/AC9h4np-zuOAr4GfNHoOE4TM3ts6dhayYj5ZYZFHq9vIZM4gkyYKM63Oj6vahawof7OSZvPYNSiJMzP-0AJmUHaL9z6TJijAzOguoVfE3Gz8969WDy0q3SdxyKIUSaRv15y7asgWQo60_Q=w408-h306-k-no",
    "kgmid": "/g/11f08_nkyk",
    "classification": "chain",
    "is_independent": false,
    "is_compounding": false,
    "confidence": 0.99,
    "source": "perplexity",
    "method": "llm"
  },
  {
    "title": "Deangelo Mark A",
    "price": null,
    "categoryName": "Pharmacy",
    "address": "600 Gresham Dr, Norfolk, VA 23507",
    "neighborhood": "Ghent",
    "street": "600 Gresham Dr",
    "city": "Norfolk",
    "postalCode": "23507",
    "state": "Virginia",
    "countryCode": "US",
    "phone": "(757) 388-1585",
    "phoneUnformatted": "+17573881585",
    "claimThisBusiness": true,
    "location": {
      "lat": 36.8628009,
      "lng": -76.3035092
    },
    "permanentlyClosed": false,
    "temporarilyClosed": false,
    "placeId": null,
    "categories": [
      "Pharmacy"
    ],
    "fid": "0x89ba9868305f36cf:0x57d1c6e1acbbed53",
    "cid": "6328057624000195923",
    "reviewsCount": 0,
    "imagesCount": 1,
    "imageCategories": [],
    "scrapedAt": "2025-06-22T06:44:13.727Z",
    "googleFoodUrl": null,
    "hotelAds": [],
    "openingHours": [],
    "peopleAlsoSearch": [],
    "placesTags": [],
    "reviewsTags": [],
    "additionalInfo": {
      "Accessibility": [
        {
          "Wheelchair accessible parking lot": true
        }
      ]
    },
    "gasPrices": [],
    "url": "https://www.google.com/maps/search/?api=1&query=Deangelo%20Mark%20A&query_place_id=ChIJzzZfMGiYuokRU-27rOHG0Vc",
    "searchPageUrl": "https://www.google.com/maps/search/independent%20pharmacy%20Norfolk%20VA/@62.264056934850785,-143.9041190859444,9z?hl=en",
    "searchString": "independent pharmacy Norfolk VA",
    "language": "en",
    "rank": 4,
    "isAdvertisement": false,
    "imageUrl": "https://streetviewpixels-pa.googleapis.com/v1/thumbnail?panoid=DHqjtkaOkWncrF8IySleyQ&cb_client=search.gws-prod.gps&w=408&h=240&yaw=149.1915&pitch=0&thumbfov=100",
    "kgmid": "/g/1tczwvfs",
    "classification": "independent",
    "is_independent": true,
    "is_compounding": false,
    "confidence": 0.85,
    "source": "perplexity",
    "method": "llm"
  },
  {
    "title": "Drive-Thru Pharmacy",
    "price": null,
    "categoryName": "Pharmacy",
    "address": "972 E Little Creek Rd, Norfolk, VA 23518",
    "neighborhood": null,
    "street": "972 E Little Creek Rd",
    "city": "Norfolk",
    "postalCode": "23518",
    "state": "Virginia",
    "countryCode": "US",
    "claimThisBusiness": true,
    "location": {
      "lat": 36.9154005,
      "lng": -76.2425154
    },
    "permanentlyClosed": false,
    "temporarilyClosed": false,
    "placeId": null,
    "categories": [
      "Pharmacy"
    ],
    "fid": "0x89ba97340c234e43:0x397cd5384536f4d4",
    "cid": "4142420194930128084",
    "reviewsCount": 0,
    "imagesCount": 1,
    "imageCategories": [],
    "scrapedAt": "2025-06-22T06:44:13.727Z",
    "googleFoodUrl": null,
    "hotelAds": [],
    "openingHours": [],
    "peopleAlsoSearch": [],
    "placesTags": [],
    "reviewsTags": [],
    "additionalInfo": {
      "Service options": [
        {
          "In-store pickup": true
        }
      ],
      "Accessibility": [
        {
          "Wheelchair accessible entrance": true
        },
        {
          "Wheelchair accessible parking lot": true
        }
      ],
      "Planning": [
        {
          "Quick visit": true
        }
      ],
      "Payments": [
        {
          "Credit cards": true
        }
      ]
    },
    "gasPrices": [],
    "url": "https://www.google.com/maps/search/?api=1&query=Drive-Thru%20Pharmacy&query_place_id=ChIJQ04jDDSXuokR1PQ2RTjVfDk",
    "searchPageUrl": "https://www.google.com/maps/search/independent%20pharmacy%20Norfolk%20VA/@62.264056934850785,-143.9041190859444,9z?hl=en",
    "searchString": "independent pharmacy Norfolk VA",
    "language": "en",
    "rank": 5,
    "isAdvertisement": false,
    "imageUrl": "https://streetviewpixels-pa.googleapis.com/v1/thumbnail?panoid=srnMsk6RPb5V_lCRoobt2w&cb_client=search.gws-prod.gps&w=408&h=240&yaw=312.6457&pitch=0&thumbfov=100",
    "kgmid": "/g/11cs2hbp4y",
    "classification": "independent",
    "is_independent": true,
    "is_compounding": false,
    "confidence": 0.85,
    "source": "perplexity",
    "method": "llm"
  },
  {
    "title": "Walgreens Pharmacy",
    "description": "Department of the Walgreens chain providing prescription medications & other health-related items.",
    "price": "$$",
    "categoryName": "Pharmacy",
    "address": "2232 E Little Creek Rd, Norfolk, VA 23518",
    "neighborhood": "Larrymore Lawns",
    "street": "2232 E Little Creek Rd",
    "city": "Norfolk",
    "postalCode": "23518",
    "state": "Virginia",
    "countryCode": "US",
    "website": "https://www.walgreens.com/locator/walgreens-2232+e+little+creek+rd-norfolk-va-23518/id=4924",
    "phone": "(757) 480-4116",
    "phoneUnformatted": "+17574804116",
    "claimThisBusiness": false,
    "location": {
      "lat": 36.9155699,
      "lng": -76.2208054
    },
    "totalScore": 2.4,
    "permanentlyClosed": false,
    "temporarilyClosed": false,
    "placeId": null,
    "categories": [
      "Pharmacy"
    ],
    "fid": "0x89ba96d4e84d023d:0x561891e5924d7763",
    "cid": "6203868901890946915",
    "reviewsCount": 14,
    "imagesCount": 3,
    "imageCategories": [],
    "scrapedAt": "2025-06-22T06:44:13.727Z",
    "googleFoodUrl": null,
    "hotelAds": [],
    "openingHours": [
      {
        "day": "Monday",
        "hours": "9\u202fAM to 1:30\u202fPM, 2 to 7\u202fPM"
      },
      {
        "day": "Tuesday",
        "hours": "9\u202fAM to 1:30\u202fPM, 2 to 7\u202fPM"
      },
      {
        "day": "Wednesday",
        "hours": "9\u202fAM to 1:30\u202fPM, 2 to 7\u202fPM"
      },
      {
        "day": "Thursday",
        "hours": "9\u202fAM to 1:30\u202fPM, 2 to 7\u202fPM"
      },
      {
        "day": "Friday",
        "hours": "9\u202fAM to 1:30\u202fPM, 2 to 7\u202fPM"
      },
      {
        "day": "Saturday",
        "hours": "9\u202fAM to 1:30\u202fPM, 2 to 6\u202fPM"
      },
      {
        "day": "Sunday",
        "hours": "10\u202fAM to 1:30\u202fPM, 2 to 6\u202fPM"
      }
    ],
    "additionalOpeningHours": {
      "Drive through": [
        {
          "day": "Monday",
          "hours": "9\u202fAM\u20131:30\u202fPM"
        },
        {
          "day": "Tuesday",
          "hours": "9\u202fAM\u20131:30\u202fPM"
        },
        {
          "day": "Wednesday",
          "hours": "9\u202fAM\u20131:30\u202fPM"
        },
        {
          "day": "Thursday",
          "hours": "9\u202fAM\u20131:30\u202fPM"
        },
        {
          "day": "Friday",
          "hours": "9\u202fAM\u20131:30\u202fPM"
        },
        {
          "day": "Saturday",
          "hours": "9\u202fAM\u20131:30\u202fPM"
        },
        {
          "day": "Sunday",
          "hours": "10\u202fAM\u20131:30\u202fPM"
        }
      ]
    },
    "peopleAlsoSearch": [],
    "placesTags": [],
    "reviewsTags": [],
    "additionalInfo": {
      "Service options": [
        {
          "Curbside pickup": true
        },
        {
          "Drive-through": true
        },
        {
          "In-store pickup": true
        }
      ],
      "Accessibility": [
        {
          "Wheelchair accessible entrance": true
        },
        {
          "Wheelchair accessible parking lot": true
        }
      ],
      "Offerings": [
        {
          "Naloxone": true
        }
      ],
      "Planning": [
        {
          "Quick visit": true
        }
      ],
      "Payments": [
        {
          "Checks": true
        },
        {
          "Credit cards": true
        },
        {
          "Debit cards": true
        }
      ]
    },
    "gasPrices": [],
    "url": "https://www.google.com/maps/search/?api=1&query=Walgreens%20Pharmacy&query_place_id=ChIJPQJN6NSWuokRY3dNkuWRGFY",
    "searchPageUrl": "https://www.google.com/maps/search/independent%20pharmacy%20Norfolk%20VA/@62.264056934850785,-143.9041190859444,9z?hl=en",
    "searchString": "independent pharmacy Norfolk VA",
    "language": "en",
    "rank": 6,
    "isAdvertisement": false,
    "imageUrl": "https://lh3.googleusercontent.com/p/AF1QipMwMs8nbTF8GjmrCFJtNUrShQtZFS_UoDNAE-wL=w525-h240-k-no",
    "kgmid": "/g/11c74j8914",
    "classification": "chain",
    "is_independent": false,
    "is_compounding": false,
    "confidence": 1.0,
    "source": "perplexity",
    "method": "llm"
  },
  {
    "title": "Harris Teeter Pharmacy",
    "price": null,
    "categoryName": "Pharmacy",
    "address": "1320 Colonial Ave, Norfolk, VA 23517",
    "neighborhood": "Ghent Square",
    "street": "1320 Colonial Ave",
    "city": "Norfolk",
    "postalCode": "23517",
    "state": "Virginia",
    "countryCode": "US",
    "website": "https://www.harristeeter.com/rx/pharmacy/details/097/00378?cid=loc_09700378P_gmb",
    "phone": "(757) 533-9360",
    "phoneUnformatted": "+17575339360",
    "claimThisBusiness": false,
    "location": {
      "lat": 36.8648919,
      "lng": -76.2926528
    },
    "totalScore": 3.4,
    "permanentlyClosed": false,
    "temporarilyClosed": false,
    "placeId": null,
    "categories": [
      "Pharmacy",
      "Drug store",
      "Health counselor",
      "Home health care service"
    ],
    "fid": "0x89ba99424c56a3b9:0x75b427592f090cbf",
    "cid": "8481447262240181439",
    "reviewsCount": 23,
    "imagesCount": 11,
    "imageCategories": [],
    "scrapedAt": "2025-06-22T06:44:13.727Z",
    "googleFoodUrl": null,
    "hotelAds": [],
    "openingHours": [
      {
        "day": "Monday",
        "hours": "9\u202fAM to 2\u202fPM, 2:30 to 8\u202fPM"
      },
      {
        "day": "Tuesday",
        "hours": "9\u202fAM to 2\u202fPM, 2:30 to 8\u202fPM"
      },
      {
        "day": "Wednesday",
        "hours": "9\u202fAM to 2\u202fPM, 2:30 to 8\u202fPM"
      },
      {
        "day": "Thursday",
        "hours": "9\u202fAM to 2\u202fPM, 2:30 to 8\u202fPM"
      },
      {
        "day": "Friday",
        "hours": "9\u202fAM to 2\u202fPM, 2:30 to 8\u202fPM"
      },
      {
        "day": "Saturday",
        "hours": "9\u202fAM to 2\u202fPM, 2:30 to 6\u202fPM"
      },
      {
        "day": "Sunday",
        "hours": "11\u202fAM to 2\u202fPM, 2:30 to 6\u202fPM"
      }
    ],
    "peopleAlsoSearch": [],
    "placesTags": [],
    "reviewsTags": [],
    "additionalInfo": {
      "Service options": [
        {
          "Curbside pickup": true
        },
        {
          "Delivery": true
        },
        {
          "In-store pickup": true
        },
        {
          "In-store shopping": true
        },
        {
          "Same-day delivery": true
        }
      ],
      "Accessibility": [
        {
          "Wheelchair accessible entrance": true
        },
        {
          "Wheelchair accessible parking lot": true
        },
        {
          "Wheelchair accessible restroom": true
        },
        {
          "Wheelchair accessible seating": true
        }
      ],
      "Crowd": [
        {
          "LGBTQ+ friendly": true
        },
        {
          "Transgender safespace": true
        }
      ],
      "Planning": [
        {
          "Quick visit": true
        }
      ],
      "Payments": [
        {
          "Checks": true
        },
        {
          "Credit cards": true
        },
        {
          "Debit cards": true
        },
        {
          "NFC mobile payments": true
        },
        {
          "Credit cards": true
        }
      ]
    },
    "gasPrices": [],
    "url": "https://www.google.com/maps/search/?api=1&query=Harris%20Teeter%20Pharmacy&query_place_id=ChIJuaNWTEKZuokRvwwJL1kntHU",
    "searchPageUrl": "https://www.google.com/maps/search/independent%20pharmacy%20Norfolk%20VA/@62.264056934850785,-143.9041190859444,9z?hl=en",
    "searchString": "independent pharmacy Norfolk VA",
    "language": "en",
    "rank": 7,
    "isAdvertisement": false,
    "imageUrl": "https://lh3.googleusercontent.com/p/AF1QipOGjWHNqbH3alHd_sQRrG7mWeILAdj7PiB_oCGM=w426-h240-k-no",
    "kgmid": "/g/11h0t4zbty",
    "classification": "chain",
    "is_independent": false,
    "is_compounding": false,
    "confidence": 0.98,
    "source": "perplexity",
    "method": "llm"
  },
  {
    "title": "CVS Pharmacy",
    "price": null,
    "categoryName": "Pharmacy",
    "address": "1245 N Military Hwy, Norfolk, VA 23502",
    "neighborhood": null,
    "street": "1245 N Military Hwy",
    "city": "Norfolk",
    "postalCode": "23502",
    "state": "Virginia",
    "countryCode": "US",
    "website": "https://www.cvs.com/store-locator/norfolk-va-pharmacies/1245-n-military-hwy-norfolk-va-23502/storeid=16433?WT.mc_id=LS_GOOGLE_RX_16433",
    "phone": "(757) 461-9356",
    "phoneUnformatted": "+17574619356",
    "claimThisBusiness": false,
    "location": {
      "lat": 36.8655714,
      "lng": -76.2129663
    },
    "totalScore": 4.2,
    "permanentlyClosed": false,
    "temporarilyClosed": false,
    "placeId": null,
    "categories": [
      "Pharmacy"
    ],
    "fid": "0x89ba965af9a2ebcb:0x1f03a77dd51c2c33",
    "cid": "2234813998994041907",
    "reviewsCount": 46,
    "imagesCount": 4,
    "imageCategories": [],
    "scrapedAt": "2025-06-22T06:44:13.727Z",
    "googleFoodUrl": null,
    "hotelAds": [],
    "openingHours": [
      {
        "day": "Monday",
        "hours": "9\u202fAM to 1:30\u202fPM, 2 to 7\u202fPM"
      },
      {
        "day": "Tuesday",
        "hours": "9\u202fAM to 1:30\u202fPM, 2 to 7\u202fPM"
      },
      {
        "day": "Wednesday",
        "hours": "9\u202fAM to 1:30\u202fPM, 2 to 7\u202fPM"
      },
      {
        "day": "Thursday",
        "hours": "9\u202fAM to 1:30\u202fPM, 2 to 7\u202fPM"
      },
      {
        "day": "Friday",
        "hours": "9\u202fAM to 1:30\u202fPM, 2 to 7\u202fPM"
      },
      {
        "day": "Saturday",
        "hours": "9\u202fAM to 1:30\u202fPM, 2 to 5\u202fPM"
      },
      {
        "day": "Sunday",
        "hours": "11\u202fAM to 1:30\u202fPM, 2 to 5\u202fPM"
      }
    ],
    "peopleAlsoSearch": [],
    "placesTags": [],
    "reviewsTags": [],
    "additionalInfo": {
      "Service options": [
        {
          "Delivery": true
        },
        {
          "In-store shopping": true
        },
        {
          "Onsite services": true
        }
      ],
      "Accessibility": [
        {
          "Wheelchair accessible entrance": true
        },
        {
          "Wheelchair accessible parking lot": true
        }
      ],
      "Offerings": [
        {
          "Naloxone": true
        }
      ],
      "Crowd": [
        {
          "LGBTQ+ friendly": true
        },
        {
          "Transgender safespace": true
        }
      ],
      "Planning": [
        {
          "Quick visit": true
        }
      ],
      "Payments": [
        {
          "Credit cards": true
        },
        {
          "Debit cards": true
        },
        {
          "Credit cards": true
        }
      ]
    },
    "gasPrices": [],
    "url": "https://www.google.com/maps/search/?api=1&query=CVS%20Pharmacy&query_place_id=ChIJy-ui-VqWuokRMywc1X2nAx8",
    "searchPageUrl": "https://www.google.com/maps/search/independent%20pharmacy%20Norfolk%20VA/@62.264056934850785,-143.9041190859444,9z?hl=en",
    "searchString": "independent pharmacy Norfolk VA",
    "language": "en",
    "rank": 8,
    "isAdvertisement": false,
    "imageUrl": "https://lh3.googleusercontent.com/p/AF1QipNPYv1O-OJO6Hkad9a5pozip7RHhcR5DIteDk7R=w408-h272-k-no",
    "kgmid": "/g/1ttq2_qc",
    "classification": "chain",
    "is_independent": false,
    "is_compounding": false,
    "confidence": 0.99,
    "source": "perplexity",
    "method": "llm"
  },
  {
    "title": "Harris Teeter Pharmacy",
    "price": null,
    "categoryName": "Pharmacy",
    "address": "7550 Granby St, Norfolk, VA 23505",
    "neighborhood": "Suburban Acres",
    "street": "7550 Granby St",
    "city": "Norfolk",
    "postalCode": "23505",
    "state": "Virginia",
    "countryCode": "US",
    "website": "https://www.harristeeter.com/rx/pharmacy/details/097/00407?cid=loc_09700407P_gmb",
    "phone": "(757) 588-4082",
    "phoneUnformatted": "+17575884082",
    "claimThisBusiness": false,
    "location": {
      "lat": 36.9138093,
      "lng": -76.2709366
    },
    "totalScore": 4.1,
    "permanentlyClosed": false,
    "temporarilyClosed": false,
    "placeId": null,
    "categories": [
      "Pharmacy",
      "Drug store",
      "Health counselor",
      "Home health care service"
    ],
    "fid": "0x89ba99fd6004f571:0x6a52499f1fad7e96",
    "cid": "7661266863890726550",
    "reviewsCount": 21,
    "imagesCount": 13,
    "imageCategories": [],
    "scrapedAt": "2025-06-22T06:44:13.727Z",
    "googleFoodUrl": null,
    "hotelAds": [],
    "openingHours": [
      {
        "day": "Monday",
        "hours": "9\u202fAM to 2\u202fPM, 2:30 to 8\u202fPM"
      },
      {
        "day": "Tuesday",
        "hours": "9\u202fAM to 2\u202fPM, 2:30 to 8\u202fPM"
      },
      {
        "day": "Wednesday",
        "hours": "9\u202fAM to 2\u202fPM, 2:30 to 8\u202fPM"
      },
      {
        "day": "Thursday",
        "hours": "9\u202fAM to 2\u202fPM, 2:30 to 8\u202fPM"
      },
      {
        "day": "Friday",
        "hours": "9\u202fAM to 2\u202fPM, 2:30 to 8\u202fPM"
      },
      {
        "day": "Saturday",
        "hours": "9\u202fAM to 2\u202fPM, 2:30 to 6\u202fPM"
      },
      {
        "day": "Sunday",
        "hours": "11\u202fAM to 2\u202fPM, 2:30 to 6\u202fPM"
      }
    ],
    "peopleAlsoSearch": [],
    "placesTags": [],
    "reviewsTags": [],
    "additionalInfo": {
      "Service options": [
        {
          "Curbside pickup": true
        },
        {
          "Delivery": true
        },
        {
          "In-store pickup": true
        },
        {
          "In-store shopping": true
        },
        {
          "Same-day delivery": true
        }
      ],
      "Accessibility": [
        {
          "Wheelchair accessible entrance": true
        },
        {
          "Wheelchair accessible parking lot": true
        },
        {
          "Wheelchair accessible restroom": true
        },
        {
          "Wheelchair accessible seating": true
        }
      ],
      "Crowd": [
        {
          "LGBTQ+ friendly": true
        },
        {
          "Transgender safespace": true
        }
      ],
      "Planning": [
        {
          "Quick visit": true
        }
      ],
      "Payments": [
        {
          "Checks": true
        },
        {
          "Credit cards": true
        },
        {
          "Debit cards": true
        },
        {
          "NFC mobile payments": true
        },
        {
          "Credit cards": true
        }
      ]
    },
    "gasPrices": [],
    "url": "https://www.google.com/maps/search/?api=1&query=Harris%20Teeter%20Pharmacy&query_place_id=ChIJcfUEYP2ZuokRln6tH59JUmo",
    "searchPageUrl": "https://www.google.com/maps/search/independent%20pharmacy%20Norfolk%20VA/@62.264056934850785,-143.9041190859444,9z?hl=en",
    "searchString": "independent pharmacy Norfolk VA",
    "language": "en",
    "rank": 9,
    "isAdvertisement": false,
    "imageUrl": "https://lh3.googleusercontent.com/p/AF1QipPhTHmMgC5tvmQzpKDsAu4zqZ8R2otFxx3Ht5Ol=w408-h408-k-no",
    "kgmid": "/g/11f0kyc6f_",
    "classification": "chain",
    "is_independent": false,
    "is_compounding": false,
    "confidence": 0.98,
    "source": "perplexity",
    "method": "llm"
  },
  {
    "title": "Rite Aid Pharmacy",
    "price": null,
    "categoryName": "Pharmacy",
    "address": "525 W 21st St, Norfolk, VA 23517",
    "neighborhood": "Ghent",
    "street": "525 W 21st St",
    "city": "Norfolk",
    "postalCode": "23517",
    "state": "Virginia",
    "countryCode": "US",
    "website": "https://www.riteaid.com/locations/va/norfolk/525-west-21st-street.html",
    "phone": "(757) 625-6073",
    "phoneUnformatted": "+17576256073",
    "claimThisBusiness": false,
    "location": {
      "lat": 36.8691439,
      "lng": -76.2930092
    },
    "totalScore": 3.9,
    "permanentlyClosed": false,
    "temporarilyClosed": true,
    "placeId": null,
    "categories": [
      "Pharmacy"
    ],
    "fid": "0x89ba9838947aaaab:0xbaeaca49b20de998",
    "cid": "13468800053473569176",
    "reviewsCount": 11,
    "imagesCount": 7,
    "imageCategories": [],
    "scrapedAt": "2025-06-22T06:44:13.728Z",
    "googleFoodUrl": null,
    "hotelAds": [],
    "openingHours": [],
    "additionalOpeningHours": {
      "Drive through": [
        {
          "day": "Monday",
          "hours": "9\u202fAM\u20138\u202fPM"
        },
        {
          "day": "Tuesday",
          "hours": "9\u202fAM\u20138\u202fPM"
        },
        {
          "day": "Wednesday",
          "hours": "9\u202fAM\u20138\u202fPM"
        },
        {
          "day": "Thursday",
          "hours": "9\u202fAM\u20138\u202fPM"
        },
        {
          "day": "Friday",
          "hours": "9\u202fAM\u20138\u202fPM"
        },
        {
          "day": "Saturday",
          "hours": "9\u202fAM\u20136\u202fPM"
        },
        {
          "day": "Sunday",
          "hours": "10\u202fAM\u20136\u202fPM"
        }
      ]
    },
    "peopleAlsoSearch": [],
    "placesTags": [],
    "reviewsTags": [],
    "additionalInfo": {
      "Service options": [
        {
          "Delivery": true
        },
        {
          "Drive-through": true
        },
        {
          "In-store pickup": true
        }
      ],
      "Accessibility": [
        {
          "Wheelchair accessible entrance": true
        },
        {
          "Wheelchair accessible parking lot": true
        }
      ],
      "Offerings": [
        {
          "Naloxone": true
        }
      ],
      "Planning": [
        {
          "Quick visit": true
        }
      ],
      "Payments": [
        {
          "Checks": true
        },
        {
          "Credit cards": true
        },
        {
          "Debit cards": true
        },
        {
          "NFC mobile payments": true
        },
        {
          "Credit cards": true
        }
      ]
    },
    "gasPrices": [],
    "url": "https://www.google.com/maps/search/?api=1&query=Rite%20Aid%20Pharmacy&query_place_id=ChIJq6p6lDiYuokRmOkNsknK6ro",
    "searchPageUrl": "https://www.google.com/maps/search/independent%20pharmacy%20Norfolk%20VA/@62.264056934850785,-143.9041190859444,9z?hl=en",
    "searchString": "independent pharmacy Norfolk VA",
    "language": "en",
    "rank": 10,
    "isAdvertisement": false,
    "imageUrl": "https://lh3.googleusercontent.com/p/AF1QipNsuqVAAuWDjlshqJDWFyNsq0QfDzveJ-VboreF=w408-h406-k-no",
    "kgmid": "/g/11d__pq3w7",
    "classification": "chain",
    "is_independent": false,
    "is_compounding": false,
    "confidence": 1.0,
    "source": "perplexity",
    "method": "llm"
  },
  {
    "title": "Walgreens Pharmacy",
    "description": "Department of the Walgreens chain providing prescription medications & other health-related items.",
    "price": "$$",
    "categoryName": "Pharmacy",
    "address": "810 W 21st St, Norfolk, VA 23517",
    "neighborhood": "Ghent",
    "street": "810 W 21st St",
    "city": "Norfolk",
    "postalCode": "23517",
    "state": "Virginia",
    "countryCode": "US",
    "website": "https://www.walgreens.com/locator/walgreens-810+w+21st+st-norfolk-va-23517/id=7644",
    "phone": "(757) 623-7213",
    "phoneUnformatted": "+17576237213",
    "claimThisBusiness": false,
    "location": {
      "lat": 36.8715467,
      "lng": -76.2968449
    },
    "totalScore": 2.1,
    "permanentlyClosed": false,
    "temporarilyClosed": false,
    "placeId": null,
    "categories": [
      "Pharmacy"
    ],
    "fid": "0x89ba9847b11167c9:0x4473cc729cdc0be8",
    "cid": "4932510809530829800",
    "reviewsCount": 50,
    "imagesCount": 5,
    "imageCategories": [],
    "scrapedAt": "2025-06-22T06:44:13.883Z",
    "googleFoodUrl": null,
    "hotelAds": [],
    "openingHours": [
      {
        "day": "Monday",
        "hours": "9\u202fAM to 1:30\u202fPM, 2 to 8\u202fPM"
      },
      {
        "day": "Tuesday",
        "hours": "9\u202fAM to 1:30\u202fPM, 2 to 8\u202fPM"
      },
      {
        "day": "Wednesday",
        "hours": "9\u202fAM to 1:30\u202fPM, 2 to 8\u202fPM"
      },
      {
        "day": "Thursday",
        "hours": "9\u202fAM to 1:30\u202fPM, 2 to 8\u202fPM"
      },
      {
        "day": "Friday",
        "hours": "9\u202fAM to 1:30\u202fPM, 2 to 8\u202fPM"
      },
      {
        "day": "Saturday",
        "hours": "9\u202fAM to 1:30\u202fPM, 2 to 6\u202fPM"
      },
      {
        "day": "Sunday",
        "hours": "10\u202fAM to 1:30\u202fPM, 2 to 6\u202fPM"
      }
    ],
    "additionalOpeningHours": {
      "Drive through": [
        {
          "day": "Monday",
          "hours": "9\u202fAM\u20131:30\u202fPM"
        },
        {
          "day": "Tuesday",
          "hours": "9\u202fAM\u20131:30\u202fPM"
        },
        {
          "day": "Wednesday",
          "hours": "9\u202fAM\u20131:30\u202fPM"
        },
        {
          "day": "Thursday",
          "hours": "9\u202fAM\u20131:30\u202fPM"
        },
        {
          "day": "Friday",
          "hours": "9\u202fAM\u20131:30\u202fPM"
        },
        {
          "day": "Saturday",
          "hours": "9\u202fAM\u20131:30\u202fPM"
        },
        {
          "day": "Sunday",
          "hours": "10\u202fAM\u20131:30\u202fPM"
        }
      ]
    },
    "peopleAlsoSearch": [],
    "placesTags": [],
    "reviewsTags": [],
    "additionalInfo": {
      "Service options": [
        {
          "Curbside pickup": true
        },
        {
          "Delivery": true
        },
        {
          "Drive-through": true
        },
        {
          "In-store pickup": true
        },
        {
          "Onsite services": true
        }
      ],
      "Accessibility": [
        {
          "Wheelchair accessible entrance": true
        },
        {
          "Wheelchair accessible parking lot": true
        }
      ],
      "Offerings": [
        {
          "Medication disposal": true
        },
        {
          "Naloxone": true
        }
      ],
      "Planning": [
        {
          "Quick visit": true
        }
      ],
      "Payments": [
        {
          "Checks": true
        },
        {
          "Credit cards": true
        },
        {
          "Debit cards": true
        }
      ]
    },
    "gasPrices": [],
    "url": "https://www.google.com/maps/search/?api=1&query=Walgreens%20Pharmacy&query_place_id=ChIJyWcRsUeYuokR6AvcnHLMc0Q",
    "searchPageUrl": "https://www.google.com/maps/search/independent%20pharmacy%20Norfolk%20VA/@42.54640259466427,-111.81587931391937,8z?hl=en",
    "searchString": "independent pharmacy Norfolk VA",
    "language": "en",
    "rank": 8,
    "isAdvertisement": false,
    "imageUrl": "https://lh3.googleusercontent.com/p/AF1QipNTg8tXek1arIOe3-x18GQsdd41UkDQ--TxZAou=w525-h240-k-no",
    "kgmid": "/g/11ckww_ytd",
    "classification": "chain",
    "is_independent": false,
    "is_compounding": false,
    "confidence": 1.0,
    "source": "perplexity",
    "method": "llm"
  },
  {
    "title": "Pharmacy Innovations",
    "price": null,
    "categoryName": "Pharmacy",
    "address": "3636 Virginia Beach Blvd Ste 107C, Virginia Beach, VA 23452",
    "neighborhood": "North Central",
    "street": "3636 Virginia Beach Blvd Ste 107C",
    "city": "Virginia Beach",
    "postalCode": "23452",
    "state": "Virginia",
    "countryCode": "US",
    "website": "http://pharmacyinnovations.net/",
    "phone": "(757) 934-0533",
    "phoneUnformatted": "+17579340533",
    "claimThisBusiness": false,
    "location": {
      "lat": 36.841563,
      "lng": -76.097283
    },
    "totalScore": 4.6,
    "permanentlyClosed": false,
    "temporarilyClosed": false,
    "placeId": null,
    "categories": [
      "Pharmacy"
    ],
    "fid": "0x89ba956b58fffff5:0xca0c741cdb0b5dc5",
    "cid": "14559139362664832453",
    "reviewsCount": 30,
    "imagesCount": 1,
    "imageCategories": [],
    "scrapedAt": "2025-06-22T06:44:19.651Z",
    "googleFoodUrl": null,
    "hotelAds": [],
    "openingHours": [
      {
        "day": "Monday",
        "hours": "9\u202fAM to 5:30\u202fPM"
      },
      {
        "day": "Tuesday",
        "hours": "9\u202fAM to 5:30\u202fPM"
      },
      {
        "day": "Wednesday",
        "hours": "9\u202fAM to 5:30\u202fPM"
      },
      {
        "day": "Thursday",
        "hours": "9\u202fAM to 5:30\u202fPM"
      },
      {
        "day": "Friday",
        "hours": "9\u202fAM to 5:30\u202fPM"
      },
      {
        "day": "Saturday",
        "hours": "Closed"
      },
      {
        "day": "Sunday",
        "hours": "Closed"
      }
    ],
    "peopleAlsoSearch": [],
    "placesTags": [],
    "reviewsTags": [],
    "additionalInfo": {
      "Service options": [
        {
          "Delivery": true
        },
        {
          "In-store pickup": true
        },
        {
          "Same-day delivery": true
        }
      ],
      "Accessibility": [
        {
          "Wheelchair accessible entrance": true
        },
        {
          "Wheelchair accessible parking lot": true
        }
      ],
      "Payments": [
        {
          "Credit cards": true
        },
        {
          "Debit cards": true
        },
        {
          "NFC mobile payments": true
        },
        {
          "Credit cards": true
        }
      ]
    },
    "gasPrices": [],
    "url": "https://www.google.com/maps/search/?api=1&query=Pharmacy%20Innovations&query_place_id=ChIJ9f__WGuVuokRxV0L2xx0DMo",
    "searchPageUrl": "https://www.google.com/maps/search/independent%20pharmacy%20Norfolk%20VA/@63.653579074253855,-163.4677018424355,9z?hl=en",
    "searchString": "independent pharmacy Norfolk VA",
    "language": "en",
    "rank": 5,
    "isAdvertisement": false,
    "imageUrl": "https://streetviewpixels-pa.googleapis.com/v1/thumbnail?panoid=75LgWiZT4E6fasolIcA9LQ&cb_client=search.gws-prod.gps&w=408&h=240&yaw=19.75732&pitch=0&thumbfov=100",
    "kgmid": "/g/11clt7tsl7",
    "classification": "independent",
    "is_independent": true,
    "is_compounding": false,
    "confidence": 0.85,
    "source": "perplexity",
    "method": "llm"
  },
  {
    "title": "Walgreens Pharmacy",
    "description": "Department of the Walgreens chain providing prescription medications & other health-related items.",
    "price": "$$",
    "categoryName": "Pharmacy",
    "address": "115 W Little Creek Rd, Norfolk, VA 23505",
    "neighborhood": "Wards Corner",
    "street": "115 W Little Creek Rd",
    "city": "Norfolk",
    "postalCode": "23505",
    "state": "Virginia",
    "countryCode": "US",
    "website": "https://www.walgreens.com/locator/walgreens-115+w+little+creek+rd-norfolk-va-23505/id=5876",
    "phone": "(757) 489-5291",
    "phoneUnformatted": "+17574895291",
    "claimThisBusiness": false,
    "location": {
      "lat": 36.9143772,
      "lng": -76.2734207
    },
    "totalScore": 3.8,
    "permanentlyClosed": false,
    "temporarilyClosed": false,
    "placeId": null,
    "categories": [
      "Pharmacy"
    ],
    "fid": "0x89ba99fd197e6231:0xf48520314226862b",
    "cid": "17619524513092240939",
    "reviewsCount": 28,
    "imagesCount": 5,
    "imageCategories": [],
    "scrapedAt": "2025-06-22T06:44:27.297Z",
    "googleFoodUrl": null,
    "hotelAds": [],
    "openingHours": [
      {
        "day": "Monday",
        "hours": "9\u202fAM to 1:30\u202fPM, 2 to 9\u202fPM"
      },
      {
        "day": "Tuesday",
        "hours": "9\u202fAM to 1:30\u202fPM, 2 to 9\u202fPM"
      },
      {
        "day": "Wednesday",
        "hours": "9\u202fAM to 1:30\u202fPM, 2 to 9\u202fPM"
      },
      {
        "day": "Thursday",
        "hours": "9\u202fAM to 1:30\u202fPM, 2 to 9\u202fPM"
      },
      {
        "day": "Friday",
        "hours": "9\u202fAM to 1:30\u202fPM, 2 to 9\u202fPM"
      },
      {
        "day": "Saturday",
        "hours": "9\u202fAM to 1:30\u202fPM, 2 to 6\u202fPM"
      },
      {
        "day": "Sunday",
        "hours": "10\u202fAM to 1:30\u202fPM, 2 to 6\u202fPM"
      }
    ],
    "additionalOpeningHours": {
      "Drive through": [
        {
          "day": "Monday",
          "hours": "9\u202fAM\u20131:30\u202fPM"
        },
        {
          "day": "Tuesday",
          "hours": "9\u202fAM\u20131:30\u202fPM"
        },
        {
          "day": "Wednesday",
          "hours": "9\u202fAM\u20131:30\u202fPM"
        },
        {
          "day": "Thursday",
          "hours": "9\u202fAM\u20131:30\u202fPM"
        },
        {
          "day": "Friday",
          "hours": "9\u202fAM\u20131:30\u202fPM"
        },
        {
          "day": "Saturday",
          "hours": "9\u202fAM\u20131:30\u202fPM"
        },
        {
          "day": "Sunday",
          "hours": "10\u202fAM\u20131:30\u202fPM"
        }
      ]
    },
    "peopleAlsoSearch": [],
    "placesTags": [],
    "reviewsTags": [],
    "additionalInfo": {
      "Service options": [
        {
          "Drive-through": true
        },
        {
          "In-store pickup": true
        },
        {
          "Onsite services": true
        }
      ],
      "Accessibility": [
        {
          "Wheelchair accessible entrance": true
        },
        {
          "Wheelchair accessible parking lot": true
        }
      ],
      "Planning": [
        {
          "Quick visit": true
        }
      ],
      "Payments": [
        {
          "Checks": true
        },
        {
          "Credit cards": true
        },
        {
          "Debit cards": true
        }
      ]
    },
    "gasPrices": [],
    "url": "https://www.google.com/maps/search/?api=1&query=Walgreens%20Pharmacy&query_place_id=ChIJMWJ-Gf2ZuokRK4YmQjEghfQ",
    "searchPageUrl": "https://www.google.com/maps/search/independent%20pharmacy%20Norfolk%20VA/@33.954544952667874,-86.48607177164843,8z?hl=en",
    "searchString": "independent pharmacy Norfolk VA",
    "language": "en",
    "rank": 9,
    "isAdvertisement": false,
    "imageUrl": "https://lh3.googleusercontent.com/gps-cs-s/AC9h4noioChfMb_bnKA3VQN-MLOf_z4Zl2L0rWXUw3das_6Pq_WJ7Ifg6v3MG_oehXLcj9uGWPuD0uvcYDGXy_HIzij8Sd5DSpi2c4h6UfliNaCA_RKo4PiOiWl2tfQCBctwPYMKAY9fKw=w408-h725-k-no",
    "kgmid": "/g/11cn95fcff",
    "classification": "chain",
    "is_independent": false,
    "is_compounding": false,
    "confidence": 1.0,
    "source": "perplexity",
    "method": "llm"
  },
  {
    "title": "CVS Pharmacy",
    "price": null,
    "categoryName": "Pharmacy",
    "address": "6678 E Virginia Beach Blvd, Norfolk, VA 23502",
    "neighborhood": "Hollywood Homes/Maple Hall",
    "street": "6678 E Virginia Beach Blvd",
    "city": "Norfolk",
    "postalCode": "23502",
    "state": "Virginia",
    "countryCode": "US",
    "website": "https://www.cvs.com/store-locator/norfolk-va-pharmacies/6678-east-virginia-beach-blvd-norfolk-va-23502/storeid=6403?WT.mc_id=LS_GOOGLE_RX_6403",
    "phone": "(757) 466-3670",
    "phoneUnformatted": "+17574663670",
    "claimThisBusiness": false,
    "location": {
      "lat": 36.854987,
      "lng": -76.1784645
    },
    "totalScore": 3.4,
    "permanentlyClosed": false,
    "temporarilyClosed": false,
    "placeId": null,
    "categories": [
      "Pharmacy"
    ],
    "fid": "0x89ba96761d95dca9:0xcf41876b90b5c4b2",
    "cid": "14934366735396357298",
    "reviewsCount": 29,
    "imagesCount": 18,
    "imageCategories": [],
    "scrapedAt": "2025-06-22T06:44:27.297Z",
    "googleFoodUrl": null,
    "hotelAds": [],
    "openingHours": [
      {
        "day": "Monday",
        "hours": "9\u202fAM to 1:30\u202fPM, 2 to 9\u202fPM"
      },
      {
        "day": "Tuesday",
        "hours": "9\u202fAM to 1:30\u202fPM, 2 to 9\u202fPM"
      },
      {
        "day": "Wednesday",
        "hours": "9\u202fAM to 1:30\u202fPM, 2 to 9\u202fPM"
      },
      {
        "day": "Thursday",
        "hours": "9\u202fAM to 1:30\u202fPM, 2 to 9\u202fPM"
      },
      {
        "day": "Friday",
        "hours": "9\u202fAM to 1:30\u202fPM, 2 to 9\u202fPM"
      },
      {
        "day": "Saturday",
        "hours": "9\u202fAM to 1:30\u202fPM, 2 to 6\u202fPM"
      },
      {
        "day": "Sunday",
        "hours": "10\u202fAM to 1:30\u202fPM, 2 to 6\u202fPM"
      }
    ],
    "peopleAlsoSearch": [],
    "placesTags": [],
    "reviewsTags": [],
    "additionalInfo": {
      "Service options": [
        {
          "Delivery": true
        },
        {
          "Drive-through": true
        },
        {
          "In-store shopping": true
        },
        {
          "Onsite services": true
        }
      ],
      "Accessibility": [
        {
          "Wheelchair accessible entrance": true
        },
        {
          "Wheelchair accessible parking lot": true
        }
      ],
      "Offerings": [
        {
          "Naloxone": true
        },
        {
          "Passport photos": true
        }
      ],
      "Crowd": [
        {
          "LGBTQ+ friendly": true
        },
        {
          "Transgender safespace": true
        }
      ],
      "Planning": [
        {
          "Quick visit": true
        }
      ],
      "Payments": [
        {
          "Credit cards": true
        },
        {
          "Debit cards": true
        },
        {
          "NFC mobile payments": true
        },
        {
          "SNAP/EBT": true
        },
        {
          "Credit cards": true
        }
      ]
    },
    "gasPrices": [],
    "url": "https://www.google.com/maps/search/?api=1&query=CVS%20Pharmacy&query_place_id=ChIJqdyVHXaWuokRssS1kGuHQc8",
    "searchPageUrl": "https://www.google.com/maps/search/independent%20pharmacy%20Norfolk%20VA/@33.954544952667874,-86.48607177164843,8z?hl=en",
    "searchString": "independent pharmacy Norfolk VA",
    "language": "en",
    "rank": 11,
    "isAdvertisement": false,
    "imageUrl": "https://lh3.googleusercontent.com/p/AF1QipNlBI_ukjeHbO57O5crRROqepp3QnHj9mXpQWU-=w408-h272-k-no",
    "kgmid": "/g/11c467btt1",
    "classification": "chain",
    "is_independent": false,
    "is_compounding": false,
    "confidence": 1.0,
    "source": "perplexity",
    "method": "llm"
  },
  {
    "title": "CVS Pharmacy",
    "price": null,
    "categoryName": "Pharmacy",
    "address": "4261 E Little Creek Rd, Norfolk, VA 23518",
    "neighborhood": "Camellia Shores",
    "street": "4261 E Little Creek Rd",
    "city": "Norfolk",
    "postalCode": "23518",
    "state": "Virginia",
    "countryCode": "US",
    "website": "https://www.cvs.com/store-locator/norfolk-va-pharmacies/4261-e-little-creek-rd-norfolk-va-23518/storeid=6146?WT.mc_id=LS_GOOGLE_RX_6146",
    "phone": "(757) 588-0123",
    "phoneUnformatted": "+17575880123",
    "claimThisBusiness": false,
    "location": {
      "lat": 36.9175767,
      "lng": -76.1931059
    },
    "totalScore": 4.4,
    "permanentlyClosed": false,
    "temporarilyClosed": false,
    "placeId": null,
    "categories": [
      "Pharmacy"
    ],
    "fid": "0x89ba914c4c076cc5:0xbc652a4c8eb31935",
    "cid": "13575303160078211381",
    "reviewsCount": 30,
    "imagesCount": 13,
    "imageCategories": [],
    "scrapedAt": "2025-06-22T06:44:27.297Z",
    "googleFoodUrl": null,
    "hotelAds": [],
    "openingHours": [
      {
        "day": "Monday",
        "hours": "9\u202fAM to 1:30\u202fPM, 2 to 8\u202fPM"
      },
      {
        "day": "Tuesday",
        "hours": "9\u202fAM to 1:30\u202fPM, 2 to 8\u202fPM"
      },
      {
        "day": "Wednesday",
        "hours": "9\u202fAM to 1:30\u202fPM, 2 to 8\u202fPM"
      },
      {
        "day": "Thursday",
        "hours": "9\u202fAM to 1:30\u202fPM, 2 to 8\u202fPM"
      },
      {
        "day": "Friday",
        "hours": "9\u202fAM to 1:30\u202fPM, 2 to 8\u202fPM"
      },
      {
        "day": "Saturday",
        "hours": "10\u202fAM to 1:30\u202fPM, 2 to 6\u202fPM"
      },
      {
        "day": "Sunday",
        "hours": "10\u202fAM to 1:30\u202fPM, 2 to 6\u202fPM"
      }
    ],
    "peopleAlsoSearch": [],
    "placesTags": [],
    "reviewsTags": [],
    "additionalInfo": {
      "Service options": [
        {
          "Delivery": true
        },
        {
          "Drive-through": true
        },
        {
          "In-store pickup": true
        },
        {
          "In-store shopping": true
        }
      ],
      "Accessibility": [
        {
          "Wheelchair accessible entrance": true
        },
        {
          "Wheelchair accessible parking lot": true
        }
      ],
      "Offerings": [
        {
          "Naloxone": true
        },
        {
          "Passport photos": true
        }
      ],
      "Crowd": [
        {
          "LGBTQ+ friendly": true
        },
        {
          "Transgender safespace": true
        }
      ],
      "Planning": [
        {
          "Quick visit": true
        }
      ],
      "Payments": [
        {
          "Credit cards": true
        },
        {
          "Debit cards": true
        },
        {
          "NFC mobile payments": true
        },
        {
          "Credit cards": true
        }
      ]
    },
    "gasPrices": [],
    "url": "https://www.google.com/maps/search/?api=1&query=CVS%20Pharmacy&query_place_id=ChIJxWwHTEyRuokRNRmzjkwqZbw",
    "searchPageUrl": "https://www.google.com/maps/search/independent%20pharmacy%20Norfolk%20VA/@33.954544952667874,-86.48607177164843,8z?hl=en",
    "searchString": "independent pharmacy Norfolk VA",
    "language": "en",
    "rank": 12,
    "isAdvertisement": false,
    "imageUrl": "https://lh3.googleusercontent.com/gps-cs-s/AC9h4npcT7EBWY_KxA6d_y4xc2mAMVqjXB_VDt3oeBU2lI94QSx3d-YTHbL08t4mfB2kDK9ymxNkbfSxm8OU6DF2sUidoabnXyrdRE4epdYE41FSBoeSZNKJ970m4EISgabU4oDQorU=w408-h306-k-no",
    "kgmid": "/g/11c461chk0",
    "classification": "chain",
    "is_independent": false,
    "is_compounding": false,
    "confidence": 1.0,
    "source": "perplexity",
    "method": "llm"
  },
  {
    "title": "CVS Pharmacy",
    "price": null,
    "categoryName": "Pharmacy",
    "address": "3717 Hampton Blvd, Norfolk, VA 23508",
    "neighborhood": "Kensington",
    "street": "3717 Hampton Blvd",
    "city": "Norfolk",
    "postalCode": "23508",
    "state": "Virginia",
    "countryCode": "US",
    "website": "https://www.cvs.com/store-locator/norfolk-va-pharmacies/3717-hampton-blvd-norfolk-va-23508/storeid=10021?WT.mc_id=LS_GOOGLE_RX_10021",
    "phone": "(757) 533-9134",
    "phoneUnformatted": "+17575339134",
    "claimThisBusiness": false,
    "location": {
      "lat": 36.8793422,
      "lng": -76.3024459
    },
    "totalScore": 2.8,
    "permanentlyClosed": false,
    "temporarilyClosed": false,
    "placeId": null,
    "categories": [
      "Pharmacy"
    ],
    "fid": "0x89ba984c29856995:0x62fd2cd893aa6018",
    "cid": "7132906693526708248",
    "reviewsCount": 41,
    "imagesCount": 8,
    "imageCategories": [],
    "scrapedAt": "2025-06-22T06:44:27.943Z",
    "googleFoodUrl": null,
    "hotelAds": [],
    "openingHours": [
      {
        "day": "Monday",
        "hours": "9\u202fAM to 1:30\u202fPM, 2 to 8\u202fPM"
      },
      {
        "day": "Tuesday",
        "hours": "9\u202fAM to 1:30\u202fPM, 2 to 8\u202fPM"
      },
      {
        "day": "Wednesday",
        "hours": "9\u202fAM to 1:30\u202fPM, 2 to 8\u202fPM"
      },
      {
        "day": "Thursday",
        "hours": "9\u202fAM to 1:30\u202fPM, 2 to 8\u202fPM"
      },
      {
        "day": "Friday",
        "hours": "9\u202fAM to 1:30\u202fPM, 2 to 8\u202fPM"
      },
      {
        "day": "Saturday",
        "hours": "9\u202fAM to 1:30\u202fPM, 2 to 6\u202fPM"
      },
      {
        "day": "Sunday",
        "hours": "10\u202fAM to 1:30\u202fPM, 2 to 6\u202fPM"
      }
    ],
    "peopleAlsoSearch": [],
    "placesTags": [],
    "reviewsTags": [],
    "additionalInfo": {
      "Service options": [
        {
          "Delivery": true
        },
        {
          "Drive-through": true
        },
        {
          "In-store shopping": true
        }
      ],
      "Accessibility": [
        {
          "Wheelchair accessible entrance": true
        },
        {
          "Wheelchair accessible parking lot": true
        }
      ],
      "Offerings": [
        {
          "Naloxone": true
        },
        {
          "Passport photos": true
        }
      ],
      "Crowd": [
        {
          "LGBTQ+ friendly": true
        },
        {
          "Transgender safespace": true
        }
      ],
      "Planning": [
        {
          "Quick visit": true
        }
      ],
      "Payments": [
        {
          "Credit cards": true
        },
        {
          "Debit cards": true
        },
        {
          "NFC mobile payments": true
        },
        {
          "Credit cards": true
        }
      ]
    },
    "gasPrices": [],
    "url": "https://www.google.com/maps/search/?api=1&query=CVS%20Pharmacy&query_place_id=ChIJlWmFKUyYuokRGGCqk9gs_WI",
    "searchPageUrl": "https://www.google.com/maps/search/independent%20pharmacy%20Norfolk%20VA/@69.21166763186608,-141.6025211145925,9z?hl=en",
    "searchString": "independent pharmacy Norfolk VA",
    "language": "en",
    "rank": 9,
    "isAdvertisement": false,
    "imageUrl": "https://lh3.googleusercontent.com/p/AF1QipNkBj-xEsXKADPgZ4riGFs3qL0SCJcyXT2eSxY7=w408-h272-k-no",
    "kgmid": "/g/11c461chkc",
    "classification": "chain",
    "is_independent": false,
    "is_compounding": false,
    "confidence": 1.0,
    "source": "perplexity",
    "method": "llm"
  },
  {
    "title": "CVS Pharmacy",
    "price": null,
    "categoryName": "Pharmacy",
    "address": "972 E Little Creek Rd, Norfolk, VA 23518",
    "neighborhood": null,
    "street": "972 E Little Creek Rd",
    "city": "Norfolk",
    "postalCode": "23518",
    "state": "Virginia",
    "countryCode": "US",
    "website": "https://www.cvs.com/store-locator/norfolk-va-pharmacies/972-e-little-creek-rd-norfolk-va-23518/storeid=1826?WT.mc_id=LS_GOOGLE_RX_1826",
    "phone": "(757) 480-2704",
    "phoneUnformatted": "+17574802704",
    "claimThisBusiness": false,
    "location": {
      "lat": 36.9150776,
      "lng": -76.2422606
    },
    "locatedIn": "CVS",
    "totalScore": 3.7,
    "permanentlyClosed": false,
    "temporarilyClosed": false,
    "placeId": null,
    "categories": [
      "Pharmacy"
    ],
    "fid": "0x89ba97340925a709:0xdca9340e2d6b486e",
    "cid": "15900297194904438894",
    "reviewsCount": 131,
    "imagesCount": 13,
    "imageCategories": [],
    "scrapedAt": "2025-06-22T06:44:28.772Z",
    "googleFoodUrl": null,
    "hotelAds": [],
    "openingHours": [
      {
        "day": "Monday",
        "hours": "9\u202fAM to 1:30\u202fPM, 2 to 9\u202fPM"
      },
      {
        "day": "Tuesday",
        "hours": "9\u202fAM to 1:30\u202fPM, 2 to 9\u202fPM"
      },
      {
        "day": "Wednesday",
        "hours": "9\u202fAM to 1:30\u202fPM, 2 to 9\u202fPM"
      },
      {
        "day": "Thursday",
        "hours": "9\u202fAM to 1:30\u202fPM, 2 to 9\u202fPM"
      },
      {
        "day": "Friday",
        "hours": "9\u202fAM to 1:30\u202fPM, 2 to 9\u202fPM"
      },
      {
        "day": "Saturday",
        "hours": "9\u202fAM to 1:30\u202fPM, 2 to 9\u202fPM"
      },
      {
        "day": "Sunday",
        "hours": "9\u202fAM to 1:30\u202fPM, 2 to 9\u202fPM"
      }
    ],
    "additionalOpeningHours": {
      "CVS": [
        {
          "day": "Monday",
          "hours": "7\u202fAM\u201312\u202fAM"
        },
        {
          "day": "Tuesday",
          "hours": "7\u202fAM\u201312\u202fAM"
        },
        {
          "day": "Wednesday",
          "hours": "7\u202fAM\u201312\u202fAM"
        },
        {
          "day": "Thursday",
          "hours": "7\u202fAM\u201312\u202fAM"
        },
        {
          "day": "Friday",
          "hours": "7\u202fAM\u201312\u202fAM"
        },
        {
          "day": "Saturday",
          "hours": "7\u202fAM\u201312\u202fAM"
        },
        {
          "day": "Sunday",
          "hours": "7\u202fAM\u201312\u202fAM"
        }
      ],
      "CVS Photo": [
        {
          "day": "Monday",
          "hours": "7\u202fAM\u201312\u202fAM"
        },
        {
          "day": "Tuesday",
          "hours": "7\u202fAM\u201312\u202fAM"
        },
        {
          "day": "Wednesday",
          "hours": "7\u202fAM\u201312\u202fAM"
        },
        {
          "day": "Thursday",
          "hours": "7\u202fAM\u201312\u202fAM"
        },
        {
          "day": "Friday",
          "hours": "7\u202fAM\u201312\u202fAM"
        },
        {
          "day": "Saturday",
          "hours": "7\u202fAM\u201312\u202fAM"
        },
        {
          "day": "Sunday",
          "hours": "7\u202fAM\u201312\u202fAM"
        }
      ]
    },
    "peopleAlsoSearch": [],
    "placesTags": [],
    "reviewsTags": [],
    "additionalInfo": {
      "Service options": [
        {
          "Delivery": true
        },
        {
          "Drive-through": true
        },
        {
          "In-store pickup": true
        },
        {
          "In-store shopping": true
        },
        {
          "Onsite services": true
        }
      ],
      "Accessibility": [
        {
          "Wheelchair accessible entrance": true
        },
        {
          "Wheelchair accessible parking lot": true
        }
      ],
      "Offerings": [
        {
          "Medication disposal": true
        },
        {
          "Naloxone": true
        },
        {
          "Passport photos": true
        }
      ],
      "Crowd": [
        {
          "LGBTQ+ friendly": true
        },
        {
          "Transgender safespace": true
        }
      ],
      "Planning": [
        {
          "Quick visit": true
        }
      ],
      "Payments": [
        {
          "Credit cards": true
        },
        {
          "Debit cards": true
        },
        {
          "Credit cards": true
        }
      ]
    },
    "gasPrices": [],
    "url": "https://www.google.com/maps/search/?api=1&query=CVS%20Pharmacy&query_place_id=ChIJCaclCTSXuokRbkhrLQ40qdw",
    "searchPageUrl": "https://www.google.com/maps/search/independent%20pharmacy%20Norfolk%20VA/@25.44454653065198,-170.69765594300242,13z?hl=en",
    "searchString": "independent pharmacy Norfolk VA",
    "language": "en",
    "rank": 5,
    "isAdvertisement": false,
    "imageUrl": "https://lh3.googleusercontent.com/p/AF1QipPz8Hcxk4tCAI12VJZAzMZLOofBd9SMlAptXlT8=w408-h272-k-no",
    "kgmid": "/g/1hc4s5jms",
    "classification": "chain",
    "is_independent": false,
    "is_compounding": false,
    "confidence": 1.0,
    "source": "perplexity",
    "method": "llm"
  },
  {
    "title": "CVS",
    "description": "Drugstore chain selling a variety of beauty & health products, plus some grocery & household items.",
    "price": null,
    "categoryName": "Drug store",
    "address": "972 E Little Creek Rd, Norfolk, VA 23518",
    "neighborhood": null,
    "street": "972 E Little Creek Rd",
    "city": "Norfolk",
    "postalCode": "23518",
    "state": "Virginia",
    "countryCode": "US",
    "website": "https://www.cvs.com/store-locator/norfolk-va-pharmacies/972-e-little-creek-rd-norfolk-va-23518/storeid=1826?WT.mc_id=LS_GOOGLE_FS_1826",
    "phone": "(757) 480-2704",
    "phoneUnformatted": "+17574802704",
    "claimThisBusiness": false,
    "location": {
      "lat": 36.9152982,
      "lng": -76.2423738
    },
    "locatedIn": "CVS Pharmacy",
    "totalScore": 2.9,
    "permanentlyClosed": false,
    "temporarilyClosed": false,
    "placeId": null,
    "categories": [
      "Drug store",
      "Beauty supply store",
      "Beer store",
      "Convenience store",
      "Cosmetics store",
      "Greeting card shop",
      "Perfume store",
      "Stationery store",
      "Vitamin & supplements store",
      "Wine store"
    ],
    "fid": "0x89ba979a67f933b9:0xbaec8a378876affa",
    "cid": "13469292556675624954",
    "reviewsCount": 150,
    "imagesCount": 15,
    "imageCategories": [],
    "scrapedAt": "2025-06-22T06:44:43.656Z",
    "googleFoodUrl": null,
    "hotelAds": [],
    "openingHours": [
      {
        "day": "Monday",
        "hours": "7\u202fAM to 12\u202fAM"
      },
      {
        "day": "Tuesday",
        "hours": "7\u202fAM to 12\u202fAM"
      },
      {
        "day": "Wednesday",
        "hours": "7\u202fAM to 12\u202fAM"
      },
      {
        "day": "Thursday",
        "hours": "7\u202fAM to 12\u202fAM"
      },
      {
        "day": "Friday",
        "hours": "7\u202fAM to 12\u202fAM"
      },
      {
        "day": "Saturday",
        "hours": "7\u202fAM to 12\u202fAM"
      },
      {
        "day": "Sunday",
        "hours": "7\u202fAM to 12\u202fAM"
      }
    ],
    "additionalOpeningHours": {
      "CVS Pharmacy": [
        {
          "day": "Monday",
          "hours": "9\u202fAM\u20131:30\u202fPM"
        },
        {
          "day": "Tuesday",
          "hours": "9\u202fAM\u20131:30\u202fPM"
        },
        {
          "day": "Wednesday",
          "hours": "9\u202fAM\u20131:30\u202fPM"
        },
        {
          "day": "Thursday",
          "hours": "9\u202fAM\u20131:30\u202fPM"
        },
        {
          "day": "Friday",
          "hours": "9\u202fAM\u20131:30\u202fPM"
        },
        {
          "day": "Saturday",
          "hours": "9\u202fAM\u20131:30\u202fPM"
        },
        {
          "day": "Sunday",
          "hours": "9\u202fAM\u20131:30\u202fPM"
        }
      ],
      "LibertyX Bitcoin ATM": [
        {
          "day": "Monday",
          "hours": "8\u202fAM\u201310\u202fPM"
        },
        {
          "day": "Tuesday",
          "hours": "8\u202fAM\u201310\u202fPM"
        },
        {
          "day": "Wednesday",
          "hours": "8\u202fAM\u201310\u202fPM"
        },
        {
          "day": "Thursday",
          "hours": "8\u202fAM\u201310\u202fPM"
        },
        {
          "day": "Friday",
          "hours": "8\u202fAM\u201310\u202fPM"
        },
        {
          "day": "Saturday",
          "hours": "8\u202fAM\u201310\u202fPM"
        },
        {
          "day": "Sunday",
          "hours": "8\u202fAM\u201310\u202fPM"
        }
      ]
    },
    "peopleAlsoSearch": [],
    "placesTags": [],
    "reviewsTags": [],
    "additionalInfo": {
      "Service options": [
        {
          "Delivery": true
        },
        {
          "Drive-through": true
        },
        {
          "In-store pickup": true
        },
        {
          "In-store shopping": true
        },
        {
          "Same-day delivery": false
        }
      ],
      "Accessibility": [
        {
          "Wheelchair accessible entrance": true
        },
        {
          "Wheelchair accessible parking lot": true
        }
      ],
      "Offerings": [
        {
          "Passport photos": true
        }
      ],
      "Crowd": [
        {
          "LGBTQ+ friendly": true
        },
        {
          "Transgender safespace": true
        }
      ],
      "Planning": [
        {
          "Quick visit": true
        }
      ],
      "Payments": [
        {
          "Credit cards": true
        },
        {
          "Debit cards": true
        },
        {
          "SNAP/EBT": true
        },
        {
          "Credit cards": true
        }
      ]
    },
    "gasPrices": [],
    "url": "https://www.google.com/maps/search/?api=1&query=CVS&query_place_id=ChIJuTP5Z5qXuokR-q92iDeK7Lo",
    "searchPageUrl": "https://www.google.com/maps/search/independent%20pharmacy%20Norfolk%20VA/@57.40072944694004,-134.6977272005368,9z?hl=en",
    "searchString": "independent pharmacy Norfolk VA",
    "language": "en",
    "rank": 8,
    "isAdvertisement": false,
    "imageUrl": "https://lh3.googleusercontent.com/p/AF1QipN1euVsZAamY12qhwjrfS6H2TG7w2u22_4cHifo=w408-h272-k-no",
    "kgmid": "/g/11j6f73pb9",
    "classification": "chain",
    "is_independent": false,
    "is_compounding": false,
    "confidence": 0.99,
    "source": "perplexity",
    "method": "llm"
  },
  {
    "title": "BEDEI COMPOUNDING PHARMACY SERVICES",
    "price": null,
    "categoryName": "Pharmacy",
    "address": "3921 Poplar Hill Rd, Chesapeake, VA 23321",
    "neighborhood": "Western Branch North",
    "street": "3921 Poplar Hill Rd",
    "city": "Chesapeake",
    "postalCode": "23321",
    "state": "Virginia",
    "countryCode": "US",
    "website": "http://bedeipharmacy.com/",
    "phone": "(757) 320-5141",
    "phoneUnformatted": "+17573205141",
    "claimThisBusiness": false,
    "location": {
      "lat": 36.8635787,
      "lng": -76.4001238
    },
    "totalScore": 4.3,
    "permanentlyClosed": false,
    "temporarilyClosed": false,
    "placeId": null,
    "categories": [
      "Pharmacy"
    ],
    "fid": "0x89ba953f995753cf:0xb839c9221679dbc3",
    "cid": "13274862524894403523",
    "reviewsCount": 29,
    "imagesCount": 11,
    "imageCategories": [],
    "scrapedAt": "2025-06-22T06:45:06.190Z",
    "googleFoodUrl": null,
    "hotelAds": [],
    "openingHours": [
      {
        "day": "Monday",
        "hours": "9\u202fAM to 5\u202fPM"
      },
      {
        "day": "Tuesday",
        "hours": "9\u202fAM to 5\u202fPM"
      },
      {
        "day": "Wednesday",
        "hours": "9\u202fAM to 5\u202fPM"
      },
      {
        "day": "Thursday",
        "hours": "9\u202fAM to 5\u202fPM"
      },
      {
        "day": "Friday",
        "hours": "9\u202fAM to 5\u202fPM"
      },
      {
        "day": "Saturday",
        "hours": "Closed"
      },
      {
        "day": "Sunday",
        "hours": "Closed"
      }
    ],
    "peopleAlsoSearch": [],
    "placesTags": [],
    "reviewsTags": [],
    "additionalInfo": {
      "From the business": [
        {
          "Small business": true
        }
      ],
      "Service options": [
        {
          "Delivery": true
        },
        {
          "In-store pickup": true
        },
        {
          "In-store shopping": true
        },
        {
          "English": true
        }
      ],
      "Accessibility": [
        {
          "Wheelchair accessible entrance": true
        },
        {
          "Wheelchair accessible parking lot": true
        }
      ],
      "Payments": [
        {
          "Checks": true
        },
        {
          "Credit cards": true
        },
        {
          "Debit cards": true
        },
        {
          "NFC mobile payments": true
        },
        {
          "Credit cards": true
        }
      ]
    },
    "gasPrices": [],
    "url": "https://www.google.com/maps/search/?api=1&query=BEDEI%20COMPOUNDING%20PHARMACY%20SERVICES&query_place_id=ChIJz1NXmT-VuokRw9t5FiLJObg",
    "searchPageUrl": "https://www.google.com/maps/search/independent%20pharmacy%20Norfolk%20VA/@39.68245004733214,-111.81587931391937,8z?hl=en",
    "searchString": "independent pharmacy Norfolk VA",
    "language": "en",
    "rank": 11,
    "isAdvertisement": false,
    "imageUrl": "https://lh3.googleusercontent.com/gps-cs-s/AC9h4nohzDpKd5a8pvu71usXQIA8KvKaFyTLu6wyOPhnbBbHKhnL8yCBO6ph47jQcqG94_QKsGiyWe83uAcuG4Z2aHNbruE6fToLUyMHfiI86NP1S03xVJ4v1w41IfcPNM39uEam6S0=w426-h240-k-no",
    "kgmid": "/g/11bwqmq7px",
    "classification": "independent",
    "is_independent": true,
    "is_compounding": true,
    "confidence": 0.95,
    "source": "perplexity",
    "method": "llm"
  }
]