[
  {
    "title": "Meridian North Pharmacy",
    "price": null,
    "categoryName": "Pharmacy",
    "address": "8801 N Meridian St Suite 108, Indianapolis, IN 46260",
    "neighborhood": "Nora / Far Northside",
    "street": "8801 N Meridian St Suite 108",
    "city": "Indianapolis",
    "postalCode": "46260",
    "state": "Indiana",
    "countryCode": "US",
    "website": "http://www.meridiannorthpharmacy.com/",
    "phone": "(317) 846-6654",
    "phoneUnformatted": "+13178466654",
    "claimThisBusiness": true,
    "location": {
      "lat": 39.9165688,
      "lng": -86.1572729
    },
    "totalScore": 4.4,
    "permanentlyClosed": false,
    "temporarilyClosed": false,
    "placeId": null,
    "categories": [
      "Pharmacy"
    ],
    "fid": "0x8814acb4b00799c9:0x34a29bdc597015c8",
    "cid": "3792765206895007176",
    "reviewsCount": 15,
    "imagesCount": 1,
    "imageCategories": [],
    "scrapedAt": "2025-06-22T05:12:42.758Z",
    "googleFoodUrl": null,
    "hotelAds": [],
    "openingHours": [
      {
        "day": "Monday",
        "hours": "10\u202fAM to 6\u202fPM"
      },
      {
        "day": "Tuesday",
        "hours": "10\u202fAM to 6\u202fPM"
      },
      {
        "day": "Wednesday",
        "hours": "10\u202fAM to 6\u202fPM"
      },
      {
        "day": "Thursday",
        "hours": "10\u202fAM to 6\u202fPM"
      },
      {
        "day": "Friday",
        "hours": "10\u202fAM to 6\u202fPM"
      },
      {
        "day": "Saturday",
        "hours": "Closed"
      },
      {
        "day": "Sunday",
        "hours": "Closed"
      }
    ],
    "peopleAlsoSearch": [],
    "placesTags": [],
    "reviewsTags": [],
    "additionalInfo": {
      "Service options": [
        {
          "Delivery": true
        },
        {
          "Same-day delivery": true
        }
      ],
      "Accessibility": [
        {
          "Wheelchair accessible entrance": true
        },
        {
          "Wheelchair accessible parking lot": true
        }
      ],
      "Payments": [
        {
          "Credit cards": true
        }
      ]
    },
    "gasPrices": [],
    "url": "https://www.google.com/maps/search/?api=1&query=Meridian%20North%20Pharmacy&query_place_id=ChIJyZkHsLSsFIgRyBVwWdybojQ",
    "searchPageUrl": "https://www.google.com/maps/search/independent%20pharmacy%20Indianapolis%20IN/@67.1273844227615,-160.01530488540766,9z?hl=en",
    "searchString": "independent pharmacy Indianapolis IN",
    "language": "en",
    "rank": 1,
    "isAdvertisement": false,
    "imageUrl": "https://streetviewpixels-pa.googleapis.com/v1/thumbnail?panoid=256Qm0eShqMeHXrgnwqYLQ&cb_client=search.gws-prod.gps&w=408&h=240&yaw=125.18529&pitch=0&thumbfov=100",
    "kgmid": "/g/1td3gmn2",
    "classification": "independent",
    "is_independent": true,
    "is_compounding": false,
    "confidence": 0.9,
    "source": "perplexity",
    "method": "llm"
  },
  {
    "title": "Alivio Pharmacy",
    "price": null,
    "categoryName": "Pharmacy",
    "address": "2060 Shadeland Ave, Indianapolis, IN 46219",
    "neighborhood": "Warren",
    "street": "2060 Shadeland Ave",
    "city": "Indianapolis",
    "postalCode": "46219",
    "state": "Indiana",
    "countryCode": "US",
    "website": "https://www.alivio-pharmacy.com/",
    "phone": "(317) 354-8160",
    "phoneUnformatted": "+13173548160",
    "claimThisBusiness": false,
    "location": {
      "lat": 39.795859,
      "lng": -86.0471447
    },
    "totalScore": 3.8,
    "permanentlyClosed": false,
    "temporarilyClosed": false,
    "placeId": null,
    "categories": [
      "Pharmacy"
    ],
    "fid": "0x886b4efc78c8f739:0xf20dd15f1d3b346d",
    "cid": "17441827138318316653",
    "reviewsCount": 18,
    "imagesCount": 6,
    "imageCategories": [],
    "scrapedAt": "2025-06-22T05:12:42.759Z",
    "googleFoodUrl": null,
    "hotelAds": [],
    "openingHours": [
      {
        "day": "Monday",
        "hours": "10:30\u202fAM to 5:30\u202fPM"
      },
      {
        "day": "Tuesday",
        "hours": "10:30\u202fAM to 5:30\u202fPM"
      },
      {
        "day": "Wednesday",
        "hours": "10:30\u202fAM to 5:30\u202fPM"
      },
      {
        "day": "Thursday",
        "hours": "10:30\u202fAM to 5:30\u202fPM"
      },
      {
        "day": "Friday",
        "hours": "10:30\u202fAM to 5:30\u202fPM"
      },
      {
        "day": "Saturday",
        "hours": "8:30\u202fAM to 3:30\u202fPM"
      },
      {
        "day": "Sunday",
        "hours": "Closed"
      }
    ],
    "peopleAlsoSearch": [],
    "placesTags": [],
    "reviewsTags": [],
    "additionalInfo": {
      "From the business": [
        {
          "Small business": true
        }
      ],
      "Service options": [
        {
          "Delivery": true
        },
        {
          "Same-day delivery": true
        }
      ],
      "Accessibility": [
        {
          "Wheelchair accessible entrance": true
        },
        {
          "Wheelchair accessible parking lot": true
        }
      ],
      "Payments": [
        {
          "Credit cards": true
        },
        {
          "Debit cards": true
        },
        {
          "NFC mobile payments": true
        },
        {
          "Credit cards": true
        }
      ]
    },
    "gasPrices": [],
    "url": "https://www.google.com/maps/search/?api=1&query=Alivio%20Pharmacy&query_place_id=ChIJOffIePxOa4gRbTQ7HV_RDfI",
    "searchPageUrl": "https://www.google.com/maps/search/independent%20pharmacy%20Indianapolis%20IN/@67.1273844227615,-160.01530488540766,9z?hl=en",
    "searchString": "independent pharmacy Indianapolis IN",
    "language": "en",
    "rank": 2,
    "isAdvertisement": false,
    "imageUrl": "https://lh3.googleusercontent.com/p/AF1QipOCl7cd18fvitI1SVsW1J0DM9uXIVoQddKeCdZ-=w513-h240-k-no",
    "kgmid": "/g/11bw2j9z3r",
    "classification": "independent",
    "is_independent": true,
    "is_compounding": false,
    "confidence": 0.85,
    "source": "perplexity",
    "method": "llm"
  },
  {
    "title": "Nora Apothecary",
    "price": null,
    "categoryName": "Pharmacy",
    "address": "1101 E 86th St, Indianapolis, IN 46240",
    "neighborhood": "Washington Township",
    "street": "1101 E 86th St",
    "city": "Indianapolis",
    "postalCode": "46240",
    "state": "Indiana",
    "countryCode": "US",
    "website": "http://noraapothecary.com/",
    "phone": "(317) 251-9547",
    "phoneUnformatted": "+13172519547",
    "claimThisBusiness": false,
    "location": {
      "lat": 39.912134,
      "lng": -86.139574
    },
    "totalScore": 4.7,
    "permanentlyClosed": false,
    "temporarilyClosed": false,
    "placeId": null,
    "categories": [
      "Pharmacy",
      "Veterinary pharmacy"
    ],
    "fid": "0x886b532c00743ce3:0x94a82a6b5eac1150",
    "cid": "10711858354338926928",
    "reviewsCount": 91,
    "imagesCount": 4,
    "imageCategories": [],
    "scrapedAt": "2025-06-22T05:12:42.760Z",
    "googleFoodUrl": null,
    "hotelAds": [],
    "openingHours": [
      {
        "day": "Monday",
        "hours": "9\u202fAM to 6\u202fPM"
      },
      {
        "day": "Tuesday",
        "hours": "9\u202fAM to 6\u202fPM"
      },
      {
        "day": "Wednesday",
        "hours": "9\u202fAM to 6\u202fPM"
      },
      {
        "day": "Thursday",
        "hours": "9\u202fAM to 6\u202fPM"
      },
      {
        "day": "Friday",
        "hours": "9\u202fAM to 6\u202fPM"
      },
      {
        "day": "Saturday",
        "hours": "9\u202fAM to 1\u202fPM"
      },
      {
        "day": "Sunday",
        "hours": "Closed"
      }
    ],
    "peopleAlsoSearch": [],
    "placesTags": [],
    "reviewsTags": [],
    "additionalInfo": {
      "From the business": [
        {
          "Small business": true
        }
      ],
      "Service options": [
        {
          "In-store pickup": true
        },
        {
          "In-store shopping": true
        }
      ],
      "Accessibility": [
        {
          "Wheelchair accessible entrance": true
        },
        {
          "Wheelchair accessible parking lot": true
        }
      ],
      "Planning": [
        {
          "Quick visit": true
        }
      ],
      "Payments": [
        {
          "Credit cards": true
        },
        {
          "Debit cards": true
        },
        {
          "NFC mobile payments": true
        },
        {
          "Credit cards": true
        }
      ]
    },
    "gasPrices": [],
    "url": "https://www.google.com/maps/search/?api=1&query=Nora%20Apothecary&query_place_id=ChIJ4zx0ACxTa4gRUBGsXmsqqJQ",
    "searchPageUrl": "https://www.google.com/maps/search/independent%20pharmacy%20Indianapolis%20IN/@67.1273844227615,-160.01530488540766,9z?hl=en",
    "searchString": "independent pharmacy Indianapolis IN",
    "language": "en",
    "rank": 3,
    "isAdvertisement": false,
    "imageUrl": "https://lh3.googleusercontent.com/gps-cs-s/AC9h4npVbi6_nwinuhcCc4x-49DHbXf2tU0vg1aoMDK-Vg17SRyCTLmOKQL8zOGv_O8vAAfmrWEMJn7b20GVchJZ19jsJ2kpv-1YN7LmzDJJOMAk5f96yB6oS5yCsdX8dWBKLMvrzVai=w408-h544-k-no",
    "kgmid": "/g/1tdkmzmm",
    "classification": "independent",
    "is_independent": true,
    "is_compounding": false,
    "confidence": 0.9,
    "source": "perplexity",
    "method": "llm"
  },
  {
    "title": "Milan Pharmacy",
    "price": null,
    "categoryName": "Pharmacy",
    "address": "1935 N Capitol Ave ste 120, Indianapolis, IN 46202",
    "neighborhood": "Near Northside",
    "street": "1935 N Capitol Ave ste 120",
    "city": "Indianapolis",
    "postalCode": "46202",
    "state": "Indiana",
    "countryCode": "US",
    "phone": "(317) 755-2479",
    "phoneUnformatted": "+13177552479",
    "claimThisBusiness": true,
    "location": {
      "lat": 39.7928902,
      "lng": -86.1613076
    },
    "totalScore": 5,
    "permanentlyClosed": false,
    "temporarilyClosed": false,
    "placeId": null,
    "categories": [
      "Pharmacy"
    ],
    "fid": "0x886b51fc4dd7f93f:0xe8d766d6521d3c62",
    "cid": "16777992007478754402",
    "reviewsCount": 3,
    "imagesCount": 1,
    "imageCategories": [],
    "scrapedAt": "2025-06-22T05:12:42.760Z",
    "googleFoodUrl": null,
    "hotelAds": [],
    "openingHours": [
      {
        "day": "Monday",
        "hours": "9\u202fAM to 3\u202fPM"
      },
      {
        "day": "Tuesday",
        "hours": "9\u202fAM to 3\u202fPM"
      },
      {
        "day": "Wednesday",
        "hours": "9\u202fAM to 3\u202fPM"
      },
      {
        "day": "Thursday",
        "hours": "9\u202fAM to 3\u202fPM"
      },
      {
        "day": "Friday",
        "hours": "9\u202fAM to 3\u202fPM"
      },
      {
        "day": "Saturday",
        "hours": "Closed"
      },
      {
        "day": "Sunday",
        "hours": "Closed"
      }
    ],
    "peopleAlsoSearch": [],
    "placesTags": [],
    "reviewsTags": [],
    "additionalInfo": {
      "From the business": [
        {
          "Small business": true
        }
      ],
      "Accessibility": [
        {
          "Wheelchair accessible entrance": true
        },
        {
          "Wheelchair accessible parking lot": true
        }
      ],
      "Payments": [
        {
          "Credit cards": true
        },
        {
          "Debit cards": true
        },
        {
          "Credit cards": true
        }
      ]
    },
    "gasPrices": [],
    "url": "https://www.google.com/maps/search/?api=1&query=Milan%20Pharmacy&query_place_id=ChIJP_nXTfxRa4gRYjwdUtZm1-g",
    "searchPageUrl": "https://www.google.com/maps/search/independent%20pharmacy%20Indianapolis%20IN/@67.1273844227615,-160.01530488540766,9z?hl=en",
    "searchString": "independent pharmacy Indianapolis IN",
    "language": "en",
    "rank": 4,
    "isAdvertisement": false,
    "imageUrl": "https://streetviewpixels-pa.googleapis.com/v1/thumbnail?panoid=fnqhq9yWuaOIKzeVoUADaA&cb_client=search.gws-prod.gps&w=408&h=240&yaw=104.171616&pitch=0&thumbfov=100",
    "kgmid": "/g/11v5_6cgjv",
    "classification": "independent",
    "is_independent": true,
    "is_compounding": false,
    "confidence": 0.85,
    "source": "perplexity",
    "method": "llm"
  },
  {
    "title": "Dr Aziz Pharmacy",
    "price": null,
    "categoryName": "Pharmacy",
    "address": "7320 E 82nd St, Indianapolis, IN 46256",
    "neighborhood": "I-69/Fall Creek",
    "street": "7320 E 82nd St",
    "city": "Indianapolis",
    "postalCode": "46256",
    "state": "Indiana",
    "countryCode": "US",
    "website": "http://www.drazizrx.com/",
    "phone": "(317) 842-5771",
    "phoneUnformatted": "+13178425771",
    "claimThisBusiness": false,
    "location": {
      "lat": 39.9057,
      "lng": -86.0391816
    },
    "totalScore": 4.6,
    "permanentlyClosed": false,
    "temporarilyClosed": false,
    "placeId": null,
    "categories": [
      "Pharmacy",
      "Health consultant",
      "Medical clinic",
      "Medical supply store",
      "Mental health clinic",
      "Mobility equipment supplier",
      "Orthopedic shoe store",
      "Travel clinic",
      "Wheelchair rental service",
      "Wheelchair store"
    ],
    "fid": "0x886b4ccf1883a4cb:0x961943b1d3925d7c",
    "cid": "10815750411144813948",
    "reviewsCount": 221,
    "imagesCount": 22,
    "imageCategories": [],
    "scrapedAt": "2025-06-22T05:12:42.760Z",
    "googleFoodUrl": null,
    "hotelAds": [],
    "openingHours": [
      {
        "day": "Monday",
        "hours": "8:30\u202fAM to 6\u202fPM"
      },
      {
        "day": "Tuesday",
        "hours": "8:30\u202fAM to 6\u202fPM"
      },
      {
        "day": "Wednesday",
        "hours": "8:30\u202fAM to 6\u202fPM"
      },
      {
        "day": "Thursday",
        "hours": "8:30\u202fAM to 6\u202fPM"
      },
      {
        "day": "Friday",
        "hours": "8:30\u202fAM to 6\u202fPM"
      },
      {
        "day": "Saturday",
        "hours": "9\u202fAM to 4\u202fPM"
      },
      {
        "day": "Sunday",
        "hours": "Closed"
      }
    ],
    "additionalOpeningHours": {
      "Drive through": [
        {
          "day": "Monday",
          "hours": "8:30\u202fAM\u20136\u202fPM"
        },
        {
          "day": "Tuesday",
          "hours": "8:30\u202fAM\u20136\u202fPM"
        },
        {
          "day": "Wednesday",
          "hours": "8:30\u202fAM\u20136\u202fPM"
        },
        {
          "day": "Thursday",
          "hours": "8:30\u202fAM\u20136\u202fPM"
        },
        {
          "day": "Friday",
          "hours": "8:30\u202fAM\u20136\u202fPM"
        },
        {
          "day": "Saturday",
          "hours": "9\u202fAM\u20134\u202fPM"
        },
        {
          "day": "Sunday",
          "hours": "Closed"
        }
      ]
    },
    "peopleAlsoSearch": [],
    "placesTags": [],
    "reviewsTags": [],
    "additionalInfo": {
      "From the business": [
        {
          "Small business": true
        }
      ],
      "Service options": [
        {
          "Curbside pickup": true
        },
        {
          "Delivery": true
        },
        {
          "Drive-through": true
        },
        {
          "In-store pickup": true
        },
        {
          "In-store shopping": true
        },
        {
          "Onsite services": true
        },
        {
          "Same-day delivery": false
        },
        {
          "American Sign Language": true
        }
      ],
      "Accessibility": [
        {
          "Wheelchair accessible entrance": true
        },
        {
          "Wheelchair accessible parking lot": true
        },
        {
          "Wheelchair accessible restroom": true
        },
        {
          "Wheelchair accessible seating": true
        }
      ],
      "Amenities": [
        {
          "Gender-neutral restroom": true
        }
      ],
      "Crowd": [
        {
          "LGBTQ+ friendly": true
        },
        {
          "Transgender safespace": true
        }
      ],
      "Planning": [
        {
          "Appointment required": true
        },
        {
          "Quick visit": true
        }
      ],
      "Payments": [
        {
          "Checks": true
        },
        {
          "Credit cards": true
        },
        {
          "Debit cards": true
        },
        {
          "NFC mobile payments": true
        },
        {
          "Credit cards": true
        }
      ],
      "Parking": [
        {
          "On-site parking": true
        }
      ]
    },
    "gasPrices": [],
    "url": "https://www.google.com/maps/search/?api=1&query=Dr%20Aziz%20Pharmacy&query_place_id=ChIJy6SDGM9Ma4gRfF2S07FDGZY",
    "searchPageUrl": "https://www.google.com/maps/search/independent%20pharmacy%20Indianapolis%20IN/@67.1273844227615,-160.01530488540766,9z?hl=en",
    "searchString": "independent pharmacy Indianapolis IN",
    "language": "en",
    "rank": 5,
    "isAdvertisement": false,
    "imageUrl": "https://lh3.googleusercontent.com/gps-cs-s/AC9h4noGQMKW0to2pnzMVe8f_cKYid3-UPVl2SHiwGWlJ4fxPfx8QirLfRBgD2I4KpAWzTFu3gh472ydus7B37ndpKuNOjoeA27W0p74NnIdaQovFJMOXX7GXKvZcqbfsSBdwiTnZfFc=w426-h240-k-no",
    "kgmid": "/g/1tgn5gzb",
    "classification": "independent",
    "is_independent": true,
    "is_compounding": false,
    "confidence": 0.9,
    "source": "perplexity",
    "method": "llm"
  },
  {
    "title": "PharMerica - Indianapolis, IN",
    "price": null,
    "categoryName": "Pharmacy",
    "address": "6330 E 75th St #322, Indianapolis, IN 46250",
    "neighborhood": "Allisonville",
    "street": "6330 E 75th St #322",
    "city": "Indianapolis",
    "postalCode": "46250",
    "state": "Indiana",
    "countryCode": "US",
    "website": "https://pharmerica.com/",
    "phone": "(800) 678-7575",
    "phoneUnformatted": "+18006787575",
    "claimThisBusiness": false,
    "location": {
      "lat": 39.8930105,
      "lng": -86.0588949
    },
    "totalScore": 4.3,
    "permanentlyClosed": false,
    "temporarilyClosed": false,
    "placeId": null,
    "categories": [
      "Pharmacy"
    ],
    "fid": "0x886b4d108521fa85:0x1604112d143e3d89",
    "cid": "1586411854052081033",
    "reviewsCount": 3,
    "imagesCount": 1,
    "imageCategories": [],
    "scrapedAt": "2025-06-22T05:12:47.475Z",
    "googleFoodUrl": null,
    "hotelAds": [],
    "openingHours": [
      {
        "day": "Monday",
        "hours": "Open 24 hours"
      },
      {
        "day": "Tuesday",
        "hours": "Open 24 hours"
      },
      {
        "day": "Wednesday",
        "hours": "Open 24 hours"
      },
      {
        "day": "Thursday",
        "hours": "Open 24 hours"
      },
      {
        "day": "Friday",
        "hours": "Open 24 hours"
      },
      {
        "day": "Saturday",
        "hours": "Open 24 hours"
      },
      {
        "day": "Sunday",
        "hours": "Open 24 hours"
      }
    ],
    "peopleAlsoSearch": [],
    "placesTags": [],
    "reviewsTags": [],
    "additionalInfo": {
      "Accessibility": [
        {
          "Wheelchair accessible entrance": true
        },
        {
          "Wheelchair accessible parking lot": true
        }
      ]
    },
    "gasPrices": [],
    "url": "https://www.google.com/maps/search/?api=1&query=PharMerica%20-%20Indianapolis%2C%20IN&query_place_id=ChIJhfohhRBNa4gRiT0-FC0RBBY",
    "searchPageUrl": "https://www.google.com/maps/search/independent%20pharmacy%20Indianapolis%20IN/@53.926924098432366,-166.92009879946335,9z?hl=en",
    "searchString": "independent pharmacy Indianapolis IN",
    "language": "en",
    "rank": 1,
    "isAdvertisement": false,
    "imageUrl": "https://streetviewpixels-pa.googleapis.com/v1/thumbnail?panoid=xRvBNaqyhqEVYGT9yW-zAw&cb_client=search.gws-prod.gps&w=408&h=240&yaw=122.78123&pitch=0&thumbfov=100",
    "kgmid": "/g/11w4rvj9z5",
    "classification": "chain",
    "is_independent": false,
    "is_compounding": false,
    "confidence": 0.95,
    "source": "perplexity",
    "method": "llm"
  },
  {
    "title": "IU Health University Retail Pharmacy",
    "price": null,
    "categoryName": "Pharmacy",
    "address": "550 University Blvd UH1425, Indianapolis, IN 46202",
    "neighborhood": "Downtown",
    "street": "550 University Blvd UH1425",
    "city": "Indianapolis",
    "postalCode": "46202",
    "state": "Indiana",
    "countryCode": "US",
    "website": "https://iuhealth.org/find-locations/iu-health-university-retail-pharmacy?utm_source=Google&utm_medium=Yext&y_source=1_MTE5NDIxNjMtNzE1LWxvY2F0aW9uLndlYnNpdGU%3D",
    "phone": "(317) 944-3445",
    "phoneUnformatted": "+13179443445",
    "claimThisBusiness": false,
    "location": {
      "lat": 39.7759306,
      "lng": -86.17616
    },
    "totalScore": 4.6,
    "permanentlyClosed": false,
    "temporarilyClosed": false,
    "placeId": null,
    "categories": [
      "Pharmacy"
    ],
    "fid": "0x886b57089a1fb4d3:0xf7a0ca4036c6bf65",
    "cid": "17843484100787617637",
    "reviewsCount": 12,
    "imagesCount": 4,
    "imageCategories": [],
    "scrapedAt": "2025-06-22T05:12:47.476Z",
    "googleFoodUrl": null,
    "hotelAds": [],
    "openingHours": [
      {
        "day": "Monday",
        "hours": "8\u202fAM to 7\u202fPM"
      },
      {
        "day": "Tuesday",
        "hours": "8\u202fAM to 7\u202fPM"
      },
      {
        "day": "Wednesday",
        "hours": "8\u202fAM to 7\u202fPM"
      },
      {
        "day": "Thursday",
        "hours": "8\u202fAM to 7\u202fPM"
      },
      {
        "day": "Friday",
        "hours": "8\u202fAM to 7\u202fPM"
      },
      {
        "day": "Saturday",
        "hours": "9\u202fAM to 3\u202fPM"
      },
      {
        "day": "Sunday",
        "hours": "9\u202fAM to 1\u202fPM"
      }
    ],
    "peopleAlsoSearch": [],
    "placesTags": [],
    "reviewsTags": [],
    "additionalInfo": {
      "Service options": [
        {
          "Delivery": true
        },
        {
          "In-store pickup": true
        },
        {
          "In-store shopping": true
        },
        {
          "Onsite services": true
        },
        {
          "Same-day delivery": true
        }
      ],
      "Accessibility": [
        {
          "Wheelchair accessible entrance": true
        },
        {
          "Wheelchair accessible parking lot": true
        }
      ],
      "Payments": [
        {
          "Credit cards": true
        },
        {
          "Debit cards": true
        },
        {
          "NFC mobile payments": true
        },
        {
          "Credit cards": true
        }
      ]
    },
    "gasPrices": [],
    "url": "https://www.google.com/maps/search/?api=1&query=IU%20Health%20University%20Retail%20Pharmacy&query_place_id=ChIJ07QfmghXa4gRZb_GNkDKoPc",
    "searchPageUrl": "https://www.google.com/maps/search/independent%20pharmacy%20Indianapolis%20IN/@53.926924098432366,-166.92009879946335,9z?hl=en",
    "searchString": "independent pharmacy Indianapolis IN",
    "language": "en",
    "rank": 5,
    "isAdvertisement": false,
    "imageUrl": "https://lh3.googleusercontent.com/p/AF1QipMbD_NKsbTAKU63uu0BNenaTWmYE5cToWKiWipa=w426-h240-k-no",
    "kgmid": "/g/11b7fckx6b",
    "classification": "independent",
    "is_independent": true,
    "is_compounding": false,
    "confidence": 0.9,
    "source": "perplexity",
    "method": "llm"
  },
  {
    "title": "Carepoint Pharmacy",
    "price": null,
    "categoryName": "Pharmacy",
    "address": "7305 E 96th St #500, Indianapolis, IN 46250",
    "neighborhood": "Castleton",
    "street": "7305 E 96th St #500",
    "city": "Indianapolis",
    "postalCode": "46250",
    "state": "Indiana",
    "countryCode": "US",
    "website": "http://carepoint.pharmacy/",
    "phone": "(855) 237-9112",
    "phoneUnformatted": "+18552379112",
    "claimThisBusiness": true,
    "location": {
      "lat": 39.9263631,
      "lng": -86.0396597
    },
    "totalScore": 1.5,
    "permanentlyClosed": false,
    "temporarilyClosed": false,
    "placeId": null,
    "categories": [
      "Pharmacy"
    ],
    "fid": "0x8814b33a523d9fbd:0xcec977d66160d420",
    "cid": "14900572604772439072",
    "reviewsCount": 2,
    "imagesCount": 1,
    "imageCategories": [],
    "scrapedAt": "2025-06-22T05:12:47.476Z",
    "googleFoodUrl": null,
    "hotelAds": [],
    "openingHours": [
      {
        "day": "Monday",
        "hours": "9:30\u202fAM to 6\u202fPM"
      },
      {
        "day": "Tuesday",
        "hours": "9:30\u202fAM to 6\u202fPM"
      },
      {
        "day": "Wednesday",
        "hours": "9:30\u202fAM to 6\u202fPM"
      },
      {
        "day": "Thursday",
        "hours": "9:30\u202fAM to 6\u202fPM"
      },
      {
        "day": "Friday",
        "hours": "9:30\u202fAM to 6\u202fPM"
      },
      {
        "day": "Saturday",
        "hours": "Closed"
      },
      {
        "day": "Sunday",
        "hours": "Closed"
      }
    ],
    "peopleAlsoSearch": [],
    "placesTags": [],
    "reviewsTags": [],
    "additionalInfo": {
      "Accessibility": [
        {
          "Wheelchair accessible entrance": true
        },
        {
          "Wheelchair accessible parking lot": true
        }
      ],
      "Payments": [
        {
          "Credit cards": true
        }
      ]
    },
    "gasPrices": [],
    "url": "https://www.google.com/maps/search/?api=1&query=Carepoint%20Pharmacy&query_place_id=ChIJvZ89UjqzFIgRINRgYdZ3yc4",
    "searchPageUrl": "https://www.google.com/maps/search/independent%20pharmacy%20Indianapolis%20IN/@53.926924098432366,-166.92009879946335,9z?hl=en",
    "searchString": "independent pharmacy Indianapolis IN",
    "language": "en",
    "rank": 6,
    "isAdvertisement": false,
    "imageUrl": "https://streetviewpixels-pa.googleapis.com/v1/thumbnail?panoid=ukEzzMQ4O_2cQPsNP3As_g&cb_client=search.gws-prod.gps&w=408&h=240&yaw=162.76376&pitch=0&thumbfov=100",
    "kgmid": "/g/11g8vckrg2",
    "classification": "independent",
    "is_independent": true,
    "is_compounding": false,
    "confidence": 0.85,
    "source": "perplexity",
    "method": "llm"
  },
  {
    "title": "Proscript Pharmacy",
    "price": null,
    "categoryName": "Pharmacy",
    "address": "9292 N Meridian St, Indianapolis, IN 46260",
    "neighborhood": "Nora / Far Northside",
    "street": "9292 N Meridian St",
    "city": "Indianapolis",
    "postalCode": "46260",
    "state": "Indiana",
    "countryCode": "US",
    "phone": "(317) 658-0001",
    "phoneUnformatted": "+13176580001",
    "claimThisBusiness": true,
    "location": {
      "lat": 39.9230136,
      "lng": -86.1587224
    },
    "totalScore": 3,
    "permanentlyClosed": false,
    "temporarilyClosed": false,
    "placeId": null,
    "categories": [
      "Pharmacy"
    ],
    "fid": "0x8814acb6a7d40f87:0x5d5d998c9ee78bd5",
    "cid": "6727702247601834965",
    "reviewsCount": 2,
    "imagesCount": 1,
    "imageCategories": [],
    "scrapedAt": "2025-06-22T05:12:47.476Z",
    "googleFoodUrl": null,
    "hotelAds": [],
    "openingHours": [],
    "peopleAlsoSearch": [],
    "placesTags": [],
    "reviewsTags": [],
    "additionalInfo": {
      "Accessibility": [
        {
          "Wheelchair accessible entrance": true
        },
        {
          "Wheelchair accessible parking lot": true
        }
      ],
      "Payments": [
        {
          "Credit cards": true
        }
      ]
    },
    "gasPrices": [],
    "url": "https://www.google.com/maps/search/?api=1&query=Proscript%20Pharmacy&query_place_id=ChIJhw_Up7asFIgR1YvnnoyZXV0",
    "searchPageUrl": "https://www.google.com/maps/search/independent%20pharmacy%20Indianapolis%20IN/@53.926924098432366,-166.92009879946335,9z?hl=en",
    "searchString": "independent pharmacy Indianapolis IN",
    "language": "en",
    "rank": 8,
    "isAdvertisement": false,
    "imageUrl": "https://streetviewpixels-pa.googleapis.com/v1/thumbnail?panoid=FiuKSIM-wjlSfUD6eGgFCA&cb_client=search.gws-prod.gps&w=408&h=240&yaw=100.05083&pitch=0&thumbfov=100",
    "kgmid": "/g/1pwfcpn32",
    "classification": "independent",
    "is_independent": true,
    "is_compounding": false,
    "confidence": 0.85,
    "source": "perplexity",
    "method": "llm"
  },
  {
    "title": "Custom Med Apothecary LLC",
    "price": null,
    "categoryName": "Pharmacy",
    "address": "6005 W 71st St, Indianapolis, IN 46278",
    "neighborhood": "Snacks / Guion Creek",
    "street": "6005 W 71st St",
    "city": "Indianapolis",
    "postalCode": "46278",
    "state": "Indiana",
    "countryCode": "US",
    "website": "http://www.custommed.net/",
    "phone": "(317) 803-3436",
    "phoneUnformatted": "+13178033436",
    "claimThisBusiness": true,
    "location": {
      "lat": 39.88125,
      "lng": -86.266527
    },
    "totalScore": 4.9,
    "permanentlyClosed": false,
    "temporarilyClosed": false,
    "placeId": null,
    "categories": [
      "Pharmacy"
    ],
    "fid": "0x40701c5ee13c27a7:0x41e0ae332f5a10c8",
    "cid": "4746985542109499592",
    "reviewsCount": 38,
    "imagesCount": 1,
    "imageCategories": [],
    "scrapedAt": "2025-06-22T05:12:47.476Z",
    "googleFoodUrl": null,
    "hotelAds": [],
    "openingHours": [
      {
        "day": "Monday",
        "hours": "9\u202fAM to 6\u202fPM"
      },
      {
        "day": "Tuesday",
        "hours": "9\u202fAM to 6\u202fPM"
      },
      {
        "day": "Wednesday",
        "hours": "9\u202fAM to 6\u202fPM"
      },
      {
        "day": "Thursday",
        "hours": "9\u202fAM to 6\u202fPM"
      },
      {
        "day": "Friday",
        "hours": "9\u202fAM to 6\u202fPM"
      },
      {
        "day": "Saturday",
        "hours": "Closed"
      },
      {
        "day": "Sunday",
        "hours": "Closed"
      }
    ],
    "peopleAlsoSearch": [],
    "placesTags": [],
    "reviewsTags": [],
    "additionalInfo": {
      "Service options": [
        {
          "Delivery": true
        },
        {
          "In-store pickup": true
        }
      ],
      "Accessibility": [
        {
          "Wheelchair accessible entrance": true
        },
        {
          "Wheelchair accessible parking lot": true
        }
      ],
      "Payments": [
        {
          "Credit cards": true
        },
        {
          "Debit cards": true
        },
        {
          "Credit cards": true
        }
      ]
    },
    "gasPrices": [],
    "url": "https://www.google.com/maps/search/?api=1&query=Custom%20Med%20Apothecary%20LLC&query_place_id=ChIJpyc84V4ccEARyBBaLzOu4EE",
    "searchPageUrl": "https://www.google.com/maps/search/independent%20pharmacy%20Indianapolis%20IN/@53.926924098432366,-166.92009879946335,9z?hl=en",
    "searchString": "independent pharmacy Indianapolis IN",
    "language": "en",
    "rank": 9,
    "isAdvertisement": false,
    "imageUrl": "https://streetviewpixels-pa.googleapis.com/v1/thumbnail?panoid=0mi9TGG_e7q4XZQUW2Ug3Q&cb_client=search.gws-prod.gps&w=408&h=240&yaw=168.18132&pitch=0&thumbfov=100",
    "kgmid": "/g/11b5pk4zf0",
    "classification": "independent",
    "is_independent": true,
    "is_compounding": false,
    "confidence": 0.85,
    "source": "perplexity",
    "method": "llm"
  },
  {
    "title": "Eagle Highland Pharmacy - Functional Medicine Pharmacy",
    "price": null,
    "categoryName": "Pharmacy",
    "address": "9010 Crawfordsville Rd, Indianapolis, IN 46234",
    "neighborhood": "Wayne",
    "street": "9010 Crawfordsville Rd",
    "city": "Indianapolis",
    "postalCode": "46234",
    "state": "Indiana",
    "countryCode": "US",
    "website": "http://www.eaglehighlandpharmacy.com/",
    "phone": "(317) 299-3771",
    "phoneUnformatted": "+13172993771",
    "claimThisBusiness": false,
    "location": {
      "lat": 39.8155577,
      "lng": -86.3210694
    },
    "totalScore": 4.7,
    "permanentlyClosed": false,
    "temporarilyClosed": false,
    "placeId": null,
    "categories": [
      "Pharmacy",
      "Medical supply store",
      "Vitamin & supplements store"
    ],
    "fid": "0x886ca993f1856e79:0x20c946d7d37718ec",
    "cid": "2362497372312246508",
    "reviewsCount": 40,
    "imagesCount": 42,
    "imageCategories": [],
    "scrapedAt": "2025-06-22T05:12:47.476Z",
    "googleFoodUrl": null,
    "hotelAds": [],
    "openingHours": [
      {
        "day": "Monday",
        "hours": "9\u202fAM to 5:30\u202fPM"
      },
      {
        "day": "Tuesday",
        "hours": "9\u202fAM to 5:30\u202fPM"
      },
      {
        "day": "Wednesday",
        "hours": "9\u202fAM to 5:30\u202fPM"
      },
      {
        "day": "Thursday",
        "hours": "9\u202fAM to 5:30\u202fPM"
      },
      {
        "day": "Friday",
        "hours": "9\u202fAM to 5:30\u202fPM"
      },
      {
        "day": "Saturday",
        "hours": "9\u202fAM to 1\u202fPM"
      },
      {
        "day": "Sunday",
        "hours": "Closed"
      }
    ],
    "peopleAlsoSearch": [],
    "placesTags": [],
    "reviewsTags": [],
    "additionalInfo": {
      "From the business": [
        {
          "Small business": true
        }
      ],
      "Service options": [
        {
          "Delivery": true
        },
        {
          "In-store pickup": true
        },
        {
          "In-store shopping": true
        },
        {
          "Onsite services": true
        },
        {
          "Same-day delivery": true
        }
      ],
      "Accessibility": [
        {
          "Wheelchair accessible entrance": true
        },
        {
          "Wheelchair accessible parking lot": true
        }
      ],
      "Planning": [
        {
          "Quick visit": true
        }
      ],
      "Payments": [
        {
          "Checks": true
        },
        {
          "Credit cards": true
        },
        {
          "Debit cards": true
        },
        {
          "NFC mobile payments": true
        },
        {
          "Credit cards": true
        }
      ]
    },
    "gasPrices": [],
    "url": "https://www.google.com/maps/search/?api=1&query=Eagle%20Highland%20Pharmacy%20-%20Functional%20Medicine%20Pharmacy&query_place_id=ChIJeW6F8ZOpbIgR7Bh309dGySA",
    "searchPageUrl": "https://www.google.com/maps/search/independent%20pharmacy%20Indianapolis%20IN/@53.926924098432366,-166.92009879946335,9z?hl=en",
    "searchString": "independent pharmacy Indianapolis IN",
    "language": "en",
    "rank": 10,
    "isAdvertisement": false,
    "imageUrl": "https://lh3.googleusercontent.com/p/AF1QipMdxTZZ4zokVLaoMyVFQ7lQla7rsxxrdsDievJ2=w408-h270-k-no",
    "kgmid": "/g/1vvr6z3m",
    "classification": "independent",
    "is_independent": true,
    "is_compounding": false,
    "confidence": 0.9,
    "source": "perplexity",
    "method": "llm"
  },
  {
    "title": "Pharmscript, Llc",
    "price": null,
    "categoryName": "Pharmacy",
    "address": "6825 Hillsdale Ct, Indianapolis, IN 46250",
    "neighborhood": "I-69/Fall Creek",
    "street": "6825 Hillsdale Ct",
    "city": "Indianapolis",
    "postalCode": "46250",
    "state": "Indiana",
    "countryCode": "US",
    "website": "https://pharmscript.com/contact-us/",
    "phone": "(317) 391-2716",
    "phoneUnformatted": "+13173912716",
    "claimThisBusiness": true,
    "location": {
      "lat": 39.8952044,
      "lng": -86.0491772
    },
    "totalScore": 3.6,
    "permanentlyClosed": false,
    "temporarilyClosed": false,
    "placeId": null,
    "categories": [
      "Pharmacy"
    ],
    "fid": "0x886b4cde41f7f767:0x5c751a693b364310",
    "cid": "6662260263031816976",
    "reviewsCount": 8,
    "imagesCount": 1,
    "imageCategories": [],
    "scrapedAt": "2025-06-22T05:12:47.476Z",
    "googleFoodUrl": null,
    "hotelAds": [],
    "openingHours": [],
    "peopleAlsoSearch": [],
    "placesTags": [],
    "reviewsTags": [],
    "additionalInfo": {
      "Accessibility": [
        {
          "Wheelchair accessible entrance": true
        },
        {
          "Wheelchair accessible parking lot": true
        }
      ],
      "Payments": [
        {
          "Debit cards": true
        },
        {
          "Credit cards": true
        }
      ]
    },
    "gasPrices": [],
    "url": "https://www.google.com/maps/search/?api=1&query=Pharmscript%2C%20Llc&query_place_id=ChIJZ_f3Qd5Ma4gREEM2O2kadVw",
    "searchPageUrl": "https://www.google.com/maps/search/independent%20pharmacy%20Indianapolis%20IN/@53.926924098432366,-166.92009879946335,9z?hl=en",
    "searchString": "independent pharmacy Indianapolis IN",
    "language": "en",
    "rank": 11,
    "isAdvertisement": false,
    "imageUrl": "https://streetviewpixels-pa.googleapis.com/v1/thumbnail?panoid=ip8ntbvZG-C_wEyytoe4CA&cb_client=search.gws-prod.gps&w=408&h=240&yaw=110.185455&pitch=0&thumbfov=100",
    "kgmid": "/g/11fll700dt",
    "classification": "independent",
    "is_independent": true,
    "is_compounding": false,
    "confidence": 0.85,
    "source": "perplexity",
    "method": "llm"
  },
  {
    "title": "CVS Pharmacy",
    "price": null,
    "categoryName": "Pharmacy",
    "address": "1545 N Meridian St, Indianapolis, IN 46202",
    "neighborhood": "Near Northside",
    "street": "1545 N Meridian St",
    "city": "Indianapolis",
    "postalCode": "46202",
    "state": "Indiana",
    "countryCode": "US",
    "website": "https://www.cvs.com/store-locator/indianapolis-in-pharmacies/1545-north-meridian-st-indianapolis-in-46202/storeid=6549?WT.mc_id=LS_GOOGLE_RX_6549",
    "phone": "(317) 923-1491",
    "phoneUnformatted": "+13179231491",
    "claimThisBusiness": false,
    "location": {
      "lat": 39.788124,
      "lng": -86.1569734
    },
    "totalScore": 3.2,
    "permanentlyClosed": false,
    "temporarilyClosed": false,
    "placeId": null,
    "categories": [
      "Pharmacy"
    ],
    "fid": "0x886b50ddc9d1dc3d:0x7909a7bde52c3231",
    "cid": "8721686587415212593",
    "reviewsCount": 75,
    "imagesCount": 41,
    "imageCategories": [],
    "scrapedAt": "2025-06-22T05:12:47.476Z",
    "googleFoodUrl": null,
    "hotelAds": [],
    "openingHours": [
      {
        "day": "Monday",
        "hours": "12\u202fAM to 1:30\u202fPM, 2\u202fPM to 12\u202fAM"
      },
      {
        "day": "Tuesday",
        "hours": "12\u202fAM to 1:30\u202fPM, 2\u202fPM to 12\u202fAM"
      },
      {
        "day": "Wednesday",
        "hours": "12\u202fAM to 1:30\u202fPM, 2\u202fPM to 12\u202fAM"
      },
      {
        "day": "Thursday",
        "hours": "12\u202fAM to 1:30\u202fPM, 2\u202fPM to 12\u202fAM"
      },
      {
        "day": "Friday",
        "hours": "12\u202fAM to 1:30\u202fPM, 2\u202fPM to 12\u202fAM"
      },
      {
        "day": "Saturday",
        "hours": "12\u202fAM to 1:30\u202fPM, 2\u202fPM to 12\u202fAM"
      },
      {
        "day": "Sunday",
        "hours": "12\u202fAM to 1:30\u202fPM, 2\u202fPM to 12\u202fAM"
      }
    ],
    "peopleAlsoSearch": [],
    "placesTags": [],
    "reviewsTags": [],
    "additionalInfo": {
      "Service options": [
        {
          "Delivery": true
        },
        {
          "Drive-through": true
        },
        {
          "In-store shopping": true
        }
      ],
      "Accessibility": [
        {
          "Wheelchair accessible entrance": true
        },
        {
          "Wheelchair accessible parking lot": true
        }
      ],
      "Offerings": [
        {
          "Medication disposal": true
        },
        {
          "Naloxone": true
        }
      ],
      "Crowd": [
        {
          "LGBTQ+ friendly": true
        },
        {
          "Transgender safespace": true
        }
      ],
      "Planning": [
        {
          "Quick visit": true
        }
      ],
      "Payments": [
        {
          "Credit cards": true
        },
        {
          "Debit cards": true
        },
        {
          "Credit cards": true
        }
      ]
    },
    "gasPrices": [],
    "url": "https://www.google.com/maps/search/?api=1&query=CVS%20Pharmacy&query_place_id=ChIJPdzRyd1Qa4gRMTIs5b2nCXk",
    "searchPageUrl": "https://www.google.com/maps/search/independent%20pharmacy%20Indianapolis%20IN/@53.926924098432366,-166.92009879946335,9z?hl=en",
    "searchString": "independent pharmacy Indianapolis IN",
    "language": "en",
    "rank": 12,
    "isAdvertisement": false,
    "imageUrl": "https://lh3.googleusercontent.com/p/AF1QipPc8vkcjkSek7Iprj74_ZVsZsIqBrokUIJwkYY2=w408-h272-k-no",
    "kgmid": "/g/11c4682mkz",
    "classification": "chain",
    "is_independent": false,
    "is_compounding": false,
    "confidence": 1.0,
    "source": "perplexity",
    "method": "llm"
  },
  {
    "title": "Damar Pharmacy",
    "price": null,
    "categoryName": "Pharmacy",
    "address": "5715 Decatur Blvd, Indianapolis, IN 46241",
    "neighborhood": "Ameriplex",
    "street": "5715 Decatur Blvd",
    "city": "Indianapolis",
    "postalCode": "46241",
    "state": "Indiana",
    "countryCode": "US",
    "website": "https://www.damarhealth.org/pharmacy",
    "claimThisBusiness": false,
    "location": {
      "lat": 39.6807707,
      "lng": -86.291608
    },
    "permanentlyClosed": false,
    "temporarilyClosed": false,
    "placeId": null,
    "categories": [
      "Pharmacy"
    ],
    "fid": "0x886ca76345ad1aaf:0x4055039b5d3bab51",
    "cid": "4635615357266799441",
    "reviewsCount": 0,
    "imagesCount": 1,
    "imageCategories": [],
    "scrapedAt": "2025-06-22T05:12:47.476Z",
    "googleFoodUrl": null,
    "hotelAds": [],
    "openingHours": [
      {
        "day": "Monday",
        "hours": "8\u202fAM to 5\u202fPM"
      },
      {
        "day": "Tuesday",
        "hours": "8\u202fAM to 5\u202fPM"
      },
      {
        "day": "Wednesday",
        "hours": "8\u202fAM to 5\u202fPM"
      },
      {
        "day": "Thursday",
        "hours": "8\u202fAM to 6\u202fPM"
      },
      {
        "day": "Friday",
        "hours": "8\u202fAM to 4\u202fPM"
      },
      {
        "day": "Saturday",
        "hours": "Closed"
      },
      {
        "day": "Sunday",
        "hours": "Closed"
      }
    ],
    "peopleAlsoSearch": [],
    "placesTags": [],
    "reviewsTags": [],
    "additionalInfo": {
      "Service options": [
        {
          "Delivery": true
        }
      ],
      "Accessibility": [
        {
          "Wheelchair accessible entrance": true
        },
        {
          "Wheelchair accessible parking lot": true
        }
      ],
      "Payments": [
        {
          "Credit cards": true
        }
      ]
    },
    "gasPrices": [],
    "url": "https://www.google.com/maps/search/?api=1&query=Damar%20Pharmacy&query_place_id=ChIJrxqtRWOnbIgRUas7XZsDVUA",
    "searchPageUrl": "https://www.google.com/maps/search/independent%20pharmacy%20Indianapolis%20IN/@53.926924098432366,-166.92009879946335,9z?hl=en",
    "searchString": "independent pharmacy Indianapolis IN",
    "language": "en",
    "rank": 13,
    "isAdvertisement": false,
    "imageUrl": "https://streetviewpixels-pa.googleapis.com/v1/thumbnail?panoid=UiL-snQxQQ8LoLGtCz59Ag&cb_client=search.gws-prod.gps&w=408&h=240&yaw=188.9791&pitch=0&thumbfov=100",
    "kgmid": "/g/11sb0kvlft",
    "classification": "independent",
    "is_independent": true,
    "is_compounding": false,
    "confidence": 0.9,
    "source": "perplexity",
    "method": "llm"
  },
  {
    "title": "Needler's Fresh Market Pharmacy",
    "price": null,
    "categoryName": "Pharmacy",
    "address": "320 N New Jersey St, Indianapolis, IN 46204",
    "neighborhood": "Mile Square",
    "street": "320 N New Jersey St",
    "city": "Indianapolis",
    "postalCode": "46204",
    "state": "Indiana",
    "countryCode": "US",
    "website": "https://www.needlersfreshmarket.com/pharmacy",
    "phone": "(463) 203-5178",
    "phoneUnformatted": "+14632035178",
    "claimThisBusiness": false,
    "location": {
      "lat": 39.7719516,
      "lng": -86.1515571
    },
    "totalScore": 4.7,
    "permanentlyClosed": false,
    "temporarilyClosed": false,
    "placeId": null,
    "categories": [
      "Pharmacy"
    ],
    "fid": "0x886b5150c635c1b3:0x638aa8781b224999",
    "cid": "7172730590345709977",
    "reviewsCount": 28,
    "imagesCount": 13,
    "imageCategories": [],
    "scrapedAt": "2025-06-22T05:12:47.476Z",
    "googleFoodUrl": null,
    "hotelAds": [],
    "openingHours": [
      {
        "day": "Monday",
        "hours": "9\u202fAM to 7\u202fPM"
      },
      {
        "day": "Tuesday",
        "hours": "9\u202fAM to 7\u202fPM"
      },
      {
        "day": "Wednesday",
        "hours": "9\u202fAM to 7\u202fPM"
      },
      {
        "day": "Thursday",
        "hours": "9\u202fAM to 7\u202fPM"
      },
      {
        "day": "Friday",
        "hours": "9\u202fAM to 7\u202fPM"
      },
      {
        "day": "Saturday",
        "hours": "9\u202fAM to 3\u202fPM"
      },
      {
        "day": "Sunday",
        "hours": "10\u202fAM to 3\u202fPM"
      }
    ],
    "peopleAlsoSearch": [],
    "placesTags": [],
    "reviewsTags": [],
    "additionalInfo": {
      "Accessibility": [
        {
          "Wheelchair accessible entrance": true
        },
        {
          "Wheelchair accessible parking lot": true
        }
      ],
      "Planning": [
        {
          "Quick visit": true
        }
      ],
      "Payments": [
        {
          "Credit cards": true
        }
      ]
    },
    "gasPrices": [],
    "url": "https://www.google.com/maps/search/?api=1&query=Needler's%20Fresh%20Market%20Pharmacy&query_place_id=ChIJs8E1xlBRa4gRmUkiG3ioimM",
    "searchPageUrl": "https://www.google.com/maps/search/independent%20pharmacy%20Indianapolis%20IN/@53.926924098432366,-166.92009879946335,9z?hl=en",
    "searchString": "independent pharmacy Indianapolis IN",
    "language": "en",
    "rank": 14,
    "isAdvertisement": false,
    "imageUrl": "https://lh3.googleusercontent.com/gps-cs-s/AC9h4nq0NrULlLUn0cEmESUT31L217sdUjheU91rtHaEyznAN_KnvYT3Gxh58XclsNFoOO_UmOceo7NDoCrQo-c4dlXopcHnnpNu41RzF-dne-Frc2PA1vi-omSAvgVYRWdGKdsOFBjDt5zL1Exx=w408-h408-k-no",
    "kgmid": "/g/11h54mzpsb",
    "classification": "independent",
    "is_independent": true,
    "is_compounding": false,
    "confidence": 0.9,
    "source": "perplexity",
    "method": "llm"
  },
  {
    "title": "Damien Pharmacy",
    "price": null,
    "categoryName": "Pharmacy",
    "address": "26 N Arsenal Ave, Indianapolis, IN 46201",
    "neighborhood": "Near Eastside",
    "street": "26 N Arsenal Ave",
    "city": "Indianapolis",
    "postalCode": "46201",
    "state": "Indiana",
    "countryCode": "US",
    "website": "http://www.damien.org/damienpharmacy/",
    "phone": "(317) 981-1989",
    "phoneUnformatted": "+13179811989",
    "claimThisBusiness": false,
    "location": {
      "lat": 39.7679097,
      "lng": -86.1336931
    },
    "totalScore": 5,
    "permanentlyClosed": false,
    "temporarilyClosed": false,
    "placeId": null,
    "categories": [
      "Pharmacy"
    ],
    "fid": "0x886b51de9e12953d:0x954131b457413b9d",
    "cid": "10754932035765222301",
    "reviewsCount": 8,
    "imagesCount": 2,
    "imageCategories": [],
    "scrapedAt": "2025-06-22T05:12:47.476Z",
    "googleFoodUrl": null,
    "hotelAds": [],
    "openingHours": [
      {
        "day": "Monday",
        "hours": "8:30\u202fAM to 5:30\u202fPM"
      },
      {
        "day": "Tuesday",
        "hours": "8:30\u202fAM to 5:30\u202fPM"
      },
      {
        "day": "Wednesday",
        "hours": "10\u202fAM to 5:30\u202fPM"
      },
      {
        "day": "Thursday",
        "hours": "8:30\u202fAM to 5:30\u202fPM"
      },
      {
        "day": "Friday",
        "hours": "8:30\u202fAM to 3\u202fPM"
      },
      {
        "day": "Saturday",
        "hours": "Closed"
      },
      {
        "day": "Sunday",
        "hours": "Closed"
      }
    ],
    "peopleAlsoSearch": [],
    "placesTags": [],
    "reviewsTags": [],
    "additionalInfo": {
      "Service options": [
        {
          "Delivery": true
        },
        {
          "In-store pickup": true
        },
        {
          "In-store shopping": true
        }
      ],
      "Accessibility": [
        {
          "Wheelchair accessible entrance": true
        },
        {
          "Wheelchair accessible parking lot": true
        }
      ],
      "Amenities": [
        {
          "Gender-neutral restroom": true
        }
      ],
      "Crowd": [
        {
          "LGBTQ+ friendly": true
        },
        {
          "Transgender safespace": true
        }
      ],
      "Planning": [
        {
          "Appointment required": true
        }
      ],
      "Payments": [
        {
          "Credit cards": true
        }
      ]
    },
    "gasPrices": [],
    "url": "https://www.google.com/maps/search/?api=1&query=Damien%20Pharmacy&query_place_id=ChIJPZUSnt5Ra4gRnTtBV7QxQZU",
    "searchPageUrl": "https://www.google.com/maps/search/independent%20pharmacy%20Indianapolis%20IN/@53.926924098432366,-166.92009879946335,9z?hl=en",
    "searchString": "independent pharmacy Indianapolis IN",
    "language": "en",
    "rank": 15,
    "isAdvertisement": false,
    "imageUrl": "https://lh3.googleusercontent.com/p/AF1QipNUPA8mcV6SO1pBXD7D8XZbRyeWhAKjGgkVj8zC=w408-h429-k-no",
    "kgmid": "/g/11qktd85__",
    "classification": "independent",
    "is_independent": true,
    "is_compounding": false,
    "confidence": 0.9,
    "source": "perplexity",
    "method": "llm"
  },
  {
    "title": "George's Pharmacy & Medical Equipment",
    "price": null,
    "categoryName": "Pharmacy",
    "address": "5543 E Washington St, Indianapolis, IN 46219",
    "neighborhood": "Irvington Historic District",
    "street": "5543 E Washington St",
    "city": "Indianapolis",
    "postalCode": "46219",
    "state": "Indiana",
    "countryCode": "US",
    "website": "https://www.georgespharmacy.com/",
    "phone": "(317) 359-8278",
    "phoneUnformatted": "+13173598278",
    "claimThisBusiness": false,
    "location": {
      "lat": 39.7705393,
      "lng": -86.072061
    },
    "totalScore": 4.5,
    "permanentlyClosed": false,
    "temporarilyClosed": false,
    "placeId": null,
    "categories": [
      "Pharmacy",
      "Drug store",
      "Medical equipment supplier"
    ],
    "fid": "0x886b4fcb96cd1b6b:0xfa724a2b34cfb49e",
    "cid": "18046568206257075358",
    "reviewsCount": 67,
    "imagesCount": 3,
    "imageCategories": [],
    "scrapedAt": "2025-06-22T05:12:47.476Z",
    "googleFoodUrl": null,
    "hotelAds": [],
    "openingHours": [
      {
        "day": "Monday",
        "hours": "8\u202fAM to 6\u202fPM"
      },
      {
        "day": "Tuesday",
        "hours": "8\u202fAM to 6\u202fPM"
      },
      {
        "day": "Wednesday",
        "hours": "8\u202fAM to 6\u202fPM"
      },
      {
        "day": "Thursday",
        "hours": "8\u202fAM to 6\u202fPM"
      },
      {
        "day": "Friday",
        "hours": "8\u202fAM to 6\u202fPM"
      },
      {
        "day": "Saturday",
        "hours": "9\u202fAM to 1\u202fPM"
      },
      {
        "day": "Sunday",
        "hours": "Closed"
      }
    ],
    "additionalOpeningHours": {
      "Delivery": [
        {
          "day": "Monday",
          "hours": "8:30\u202fAM\u20134:30\u202fPM"
        },
        {
          "day": "Tuesday",
          "hours": "8:30\u202fAM\u20134:30\u202fPM"
        },
        {
          "day": "Wednesday",
          "hours": "8:30\u202fAM\u20134:30\u202fPM"
        },
        {
          "day": "Thursday",
          "hours": "8:30\u202fAM\u20134:30\u202fPM"
        },
        {
          "day": "Friday",
          "hours": "8:30\u202fAM\u20134:30\u202fPM"
        },
        {
          "day": "Saturday",
          "hours": "Closed"
        },
        {
          "day": "Sunday",
          "hours": "Closed"
        }
      ]
    },
    "peopleAlsoSearch": [],
    "placesTags": [],
    "reviewsTags": [],
    "additionalInfo": {
      "Service options": [
        {
          "Curbside pickup": true
        },
        {
          "Delivery": true
        },
        {
          "In-store pickup": true
        },
        {
          "In-store shopping": true
        },
        {
          "Same-day delivery": true
        }
      ],
      "Accessibility": [
        {
          "Wheelchair accessible entrance": true
        },
        {
          "Wheelchair accessible parking lot": true
        }
      ],
      "Planning": [
        {
          "Quick visit": true
        }
      ],
      "Payments": [
        {
          "Checks": true
        },
        {
          "Credit cards": true
        },
        {
          "Debit cards": true
        },
        {
          "Credit cards": true
        }
      ]
    },
    "gasPrices": [],
    "url": "https://www.google.com/maps/search/?api=1&query=George's%20Pharmacy%20%26%20Medical%20Equipment&query_place_id=ChIJaxvNlstPa4gRnrTPNCtKcvo",
    "searchPageUrl": "https://www.google.com/maps/search/independent%20pharmacy%20Indianapolis%20IN/@53.926924098432366,-166.92009879946335,9z?hl=en",
    "searchString": "independent pharmacy Indianapolis IN",
    "language": "en",
    "rank": 16,
    "isAdvertisement": false,
    "imageUrl": "https://lh3.googleusercontent.com/p/AF1QipO3BpUp5drdYnwf2Mvl5MxS2VmO9fR92rl9R0nR=w473-h240-k-no",
    "kgmid": "/g/11btz14m41",
    "classification": "independent",
    "is_independent": true,
    "is_compounding": false,
    "confidence": 0.9,
    "source": "perplexity",
    "method": "llm"
  },
  {
    "title": "Riley Retail Pharmacy at IU Health",
    "price": null,
    "categoryName": "Pharmacy",
    "address": "575 Riley Hospital Dr ROC 1201, Indianapolis, IN 46202",
    "neighborhood": "Downtown",
    "street": "575 Riley Hospital Dr ROC 1201",
    "city": "Indianapolis",
    "postalCode": "46202",
    "state": "Indiana",
    "countryCode": "US",
    "website": "https://www.rileychildrens.org/practice-location/riley-retail-pharmacy-at-iu-health-riley-outpatient-center-575-riley-hospital-dr?utm_source=Google&utm_medium=Yext&y_source=1_MTE5NDIwODItNzE1LWxvY2F0aW9uLndlYnNpdGU%3D",
    "phone": "(317) 944-2335",
    "phoneUnformatted": "+13179442335",
    "claimThisBusiness": false,
    "location": {
      "lat": 39.7773719,
      "lng": -86.1806195
    },
    "totalScore": 3.8,
    "permanentlyClosed": false,
    "temporarilyClosed": false,
    "placeId": null,
    "categories": [
      "Pharmacy"
    ],
    "fid": "0x886b57342bae6df1:0x31474152518b6ba4",
    "cid": "3550878653016140708",
    "reviewsCount": 9,
    "imagesCount": 4,
    "imageCategories": [],
    "scrapedAt": "2025-06-22T05:12:47.476Z",
    "googleFoodUrl": null,
    "hotelAds": [],
    "openingHours": [
      {
        "day": "Monday",
        "hours": "8\u202fAM to 7\u202fPM"
      },
      {
        "day": "Tuesday",
        "hours": "8\u202fAM to 7\u202fPM"
      },
      {
        "day": "Wednesday",
        "hours": "8\u202fAM to 7\u202fPM"
      },
      {
        "day": "Thursday",
        "hours": "8\u202fAM to 7\u202fPM"
      },
      {
        "day": "Friday",
        "hours": "8\u202fAM to 7\u202fPM"
      },
      {
        "day": "Saturday",
        "hours": "9\u202fAM to 3\u202fPM"
      },
      {
        "day": "Sunday",
        "hours": "9\u202fAM to 1\u202fPM"
      }
    ],
    "peopleAlsoSearch": [],
    "placesTags": [],
    "reviewsTags": [],
    "additionalInfo": {
      "Service options": [
        {
          "In-store pickup": true
        },
        {
          "In-store shopping": true
        }
      ],
      "Accessibility": [
        {
          "Wheelchair accessible entrance": true
        },
        {
          "Wheelchair accessible parking lot": true
        }
      ],
      "Payments": [
        {
          "Credit cards": true
        },
        {
          "Debit cards": true
        },
        {
          "NFC mobile payments": true
        },
        {
          "Credit cards": true
        }
      ]
    },
    "gasPrices": [],
    "url": "https://www.google.com/maps/search/?api=1&query=Riley%20Retail%20Pharmacy%20at%20IU%20Health&query_place_id=ChIJ8W2uKzRXa4gRpGuLUVJBRzE",
    "searchPageUrl": "https://www.google.com/maps/search/independent%20pharmacy%20Indianapolis%20IN/@53.926924098432366,-166.92009879946335,9z?hl=en",
    "searchString": "independent pharmacy Indianapolis IN",
    "language": "en",
    "rank": 17,
    "isAdvertisement": false,
    "imageUrl": "https://lh3.googleusercontent.com/p/AF1QipM1zU9jUzYfw7KmocQjXBkc1TB4Y1s_tdIFbqid=w427-h240-k-no",
    "kgmid": "/g/11c2pb1hj8",
    "classification": "independent",
    "is_independent": true,
    "is_compounding": false,
    "confidence": 0.9,
    "source": "perplexity",
    "method": "llm"
  },
  {
    "title": "Patient Direct Pharmacy",
    "price": null,
    "categoryName": "Pharmacy",
    "address": "3350 N High School Rd Suite J, Indianapolis, IN 46224",
    "neighborhood": "Northwest High School",
    "street": "3350 N High School Rd Suite J",
    "city": "Indianapolis",
    "postalCode": "46224",
    "state": "Indiana",
    "countryCode": "US",
    "website": "https://patient-direct-pharmacy.com/",
    "phone": "(317) 438-5236",
    "phoneUnformatted": "+13174385236",
    "claimThisBusiness": false,
    "location": {
      "lat": 39.8158527,
      "lng": -86.27149
    },
    "totalScore": 1,
    "permanentlyClosed": false,
    "temporarilyClosed": false,
    "placeId": null,
    "categories": [
      "Pharmacy"
    ],
    "fid": "0x886ca9c3cef297cf:0x91c37a541b57aac4",
    "cid": "10503373257612700356",
    "reviewsCount": 1,
    "imagesCount": 7,
    "imageCategories": [],
    "scrapedAt": "2025-06-22T05:12:47.476Z",
    "googleFoodUrl": null,
    "hotelAds": [],
    "openingHours": [
      {
        "day": "Monday",
        "hours": "9\u202fAM to 5\u202fPM"
      },
      {
        "day": "Tuesday",
        "hours": "9\u202fAM to 5\u202fPM"
      },
      {
        "day": "Wednesday",
        "hours": "9\u202fAM to 5\u202fPM"
      },
      {
        "day": "Thursday",
        "hours": "9\u202fAM to 5\u202fPM"
      },
      {
        "day": "Friday",
        "hours": "9\u202fAM to 5\u202fPM"
      },
      {
        "day": "Saturday",
        "hours": "9\u202fAM to 1\u202fPM"
      },
      {
        "day": "Sunday",
        "hours": "Closed"
      }
    ],
    "peopleAlsoSearch": [],
    "placesTags": [],
    "reviewsTags": [],
    "additionalInfo": {
      "From the business": [
        {
          "Small business": true
        }
      ],
      "Service options": [
        {
          "Delivery": true
        },
        {
          "In-store shopping": true
        }
      ],
      "Accessibility": [
        {
          "Wheelchair accessible entrance": true
        },
        {
          "Wheelchair accessible parking lot": true
        }
      ],
      "Payments": [
        {
          "Credit cards": true
        }
      ]
    },
    "gasPrices": [],
    "url": "https://www.google.com/maps/search/?api=1&query=Patient%20Direct%20Pharmacy&query_place_id=ChIJz5fyzsOpbIgRxKpXG1R6w5E",
    "searchPageUrl": "https://www.google.com/maps/search/independent%20pharmacy%20Indianapolis%20IN/@53.926924098432366,-166.92009879946335,9z?hl=en",
    "searchString": "independent pharmacy Indianapolis IN",
    "language": "en",
    "rank": 18,
    "isAdvertisement": false,
    "imageUrl": "https://lh3.googleusercontent.com/p/AF1QipND3GrY0Du8-zv5CWtfl0CbKA-j-3HbnQqcpHVY=w408-h254-k-no",
    "kgmid": "/g/11twq3l0vs",
    "classification": "independent",
    "is_independent": true,
    "is_compounding": false,
    "confidence": 0.85,
    "source": "perplexity",
    "method": "llm"
  },
  {
    "title": "Walgreens Pharmacy",
    "description": "Department of the Walgreens chain providing prescription medications & other health-related items.",
    "price": "$$",
    "categoryName": "Pharmacy",
    "address": "9002 N Meridian St Ste 213, Indianapolis, IN 46260",
    "neighborhood": "Nora / Far Northside",
    "street": "9002 N Meridian St Ste 213",
    "city": "Indianapolis",
    "postalCode": "46260",
    "state": "Indiana",
    "countryCode": "US",
    "website": "https://www.walgreens.com/locator/walgreens-9002+n+meridian+st-indianapolis-in-46260/id=15323",
    "phone": "(317) 587-7400",
    "phoneUnformatted": "+13175877400",
    "claimThisBusiness": false,
    "location": {
      "lat": 39.9184147,
      "lng": -86.1588411
    },
    "totalScore": 5,
    "permanentlyClosed": false,
    "temporarilyClosed": false,
    "placeId": null,
    "categories": [
      "Pharmacy"
    ],
    "fid": "0x8814acb4b77acd09:0xdc4ec84e24b228a1",
    "cid": "15874845974476236961",
    "reviewsCount": 6,
    "imagesCount": 2,
    "imageCategories": [],
    "scrapedAt": "2025-06-22T05:12:47.476Z",
    "googleFoodUrl": null,
    "hotelAds": [],
    "openingHours": [
      {
        "day": "Monday",
        "hours": "8:30\u202fAM to 5\u202fPM"
      },
      {
        "day": "Tuesday",
        "hours": "8:30\u202fAM to 5\u202fPM"
      },
      {
        "day": "Wednesday",
        "hours": "8:30\u202fAM to 5\u202fPM"
      },
      {
        "day": "Thursday",
        "hours": "8:30\u202fAM to 5\u202fPM"
      },
      {
        "day": "Friday",
        "hours": "8:30\u202fAM to 5\u202fPM"
      },
      {
        "day": "Saturday",
        "hours": "Closed"
      },
      {
        "day": "Sunday",
        "hours": "Closed"
      }
    ],
    "peopleAlsoSearch": [],
    "placesTags": [],
    "reviewsTags": [],
    "additionalInfo": {
      "Service options": [
        {
          "Delivery": true
        },
        {
          "In-store pickup": true
        }
      ],
      "Accessibility": [
        {
          "Wheelchair accessible entrance": true
        },
        {
          "Wheelchair accessible parking lot": true
        }
      ],
      "Planning": [
        {
          "Quick visit": true
        }
      ],
      "Payments": [
        {
          "Checks": true
        },
        {
          "Credit cards": true
        },
        {
          "Debit cards": true
        }
      ]
    },
    "gasPrices": [],
    "url": "https://www.google.com/maps/search/?api=1&query=Walgreens%20Pharmacy&query_place_id=ChIJCc16t7SsFIgRoSiyJE7ITtw",
    "searchPageUrl": "https://www.google.com/maps/search/independent%20pharmacy%20Indianapolis%20IN/@53.926924098432366,-166.92009879946335,9z?hl=en",
    "searchString": "independent pharmacy Indianapolis IN",
    "language": "en",
    "rank": 19,
    "isAdvertisement": false,
    "imageUrl": "https://lh3.googleusercontent.com/p/AF1QipMaryTgEaFbRpeAfMw-S54OA_h7g7RzO9ZJcf1U=w408-h408-k-no",
    "kgmid": "/g/11cn93sp2g",
    "classification": "chain",
    "is_independent": false,
    "is_compounding": false,
    "confidence": 1.0,
    "source": "perplexity",
    "method": "llm"
  }
]