[
  {
    "title": "Winn Pharmacy",
    "price": null,
    "categoryName": "Pharmacy",
    "address": "134 Andover St, Lowell, MA 01852",
    "neighborhood": "Belvidere",
    "street": "134 Andover St",
    "city": "Lowell",
    "postalCode": "01852",
    "state": "Massachusetts",
    "countryCode": "US",
    "phone": "(978) 221-6674",
    "phoneUnformatted": "+19782216674",
    "claimThisBusiness": false,
    "location": {
      "lat": 42.6420821,
      "lng": -71.3002079
    },
    "totalScore": 4.5,
    "permanentlyClosed": false,
    "temporarilyClosed": false,
    "placeId": null,
    "categories": [
      "Pharmacy"
    ],
    "fid": "0x89e3a5dc6cc4fed5:0x15ec858885dcd21f",
    "cid": "1579784390708089375",
    "reviewsCount": 13,
    "imagesCount": 14,
    "imageCategories": [],
    "scrapedAt": "2025-06-22T05:44:02.414Z",
    "googleFoodUrl": null,
    "hotelAds": [],
    "openingHours": [
      {
        "day": "Monday",
        "hours": "8\u202fAM to 8:30\u202fPM"
      },
      {
        "day": "Tuesday",
        "hours": "8\u202fAM to 8:30\u202fPM"
      },
      {
        "day": "Wednesday",
        "hours": "8\u202fAM to 8:30\u202fPM"
      },
      {
        "day": "Thursday",
        "hours": "8\u202fAM to 8:30\u202fPM"
      },
      {
        "day": "Friday",
        "hours": "8\u202fAM to 8:30\u202fPM"
      },
      {
        "day": "Saturday",
        "hours": "9\u202fAM to 5\u202fPM"
      },
      {
        "day": "Sunday",
        "hours": "Closed"
      }
    ],
    "peopleAlsoSearch": [],
    "placesTags": [],
    "reviewsTags": [],
    "additionalInfo": {
      "From the business": [
        {
          "Identifies as women-owned": true
        },
        {
          "Small business": true
        }
      ],
      "Service options": [
        {
          "Delivery": true
        },
        {
          "In-store pickup": true
        },
        {
          "In-store shopping": true
        }
      ],
      "Accessibility": [
        {
          "Wheelchair accessible entrance": true
        },
        {
          "Wheelchair accessible parking lot": true
        }
      ],
      "Planning": [
        {
          "Quick visit": true
        }
      ],
      "Payments": [
        {
          "Credit cards": true
        },
        {
          "Debit cards": true
        },
        {
          "NFC mobile payments": true
        },
        {
          "Credit cards": true
        }
      ]
    },
    "gasPrices": [],
    "url": "https://www.google.com/maps/search/?api=1&query=Winn%20Pharmacy&query_place_id=ChIJ1f7EbNyl44kRH9LchYiF7BU",
    "searchPageUrl": "https://www.google.com/maps/search/independent%20pharmacy%20Lowell%20MA/@23.123355899055138,-161.71582772408175,13z?hl=en",
    "searchString": "independent pharmacy Lowell MA",
    "language": "en",
    "rank": 1,
    "isAdvertisement": false,
    "imageUrl": "https://lh3.googleusercontent.com/p/AF1QipMshr2fzdSLTflDc10cwZLHA3B7Rg5Iu9dzbrpF=w408-h544-k-no",
    "kgmid": "/g/11rn80kbq1",
    "classification": "independent",
    "is_independent": true,
    "is_compounding": false,
    "confidence": 0.85,
    "source": "perplexity",
    "method": "llm",
    "query_location": "lowell_ma"
  },
  {
    "title": "Long Term Pharmacy Solutions Inc",
    "price": null,
    "categoryName": "Pharmacy",
    "address": "225 Stedman St STE 27, Lowell, MA 01851",
    "neighborhood": "Highlands",
    "street": "225 Stedman St STE 27",
    "city": "Lowell",
    "postalCode": "01851",
    "state": "Massachusetts",
    "countryCode": "US",
    "website": "https://www.ltpharmacy.com/",
    "phone": "(888) 679-3639",
    "phoneUnformatted": "+18886793639",
    "claimThisBusiness": false,
    "location": {
      "lat": 42.6243691,
      "lng": -71.3521982
    },
    "totalScore": 2.6,
    "permanentlyClosed": false,
    "temporarilyClosed": false,
    "placeId": null,
    "categories": [
      "Pharmacy"
    ],
    "fid": "0x89e3a36410f43ee1:0xd7f059f4c35aba54",
    "cid": "15560035620349459028",
    "reviewsCount": 19,
    "imagesCount": 2,
    "imageCategories": [],
    "scrapedAt": "2025-06-22T05:44:02.415Z",
    "googleFoodUrl": null,
    "hotelAds": [],
    "openingHours": [
      {
        "day": "Monday",
        "hours": "Open 24 hours"
      },
      {
        "day": "Tuesday",
        "hours": "Open 24 hours"
      },
      {
        "day": "Wednesday",
        "hours": "Open 24 hours"
      },
      {
        "day": "Thursday",
        "hours": "Open 24 hours"
      },
      {
        "day": "Friday",
        "hours": "Open 24 hours"
      },
      {
        "day": "Saturday",
        "hours": "Open 24 hours"
      },
      {
        "day": "Sunday",
        "hours": "Open 24 hours"
      }
    ],
    "peopleAlsoSearch": [],
    "placesTags": [],
    "reviewsTags": [],
    "additionalInfo": {
      "Service options": [
        {
          "Delivery": true
        },
        {
          "Same-day delivery": true
        }
      ],
      "Accessibility": [
        {
          "Wheelchair accessible parking lot": true
        }
      ],
      "Payments": [
        {
          "Debit cards": true
        },
        {
          "NFC mobile payments": true
        },
        {
          "Credit cards": true
        }
      ]
    },
    "gasPrices": [],
    "url": "https://www.google.com/maps/search/?api=1&query=Long%20Term%20Pharmacy%20Solutions%20Inc&query_place_id=ChIJ4T70EGSj44kRVLpaw_RZ8Nc",
    "searchPageUrl": "https://www.google.com/maps/search/independent%20pharmacy%20Lowell%20MA/@23.123355899055138,-161.71582772408175,13z?hl=en",
    "searchString": "independent pharmacy Lowell MA",
    "language": "en",
    "rank": 2,
    "isAdvertisement": false,
    "imageUrl": "https://lh3.googleusercontent.com/gps-cs-s/AC9h4npDuMa6n9i_hpPUdXrTs9CumyF_aN81a6wS0qMTmMrlDYJwLljYIczlirxzR98PUoBes-la51PaSN5JJp5q7OoYYA1ECtO8pkIxS-dHjzhRF_Lh4xIwSNhwbp-2CBQAdJ5xYciX=w408-h544-k-no",
    "kgmid": "/g/1w2yvxd4",
    "classification": "independent",
    "is_independent": true,
    "is_compounding": false,
    "confidence": 0.85,
    "source": "perplexity",
    "method": "llm",
    "query_location": "lowell_ma"
  },
  {
    "title": "Century Pharmacy",
    "price": null,
    "categoryName": "Pharmacy",
    "address": "937 Gorham St, Lowell, MA 01852",
    "neighborhood": "South Lowell",
    "street": "937 Gorham St",
    "city": "Lowell",
    "postalCode": "01852",
    "state": "Massachusetts",
    "countryCode": "US",
    "phone": "(978) 455-6554",
    "phoneUnformatted": "+19784556554",
    "claimThisBusiness": false,
    "location": {
      "lat": 42.6292902,
      "lng": -71.3083238
    },
    "totalScore": 4.5,
    "permanentlyClosed": false,
    "temporarilyClosed": false,
    "placeId": null,
    "categories": [
      "Pharmacy"
    ],
    "fid": "0x89e3a40cff72b203:0x8086c01a772fda3c",
    "cid": "9261300903635311164",
    "reviewsCount": 28,
    "imagesCount": 5,
    "imageCategories": [],
    "scrapedAt": "2025-06-22T05:44:02.415Z",
    "googleFoodUrl": null,
    "hotelAds": [],
    "openingHours": [
      {
        "day": "Monday",
        "hours": "9\u202fAM to 7\u202fPM"
      },
      {
        "day": "Tuesday",
        "hours": "9\u202fAM to 7\u202fPM"
      },
      {
        "day": "Wednesday",
        "hours": "9\u202fAM to 7\u202fPM"
      },
      {
        "day": "Thursday",
        "hours": "9\u202fAM to 7\u202fPM"
      },
      {
        "day": "Friday",
        "hours": "9\u202fAM to 7\u202fPM"
      },
      {
        "day": "Saturday",
        "hours": "10\u202fAM to 4\u202fPM"
      },
      {
        "day": "Sunday",
        "hours": "Closed"
      }
    ],
    "peopleAlsoSearch": [],
    "placesTags": [],
    "reviewsTags": [],
    "additionalInfo": {
      "From the business": [
        {
          "Small business": true
        }
      ],
      "Service options": [
        {
          "Delivery": true
        },
        {
          "In-store pickup": true
        },
        {
          "In-store shopping": true
        },
        {
          "Same-day delivery": true
        }
      ],
      "Accessibility": [
        {
          "Wheelchair accessible entrance": true
        },
        {
          "Wheelchair accessible parking lot": true
        }
      ],
      "Planning": [
        {
          "Quick visit": true
        }
      ],
      "Payments": [
        {
          "Credit cards": true
        },
        {
          "Debit cards": true
        },
        {
          "NFC mobile payments": true
        },
        {
          "Credit cards": true
        }
      ]
    },
    "gasPrices": [],
    "url": "https://www.google.com/maps/search/?api=1&query=Century%20Pharmacy&query_place_id=ChIJA7Jy_wyk44kRPNovdxrAhoA",
    "searchPageUrl": "https://www.google.com/maps/search/independent%20pharmacy%20Lowell%20MA/@23.123355899055138,-161.71582772408175,13z?hl=en",
    "searchString": "independent pharmacy Lowell MA",
    "language": "en",
    "rank": 3,
    "isAdvertisement": false,
    "imageUrl": "https://lh3.googleusercontent.com/gps-cs-s/AC9h4noNPFqumgXvopzrsc8lWMAW0cuaT80CJQdQdXymWk0TQKgnP5EED45RqwdeZLDlxAw_kM9wWHuusb5Ddy9WH521Ui_4eriMxoVhk7hZiAIM0AWZtsJ-caUZiZyAomvb4uu_xkCQ=w408-h306-k-no",
    "kgmid": "/g/12vsl2r30",
    "classification": "independent",
    "is_independent": true,
    "is_compounding": false,
    "confidence": 0.85,
    "source": "perplexity",
    "method": "llm",
    "query_location": "lowell_ma"
  },
  {
    "title": "Oneworld Health Mart Pharmacy",
    "price": null,
    "categoryName": "Pharmacy",
    "address": "138 Highland Ave #5, Lowell, MA 01851",
    "neighborhood": "Highlands",
    "street": "138 Highland Ave #5",
    "city": "Lowell",
    "postalCode": "01851",
    "state": "Massachusetts",
    "countryCode": "US",
    "website": "https://stores.healthmart.com/oneworldrxpharmacy/stores.aspx",
    "phone": "(978) 455-4066",
    "phoneUnformatted": "+19784554066",
    "claimThisBusiness": true,
    "location": {
      "lat": 42.627742,
      "lng": -71.3330527
    },
    "permanentlyClosed": false,
    "temporarilyClosed": false,
    "placeId": "ChIJ9bnkwH-k44kRb5yUJ9jK2wE",
    "categories": [
      "Pharmacy"
    ],
    "fid": "0x89e3a47fc0e4b9f5:0x1dbcad827949c6f",
    "cid": "133923643663359087",
    "reviewsCount": 0,
    "imagesCount": 2,
    "imageCategories": [],
    "scrapedAt": "2025-06-22T05:44:02.416Z",
    "googleFoodUrl": null,
    "hotelAds": [],
    "openingHours": [
      {
        "day": "Monday",
        "hours": "10\u202fAM to 5\u202fPM"
      },
      {
        "day": "Tuesday",
        "hours": "10\u202fAM to 5\u202fPM"
      },
      {
        "day": "Wednesday",
        "hours": "10\u202fAM to 5\u202fPM"
      },
      {
        "day": "Thursday",
        "hours": "10\u202fAM to 5\u202fPM"
      },
      {
        "day": "Friday",
        "hours": "10\u202fAM to 5\u202fPM"
      },
      {
        "day": "Saturday",
        "hours": "10\u202fAM to 4\u202fAM"
      },
      {
        "day": "Sunday",
        "hours": "Closed"
      }
    ],
    "peopleAlsoSearch": [],
    "placesTags": [],
    "reviewsTags": [],
    "additionalInfo": {
      "Service options": [
        {
          "Delivery": true
        }
      ],
      "Accessibility": [
        {
          "Wheelchair accessible entrance": true
        },
        {
          "Wheelchair accessible parking lot": true
        }
      ],
      "Planning": [
        {
          "Quick visit": true
        }
      ],
      "Payments": [
        {
          "Credit cards": true
        },
        {
          "Credit cards": true
        }
      ]
    },
    "gasPrices": [],
    "url": "https://www.google.com/maps/search/?api=1&query=Oneworld%20Health%20Mart%20Pharmacy&query_place_id=ChIJ9bnkwH-k44kRb5yUJ9jK2wE",
    "searchPageUrl": "https://www.google.com/maps/search/independent%20pharmacy%20Lowell%20MA/@23.123355899055138,-161.71582772408175,13z?hl=en",
    "searchString": "independent pharmacy Lowell MA",
    "language": "en",
    "rank": 4,
    "isAdvertisement": false,
    "imageUrl": "https://lh3.googleusercontent.com/gps-cs-s/AC9h4nri47sPO3aLI5Xl4AgmRue0M7vvcFNw_EbA6tJ_lzETk6-xbw7FBW5NglApiloboxRXxF0PaqFRpzgZDPWd_irRMCmdT-4Y0ADu6EMv9xDoHvwntpp9zao1tzkmgP2Wkphrkiah=w408-h544-k-no",
    "kgmid": "/g/1260ft4n6",
    "classification": "hospital",
    "is_independent": false,
    "confidence": 1.0,
    "source": "rule-based"
  },
  {
    "title": "K Pharmacy",
    "price": null,
    "categoryName": "Pharmacy",
    "address": "280 Westford St, Lowell, MA 01851, United States",
    "neighborhood": "Highlands",
    "street": "280 Westford St",
    "city": "Lowell",
    "postalCode": "01851",
    "state": "Massachusetts",
    "countryCode": "US",
    "phone": "+1 978-455-8764",
    "phoneUnformatted": "+19784558764",
    "claimThisBusiness": true,
    "location": {
      "lat": 42.6350925,
      "lng": -71.3257758
    },
    "totalScore": 5,
    "permanentlyClosed": false,
    "temporarilyClosed": false,
    "placeId": null,
    "categories": [
      "Pharmacy"
    ],
    "fid": "0x89e3a46528fa1dc1:0x63eeaaa916197d19",
    "cid": "7200880497408965913",
    "reviewsCount": 21,
    "imagesCount": 2,
    "imageCategories": [],
    "scrapedAt": "2025-06-22T05:44:15.266Z",
    "googleFoodUrl": null,
    "hotelAds": [],
    "openingHours": [
      {
        "day": "Monday",
        "hours": "9\u202fAM to 7\u202fPM"
      },
      {
        "day": "Tuesday",
        "hours": "9\u202fAM to 7\u202fPM"
      },
      {
        "day": "Wednesday",
        "hours": "9\u202fAM to 7\u202fPM"
      },
      {
        "day": "Thursday",
        "hours": "9\u202fAM to 7\u202fPM"
      },
      {
        "day": "Friday",
        "hours": "9\u202fAM to 7\u202fPM"
      },
      {
        "day": "Saturday",
        "hours": "9\u202fAM to 7\u202fPM"
      },
      {
        "day": "Sunday",
        "hours": "Closed"
      }
    ],
    "peopleAlsoSearch": [],
    "placesTags": [],
    "reviewsTags": [],
    "additionalInfo": {
      "Accessibility": [
        {
          "Wheelchair-accessible car park": true
        },
        {
          "Wheelchair-accessible entrance": true
        }
      ],
      "Planning": [
        {
          "Quick visit": true
        }
      ],
      "Payments": [
        {
          "Credit cards": true
        },
        {
          "Debit cards": true
        },
        {
          "NFC mobile payments": true
        },
        {
          "Credit cards": true
        }
      ]
    },
    "gasPrices": [],
    "url": "https://www.google.com/maps/search/?api=1&query=K%20Pharmacy&query_place_id=ChIJwR36KGWk44kRGX0ZFqmq7mM",
    "searchPageUrl": "https://www.google.com/maps/search/independent%20pharmacy%20Lowell%20MA/@23.123355899055138,-161.9899563586394,13z?hl=en",
    "searchString": "independent pharmacy Lowell MA",
    "language": "en",
    "rank": 4,
    "isAdvertisement": false,
    "imageUrl": "https://lh3.googleusercontent.com/gps-cs-s/AC9h4noutkJ4OFgZrpX_qUDocX90Xm616udBxtHhsBK4_60cZ2rJv2DnBlajq2MFzoXAldpnHTMttwicZyn7QckDYzrfQAOzmD6nc871WFbJLQCpGHkhyg_-PQ0AoBuecke6odl47cE1pA=w493-h240-k-no",
    "kgmid": "/g/125__3t4l",
    "classification": "independent",
    "is_independent": true,
    "is_compounding": false,
    "confidence": 0.85,
    "source": "perplexity",
    "method": "llm",
    "query_location": "lowell_ma"
  },
  {
    "title": "CVS Pharmacy",
    "price": null,
    "categoryName": "Pharmacy",
    "address": "25 Wood St, Lowell, MA 01851",
    "neighborhood": "Highlands",
    "street": "25 Wood St",
    "city": "Lowell",
    "postalCode": "01851",
    "state": "Massachusetts",
    "countryCode": "US",
    "website": "https://www.cvs.com/store-locator/lowell-ma-pharmacies/1815-middlesex-street-lowell-ma-01851/storeid=1056?WT.mc_id=LS_GOOGLE_RX_1056",
    "phone": "(978) 458-4621",
    "phoneUnformatted": "+19784584621",
    "claimThisBusiness": false,
    "location": {
      "lat": 42.6331245,
      "lng": -71.3565338
    },
    "totalScore": 3.9,
    "permanentlyClosed": false,
    "temporarilyClosed": false,
    "placeId": "ChIJo2k50pik44kRxqLjUcFEuYI",
    "categories": [
      "Pharmacy"
    ],
    "fid": "0x89e3a498d23969a3:0x82b944c151e3a2c6",
    "cid": "9419635692715352774",
    "reviewsCount": 34,
    "imagesCount": 8,
    "imageCategories": [],
    "scrapedAt": "2025-06-22T05:44:17.984Z",
    "googleFoodUrl": null,
    "hotelAds": [],
    "openingHours": [
      {
        "day": "Monday",
        "hours": "12\u202fAM to 1:30\u202fPM, 2\u202fPM to 12\u202fAM"
      },
      {
        "day": "Tuesday",
        "hours": "12\u202fAM to 1:30\u202fPM, 2\u202fPM to 12\u202fAM"
      },
      {
        "day": "Wednesday",
        "hours": "12\u202fAM to 1:30\u202fPM, 2\u202fPM to 12\u202fAM"
      },
      {
        "day": "Thursday",
        "hours": "12\u202fAM to 1:30\u202fPM, 2\u202fPM to 12\u202fAM"
      },
      {
        "day": "Friday",
        "hours": "12\u202fAM to 1:30\u202fPM, 2\u202fPM to 12\u202fAM"
      },
      {
        "day": "Saturday",
        "hours": "12\u202fAM to 1:30\u202fPM, 2\u202fPM to 12\u202fAM"
      },
      {
        "day": "Sunday",
        "hours": "12\u202fAM to 1:30\u202fPM, 2\u202fPM to 12\u202fAM"
      }
    ],
    "peopleAlsoSearch": [],
    "placesTags": [],
    "reviewsTags": [],
    "additionalInfo": {
      "Service options": [
        {
          "Delivery": true
        },
        {
          "Drive-through": true
        },
        {
          "In-store pickup": true
        },
        {
          "In-store shopping": true
        },
        {
          "Onsite services": true
        }
      ],
      "Accessibility": [
        {
          "Wheelchair accessible entrance": true
        },
        {
          "Wheelchair accessible parking lot": true
        }
      ],
      "Offerings": [
        {
          "Medication disposal": true
        },
        {
          "Naloxone": true
        },
        {
          "Passport photos": true
        }
      ],
      "Crowd": [
        {
          "LGBTQ+ friendly": true
        },
        {
          "Transgender safespace": true
        }
      ],
      "Planning": [
        {
          "Quick visit": true
        }
      ],
      "Payments": [
        {
          "Credit cards": true
        },
        {
          "Debit cards": true
        },
        {
          "NFC mobile payments": true
        },
        {
          "SNAP/EBT": true
        },
        {
          "Credit cards": true
        }
      ]
    },
    "gasPrices": [],
    "url": "https://www.google.com/maps/search/?api=1&query=CVS%20Pharmacy&query_place_id=ChIJo2k50pik44kRxqLjUcFEuYI",
    "searchPageUrl": "https://www.google.com/maps/search/independent%20pharmacy%20Lowell%20MA/@59.25289458975259,-146.46191571903788,12z?hl=en",
    "searchString": "independent pharmacy Lowell MA",
    "language": "en",
    "rank": 6,
    "isAdvertisement": false,
    "imageUrl": "https://lh3.googleusercontent.com/p/AF1QipNU_0R6u3cqf3IDPQJ_2SffKNXKVC2BRzZnoNbo=w408-h272-k-no",
    "kgmid": "/g/11c47588df",
    "classification": "chain",
    "is_independent": false,
    "confidence": 1.0,
    "source": "rule-based"
  },
  {
    "title": "True Care Pharmacy",
    "price": null,
    "categoryName": "Pharmacy",
    "address": "1275 Pawtucket Blvd, Lowell, MA 01854",
    "neighborhood": "Pawtucketville",
    "street": "1275 Pawtucket Blvd",
    "city": "Lowell",
    "postalCode": "01854",
    "state": "Massachusetts",
    "countryCode": "US",
    "website": "http://www.truecare-pharmacy.com/",
    "phone": "(978) 452-6666",
    "phoneUnformatted": "+19784526666",
    "claimThisBusiness": false,
    "location": {
      "lat": 42.6457415,
      "lng": -71.3766913
    },
    "totalScore": 4.6,
    "permanentlyClosed": false,
    "temporarilyClosed": false,
    "placeId": null,
    "categories": [
      "Pharmacy",
      "Drug store"
    ],
    "fid": "0x89e3a4b1e35f4085:0x4f3fd93060bf1d5a",
    "cid": "5710521654333873498",
    "reviewsCount": 7,
    "imagesCount": 6,
    "imageCategories": [],
    "scrapedAt": "2025-06-22T05:44:17.984Z",
    "googleFoodUrl": null,
    "hotelAds": [],
    "openingHours": [
      {
        "day": "Monday",
        "hours": "9\u202fAM to 6\u202fPM"
      },
      {
        "day": "Tuesday",
        "hours": "9\u202fAM to 6\u202fPM"
      },
      {
        "day": "Wednesday",
        "hours": "9\u202fAM to 6\u202fPM"
      },
      {
        "day": "Thursday",
        "hours": "9\u202fAM to 6\u202fPM"
      },
      {
        "day": "Friday",
        "hours": "9\u202fAM to 6\u202fPM"
      },
      {
        "day": "Saturday",
        "hours": "10\u202fAM to 2\u202fPM"
      },
      {
        "day": "Sunday",
        "hours": "Closed"
      }
    ],
    "peopleAlsoSearch": [],
    "placesTags": [],
    "reviewsTags": [],
    "additionalInfo": {
      "From the business": [
        {
          "Small business": true
        }
      ],
      "Service options": [
        {
          "Delivery": true
        },
        {
          "Same-day delivery": true
        }
      ],
      "Accessibility": [
        {
          "Wheelchair accessible entrance": true
        },
        {
          "Wheelchair accessible parking lot": true
        },
        {
          "Wheelchair accessible seating": true
        }
      ],
      "Payments": [
        {
          "Credit cards": true
        },
        {
          "Debit cards": true
        },
        {
          "Credit cards": true
        }
      ],
      "Parking": [
        {
          "Free parking lot": true
        }
      ]
    },
    "gasPrices": [],
    "url": "https://www.google.com/maps/search/?api=1&query=True%20Care%20Pharmacy&query_place_id=ChIJhUBf47Gk44kRWh2_YDDZP08",
    "searchPageUrl": "https://www.google.com/maps/search/independent%20pharmacy%20Lowell%20MA/@59.25289458975259,-146.46191571903788,12z?hl=en",
    "searchString": "independent pharmacy Lowell MA",
    "language": "en",
    "rank": 7,
    "isAdvertisement": false,
    "imageUrl": "https://lh3.googleusercontent.com/p/AF1QipMATnauvloR_1R9O3wexQkMpqaJWVUvi2b7w3l_=w408-h241-k-no",
    "kgmid": "/g/1ptx1hf93",
    "classification": "independent",
    "is_independent": true,
    "is_compounding": false,
    "confidence": 0.9,
    "source": "perplexity",
    "method": "llm",
    "query_location": "lowell_ma"
  },
  {
    "title": "Circle Health Pharmacy",
    "price": null,
    "categoryName": "Pharmacy",
    "address": "295 Varnum Ave, Lowell, MA 01854",
    "neighborhood": "Pawtucketville",
    "street": "295 Varnum Ave",
    "city": "Lowell",
    "postalCode": "01854",
    "state": "Massachusetts",
    "countryCode": "US",
    "website": "https://www.tuftsmedicine.org/get-care/locations/lowell-general-hospital/circle-health-pharmacy?utm_source=Yext&utm_medium=Listings%20Management",
    "phone": "(978) 788-7479",
    "phoneUnformatted": "+19787887479",
    "claimThisBusiness": false,
    "location": {
      "lat": 42.647737,
      "lng": -71.3422768
    },
    "totalScore": 3.9,
    "permanentlyClosed": false,
    "temporarilyClosed": false,
    "placeId": "ChIJ13ddU_Ok44kR2zbW6sCKDGQ",
    "categories": [
      "Pharmacy"
    ],
    "fid": "0x89e3a4f3535d77d7:0x640c8ac0ead636db",
    "cid": "7209289664691582683",
    "reviewsCount": 15,
    "imagesCount": 5,
    "imageCategories": [],
    "scrapedAt": "2025-06-22T05:44:17.984Z",
    "googleFoodUrl": null,
    "hotelAds": [],
    "openingHours": [
      {
        "day": "Monday",
        "hours": "7\u202fAM to 8\u202fPM"
      },
      {
        "day": "Tuesday",
        "hours": "7\u202fAM to 8\u202fPM"
      },
      {
        "day": "Wednesday",
        "hours": "7\u202fAM to 8\u202fPM"
      },
      {
        "day": "Thursday",
        "hours": "7\u202fAM to 8\u202fPM"
      },
      {
        "day": "Friday",
        "hours": "7\u202fAM to 8\u202fPM"
      },
      {
        "day": "Saturday",
        "hours": "9\u202fAM to 5:30\u202fPM"
      },
      {
        "day": "Sunday",
        "hours": "Closed"
      }
    ],
    "peopleAlsoSearch": [],
    "placesTags": [],
    "reviewsTags": [],
    "additionalInfo": {
      "Accessibility": [
        {
          "Wheelchair accessible entrance": true
        },
        {
          "Wheelchair accessible parking lot": true
        }
      ],
      "Amenities": [
        {
          "Wi-Fi": true
        },
        {
          "Free Wi-Fi": true
        }
      ]
    },
    "gasPrices": [],
    "url": "https://www.google.com/maps/search/?api=1&query=Circle%20Health%20Pharmacy&query_place_id=ChIJ13ddU_Ok44kR2zbW6sCKDGQ",
    "searchPageUrl": "https://www.google.com/maps/search/independent%20pharmacy%20Lowell%20MA/@59.25289458975259,-146.46191571903788,12z?hl=en",
    "searchString": "independent pharmacy Lowell MA",
    "language": "en",
    "rank": 8,
    "isAdvertisement": false,
    "imageUrl": "https://lh3.googleusercontent.com/p/AF1QipNu71fyyuNFFAgQexu7QtflIB2hMcWaeLr41ufB=w408-h408-k-no",
    "kgmid": "/g/11bv2f_vzv",
    "classification": "hospital",
    "is_independent": false,
    "confidence": 1.0,
    "source": "rule-based"
  },
  {
    "title": "Walgreens Specialty Pharmacy",
    "description": "Department of the Walgreens chain providing prescription medications & other health-related items.",
    "price": "$$",
    "categoryName": "Pharmacy",
    "address": "25 Merrimack St, Lowell, MA 01852",
    "neighborhood": "Downtown",
    "street": "25 Merrimack St",
    "city": "Lowell",
    "postalCode": "01852",
    "state": "Massachusetts",
    "countryCode": "US",
    "website": "https://www.walgreens.com/locator/walgreens-25+merrimack+st-lowell-ma-01852/id=21179",
    "phone": "(978) 606-2537",
    "phoneUnformatted": "+19786062537",
    "claimThisBusiness": false,
    "location": {
      "lat": 42.6457899,
      "lng": -71.3079756
    },
    "totalScore": 4.6,
    "permanentlyClosed": false,
    "temporarilyClosed": false,
    "placeId": "ChIJR93HbTal44kR-wbpEBNyQ34",
    "categories": [
      "Pharmacy"
    ],
    "fid": "0x89e3a5366dc7dd47:0x7e43721310e906fb",
    "cid": "9098241098432186107",
    "reviewsCount": 10,
    "imagesCount": 3,
    "imageCategories": [],
    "scrapedAt": "2025-06-22T05:44:17.985Z",
    "googleFoodUrl": null,
    "hotelAds": [],
    "openingHours": [
      {
        "day": "Monday",
        "hours": "8:30\u202fAM to 5\u202fPM"
      },
      {
        "day": "Tuesday",
        "hours": "8:30\u202fAM to 5\u202fPM"
      },
      {
        "day": "Wednesday",
        "hours": "8:30\u202fAM to 5\u202fPM"
      },
      {
        "day": "Thursday",
        "hours": "8:30\u202fAM to 5\u202fPM"
      },
      {
        "day": "Friday",
        "hours": "8:30\u202fAM to 5\u202fPM"
      },
      {
        "day": "Saturday",
        "hours": "Closed"
      },
      {
        "day": "Sunday",
        "hours": "Closed"
      }
    ],
    "peopleAlsoSearch": [],
    "placesTags": [],
    "reviewsTags": [],
    "additionalInfo": {
      "Service options": [
        {
          "In-store pickup": true
        }
      ],
      "Accessibility": [
        {
          "Wheelchair accessible entrance": true
        },
        {
          "Wheelchair accessible parking lot": true
        }
      ],
      "Planning": [
        {
          "Quick visit": true
        }
      ],
      "Payments": [
        {
          "Credit cards": true
        }
      ]
    },
    "gasPrices": [],
    "url": "https://www.google.com/maps/search/?api=1&query=Walgreens%20Specialty%20Pharmacy&query_place_id=ChIJR93HbTal44kR-wbpEBNyQ34",
    "searchPageUrl": "https://www.google.com/maps/search/independent%20pharmacy%20Lowell%20MA/@59.25289458975259,-146.46191571903788,12z?hl=en",
    "searchString": "independent pharmacy Lowell MA",
    "language": "en",
    "rank": 9,
    "isAdvertisement": false,
    "imageUrl": "https://streetviewpixels-pa.googleapis.com/v1/thumbnail?panoid=t4fUBdtCeQwvD_sTZ4LOdw&cb_client=search.gws-prod.gps&w=408&h=240&yaw=10.934221&pitch=0&thumbfov=100",
    "kgmid": "/g/11gsbbdch7",
    "classification": "chain",
    "is_independent": false,
    "confidence": 1.0,
    "source": "rule-based"
  },
  {
    "title": "CVS Pharmacy",
    "price": "$$",
    "categoryName": "Pharmacy",
    "address": "181 Plain St, Lowell, MA 01852",
    "neighborhood": "South Lowell",
    "street": "181 Plain St",
    "city": "Lowell",
    "postalCode": "01852",
    "state": "Massachusetts",
    "countryCode": "US",
    "website": "https://www.cvs.com/store-locator/lowell-ma-pharmacies/181-plain-st-lowell-ma-01852/storeid=17529?WT.mc_id=LS_GOOGLE_RX_17529",
    "phone": "(978) 703-2021",
    "phoneUnformatted": "+19787032021",
    "claimThisBusiness": false,
    "location": {
      "lat": 42.6237874,
      "lng": -71.3176729
    },
    "totalScore": 3.3,
    "permanentlyClosed": false,
    "temporarilyClosed": false,
    "placeId": "ChIJfbPqEHak44kR5Y61qJgZnGY",
    "categories": [
      "Pharmacy"
    ],
    "fid": "0x89e3a47610eab37d:0x669c1998a8b58ee5",
    "cid": "7393812831691706085",
    "reviewsCount": 17,
    "imagesCount": 5,
    "imageCategories": [],
    "scrapedAt": "2025-06-22T05:44:17.985Z",
    "googleFoodUrl": null,
    "hotelAds": [],
    "openingHours": [
      {
        "day": "Monday",
        "hours": "9\u202fAM to 1:30\u202fPM, 2 to 7\u202fPM"
      },
      {
        "day": "Tuesday",
        "hours": "9\u202fAM to 1:30\u202fPM, 2 to 7\u202fPM"
      },
      {
        "day": "Wednesday",
        "hours": "9\u202fAM to 1:30\u202fPM, 2 to 7\u202fPM"
      },
      {
        "day": "Thursday",
        "hours": "9\u202fAM to 1:30\u202fPM, 2 to 7\u202fPM"
      },
      {
        "day": "Friday",
        "hours": "9\u202fAM to 1:30\u202fPM, 2 to 7\u202fPM"
      },
      {
        "day": "Saturday",
        "hours": "9\u202fAM to 1:30\u202fPM, 2 to 5\u202fPM"
      },
      {
        "day": "Sunday",
        "hours": "11\u202fAM to 1:30\u202fPM, 2 to 5\u202fPM"
      }
    ],
    "peopleAlsoSearch": [],
    "placesTags": [],
    "reviewsTags": [],
    "additionalInfo": {
      "Service options": [
        {
          "Delivery": true
        },
        {
          "In-store shopping": true
        },
        {
          "Onsite services": true
        }
      ],
      "Accessibility": [
        {
          "Wheelchair accessible entrance": true
        },
        {
          "Wheelchair accessible parking lot": true
        }
      ],
      "Offerings": [
        {
          "Naloxone": true
        }
      ],
      "Crowd": [
        {
          "LGBTQ+ friendly": true
        },
        {
          "Transgender safespace": true
        }
      ],
      "Planning": [
        {
          "Quick visit": true
        }
      ],
      "Payments": [
        {
          "Credit cards": true
        },
        {
          "Debit cards": true
        },
        {
          "Credit cards": true
        }
      ]
    },
    "gasPrices": [],
    "url": "https://www.google.com/maps/search/?api=1&query=CVS%20Pharmacy&query_place_id=ChIJfbPqEHak44kR5Y61qJgZnGY",
    "searchPageUrl": "https://www.google.com/maps/search/independent%20pharmacy%20Lowell%20MA/@59.25289458975259,-146.46191571903788,12z?hl=en",
    "searchString": "independent pharmacy Lowell MA",
    "language": "en",
    "rank": 10,
    "isAdvertisement": false,
    "imageUrl": "https://lh3.googleusercontent.com/p/AF1QipNlmfCz3FW6Gz7psfzp3DGau5eabaftAZNeYEWv=w408-h272-k-no",
    "kgmid": "/g/1hf2nnkrs",
    "classification": "chain",
    "is_independent": false,
    "confidence": 1.0,
    "source": "rule-based"
  },
  {
    "title": "CVS Pharmacy",
    "price": null,
    "categoryName": "Pharmacy",
    "address": "336 Bridge St, Lowell, MA 01850",
    "neighborhood": "Centralville",
    "street": "336 Bridge St",
    "city": "Lowell",
    "postalCode": "01850",
    "state": "Massachusetts",
    "countryCode": "US",
    "website": "https://www.cvs.com/store-locator/lowell-ma-pharmacies/336-bridge-st-lowell-ma-01850/storeid=5493?WT.mc_id=LS_GOOGLE_RX_5493",
    "phone": "(978) 452-7165",
    "phoneUnformatted": "+19784527165",
    "claimThisBusiness": false,
    "location": {
      "lat": 42.6497078,
      "lng": -71.3043958
    },
    "totalScore": 4.1,
    "permanentlyClosed": false,
    "temporarilyClosed": false,
    "placeId": "ChIJhwFpDzqk44kR0x3aY3TC6_8",
    "categories": [
      "Pharmacy"
    ],
    "fid": "0x89e3a43a0f690187:0xffebc27463da1dd3",
    "cid": "18441046904345861587",
    "reviewsCount": 40,
    "imagesCount": 13,
    "imageCategories": [],
    "scrapedAt": "2025-06-22T05:44:17.985Z",
    "googleFoodUrl": null,
    "hotelAds": [],
    "openingHours": [
      {
        "day": "Monday",
        "hours": "8\u202fAM to 1:30\u202fPM, 2 to 10\u202fPM"
      },
      {
        "day": "Tuesday",
        "hours": "8\u202fAM to 1:30\u202fPM, 2 to 10\u202fPM"
      },
      {
        "day": "Wednesday",
        "hours": "8\u202fAM to 1:30\u202fPM, 2 to 10\u202fPM"
      },
      {
        "day": "Thursday",
        "hours": "8\u202fAM to 1:30\u202fPM, 2 to 10\u202fPM"
      },
      {
        "day": "Friday",
        "hours": "8\u202fAM to 1:30\u202fPM, 2 to 10\u202fPM"
      },
      {
        "day": "Saturday",
        "hours": "8\u202fAM to 1:30\u202fPM, 2 to 8\u202fPM"
      },
      {
        "day": "Sunday",
        "hours": "8\u202fAM to 1:30\u202fPM, 2 to 8\u202fPM"
      }
    ],
    "peopleAlsoSearch": [],
    "placesTags": [],
    "reviewsTags": [],
    "additionalInfo": {
      "Service options": [
        {
          "Delivery": true
        },
        {
          "Drive-through": true
        },
        {
          "In-store shopping": true
        }
      ],
      "Accessibility": [
        {
          "Wheelchair accessible entrance": true
        },
        {
          "Wheelchair accessible parking lot": true
        }
      ],
      "Offerings": [
        {
          "Medication disposal": true
        },
        {
          "Naloxone": true
        },
        {
          "Passport photos": true
        }
      ],
      "Crowd": [
        {
          "LGBTQ+ friendly": true
        },
        {
          "Transgender safespace": true
        }
      ],
      "Planning": [
        {
          "Quick visit": true
        }
      ],
      "Payments": [
        {
          "Credit cards": true
        },
        {
          "Debit cards": true
        },
        {
          "NFC mobile payments": true
        },
        {
          "SNAP/EBT": true
        },
        {
          "Credit cards": true
        }
      ]
    },
    "gasPrices": [],
    "url": "https://www.google.com/maps/search/?api=1&query=CVS%20Pharmacy&query_place_id=ChIJhwFpDzqk44kR0x3aY3TC6_8",
    "searchPageUrl": "https://www.google.com/maps/search/independent%20pharmacy%20Lowell%20MA/@59.25289458975259,-146.46191571903788,12z?hl=en",
    "searchString": "independent pharmacy Lowell MA",
    "language": "en",
    "rank": 11,
    "isAdvertisement": false,
    "imageUrl": "https://lh3.googleusercontent.com/p/AF1QipMK7ff5go3WqyncpUdSB3WunDQmhhhwrpCLGSnP=w408-h272-k-no",
    "kgmid": "/g/11c468sspv",
    "classification": "chain",
    "is_independent": false,
    "confidence": 1.0,
    "source": "rule-based"
  },
  {
    "title": "Walgreens Pharmacy",
    "description": "Department of the Walgreens chain providing prescription medications & other health-related items.",
    "price": "$$",
    "categoryName": "Pharmacy",
    "address": "54 Plain St, Lowell, MA 01851",
    "neighborhood": "Highlands",
    "street": "54 Plain St",
    "city": "Lowell",
    "postalCode": "01851",
    "state": "Massachusetts",
    "countryCode": "US",
    "website": "https://www.walgreens.com/locator/walgreens-54+plain+st-lowell-ma-01851/id=6739",
    "phone": "(978) 453-7538",
    "phoneUnformatted": "+19784537538",
    "claimThisBusiness": false,
    "location": {
      "lat": 42.6263191,
      "lng": -71.3223495
    },
    "totalScore": 3.8,
    "permanentlyClosed": false,
    "temporarilyClosed": false,
    "placeId": "ChIJMfoTkHek44kR4JukbTBTyl4",
    "categories": [
      "Pharmacy"
    ],
    "fid": "0x89e3a4779013fa31:0x5eca53306da49be0",
    "cid": "6830363252323818464",
    "reviewsCount": 22,
    "imagesCount": 7,
    "imageCategories": [],
    "scrapedAt": "2025-06-22T05:44:17.985Z",
    "googleFoodUrl": null,
    "hotelAds": [],
    "openingHours": [
      {
        "day": "Monday",
        "hours": "2\u202fAM to 1:30\u202fPM, 2\u202fPM to 1:30\u202fAM"
      },
      {
        "day": "Tuesday",
        "hours": "2\u202fAM to 1:30\u202fPM, 2\u202fPM to 1:30\u202fAM"
      },
      {
        "day": "Wednesday",
        "hours": "2\u202fAM to 1:30\u202fPM, 2\u202fPM to 1:30\u202fAM"
      },
      {
        "day": "Thursday",
        "hours": "2\u202fAM to 1:30\u202fPM, 2\u202fPM to 1:30\u202fAM"
      },
      {
        "day": "Friday",
        "hours": "2\u202fAM to 1:30\u202fPM, 2\u202fPM to 1:30\u202fAM"
      },
      {
        "day": "Saturday",
        "hours": "2\u202fAM to 1:30\u202fPM, 2\u202fPM to 1:30\u202fAM"
      },
      {
        "day": "Sunday",
        "hours": "2\u202fAM to 1:30\u202fPM, 2\u202fPM to 1:30\u202fAM"
      }
    ],
    "additionalOpeningHours": {
      "Drive through": [
        {
          "day": "Monday",
          "hours": "12\u202fAM\u20131:30\u202fPM"
        },
        {
          "day": "Tuesday",
          "hours": "12\u202fAM\u20131:30\u202fPM"
        },
        {
          "day": "Wednesday",
          "hours": "12\u202fAM\u20131:30\u202fPM"
        },
        {
          "day": "Thursday",
          "hours": "12\u202fAM\u20131:30\u202fPM"
        },
        {
          "day": "Friday",
          "hours": "12\u202fAM\u20131:30\u202fPM"
        },
        {
          "day": "Saturday",
          "hours": "12\u202fAM\u20131:30\u202fPM"
        },
        {
          "day": "Sunday",
          "hours": "12\u202fAM\u20131:30\u202fPM"
        }
      ]
    },
    "peopleAlsoSearch": [],
    "placesTags": [],
    "reviewsTags": [],
    "additionalInfo": {
      "Service options": [
        {
          "Curbside pickup": true
        },
        {
          "Drive-through": true
        },
        {
          "In-store pickup": true
        }
      ],
      "Accessibility": [
        {
          "Wheelchair accessible entrance": true
        },
        {
          "Wheelchair accessible parking lot": true
        }
      ],
      "Offerings": [
        {
          "Medication disposal": true
        },
        {
          "Naloxone": true
        }
      ],
      "Planning": [
        {
          "Quick visit": true
        }
      ],
      "Payments": [
        {
          "Checks": true
        },
        {
          "Credit cards": true
        },
        {
          "Debit cards": true
        }
      ]
    },
    "gasPrices": [],
    "url": "https://www.google.com/maps/search/?api=1&query=Walgreens%20Pharmacy&query_place_id=ChIJMfoTkHek44kR4JukbTBTyl4",
    "searchPageUrl": "https://www.google.com/maps/search/independent%20pharmacy%20Lowell%20MA/@59.25289458975259,-146.46191571903788,12z?hl=en",
    "searchString": "independent pharmacy Lowell MA",
    "language": "en",
    "rank": 12,
    "isAdvertisement": false,
    "imageUrl": "https://lh3.googleusercontent.com/gps-cs-s/AC9h4nqcwMiuFHgnYsEprIKNeRI58DVZTt6bBmv_g2cBQXM5LUT1XzGbw8AjkAdxYi0_aGFaNn_u2p5vs8pkR6TK2qlEwy6BmginnBQ6dsOmbgtdBCnrMXNlkB9AgQ28boe56TMzRrG0=w408-h725-k-no",
    "kgmid": "/g/11cn946nxw",
    "classification": "chain",
    "is_independent": false,
    "confidence": 1.0,
    "source": "rule-based"
  },
  {
    "title": "CVS",
    "description": "Drugstore chain selling a variety of beauty & health products, plus some grocery & household items.",
    "price": null,
    "categoryName": "Drug store",
    "address": "181 Plain St, Lowell, MA 01852",
    "neighborhood": "South Lowell",
    "street": "181 Plain St",
    "city": "Lowell",
    "postalCode": "01852",
    "state": "Massachusetts",
    "countryCode": "US",
    "phone": "(978) 703-2021",
    "phoneUnformatted": "+19787032021",
    "claimThisBusiness": true,
    "location": {
      "lat": 42.6237874,
      "lng": -71.3176729
    },
    "totalScore": 3,
    "permanentlyClosed": false,
    "temporarilyClosed": false,
    "placeId": "ChIJVVVV_Imj44kR3PLZkbvALsA",
    "categories": [
      "Drug store"
    ],
    "fid": "0x89e3a389fc555555:0xc02ec0bb91d9f2dc",
    "cid": "13848217816049251036",
    "reviewsCount": 10,
    "imagesCount": 1,
    "imageCategories": [],
    "scrapedAt": "2025-06-22T05:44:17.985Z",
    "googleFoodUrl": null,
    "hotelAds": [],
    "openingHours": [
      {
        "day": "Monday",
        "hours": "9\u202fAM to 7\u202fPM"
      },
      {
        "day": "Tuesday",
        "hours": "9\u202fAM to 7\u202fPM"
      },
      {
        "day": "Wednesday",
        "hours": "9\u202fAM to 7\u202fPM"
      },
      {
        "day": "Thursday",
        "hours": "9\u202fAM to 7\u202fPM"
      },
      {
        "day": "Friday",
        "hours": "9\u202fAM to 7\u202fPM"
      },
      {
        "day": "Saturday",
        "hours": "9\u202fAM to 5\u202fPM"
      },
      {
        "day": "Sunday",
        "hours": "11\u202fAM to 5\u202fPM"
      }
    ],
    "peopleAlsoSearch": [],
    "placesTags": [],
    "reviewsTags": [],
    "additionalInfo": {
      "Service options": [
        {
          "In-store pickup": true
        }
      ],
      "Accessibility": [
        {
          "Wheelchair accessible entrance": true
        },
        {
          "Wheelchair accessible parking lot": true
        }
      ],
      "Amenities": [
        {
          "Wi-Fi": true
        },
        {
          "Free Wi-Fi": true
        }
      ],
      "Planning": [
        {
          "Quick visit": true
        }
      ],
      "Payments": [
        {
          "Credit cards": true
        }
      ]
    },
    "gasPrices": [],
    "url": "https://www.google.com/maps/search/?api=1&query=CVS&query_place_id=ChIJVVVV_Imj44kR3PLZkbvALsA",
    "searchPageUrl": "https://www.google.com/maps/search/independent%20pharmacy%20Lowell%20MA/@59.25289458975259,-146.46191571903788,12z?hl=en",
    "searchString": "independent pharmacy Lowell MA",
    "language": "en",
    "rank": 13,
    "isAdvertisement": false,
    "imageUrl": "https://streetviewpixels-pa.googleapis.com/v1/thumbnail?panoid=D5h5esQC49kyDxcdSt-msQ&cb_client=search.gws-prod.gps&w=408&h=240&yaw=74.370316&pitch=0&thumbfov=100",
    "kgmid": "/g/11p56tnwlz",
    "classification": "chain",
    "is_independent": false,
    "confidence": 1.0,
    "source": "rule-based"
  },
  {
    "title": "Lowell Pharmacy",
    "price": null,
    "categoryName": "Pharmacy",
    "address": "114 Harrison Ave, Lowell, AR 72745",
    "neighborhood": null,
    "street": "114 Harrison Ave",
    "city": "Lowell",
    "postalCode": "72745",
    "state": "Arkansas",
    "countryCode": "US",
    "website": "http://www.lowellpharmacy.com/",
    "phone": "(479) 770-0111",
    "phoneUnformatted": "+14797700111",
    "claimThisBusiness": false,
    "location": {
      "lat": 36.2530687,
      "lng": -94.1353045
    },
    "totalScore": 4.7,
    "permanentlyClosed": false,
    "temporarilyClosed": false,
    "placeId": null,
    "categories": [
      "Pharmacy"
    ],
    "fid": "0x87c9146b9269e26f:0xf8a6fd4dac115df8",
    "cid": "17917286677581225464",
    "reviewsCount": 86,
    "imagesCount": 1,
    "imageCategories": [],
    "scrapedAt": "2025-06-22T05:44:17.985Z",
    "googleFoodUrl": null,
    "hotelAds": [],
    "openingHours": [
      {
        "day": "Monday",
        "hours": "9\u202fAM to 6\u202fPM"
      },
      {
        "day": "Tuesday",
        "hours": "9\u202fAM to 6\u202fPM"
      },
      {
        "day": "Wednesday",
        "hours": "9\u202fAM to 6\u202fPM"
      },
      {
        "day": "Thursday",
        "hours": "9\u202fAM to 6\u202fPM"
      },
      {
        "day": "Friday",
        "hours": "9\u202fAM to 6\u202fPM"
      },
      {
        "day": "Saturday",
        "hours": "9\u202fAM to 1\u202fPM"
      },
      {
        "day": "Sunday",
        "hours": "Closed"
      }
    ],
    "peopleAlsoSearch": [],
    "placesTags": [],
    "reviewsTags": [],
    "additionalInfo": {
      "From the business": [
        {
          "Small business": true
        }
      ],
      "Service options": [
        {
          "Delivery": true
        },
        {
          "Drive-through": true
        },
        {
          "In-store pickup": true
        },
        {
          "Same-day delivery": true
        }
      ],
      "Accessibility": [
        {
          "Wheelchair accessible entrance": true
        },
        {
          "Wheelchair accessible parking lot": true
        }
      ],
      "Offerings": [
        {
          "Medication disposal": true
        }
      ],
      "Planning": [
        {
          "Quick visit": true
        }
      ],
      "Payments": [
        {
          "Credit cards": true
        },
        {
          "Debit cards": true
        },
        {
          "NFC mobile payments": true
        },
        {
          "Credit cards": true
        }
      ]
    },
    "gasPrices": [],
    "url": "https://www.google.com/maps/search/?api=1&query=Lowell%20Pharmacy&query_place_id=ChIJb-JpkmsUyYcR-F0RrE39pvg",
    "searchPageUrl": "https://www.google.com/maps/search/independent%20pharmacy%20Lowell%20MA/@59.25289458975259,-146.46191571903788,12z?hl=en",
    "searchString": "independent pharmacy Lowell MA",
    "language": "en",
    "rank": 14,
    "isAdvertisement": false,
    "imageUrl": "https://streetviewpixels-pa.googleapis.com/v1/thumbnail?panoid=Fgeuog462-WnikXm8lQqJw&cb_client=search.gws-prod.gps&w=408&h=240&yaw=1.0376847&pitch=0&thumbfov=100",
    "kgmid": "/g/1tplqvqk",
    "classification": "independent",
    "is_independent": true,
    "is_compounding": false,
    "confidence": 0.9,
    "source": "perplexity",
    "method": "llm",
    "query_location": "lowell_ma"
  },
  {
    "title": "Health Care Family Pharmacy LLC",
    "price": null,
    "categoryName": "Pharmacy",
    "address": "14 Loon Hill Rd, Dracut, MA 01826",
    "neighborhood": null,
    "street": "14 Loon Hill Rd",
    "city": "Dracut",
    "postalCode": "01826",
    "state": "Massachusetts",
    "countryCode": "US",
    "website": "http://facebook.com/HealthCareFamilyPharmacy",
    "phone": "(978) 455-0570",
    "phoneUnformatted": "+19784550570",
    "claimThisBusiness": false,
    "location": {
      "lat": 42.672287,
      "lng": -71.294596
    },
    "totalScore": 4.9,
    "permanentlyClosed": false,
    "temporarilyClosed": false,
    "placeId": "ChIJRywZDNyl44kRjctc4_UDdu4",
    "categories": [
      "Pharmacy"
    ],
    "fid": "0x89e3a5dc0c192c47:0xee7603f5e35ccb8d",
    "cid": "17182925782895086477",
    "reviewsCount": 19,
    "imagesCount": 14,
    "imageCategories": [],
    "scrapedAt": "2025-06-22T05:44:25.595Z",
    "googleFoodUrl": null,
    "hotelAds": [],
    "openingHours": [
      {
        "day": "Monday",
        "hours": "9\u202fAM to 6\u202fPM"
      },
      {
        "day": "Tuesday",
        "hours": "9\u202fAM to 6\u202fPM"
      },
      {
        "day": "Wednesday",
        "hours": "9\u202fAM to 6\u202fPM"
      },
      {
        "day": "Thursday",
        "hours": "9\u202fAM to 6\u202fPM"
      },
      {
        "day": "Friday",
        "hours": "9\u202fAM to 6\u202fPM"
      },
      {
        "day": "Saturday",
        "hours": "9\u202fAM to 3\u202fPM"
      },
      {
        "day": "Sunday",
        "hours": "Closed"
      }
    ],
    "peopleAlsoSearch": [],
    "placesTags": [],
    "reviewsTags": [],
    "additionalInfo": {
      "Service options": [
        {
          "Delivery": true
        }
      ],
      "Accessibility": [
        {
          "Wheelchair accessible entrance": true
        },
        {
          "Wheelchair accessible parking lot": true
        }
      ],
      "Payments": [
        {
          "Debit cards": true
        },
        {
          "NFC mobile payments": true
        },
        {
          "Credit cards": true
        }
      ]
    },
    "gasPrices": [],
    "url": "https://www.google.com/maps/search/?api=1&query=Health%20Care%20Family%20Pharmacy%20LLC&query_place_id=ChIJRywZDNyl44kRjctc4_UDdu4",
    "searchPageUrl": "https://www.google.com/maps/search/independent%20pharmacy%20Lowell%20MA/@60.31354917823661,-172.6715933,12z?hl=en",
    "searchString": "independent pharmacy Lowell MA",
    "language": "en",
    "rank": 14,
    "isAdvertisement": false,
    "imageUrl": "https://lh3.googleusercontent.com/gps-cs-s/AC9h4noQ7xCb9Sfi-2R56TJSO37oFRJkNzsaJyb0nae2iOeVyRfnOWsb8nbXxpJnB1kpuGjHybz55Ow8c8y06bap5anC6SoeS4G_AOcVWOXBPEeKDoRIMkX9gE9s2ahKf0uh-tB14Ao2bw=w426-h240-k-no",
    "kgmid": "/g/11dzn8c8d5",
    "classification": "hospital",
    "is_independent": false,
    "confidence": 1.0,
    "source": "rule-based"
  },
  {
    "title": "Lowell's Pharmacy",
    "price": null,
    "categoryName": "Pharmacy",
    "address": "612 N 13th St STE A, Artesia, NM 88210",
    "neighborhood": null,
    "street": "612 N 13th St STE A",
    "city": "Artesia",
    "postalCode": "88210",
    "state": "New Mexico",
    "countryCode": "US",
    "website": "http://www.lowellspharmacyartesia.com/",
    "phone": "(575) 746-6681",
    "phoneUnformatted": "+15757466681",
    "claimThisBusiness": true,
    "location": {
      "lat": 32.8483325,
      "lng": -104.4121323
    },
    "totalScore": 4.7,
    "permanentlyClosed": false,
    "temporarilyClosed": false,
    "placeId": null,
    "categories": [
      "Pharmacy"
    ],
    "fid": "0x86e3ae925059e3cb:0xb4ef0c3da26762de",
    "cid": "13037652905118098142",
    "reviewsCount": 29,
    "imagesCount": 3,
    "imageCategories": [],
    "scrapedAt": "2025-06-22T05:45:21.636Z",
    "googleFoodUrl": null,
    "hotelAds": [],
    "openingHours": [
      {
        "day": "Monday",
        "hours": "8\u202fAM to 6\u202fPM"
      },
      {
        "day": "Tuesday",
        "hours": "8\u202fAM to 6\u202fPM"
      },
      {
        "day": "Wednesday",
        "hours": "8\u202fAM to 6\u202fPM"
      },
      {
        "day": "Thursday",
        "hours": "8\u202fAM to 6\u202fPM"
      },
      {
        "day": "Friday",
        "hours": "8\u202fAM to 6\u202fPM"
      },
      {
        "day": "Saturday",
        "hours": "8\u202fAM to 12\u202fPM"
      },
      {
        "day": "Sunday",
        "hours": "Closed"
      }
    ],
    "peopleAlsoSearch": [],
    "placesTags": [],
    "reviewsTags": [],
    "additionalInfo": {
      "Service options": [
        {
          "Delivery": true
        },
        {
          "Drive-through": true
        },
        {
          "In-store pickup": true
        },
        {
          "Same-day delivery": true
        }
      ],
      "Accessibility": [
        {
          "Wheelchair accessible entrance": true
        },
        {
          "Wheelchair accessible parking lot": true
        }
      ],
      "Payments": [
        {
          "Credit cards": true
        },
        {
          "Debit cards": true
        },
        {
          "NFC mobile payments": true
        },
        {
          "Credit cards": true
        }
      ]
    },
    "gasPrices": [],
    "url": "https://www.google.com/maps/search/?api=1&query=Lowell's%20Pharmacy&query_place_id=ChIJy-NZUJKu44YR3mJnoj0M77Q",
    "searchPageUrl": "https://www.google.com/maps/search/independent%20pharmacy%20Lowell%20MA/@36.81849750000001,-114.98210525670324,8z?hl=en",
    "searchString": "independent pharmacy Lowell MA",
    "language": "en",
    "rank": 8,
    "isAdvertisement": false,
    "imageUrl": "https://lh3.googleusercontent.com/gps-cs-s/AC9h4np_87SZlZsoiBw2KMp8aD9mz4ONTEImJTpoIlKGrO5tW9_RtbTzP73DCMO8swt-AeNzb1QXlSFxXSQbqJkm4WOIxdiq2LrWLH5SGqiU_GYx0sZuO35gr94PjDpKl6lSTOcNlXOE=w408-h287-k-no",
    "kgmid": "/g/1tnms53b",
    "classification": "independent",
    "is_independent": true,
    "is_compounding": false,
    "confidence": 0.9,
    "source": "perplexity",
    "method": "llm",
    "query_location": "lowell_ma"
  },
  {
    "title": "Medicine Store Pharmacy",
    "price": null,
    "categoryName": "Pharmacy",
    "address": "409 Lowell St, Wakefield, MA 01880",
    "neighborhood": null,
    "street": "409 Lowell St",
    "city": "Wakefield",
    "postalCode": "01880",
    "state": "Massachusetts",
    "countryCode": "US",
    "website": "https://medicinestorewakefield.com/",
    "phone": "(781) 246-3527",
    "phoneUnformatted": "+17812463527",
    "claimThisBusiness": false,
    "location": {
      "lat": 42.517061,
      "lng": -71.0632985
    },
    "totalScore": 5,
    "permanentlyClosed": false,
    "temporarilyClosed": false,
    "placeId": null,
    "categories": [
      "Pharmacy"
    ],
    "fid": "0x89e30cc4e773f93d:0x1253e9ed46eae244",
    "cid": "1320656321056006724",
    "reviewsCount": 34,
    "imagesCount": 12,
    "imageCategories": [],
    "scrapedAt": "2025-06-22T05:45:33.635Z",
    "googleFoodUrl": null,
    "hotelAds": [],
    "openingHours": [
      {
        "day": "Monday",
        "hours": "9\u202fAM to 6\u202fPM"
      },
      {
        "day": "Tuesday",
        "hours": "9\u202fAM to 6\u202fPM"
      },
      {
        "day": "Wednesday",
        "hours": "9\u202fAM to 6\u202fPM"
      },
      {
        "day": "Thursday",
        "hours": "9\u202fAM to 6\u202fPM"
      },
      {
        "day": "Friday",
        "hours": "9\u202fAM to 6\u202fPM"
      },
      {
        "day": "Saturday",
        "hours": "9\u202fAM to 2\u202fPM"
      },
      {
        "day": "Sunday",
        "hours": "Closed"
      }
    ],
    "peopleAlsoSearch": [],
    "placesTags": [],
    "reviewsTags": [],
    "additionalInfo": {
      "From the business": [
        {
          "Small business": true
        }
      ],
      "Service options": [
        {
          "Delivery": true
        },
        {
          "In-store pickup": true
        },
        {
          "Same-day delivery": true
        }
      ],
      "Accessibility": [
        {
          "Wheelchair accessible parking lot": true
        },
        {
          "Wheelchair accessible entrance": false
        }
      ],
      "Planning": [
        {
          "Quick visit": true
        }
      ],
      "Payments": [
        {
          "Credit cards": true
        }
      ]
    },
    "gasPrices": [],
    "url": "https://www.google.com/maps/search/?api=1&query=Medicine%20Store%20Pharmacy&query_place_id=ChIJPflz58QM44kRROLqRu3pUxI",
    "searchPageUrl": "https://www.google.com/maps/search/independent%20pharmacy%20Lowell%20MA/@39.68245004733214,-111.81587931391937,8z?hl=en",
    "searchString": "independent pharmacy Lowell MA",
    "language": "en",
    "rank": 14,
    "isAdvertisement": false,
    "imageUrl": "https://lh3.googleusercontent.com/gps-cs-s/AC9h4nqii21uCloOSZBswU6llADLEhprs9N0dwCpnkt4aALjh1J-X2cFpycGImoglS4AjksGgvRVSHvm5BAHBUvbAUvzAXXvOQdQS8XkT0y_kCi2FMqk-cKPSh2e1m_SNAqWI_kCBTSnWA=w408-h268-k-no",
    "kgmid": "/g/1v0llssg",
    "classification": "independent",
    "is_independent": true,
    "is_compounding": false,
    "confidence": 0.9,
    "source": "perplexity",
    "method": "llm",
    "query_location": "lowell_ma"
  },
  {
    "title": "Remedium Pharmacy",
    "price": null,
    "categoryName": "Pharmacy",
    "address": "2 Vinal Square, North Chelmsford, MA 01863",
    "neighborhood": "North Chelmsford",
    "street": "2 Vinal Square",
    "city": "North Chelmsford",
    "postalCode": "01863",
    "state": "Massachusetts",
    "countryCode": "US",
    "website": "http://www.remediumrx.net/",
    "phone": "(978) 251-7070",
    "phoneUnformatted": "+19782517070",
    "claimThisBusiness": false,
    "location": {
      "lat": 42.6399351,
      "lng": -71.3837742
    },
    "totalScore": 4.1,
    "permanentlyClosed": false,
    "temporarilyClosed": false,
    "placeId": null,
    "categories": [
      "Pharmacy"
    ],
    "fid": "0x89e3bb539c044c73:0xaa618152e9dd8764",
    "cid": "12277236252299593572",
    "reviewsCount": 58,
    "reviewsDistribution": {
      "oneStar": 11,
      "twoStar": 1,
      "threeStar": 0,
      "fourStar": 3,
      "fiveStar": 43
    },
    "imagesCount": 12,
    "imageCategories": [],
    "scrapedAt": "2025-06-22T05:46:00.049Z",
    "googleFoodUrl": null,
    "hotelAds": [],
    "openingHours": [
      {
        "day": "Monday",
        "hours": "9\u202fAM to 7\u202fPM"
      },
      {
        "day": "Tuesday",
        "hours": "9\u202fAM to 7\u202fPM"
      },
      {
        "day": "Wednesday",
        "hours": "9\u202fAM to 7\u202fPM"
      },
      {
        "day": "Thursday",
        "hours": "9\u202fAM to 7\u202fPM"
      },
      {
        "day": "Friday",
        "hours": "9\u202fAM to 7\u202fPM"
      },
      {
        "day": "Saturday",
        "hours": "10\u202fAM to 4\u202fPM"
      },
      {
        "day": "Sunday",
        "hours": "Closed"
      }
    ],
    "peopleAlsoSearch": [],
    "placesTags": [],
    "reviewsTags": [],
    "additionalInfo": {
      "From the business": [
        {
          "Small business": true
        }
      ],
      "Service options": [
        {
          "Delivery": true
        },
        {
          "In-store pickup": true
        },
        {
          "Same-day delivery": true
        }
      ],
      "Accessibility": [
        {
          "Wheelchair accessible entrance": true
        },
        {
          "Wheelchair accessible parking lot": true
        }
      ],
      "Planning": [
        {
          "Quick visit": true
        }
      ],
      "Payments": [
        {
          "Credit cards": true
        },
        {
          "Debit cards": true
        },
        {
          "NFC mobile payments": true
        },
        {
          "Credit cards": true
        }
      ]
    },
    "gasPrices": [],
    "url": "https://www.google.com/maps/search/?api=1&query=Remedium%20Pharmacy&query_place_id=ChIJc0wEnFO744kRZIfd6VKBYao",
    "searchPageUrl": "https://www.google.com/maps/search/independent%20pharmacy%20Lowell%20MA/@42.54640259466427,-73.82116800051296,8z?hl=en",
    "searchString": "independent pharmacy Lowell MA",
    "language": "en",
    "rank": 29,
    "isAdvertisement": false,
    "imageUrl": "https://lh3.googleusercontent.com/p/AF1QipPJ6Cdup9KcKJ6bfIQ0heVcYnGZipklmBSxShl7=w408-h306-k-no",
    "kgmid": "/g/11b6gnbk37",
    "classification": "independent",
    "is_independent": true,
    "is_compounding": false,
    "confidence": 0.9,
    "source": "perplexity",
    "method": "llm",
    "query_location": "lowell_ma"
  },
  {
    "title": "ACTON PHARMACY",
    "price": null,
    "categoryName": "Pharmacy",
    "address": "563 Massachusetts Ave, Acton, MA 01720",
    "neighborhood": null,
    "street": "563 Massachusetts Ave",
    "city": "Acton",
    "postalCode": "01720",
    "state": "Massachusetts",
    "countryCode": "US",
    "website": "https://dinnohealth.com/actonpharmacy/",
    "phone": "(978) 263-3901",
    "phoneUnformatted": "+19782633901",
    "claimThisBusiness": false,
    "location": {
      "lat": 42.4762998,
      "lng": -71.4735957
    },
    "totalScore": 4.6,
    "permanentlyClosed": false,
    "temporarilyClosed": false,
    "placeId": null,
    "categories": [
      "Pharmacy"
    ],
    "fid": "0x89e3916116a789c9:0xf7b7a88e27f585e9",
    "cid": "17849920976615474665",
    "reviewsCount": 71,
    "reviewsDistribution": {
      "oneStar": 5,
      "twoStar": 2,
      "threeStar": 1,
      "fourStar": 0,
      "fiveStar": 63
    },
    "imagesCount": 50,
    "imageCategories": [],
    "scrapedAt": "2025-06-22T05:46:00.050Z",
    "googleFoodUrl": null,
    "hotelAds": [],
    "openingHours": [
      {
        "day": "Monday",
        "hours": "8:30\u202fAM to 8\u202fPM"
      },
      {
        "day": "Tuesday",
        "hours": "8:30\u202fAM to 8\u202fPM"
      },
      {
        "day": "Wednesday",
        "hours": "8:30\u202fAM to 8\u202fPM"
      },
      {
        "day": "Thursday",
        "hours": "8:30\u202fAM to 8\u202fPM"
      },
      {
        "day": "Friday",
        "hours": "8:30\u202fAM to 7:30\u202fPM"
      },
      {
        "day": "Saturday",
        "hours": "9\u202fAM to 5\u202fPM"
      },
      {
        "day": "Sunday",
        "hours": "9\u202fAM to 4\u202fPM"
      }
    ],
    "peopleAlsoSearch": [],
    "placesTags": [],
    "reviewsTags": [],
    "additionalInfo": {
      "Service options": [
        {
          "Curbside pickup": true
        },
        {
          "Delivery": true
        },
        {
          "In-store pickup": true
        },
        {
          "In-store shopping": true
        },
        {
          "Onsite services": true
        },
        {
          "Same-day delivery": true
        }
      ],
      "Accessibility": [
        {
          "Wheelchair accessible entrance": true
        },
        {
          "Wheelchair accessible parking lot": true
        }
      ],
      "Planning": [
        {
          "Quick visit": true
        }
      ],
      "Payments": [
        {
          "Checks": true
        },
        {
          "Debit cards": true
        },
        {
          "NFC mobile payments": true
        },
        {
          "Credit cards": true
        }
      ]
    },
    "gasPrices": [],
    "url": "https://www.google.com/maps/search/?api=1&query=ACTON%20PHARMACY&query_place_id=ChIJyYmnFmGR44kR6YX1J46ot_c",
    "searchPageUrl": "https://www.google.com/maps/search/independent%20pharmacy%20Lowell%20MA/@42.54640259466427,-73.82116800051296,8z?hl=en",
    "searchString": "independent pharmacy Lowell MA",
    "language": "en",
    "rank": 35,
    "isAdvertisement": false,
    "imageUrl": "https://lh3.googleusercontent.com/gps-cs-s/AC9h4np7Zg_KrvV-_7lyBgLAtYfLRFt3ek75FvDGWXgXw6LBuyrxqGDSQDBXMM79mE_wGPJVFqJK9Oc9XBiaIBzkxPSqg1m6lQtWVMhe5UwIvmx1L8foKEwKr0U50Qgq2xpnjUQ00exaHA=w426-h240-k-no",
    "kgmid": "/g/1xb2fljq",
    "classification": "independent",
    "is_independent": true,
    "is_compounding": false,
    "confidence": 0.9,
    "source": "perplexity",
    "method": "llm",
    "query_location": "lowell_ma"
  }
]