[
  {
    "title": "Alaska Family Pharmacy (Tanana Valley Clinic)",
    "price": null,
    "categoryName": "Pharmacy",
    "address": "1001 Noble St, Fairbanks, AK 99701",
    "neighborhood": null,
    "street": "1001 Noble St",
    "city": "Fairbanks",
    "postalCode": "99701",
    "state": "Alaska",
    "countryCode": "US",
    "website": "http://www.akfamilypharmacy.com/",
    "phone": "(907) 452-2556",
    "phoneUnformatted": "+19074522556",
    "claimThisBusiness": false,
    "location": {
      "lat": 64.8390657,
      "lng": -147.713685
    },
    "totalScore": 4.5,
    "permanentlyClosed": false,
    "temporarilyClosed": false,
    "placeId": "ChIJaY2Q8U5FMlERQDlsZQU48co",
    "categories": [
      "Pharmacy",
      "Drug store"
    ],
    "fid": "0x5132454ef1908d69:0xcaf13805656c3940",
    "cid": "14623531060876294464",
    "reviewsCount": 22,
    "imagesCount": 9,
    "imageCategories": [],
    "scrapedAt": "2025-06-22T07:00:13.361Z",
    "googleFoodUrl": null,
    "hotelAds": [],
    "openingHours": [
      {
        "day": "Monday",
        "hours": "9\u202fAM to 6\u202fPM"
      },
      {
        "day": "Tuesday",
        "hours": "9\u202fAM to 6\u202fPM"
      },
      {
        "day": "Wednesday",
        "hours": "9\u202fAM to 6\u202fPM"
      },
      {
        "day": "Thursday",
        "hours": "9\u202fAM to 6\u202fPM"
      },
      {
        "day": "Friday",
        "hours": "9\u202fAM to 6\u202fPM"
      },
      {
        "day": "Saturday",
        "hours": "Closed"
      },
      {
        "day": "Sunday",
        "hours": "Closed"
      }
    ],
    "peopleAlsoSearch": [],
    "placesTags": [],
    "reviewsTags": [],
    "additionalInfo": {
      "From the business": [
        {
          "Small business": true
        }
      ],
      "Service options": [
        {
          "Curbside pickup": true
        },
        {
          "Delivery": true
        },
        {
          "In-store pickup": true
        },
        {
          "In-store shopping": true
        },
        {
          "Onsite services": true
        },
        {
          "Same-day delivery": true
        },
        {
          "English": true
        }
      ],
      "Accessibility": [
        {
          "Wheelchair accessible entrance": true
        },
        {
          "Wheelchair accessible parking lot": true
        }
      ],
      "Planning": [
        {
          "Quick visit": true
        }
      ],
      "Payments": [
        {
          "Checks": true
        },
        {
          "Credit cards": true
        },
        {
          "Debit cards": true
        },
        {
          "NFC mobile payments": true
        },
        {
          "Credit cards": true
        }
      ]
    },
    "gasPrices": [],
    "url": "https://www.google.com/maps/search/?api=1&query=Alaska%20Family%20Pharmacy%20(Tanana%20Valley%20Clinic)&query_place_id=ChIJaY2Q8U5FMlERQDlsZQU48co",
    "searchPageUrl": "https://www.google.com/maps/search/independent%20pharmacy%20Fairbanks%20AK/@59.53005113674913,-146.19139048096207,12z?hl=en",
    "searchString": "independent pharmacy Fairbanks AK",
    "language": "en",
    "rank": 1,
    "isAdvertisement": false,
    "imageUrl": "https://lh3.googleusercontent.com/gps-cs-s/AC9h4nrpqM7B2gXnBFK6GBt2QeCZ5bJEZJuklw4kFfrLHxOIv5bZdnHsZou_Ddf6cL_UkIhzP7q6jq-aWCJ2XZxbJKApcb5df_DdOIuWoX5x-ALWYRM_bHWxHE0NUWymOun6uPWhcJRa6A=w408-h544-k-no",
    "kgmid": "/g/1tmz6l0f",
    "classification": "hospital",
    "is_independent": false,
    "confidence": 1.0,
    "source": "rule-based"
  },
  {
    "title": "Denali Pharmacy",
    "price": null,
    "categoryName": "Pharmacy",
    "address": "1650 Cowles St, Fairbanks, AK 99701",
    "neighborhood": null,
    "street": "1650 Cowles St",
    "city": "Fairbanks",
    "postalCode": "99701",
    "state": "Alaska",
    "countryCode": "US",
    "website": "https://www.foundationhealth.org/fmh/services/pharmacy",
    "phone": "(907) 458-5615",
    "phoneUnformatted": "+19074585615",
    "claimThisBusiness": false,
    "location": {
      "lat": 64.8311876,
      "lng": -147.739771
    },
    "totalScore": 4.4,
    "permanentlyClosed": false,
    "temporarilyClosed": false,
    "placeId": null,
    "categories": [
      "Pharmacy"
    ],
    "fid": "0x51325ab4317bd18f:0x2675e1b7e8187f3f",
    "cid": "2771369325705592639",
    "reviewsCount": 9,
    "imagesCount": 6,
    "imageCategories": [],
    "scrapedAt": "2025-06-22T07:00:13.362Z",
    "googleFoodUrl": null,
    "hotelAds": [],
    "openingHours": [
      {
        "day": "Monday",
        "hours": "9\u202fAM to 6\u202fPM"
      },
      {
        "day": "Tuesday",
        "hours": "9\u202fAM to 6\u202fPM"
      },
      {
        "day": "Wednesday",
        "hours": "9\u202fAM to 6\u202fPM"
      },
      {
        "day": "Thursday",
        "hours": "9\u202fAM to 6\u202fPM"
      },
      {
        "day": "Friday",
        "hours": "9\u202fAM to 6\u202fPM"
      },
      {
        "day": "Saturday",
        "hours": "10\u202fAM to 6\u202fPM"
      },
      {
        "day": "Sunday",
        "hours": "10\u202fAM to 6\u202fPM"
      }
    ],
    "peopleAlsoSearch": [],
    "placesTags": [],
    "reviewsTags": [],
    "additionalInfo": {
      "Service options": [
        {
          "In-store pickup": true
        },
        {
          "In-store shopping": true
        },
        {
          "Onsite services": true
        }
      ],
      "Accessibility": [
        {
          "Wheelchair accessible entrance": true
        },
        {
          "Wheelchair accessible parking lot": true
        }
      ],
      "Amenities": [
        {
          "Wi-Fi": true
        },
        {
          "Free Wi-Fi": true
        }
      ],
      "Payments": [
        {
          "Credit cards": true
        },
        {
          "Debit cards": true
        },
        {
          "NFC mobile payments": true
        },
        {
          "Credit cards": true
        }
      ]
    },
    "gasPrices": [],
    "url": "https://www.google.com/maps/search/?api=1&query=Denali%20Pharmacy&query_place_id=ChIJj9F7MbRaMlERP38Y6LfhdSY",
    "searchPageUrl": "https://www.google.com/maps/search/independent%20pharmacy%20Fairbanks%20AK/@59.53005113674913,-146.19139048096207,12z?hl=en",
    "searchString": "independent pharmacy Fairbanks AK",
    "language": "en",
    "rank": 2,
    "isAdvertisement": false,
    "imageUrl": "https://lh3.googleusercontent.com/p/AF1QipPKI2GYPTq6Oy9SgJ_eo7OGcg85b6yYHMRDUme4=w408-h611-k-no",
    "kgmid": "/g/11h3vc2ssv",
    "classification": "hospital",
    "is_independent": false,
    "is_compounding": false,
    "confidence": 0.95,
    "source": "perplexity",
    "method": "llm",
    "query_location": "fairbanks_ak"
  },
  {
    "title": "Fred Meyer Pharmacy",
    "price": null,
    "categoryName": "Pharmacy",
    "address": "930 Old Steese Hwy ste a, Fairbanks, AK 99701",
    "neighborhood": null,
    "street": "930 Old Steese Hwy ste a",
    "city": "Fairbanks",
    "postalCode": "99701",
    "state": "Alaska",
    "countryCode": "US",
    "website": "https://www.fredmeyer.com/rx/pharmacy/details/701/00224?cid=loc_70100224P_gmb",
    "phone": "(907) 459-4233",
    "phoneUnformatted": "+19074594233",
    "claimThisBusiness": false,
    "location": {
      "lat": 64.8546623,
      "lng": -147.6905618
    },
    "totalScore": 4.3,
    "permanentlyClosed": false,
    "temporarilyClosed": false,
    "placeId": "ChIJV4eWU2hFMlER_jn_VmJjdfI",
    "categories": [
      "Pharmacy",
      "Drug store",
      "Health counselor",
      "Home health care service"
    ],
    "fid": "0x5132456853968757:0xf275636256ff39fe",
    "cid": "17470979603471219198",
    "reviewsCount": 14,
    "imagesCount": 9,
    "imageCategories": [],
    "scrapedAt": "2025-06-22T07:00:13.363Z",
    "googleFoodUrl": null,
    "hotelAds": [],
    "openingHours": [
      {
        "day": "Monday",
        "hours": "9\u202fAM to 1\u202fPM, 1:30 to 8\u202fPM"
      },
      {
        "day": "Tuesday",
        "hours": "9\u202fAM to 1\u202fPM, 1:30 to 8\u202fPM"
      },
      {
        "day": "Wednesday",
        "hours": "9\u202fAM to 1\u202fPM, 1:30 to 8\u202fPM"
      },
      {
        "day": "Thursday",
        "hours": "9\u202fAM to 1\u202fPM, 1:30 to 8\u202fPM"
      },
      {
        "day": "Friday",
        "hours": "9\u202fAM to 1\u202fPM, 1:30 to 8\u202fPM"
      },
      {
        "day": "Saturday",
        "hours": "10\u202fAM to 1\u202fPM, 1:30 to 6\u202fPM"
      },
      {
        "day": "Sunday",
        "hours": "10\u202fAM to 1\u202fPM, 1:30 to 6\u202fPM"
      }
    ],
    "additionalOpeningHours": {
      "Drive through": [
        {
          "day": "Monday",
          "hours": "9\u202fAM\u20131\u202fPM"
        },
        {
          "day": "Tuesday",
          "hours": "9\u202fAM\u20131\u202fPM"
        },
        {
          "day": "Wednesday",
          "hours": "9\u202fAM\u20131\u202fPM"
        },
        {
          "day": "Thursday",
          "hours": "9\u202fAM\u20131\u202fPM"
        },
        {
          "day": "Friday",
          "hours": "9\u202fAM\u20131\u202fPM"
        },
        {
          "day": "Saturday",
          "hours": "10\u202fAM\u20131\u202fPM"
        },
        {
          "day": "Sunday",
          "hours": "10\u202fAM\u20131\u202fPM"
        }
      ]
    },
    "peopleAlsoSearch": [],
    "placesTags": [],
    "reviewsTags": [],
    "additionalInfo": {
      "Service options": [
        {
          "Curbside pickup": true
        },
        {
          "Delivery": true
        },
        {
          "Drive-through": true
        },
        {
          "In-store pickup": true
        },
        {
          "In-store shopping": true
        },
        {
          "Same-day delivery": true
        }
      ],
      "Accessibility": [
        {
          "Wheelchair accessible entrance": true
        },
        {
          "Wheelchair accessible parking lot": true
        },
        {
          "Wheelchair accessible restroom": true
        },
        {
          "Wheelchair accessible seating": true
        }
      ],
      "Offerings": [
        {
          "Passport photos": true
        }
      ],
      "Crowd": [
        {
          "LGBTQ+ friendly": true
        },
        {
          "Transgender safespace": true
        }
      ],
      "Planning": [
        {
          "Quick visit": true
        }
      ],
      "Payments": [
        {
          "Checks": true
        },
        {
          "Credit cards": true
        },
        {
          "Debit cards": true
        },
        {
          "NFC mobile payments": true
        },
        {
          "Credit cards": true
        }
      ]
    },
    "gasPrices": [],
    "url": "https://www.google.com/maps/search/?api=1&query=Fred%20Meyer%20Pharmacy&query_place_id=ChIJV4eWU2hFMlER_jn_VmJjdfI",
    "searchPageUrl": "https://www.google.com/maps/search/independent%20pharmacy%20Fairbanks%20AK/@59.53005113674913,-146.19139048096207,12z?hl=en",
    "searchString": "independent pharmacy Fairbanks AK",
    "language": "en",
    "rank": 3,
    "isAdvertisement": false,
    "imageUrl": "https://lh3.googleusercontent.com/p/AF1QipNSJHCRbCKkmjCRmkEymTs5XgxzzYVEfANluSv2=w426-h240-k-no",
    "kgmid": "/g/1tl0wzvv",
    "classification": "chain",
    "is_independent": false,
    "confidence": 1.0,
    "source": "rule-based"
  },
  {
    "title": "Walgreens Pharmacy",
    "description": "Department of the Walgreens chain providing prescription medications & other health-related items.",
    "price": null,
    "categoryName": "Pharmacy",
    "address": "530 Old Steese Hwy, Fairbanks, AK 99701",
    "neighborhood": null,
    "street": "530 Old Steese Hwy",
    "city": "Fairbanks",
    "postalCode": "99701",
    "state": "Alaska",
    "countryCode": "US",
    "website": "https://www.walgreens.com/locator/walgreens-530+old+steese+hwy-fairbanks-ak-99701/id=15944",
    "phone": "(907) 457-9301",
    "phoneUnformatted": "+19074579301",
    "claimThisBusiness": false,
    "location": {
      "lat": 64.8508662,
      "lng": -147.697112
    },
    "totalScore": 3.4,
    "permanentlyClosed": false,
    "temporarilyClosed": false,
    "placeId": "ChIJ__-POEJFMlERdBaqzOMbths",
    "categories": [
      "Pharmacy"
    ],
    "fid": "0x51324542388fffff:0x1bb61be3ccaa1674",
    "cid": "1996814149990618740",
    "reviewsCount": 11,
    "imagesCount": 3,
    "imageCategories": [],
    "scrapedAt": "2025-06-22T07:00:13.363Z",
    "googleFoodUrl": null,
    "hotelAds": [],
    "openingHours": [
      {
        "day": "Monday",
        "hours": "10\u202fAM to 1:30\u202fPM, 2 to 6\u202fPM"
      },
      {
        "day": "Tuesday",
        "hours": "10\u202fAM to 1:30\u202fPM, 2 to 6\u202fPM"
      },
      {
        "day": "Wednesday",
        "hours": "10\u202fAM to 1:30\u202fPM, 2 to 6\u202fPM"
      },
      {
        "day": "Thursday",
        "hours": "10\u202fAM to 1:30\u202fPM, 2 to 6\u202fPM"
      },
      {
        "day": "Friday",
        "hours": "10\u202fAM to 1:30\u202fPM, 2 to 6\u202fPM"
      },
      {
        "day": "Saturday",
        "hours": "10\u202fAM to 1:30\u202fPM, 2 to 6\u202fPM"
      },
      {
        "day": "Sunday",
        "hours": "10\u202fAM to 2\u202fPM"
      }
    ],
    "additionalOpeningHours": {
      "Drive through": [
        {
          "day": "Monday",
          "hours": "10\u202fAM\u20131:30\u202fPM"
        },
        {
          "day": "Tuesday",
          "hours": "10\u202fAM\u20131:30\u202fPM"
        },
        {
          "day": "Wednesday",
          "hours": "10\u202fAM\u20131:30\u202fPM"
        },
        {
          "day": "Thursday",
          "hours": "10\u202fAM\u20131:30\u202fPM"
        },
        {
          "day": "Friday",
          "hours": "10\u202fAM\u20131:30\u202fPM"
        },
        {
          "day": "Saturday",
          "hours": "10\u202fAM\u20131:30\u202fPM"
        },
        {
          "day": "Sunday",
          "hours": "10\u202fAM\u20132\u202fPM"
        }
      ]
    },
    "peopleAlsoSearch": [],
    "placesTags": [],
    "reviewsTags": [],
    "additionalInfo": {
      "Service options": [
        {
          "Drive-through": true
        },
        {
          "In-store pickup": true
        },
        {
          "Same-day delivery": false
        }
      ],
      "Accessibility": [
        {
          "Wheelchair accessible entrance": true
        },
        {
          "Wheelchair accessible parking lot": true
        }
      ],
      "Offerings": [
        {
          "Passport photos": true
        }
      ],
      "Planning": [
        {
          "Quick visit": true
        }
      ],
      "Payments": [
        {
          "Checks": true
        },
        {
          "Credit cards": true
        },
        {
          "Debit cards": true
        }
      ]
    },
    "gasPrices": [],
    "url": "https://www.google.com/maps/search/?api=1&query=Walgreens%20Pharmacy&query_place_id=ChIJ__-POEJFMlERdBaqzOMbths",
    "searchPageUrl": "https://www.google.com/maps/search/independent%20pharmacy%20Fairbanks%20AK/@59.53005113674913,-146.19139048096207,12z?hl=en",
    "searchString": "independent pharmacy Fairbanks AK",
    "language": "en",
    "rank": 4,
    "isAdvertisement": false,
    "imageUrl": "https://lh3.googleusercontent.com/p/AF1QipOCcY0cnAEdkoq3nNQMHWTbyrevV9y-3TBBzc9P=w525-h240-k-no",
    "kgmid": "/g/11s8yzlx8z",
    "classification": "chain",
    "is_independent": false,
    "confidence": 1.0,
    "source": "rule-based"
  },
  {
    "title": "Safeway Pharmacy",
    "price": "$$",
    "categoryName": "Pharmacy",
    "address": "3627 Airport Way, Fairbanks, AK 99709",
    "neighborhood": null,
    "street": "3627 Airport Way",
    "city": "Fairbanks",
    "postalCode": "99709",
    "state": "Alaska",
    "countryCode": "US",
    "website": "https://local.pharmacy.safeway.com/safeway/ak/fairbanks/3627-airport-way.html",
    "phone": "(907) 374-4060",
    "phoneUnformatted": "+19073744060",
    "claimThisBusiness": false,
    "location": {
      "lat": 64.8357242,
      "lng": -147.8081716
    },
    "totalScore": 3.4,
    "permanentlyClosed": false,
    "temporarilyClosed": false,
    "placeId": "ChIJH7i4-yZbMlER25ijP429_jY",
    "categories": [
      "Pharmacy",
      "Drug store",
      "Vitamin & supplements store"
    ],
    "fid": "0x51325b26fbb8b81f:0x36febd8d3fa398db",
    "cid": "3962813136488339675",
    "reviewsCount": 17,
    "imagesCount": 3,
    "imageCategories": [],
    "scrapedAt": "2025-06-22T07:00:13.363Z",
    "googleFoodUrl": null,
    "hotelAds": [],
    "openingHours": [
      {
        "day": "Monday",
        "hours": "9\u202fAM to 1:30\u202fPM, 2 to 9\u202fPM"
      },
      {
        "day": "Tuesday",
        "hours": "9\u202fAM to 1:30\u202fPM, 2 to 9\u202fPM"
      },
      {
        "day": "Wednesday",
        "hours": "9\u202fAM to 1:30\u202fPM, 2 to 9\u202fPM"
      },
      {
        "day": "Thursday",
        "hours": "9\u202fAM to 1:30\u202fPM, 2 to 9\u202fPM"
      },
      {
        "day": "Friday",
        "hours": "9\u202fAM to 1:30\u202fPM, 2 to 9\u202fPM"
      },
      {
        "day": "Saturday",
        "hours": "10\u202fAM to 1:30\u202fPM, 2 to 6\u202fPM"
      },
      {
        "day": "Sunday",
        "hours": "10\u202fAM to 1:30\u202fPM, 2 to 6\u202fPM"
      }
    ],
    "peopleAlsoSearch": [],
    "placesTags": [],
    "reviewsTags": [],
    "additionalInfo": {
      "Service options": [
        {
          "Delivery": true
        },
        {
          "In-store pickup": true
        },
        {
          "In-store shopping": true
        },
        {
          "Same-day delivery": true
        }
      ],
      "Accessibility": [
        {
          "Wheelchair accessible entrance": true
        },
        {
          "Wheelchair accessible parking lot": true
        }
      ],
      "Crowd": [
        {
          "LGBTQ+ friendly": true
        }
      ],
      "Planning": [
        {
          "Appointment required": true
        },
        {
          "Quick visit": true
        }
      ],
      "Payments": [
        {
          "Checks": true
        },
        {
          "Debit cards": true
        },
        {
          "Credit cards": true
        }
      ]
    },
    "gasPrices": [],
    "url": "https://www.google.com/maps/search/?api=1&query=Safeway%20Pharmacy&query_place_id=ChIJH7i4-yZbMlER25ijP429_jY",
    "searchPageUrl": "https://www.google.com/maps/search/independent%20pharmacy%20Fairbanks%20AK/@59.53005113674913,-146.19139048096207,12z?hl=en",
    "searchString": "independent pharmacy Fairbanks AK",
    "language": "en",
    "rank": 5,
    "isAdvertisement": false,
    "imageUrl": "https://lh3.googleusercontent.com/p/AF1QipMl1y58B1D_vUZhBRiH2lyJubUwkbCCS5YLmXwI=w408-h408-k-no",
    "kgmid": "/g/1thx3pfg",
    "classification": "chain",
    "is_independent": false,
    "confidence": 1.0,
    "source": "rule-based"
  },
  {
    "title": "Fred Meyer Pharmacy",
    "price": null,
    "categoryName": "Pharmacy",
    "address": "1384 S University A, Fairbanks, AK 99709",
    "neighborhood": null,
    "street": "1384 S University A",
    "city": "Fairbanks",
    "postalCode": "99709",
    "state": "Alaska",
    "countryCode": "US",
    "website": "https://www.fredmeyer.com/rx/pharmacy/details/701/00485?cid=loc_70100485P_gmb",
    "phone": "(907) 474-1433",
    "phoneUnformatted": "+19074741433",
    "claimThisBusiness": false,
    "location": {
      "lat": 64.8352669,
      "lng": -147.8172646
    },
    "totalScore": 4.3,
    "permanentlyClosed": false,
    "temporarilyClosed": false,
    "placeId": "ChIJc-j_HSRbMlER9USGvC3N2SU",
    "categories": [
      "Pharmacy",
      "Drug store",
      "Health counselor",
      "Home health care service"
    ],
    "fid": "0x51325b241dffe873:0x25d9cd2dbc8644f5",
    "cid": "2727436645669684469",
    "reviewsCount": 21,
    "imagesCount": 32,
    "imageCategories": [],
    "scrapedAt": "2025-06-22T07:00:13.363Z",
    "googleFoodUrl": null,
    "hotelAds": [],
    "openingHours": [
      {
        "day": "Monday",
        "hours": "9\u202fAM to 1\u202fPM, 1:30 to 8\u202fPM"
      },
      {
        "day": "Tuesday",
        "hours": "9\u202fAM to 1\u202fPM, 1:30 to 8\u202fPM"
      },
      {
        "day": "Wednesday",
        "hours": "9\u202fAM to 1\u202fPM, 1:30 to 8\u202fPM"
      },
      {
        "day": "Thursday",
        "hours": "9\u202fAM to 1\u202fPM, 1:30 to 8\u202fPM"
      },
      {
        "day": "Friday",
        "hours": "9\u202fAM to 1\u202fPM, 1:30 to 8\u202fPM"
      },
      {
        "day": "Saturday",
        "hours": "10\u202fAM to 1\u202fPM, 1:30 to 6\u202fPM"
      },
      {
        "day": "Sunday",
        "hours": "10\u202fAM to 1\u202fPM, 1:30 to 6\u202fPM"
      }
    ],
    "additionalOpeningHours": {
      "Drive through": [
        {
          "day": "Monday",
          "hours": "9\u202fAM\u20131\u202fPM"
        },
        {
          "day": "Tuesday",
          "hours": "9\u202fAM\u20131\u202fPM"
        },
        {
          "day": "Wednesday",
          "hours": "9\u202fAM\u20131\u202fPM"
        },
        {
          "day": "Thursday",
          "hours": "9\u202fAM\u20131\u202fPM"
        },
        {
          "day": "Friday",
          "hours": "9\u202fAM\u20131\u202fPM"
        },
        {
          "day": "Saturday",
          "hours": "10\u202fAM\u20131\u202fPM"
        },
        {
          "day": "Sunday",
          "hours": "10\u202fAM\u20131\u202fPM"
        }
      ]
    },
    "peopleAlsoSearch": [],
    "placesTags": [],
    "reviewsTags": [],
    "additionalInfo": {
      "Service options": [
        {
          "Curbside pickup": true
        },
        {
          "Delivery": true
        },
        {
          "Drive-through": true
        },
        {
          "In-store pickup": true
        },
        {
          "In-store shopping": true
        },
        {
          "Same-day delivery": true
        }
      ],
      "Accessibility": [
        {
          "Wheelchair accessible entrance": true
        },
        {
          "Wheelchair accessible parking lot": true
        },
        {
          "Wheelchair accessible restroom": true
        },
        {
          "Wheelchair accessible seating": true
        }
      ],
      "Offerings": [
        {
          "Passport photos": true
        }
      ],
      "Crowd": [
        {
          "LGBTQ+ friendly": true
        },
        {
          "Transgender safespace": true
        }
      ],
      "Planning": [
        {
          "Quick visit": true
        }
      ],
      "Payments": [
        {
          "Checks": true
        },
        {
          "Credit cards": true
        },
        {
          "Debit cards": true
        },
        {
          "NFC mobile payments": true
        },
        {
          "Credit cards": true
        }
      ]
    },
    "gasPrices": [],
    "url": "https://www.google.com/maps/search/?api=1&query=Fred%20Meyer%20Pharmacy&query_place_id=ChIJc-j_HSRbMlER9USGvC3N2SU",
    "searchPageUrl": "https://www.google.com/maps/search/independent%20pharmacy%20Fairbanks%20AK/@59.53005113674913,-146.19139048096207,12z?hl=en",
    "searchString": "independent pharmacy Fairbanks AK",
    "language": "en",
    "rank": 6,
    "isAdvertisement": false,
    "imageUrl": "https://lh3.googleusercontent.com/gps-cs-s/AC9h4nqlr5KiswcuiqGYeqzGtVFqBTilHRGgumARUGhTwyIy8JCls_P6ZkrxGFR4mR-LkhpIciakpckH8FRKRQh6mp672zUJDJPh9xF78hDuYKJ5Grea8YSecpHsDisCBHIF87t02emL2A=w426-h240-k-no",
    "kgmid": "/g/1tfkktny",
    "classification": "chain",
    "is_independent": false,
    "confidence": 1.0,
    "source": "rule-based"
  },
  {
    "title": "Safeway Pharmacy",
    "price": "$$",
    "categoryName": "Pharmacy",
    "address": "30 College Rd, Fairbanks, AK 99701",
    "neighborhood": null,
    "street": "30 College Rd",
    "city": "Fairbanks",
    "postalCode": "99701",
    "state": "Alaska",
    "countryCode": "US",
    "website": "https://local.pharmacy.safeway.com/safeway/ak/fairbanks/30-college-rd.html",
    "phone": "(907) 374-4160",
    "phoneUnformatted": "+19073744160",
    "claimThisBusiness": false,
    "location": {
      "lat": 64.8517344,
      "lng": -147.7005748
    },
    "totalScore": 3.2,
    "permanentlyClosed": false,
    "temporarilyClosed": false,
    "placeId": "ChIJ92tUfEFFMlERgyVOz8KhrVg",
    "categories": [
      "Pharmacy",
      "Drug store",
      "Vitamin & supplements store"
    ],
    "fid": "0x513245417c546bf7:0x58ada1c2cf4e2583",
    "cid": "6389941304382334339",
    "reviewsCount": 14,
    "imagesCount": 3,
    "imageCategories": [],
    "scrapedAt": "2025-06-22T07:00:13.364Z",
    "googleFoodUrl": null,
    "hotelAds": [],
    "openingHours": [
      {
        "day": "Monday",
        "hours": "9\u202fAM to 1:30\u202fPM, 2 to 9\u202fPM"
      },
      {
        "day": "Tuesday",
        "hours": "9\u202fAM to 1:30\u202fPM, 2 to 9\u202fPM"
      },
      {
        "day": "Wednesday",
        "hours": "9\u202fAM to 1:30\u202fPM, 2 to 9\u202fPM"
      },
      {
        "day": "Thursday",
        "hours": "9\u202fAM to 1:30\u202fPM, 2 to 9\u202fPM"
      },
      {
        "day": "Friday",
        "hours": "9\u202fAM to 1:30\u202fPM, 2 to 9\u202fPM"
      },
      {
        "day": "Saturday",
        "hours": "10\u202fAM to 1:30\u202fPM, 2 to 6\u202fPM"
      },
      {
        "day": "Sunday",
        "hours": "10\u202fAM to 1:30\u202fPM, 2 to 6\u202fPM"
      }
    ],
    "peopleAlsoSearch": [],
    "placesTags": [],
    "reviewsTags": [],
    "additionalInfo": {
      "Service options": [
        {
          "Delivery": true
        },
        {
          "In-store pickup": true
        },
        {
          "In-store shopping": true
        },
        {
          "Same-day delivery": true
        }
      ],
      "Accessibility": [
        {
          "Wheelchair accessible entrance": true
        },
        {
          "Wheelchair accessible parking lot": true
        }
      ],
      "Crowd": [
        {
          "LGBTQ+ friendly": true
        }
      ],
      "Planning": [
        {
          "Appointment required": true
        },
        {
          "Quick visit": true
        }
      ],
      "Payments": [
        {
          "Checks": true
        },
        {
          "Debit cards": true
        },
        {
          "Credit cards": true
        }
      ]
    },
    "gasPrices": [],
    "url": "https://www.google.com/maps/search/?api=1&query=Safeway%20Pharmacy&query_place_id=ChIJ92tUfEFFMlERgyVOz8KhrVg",
    "searchPageUrl": "https://www.google.com/maps/search/independent%20pharmacy%20Fairbanks%20AK/@59.53005113674913,-146.19139048096207,12z?hl=en",
    "searchString": "independent pharmacy Fairbanks AK",
    "language": "en",
    "rank": 7,
    "isAdvertisement": false,
    "imageUrl": "https://lh3.googleusercontent.com/p/AF1QipM3eDtYO1wf2khK1UFd2Sj__jGj1rkc9I4ltqni=w426-h240-k-no",
    "kgmid": "/g/1hd_1v_pb",
    "classification": "chain",
    "is_independent": false,
    "confidence": 1.0,
    "source": "rule-based"
  },
  {
    "title": "Walmart Pharmacy",
    "price": "$",
    "categoryName": "Pharmacy",
    "address": "537 Johansen Expy, Fairbanks, AK 99701",
    "neighborhood": null,
    "street": "537 Johansen Expy",
    "city": "Fairbanks",
    "postalCode": "99701",
    "state": "Alaska",
    "countryCode": "US",
    "website": "https://www.walmart.com/store/2722-fairbanks-ak/pharmacy/?veh=seo_loc",
    "phone": "(907) 451-9906",
    "phoneUnformatted": "+19074519906",
    "claimThisBusiness": false,
    "location": {
      "lat": 64.8564379,
      "lng": -147.6892897
    },
    "totalScore": 4,
    "permanentlyClosed": false,
    "temporarilyClosed": false,
    "placeId": "ChIJByCmW2lFMlERdM7YZyJzt5w",
    "categories": [
      "Pharmacy",
      "Herbal medicine store",
      "Medical supply store",
      "Parapharmacy",
      "Vitamin & supplements store"
    ],
    "fid": "0x513245695ba62007:0x9cb7732267d8ce74",
    "cid": "11292621182263152244",
    "reviewsCount": 26,
    "imagesCount": 4,
    "imageCategories": [],
    "scrapedAt": "2025-06-22T07:00:13.364Z",
    "googleFoodUrl": null,
    "hotelAds": [],
    "openingHours": [
      {
        "day": "Monday",
        "hours": "9\u202fAM to 7\u202fPM"
      },
      {
        "day": "Tuesday",
        "hours": "9\u202fAM to 7\u202fPM"
      },
      {
        "day": "Wednesday",
        "hours": "9\u202fAM to 7\u202fPM"
      },
      {
        "day": "Thursday",
        "hours": "9\u202fAM to 7\u202fPM"
      },
      {
        "day": "Friday",
        "hours": "9\u202fAM to 7\u202fPM"
      },
      {
        "day": "Saturday",
        "hours": "9\u202fAM to 7\u202fPM"
      },
      {
        "day": "Sunday",
        "hours": "10\u202fAM to 6\u202fPM"
      }
    ],
    "peopleAlsoSearch": [],
    "placesTags": [],
    "reviewsTags": [],
    "additionalInfo": {
      "Service options": [
        {
          "Curbside pickup": true
        },
        {
          "Delivery": true
        },
        {
          "In-store pickup": true
        },
        {
          "In-store shopping": true
        }
      ],
      "Accessibility": [
        {
          "Wheelchair accessible entrance": true
        },
        {
          "Wheelchair accessible parking lot": true
        },
        {
          "Wheelchair accessible restroom": true
        }
      ],
      "Offerings": [
        {
          "Passport photos": true
        }
      ],
      "Amenities": [
        {
          "Wi-Fi": true
        },
        {
          "Free Wi-Fi": true
        }
      ],
      "Planning": [
        {
          "Quick visit": true
        }
      ],
      "Payments": [
        {
          "Credit cards": true
        },
        {
          "Debit cards": true
        },
        {
          "Credit cards": true
        }
      ]
    },
    "gasPrices": [],
    "url": "https://www.google.com/maps/search/?api=1&query=Walmart%20Pharmacy&query_place_id=ChIJByCmW2lFMlERdM7YZyJzt5w",
    "searchPageUrl": "https://www.google.com/maps/search/independent%20pharmacy%20Fairbanks%20AK/@59.53005113674913,-146.19139048096207,12z?hl=en",
    "searchString": "independent pharmacy Fairbanks AK",
    "language": "en",
    "rank": 8,
    "isAdvertisement": false,
    "imageUrl": "https://lh3.googleusercontent.com/p/AF1QipPnJNmQ98dyemjLGi_1QftNEUBCmC-5R0o_koC8=w408-h306-k-no",
    "kgmid": "/g/1vfwch9f",
    "classification": "chain",
    "is_independent": false,
    "confidence": 1.0,
    "source": "rule-based"
  },
  {
    "title": "Smith Clinton J",
    "price": null,
    "categoryName": "Pharmacy",
    "address": "1408 19th Ave, Fairbanks, AK 99701",
    "neighborhood": null,
    "street": "1408 19th Ave",
    "city": "Fairbanks",
    "postalCode": "99701",
    "state": "Alaska",
    "countryCode": "US",
    "phone": "(907) 459-3807",
    "phoneUnformatted": "+19074593807",
    "claimThisBusiness": true,
    "location": {
      "lat": 64.8306817,
      "lng": -147.7381892
    },
    "permanentlyClosed": false,
    "temporarilyClosed": false,
    "placeId": null,
    "categories": [
      "Pharmacy"
    ],
    "fid": "0x51325ab411e38959:0x5efb12b0892d9b3c",
    "cid": "6844084608144612156",
    "reviewsCount": 0,
    "imagesCount": 1,
    "imageCategories": [],
    "scrapedAt": "2025-06-22T07:00:13.364Z",
    "googleFoodUrl": null,
    "hotelAds": [],
    "openingHours": [],
    "peopleAlsoSearch": [],
    "placesTags": [],
    "reviewsTags": [],
    "additionalInfo": {
      "Accessibility": [
        {
          "Wheelchair accessible entrance": true
        },
        {
          "Wheelchair accessible parking lot": true
        }
      ],
      "Payments": [
        {
          "Credit cards": true
        }
      ]
    },
    "gasPrices": [],
    "url": "https://www.google.com/maps/search/?api=1&query=Smith%20Clinton%20J&query_place_id=ChIJWYnjEbRaMlERPJstibAS-14",
    "searchPageUrl": "https://www.google.com/maps/search/independent%20pharmacy%20Fairbanks%20AK/@59.53005113674913,-146.19139048096207,12z?hl=en",
    "searchString": "independent pharmacy Fairbanks AK",
    "language": "en",
    "rank": 9,
    "isAdvertisement": false,
    "imageUrl": "https://streetviewpixels-pa.googleapis.com/v1/thumbnail?panoid=GAlWiD9u_o-xAfelIzIvUw&cb_client=search.gws-prod.gps&w=408&h=240&yaw=5.8059287&pitch=0&thumbfov=100",
    "kgmid": "/g/1v_s5jcx",
    "classification": "independent",
    "is_independent": true,
    "is_compounding": false,
    "confidence": 0.85,
    "source": "perplexity",
    "method": "llm",
    "query_location": "fairbanks_ak"
  },
  {
    "title": "Walgreens",
    "description": "Drugstore chain with health & beauty aids, prescriptions & photo services, plus mini-mart basics.",
    "price": "$$",
    "categoryName": "Drug store",
    "address": "530 Old Steese Hwy, Fairbanks, AK 99701",
    "neighborhood": null,
    "street": "530 Old Steese Hwy",
    "city": "Fairbanks",
    "postalCode": "99701",
    "state": "Alaska",
    "countryCode": "US",
    "website": "https://www.walgreens.com/locator/walgreens-530+old+steese+hwy-fairbanks-ak-99701/id=15944",
    "phone": "(907) 457-9301",
    "phoneUnformatted": "+19074579301",
    "claimThisBusiness": false,
    "location": {
      "lat": 64.8508043,
      "lng": -147.6970625
    },
    "locatedIn": "Walgreens Pharmacy",
    "totalScore": 2.4,
    "permanentlyClosed": false,
    "temporarilyClosed": false,
    "placeId": "ChIJQ4wYOUJFMlER3o9xfzhhFM8",
    "categories": [
      "Drug store",
      "Beauty supply store",
      "Convenience store",
      "Cosmetics store",
      "Greeting card shop",
      "Perfume store",
      "Stationery store"
    ],
    "fid": "0x5132454239188c43:0xcf1461387f718fde",
    "cid": "14921658360669507550",
    "reviewsCount": 119,
    "imagesCount": 15,
    "imageCategories": [],
    "scrapedAt": "2025-06-22T07:00:13.364Z",
    "googleFoodUrl": null,
    "hotelAds": [],
    "openingHours": [
      {
        "day": "Monday",
        "hours": "7\u202fAM to 10\u202fPM"
      },
      {
        "day": "Tuesday",
        "hours": "7\u202fAM to 10\u202fPM"
      },
      {
        "day": "Wednesday",
        "hours": "7\u202fAM to 10\u202fPM"
      },
      {
        "day": "Thursday",
        "hours": "7\u202fAM to 10\u202fPM"
      },
      {
        "day": "Friday",
        "hours": "7\u202fAM to 10\u202fPM"
      },
      {
        "day": "Saturday",
        "hours": "7\u202fAM to 10\u202fPM"
      },
      {
        "day": "Sunday",
        "hours": "7\u202fAM to 10\u202fPM"
      }
    ],
    "additionalOpeningHours": {
      "Walgreens Pharmacy": [
        {
          "day": "Monday",
          "hours": "10\u202fAM\u20131:30\u202fPM"
        },
        {
          "day": "Tuesday",
          "hours": "10\u202fAM\u20131:30\u202fPM"
        },
        {
          "day": "Wednesday",
          "hours": "10\u202fAM\u20131:30\u202fPM"
        },
        {
          "day": "Thursday",
          "hours": "10\u202fAM\u20131:30\u202fPM"
        },
        {
          "day": "Friday",
          "hours": "10\u202fAM\u20131:30\u202fPM"
        },
        {
          "day": "Saturday",
          "hours": "10\u202fAM\u20131:30\u202fPM"
        },
        {
          "day": "Sunday",
          "hours": "10\u202fAM\u20132\u202fPM"
        }
      ],
      "Walgreens Photo": [
        {
          "day": "Monday",
          "hours": "7\u202fAM\u201310\u202fPM"
        },
        {
          "day": "Tuesday",
          "hours": "7\u202fAM\u201310\u202fPM"
        },
        {
          "day": "Wednesday",
          "hours": "7\u202fAM\u201310\u202fPM"
        },
        {
          "day": "Thursday",
          "hours": "7\u202fAM\u201310\u202fPM"
        },
        {
          "day": "Friday",
          "hours": "7\u202fAM\u201310\u202fPM"
        },
        {
          "day": "Saturday",
          "hours": "7\u202fAM\u201310\u202fPM"
        },
        {
          "day": "Sunday",
          "hours": "7\u202fAM\u201310\u202fPM"
        }
      ],
      "Pickup": [
        {
          "day": "Monday",
          "hours": "7\u202fAM\u201310\u202fPM"
        },
        {
          "day": "Tuesday",
          "hours": "7\u202fAM\u201310\u202fPM"
        },
        {
          "day": "Wednesday",
          "hours": "7\u202fAM\u201310\u202fPM"
        },
        {
          "day": "Thursday",
          "hours": "7\u202fAM\u201310\u202fPM"
        },
        {
          "day": "Friday",
          "hours": "7\u202fAM\u201310\u202fPM"
        },
        {
          "day": "Saturday",
          "hours": "7\u202fAM\u201310\u202fPM"
        },
        {
          "day": "Sunday",
          "hours": "7\u202fAM\u201310\u202fPM"
        }
      ]
    },
    "peopleAlsoSearch": [],
    "placesTags": [],
    "reviewsTags": [],
    "additionalInfo": {
      "Service options": [
        {
          "Curbside pickup": true
        },
        {
          "Delivery": true
        },
        {
          "Drive-through": true
        },
        {
          "In-store pickup": true
        },
        {
          "Onsite services": true
        },
        {
          "Same-day delivery": false
        }
      ],
      "Accessibility": [
        {
          "Wheelchair accessible entrance": true
        },
        {
          "Wheelchair accessible parking lot": true
        }
      ],
      "Offerings": [
        {
          "Naloxone": true
        }
      ],
      "Planning": [
        {
          "Quick visit": true
        }
      ],
      "Payments": [
        {
          "Checks": true
        },
        {
          "Credit cards": true
        },
        {
          "Debit cards": true
        },
        {
          "NFC mobile payments": true
        },
        {
          "SNAP/EBT": true
        },
        {
          "Credit cards": true
        }
      ]
    },
    "gasPrices": [],
    "url": "https://www.google.com/maps/search/?api=1&query=Walgreens&query_place_id=ChIJQ4wYOUJFMlER3o9xfzhhFM8",
    "searchPageUrl": "https://www.google.com/maps/search/independent%20pharmacy%20Fairbanks%20AK/@59.53005113674913,-146.19139048096207,12z?hl=en",
    "searchString": "independent pharmacy Fairbanks AK",
    "language": "en",
    "rank": 10,
    "isAdvertisement": false,
    "imageUrl": "https://lh3.googleusercontent.com/gps-cs-s/AC9h4no4czBJ0U9B0wZwQzbpyGM2o_wAksErLhgJ7D6301TQwIuy-k4fCUOjzV5xzlZouapK7WtpRUSDPoTqv70ntcA7jcJZ0_e8-xH0T9PcfZeYhYIOYrCXQ5GubhZgFwj6pwCY8gW8=w426-h240-k-no",
    "kgmid": "/g/11b7lnghbr",
    "classification": "chain",
    "is_independent": false,
    "confidence": 1.0,
    "source": "rule-based"
  },
  {
    "title": "Harry Race Pharmacy",
    "price": null,
    "categoryName": "Pharmacy",
    "address": "106 Lincoln St, Sitka, AK 99835",
    "neighborhood": null,
    "street": "106 Lincoln St",
    "city": "Sitka",
    "postalCode": "99835",
    "state": "Alaska",
    "countryCode": "US",
    "website": "http://www.sitkapharmacies.com/",
    "phone": "(907) 313-6750",
    "phoneUnformatted": "+19073136750",
    "claimThisBusiness": false,
    "location": {
      "lat": 57.0491652,
      "lng": -135.3382225
    },
    "totalScore": 4.5,
    "permanentlyClosed": false,
    "temporarilyClosed": false,
    "placeId": null,
    "categories": [
      "Pharmacy",
      "Cosmetics store",
      "Drug store",
      "Ice cream shop",
      "Photo lab",
      "Photo shop",
      "Snack bar",
      "Souvenir store"
    ],
    "fid": "0x540467a363616bf9:0x8d657a0de432947b",
    "cid": "10188683932077298811",
    "reviewsCount": 58,
    "imagesCount": 34,
    "imageCategories": [],
    "scrapedAt": "2025-06-22T07:00:20.447Z",
    "googleFoodUrl": null,
    "hotelAds": [],
    "openingHours": [
      {
        "day": "Monday",
        "hours": "9\u202fAM to 6\u202fPM"
      },
      {
        "day": "Tuesday",
        "hours": "9\u202fAM to 6\u202fPM"
      },
      {
        "day": "Wednesday",
        "hours": "9\u202fAM to 6\u202fPM"
      },
      {
        "day": "Thursday",
        "hours": "9\u202fAM to 6\u202fPM"
      },
      {
        "day": "Friday",
        "hours": "9\u202fAM to 6\u202fPM"
      },
      {
        "day": "Saturday",
        "hours": "9\u202fAM to 5\u202fPM"
      },
      {
        "day": "Sunday",
        "hours": "1 to 5\u202fPM"
      }
    ],
    "additionalOpeningHours": {
      "Pickup": [
        {
          "day": "Monday",
          "hours": "9\u202fAM\u20136\u202fPM"
        },
        {
          "day": "Tuesday",
          "hours": "9\u202fAM\u20136\u202fPM"
        },
        {
          "day": "Wednesday",
          "hours": "9\u202fAM\u20136\u202fPM"
        },
        {
          "day": "Thursday",
          "hours": "9\u202fAM\u20136\u202fPM"
        },
        {
          "day": "Friday",
          "hours": "9\u202fAM\u20136\u202fPM"
        },
        {
          "day": "Saturday",
          "hours": "9\u202fAM\u20135\u202fPM"
        },
        {
          "day": "Sunday",
          "hours": "1\u20135\u202fPM"
        }
      ],
      "Delivery": [
        {
          "day": "Monday",
          "hours": "9\u202fAM\u20136\u202fPM"
        },
        {
          "day": "Tuesday",
          "hours": "Closed"
        },
        {
          "day": "Wednesday",
          "hours": "9\u202fAM\u20136\u202fPM"
        },
        {
          "day": "Thursday",
          "hours": "Closed"
        },
        {
          "day": "Friday",
          "hours": "9\u202fAM\u20136\u202fPM"
        },
        {
          "day": "Saturday",
          "hours": "Closed"
        },
        {
          "day": "Sunday",
          "hours": "Closed"
        }
      ]
    },
    "peopleAlsoSearch": [],
    "placesTags": [],
    "reviewsTags": [],
    "additionalInfo": {
      "Service options": [
        {
          "Curbside pickup": true
        },
        {
          "Delivery": true
        },
        {
          "In-store pickup": true
        },
        {
          "In-store shopping": true
        },
        {
          "Onsite services": true
        }
      ],
      "Accessibility": [
        {
          "Wheelchair accessible entrance": true
        },
        {
          "Wheelchair accessible parking lot": true
        }
      ],
      "Offerings": [
        {
          "Passport photos": true
        }
      ],
      "Planning": [
        {
          "Quick visit": true
        }
      ],
      "Payments": [
        {
          "Checks": true
        },
        {
          "Credit cards": true
        },
        {
          "Debit cards": true
        },
        {
          "NFC mobile payments": true
        },
        {
          "Credit cards": true
        }
      ],
      "Parking": [
        {
          "Free parking lot": true
        },
        {
          "Free street parking": true
        }
      ]
    },
    "gasPrices": [],
    "url": "https://www.google.com/maps/search/?api=1&query=Harry%20Race%20Pharmacy&query_place_id=ChIJ-WthY6NnBFQRe5Qy5A16ZY0",
    "searchPageUrl": "https://www.google.com/maps/search/independent%20pharmacy%20Fairbanks%20AK/@57.40072944694004,-136.9993251718887,9z?hl=en",
    "searchString": "independent pharmacy Fairbanks AK",
    "language": "en",
    "rank": 8,
    "isAdvertisement": false,
    "imageUrl": "https://lh3.googleusercontent.com/gps-cs-s/AC9h4nozuRCIlOgp2glhsX4ASMsMBlb6PkTpTEwc86Jfbfa8v_DdBnrnLebIdXgPYEGuZxiKgVLPo8lAI3ZWz0R4PUMX9uJafBVEG3_fvWmbCpAKhllw3dhE7KSyI8emxo5Mkw79i8M=w493-h240-k-no",
    "kgmid": "/g/1thpwj97",
    "classification": "independent",
    "is_independent": true,
    "is_compounding": false,
    "confidence": 0.9,
    "source": "perplexity",
    "method": "llm",
    "query_location": "fairbanks_ak"
  },
  {
    "title": "White's Pharmacy",
    "price": null,
    "categoryName": "Pharmacy",
    "address": "705 Halibut Point Rd, Sitka, AK 99835",
    "neighborhood": null,
    "street": "705 Halibut Point Rd",
    "city": "Sitka",
    "postalCode": "99835",
    "state": "Alaska",
    "countryCode": "US",
    "website": "https://www.sitkapharmacies.com/whites-pharmacy",
    "phone": "(907) 313-6881",
    "phoneUnformatted": "+19073136881",
    "claimThisBusiness": false,
    "location": {
      "lat": 57.0569543,
      "lng": -135.3461305
    },
    "totalScore": 4.6,
    "permanentlyClosed": false,
    "temporarilyClosed": false,
    "placeId": null,
    "categories": [
      "Pharmacy",
      "Drug store"
    ],
    "fid": "0x540467b1752004ff:0x4049e959e5797985",
    "cid": "4632490264038570373",
    "reviewsCount": 8,
    "reviewsDistribution": {
      "oneStar": 0,
      "twoStar": 0,
      "threeStar": 1,
      "fourStar": 1,
      "fiveStar": 6
    },
    "imagesCount": 5,
    "imageCategories": [],
    "scrapedAt": "2025-06-22T07:00:21.226Z",
    "googleFoodUrl": null,
    "hotelAds": [],
    "openingHours": [
      {
        "day": "Monday",
        "hours": "9:30\u202fAM to 5:30\u202fPM"
      },
      {
        "day": "Tuesday",
        "hours": "9:30\u202fAM to 5:30\u202fPM"
      },
      {
        "day": "Wednesday",
        "hours": "9:30\u202fAM to 5:30\u202fPM"
      },
      {
        "day": "Thursday",
        "hours": "9:30\u202fAM to 5:30\u202fPM"
      },
      {
        "day": "Friday",
        "hours": "9:30\u202fAM to 5:30\u202fPM"
      },
      {
        "day": "Saturday",
        "hours": "Closed"
      },
      {
        "day": "Sunday",
        "hours": "Closed"
      }
    ],
    "additionalOpeningHours": {
      "Delivery": [
        {
          "day": "Monday",
          "hours": "9:30\u202fAM\u20135:30\u202fPM"
        },
        {
          "day": "Tuesday",
          "hours": "Closed"
        },
        {
          "day": "Wednesday",
          "hours": "9:30\u202fAM\u20135:30\u202fPM"
        },
        {
          "day": "Thursday",
          "hours": "Closed"
        },
        {
          "day": "Friday",
          "hours": "9:30\u202fAM\u20135:30\u202fPM"
        },
        {
          "day": "Saturday",
          "hours": "Closed"
        },
        {
          "day": "Sunday",
          "hours": "Closed"
        }
      ]
    },
    "peopleAlsoSearch": [],
    "placesTags": [],
    "reviewsTags": [],
    "additionalInfo": {
      "Service options": [
        {
          "Delivery": true
        },
        {
          "In-store shopping": true
        }
      ],
      "Accessibility": [
        {
          "Wheelchair accessible entrance": true
        },
        {
          "Wheelchair accessible parking lot": true
        }
      ],
      "Planning": [
        {
          "Quick visit": true
        }
      ],
      "Payments": [
        {
          "Checks": true
        },
        {
          "Credit cards": true
        },
        {
          "Debit cards": true
        },
        {
          "NFC mobile payments": true
        },
        {
          "Credit cards": true
        }
      ]
    },
    "gasPrices": [],
    "url": "https://www.google.com/maps/search/?api=1&query=White's%20Pharmacy&query_place_id=ChIJ_wQgdbFnBFQRhXl55VnpSUA",
    "searchPageUrl": "https://www.google.com/maps/search/independent%20pharmacy%20Fairbanks%20AK/@57.40072944694004,-136.9993251718887,9z?hl=en",
    "searchString": "independent pharmacy Fairbanks AK",
    "language": "en",
    "rank": 22,
    "isAdvertisement": false,
    "imageUrl": "https://lh3.googleusercontent.com/p/AF1QipNgXBZlTcgY6F72eNtQK-KtfwJsJmnyNrHye6mt=w408-h306-k-no",
    "kgmid": "/g/1tdwdmcc",
    "classification": "independent",
    "is_independent": true,
    "is_compounding": false,
    "confidence": 0.9,
    "source": "perplexity",
    "method": "llm",
    "query_location": "fairbanks_ak"
  },
  {
    "title": "Ron's Apothecary Shoppe",
    "price": null,
    "categoryName": "Pharmacy",
    "address": "9101 Mendenhall Mall Rd, Juneau, AK 99801",
    "neighborhood": "Mendenhall Valley",
    "street": "9101 Mendenhall Mall Rd",
    "city": "Juneau",
    "postalCode": "99801",
    "state": "Alaska",
    "countryCode": "US",
    "website": "https://www.ronsapothecary.com/",
    "phone": "(907) 789-0458",
    "phoneUnformatted": "+19077890458",
    "claimThisBusiness": false,
    "location": {
      "lat": 58.3715465,
      "lng": -134.5872648
    },
    "totalScore": 4.7,
    "permanentlyClosed": true,
    "temporarilyClosed": false,
    "placeId": null,
    "categories": [
      "Pharmacy",
      "Drug store"
    ],
    "fid": "0x5400e1e2871ed9a5:0x5411bf26b48d4fc7",
    "cid": "6057833146748850119",
    "reviewsCount": 20,
    "imagesCount": 14,
    "imageCategories": [],
    "scrapedAt": "2025-06-22T07:00:37.778Z",
    "googleFoodUrl": null,
    "hotelAds": [],
    "openingHours": [],
    "peopleAlsoSearch": [],
    "placesTags": [],
    "reviewsTags": [],
    "additionalInfo": {
      "Service options": [
        {
          "Curbside pickup": true
        },
        {
          "Delivery": true
        },
        {
          "In-store pickup": true
        },
        {
          "In-store shopping": true
        },
        {
          "Same-day delivery": true
        }
      ],
      "Accessibility": [
        {
          "Wheelchair accessible entrance": true
        },
        {
          "Wheelchair accessible parking lot": true
        }
      ],
      "Payments": [
        {
          "Debit cards": true
        },
        {
          "NFC mobile payments": true
        },
        {
          "Credit cards": true
        }
      ]
    },
    "gasPrices": [],
    "url": "https://www.google.com/maps/search/?api=1&query=Ron's%20Apothecary%20Shoppe&query_place_id=ChIJpdkeh-LhAFQRx0-NtCa_EVQ",
    "searchPageUrl": "https://www.google.com/maps/search/independent%20pharmacy%20Fairbanks%20AK/@58.79025158634311,-133.54692821486086,9z?hl=en",
    "searchString": "independent pharmacy Fairbanks AK",
    "language": "en",
    "rank": 10,
    "isAdvertisement": false,
    "imageUrl": "https://lh3.googleusercontent.com/gps-cs-s/AC9h4no5TrWvvLmWaHt7OGzMbNiH9id2Y2S_gCVpv4XjTAYQgF52hiwuDuvfX2hH2-ZuK_tBsQ60v6aPyC3NRIvsdftFc1LBkLl7Pfox_33H1_zSwtvOiqduPY6by0-miSp2znx5ie10Xw=w408-h544-k-no",
    "kgmid": "/g/1ths90sv",
    "classification": "independent",
    "is_independent": true,
    "is_compounding": false,
    "confidence": 0.9,
    "source": "perplexity",
    "method": "llm",
    "query_location": "fairbanks_ak"
  },
  {
    "title": "Alaska Family Pharmacy",
    "price": null,
    "categoryName": "Pharmacy",
    "address": "167 S Santa Claus Ln, North Pole, AK 99705",
    "neighborhood": null,
    "street": "167 S Santa Claus Ln",
    "city": "North Pole",
    "postalCode": "99705",
    "state": "Alaska",
    "countryCode": "US",
    "website": "https://www.mygnp.com/pharmacies/north-pole-prescription-laboratory-north-pole-ak-99705/",
    "phone": "(907) 488-8555",
    "phoneUnformatted": "+19074888555",
    "claimThisBusiness": false,
    "location": {
      "lat": 64.7538738,
      "lng": -147.3538619
    },
    "totalScore": 4.8,
    "permanentlyClosed": false,
    "temporarilyClosed": false,
    "placeId": null,
    "categories": [
      "Pharmacy",
      "Drug store"
    ],
    "fid": "0x51324d5a897e54f3:0xaef4d3e27d36ad60",
    "cid": "12606934226633665888",
    "reviewsCount": 42,
    "imagesCount": 9,
    "imageCategories": [],
    "scrapedAt": "2025-06-22T07:00:51.098Z",
    "googleFoodUrl": null,
    "hotelAds": [],
    "openingHours": [
      {
        "day": "Monday",
        "hours": "10\u202fAM to 6\u202fPM"
      },
      {
        "day": "Tuesday",
        "hours": "10\u202fAM to 6\u202fPM"
      },
      {
        "day": "Wednesday",
        "hours": "10\u202fAM to 6\u202fPM"
      },
      {
        "day": "Thursday",
        "hours": "10\u202fAM to 6\u202fPM"
      },
      {
        "day": "Friday",
        "hours": "10\u202fAM to 6\u202fPM"
      },
      {
        "day": "Saturday",
        "hours": "Closed"
      },
      {
        "day": "Sunday",
        "hours": "Closed"
      }
    ],
    "peopleAlsoSearch": [],
    "placesTags": [],
    "reviewsTags": [],
    "additionalInfo": {
      "Service options": [
        {
          "Delivery": true
        },
        {
          "Drive-through": true
        },
        {
          "In-store pickup": true
        },
        {
          "Onsite services": true
        },
        {
          "English": true
        }
      ],
      "Accessibility": [
        {
          "Wheelchair accessible entrance": true
        },
        {
          "Wheelchair accessible parking lot": true
        }
      ],
      "Planning": [
        {
          "Quick visit": true
        }
      ],
      "Payments": [
        {
          "Checks": true
        },
        {
          "Credit cards": true
        },
        {
          "Debit cards": true
        },
        {
          "NFC mobile payments": true
        },
        {
          "Credit cards": true
        }
      ]
    },
    "gasPrices": [],
    "url": "https://www.google.com/maps/search/?api=1&query=Alaska%20Family%20Pharmacy&query_place_id=ChIJ81R-iVpNMlERYK02feLT9K4",
    "searchPageUrl": "https://www.google.com/maps/search/independent%20pharmacy%20Fairbanks%20AK/@65.04310121365691,-151.95971198567602,9z?hl=en",
    "searchString": "independent pharmacy Fairbanks AK",
    "language": "en",
    "rank": 10,
    "isAdvertisement": false,
    "imageUrl": "https://lh3.googleusercontent.com/p/AF1QipOTvpJna_VqfI_5AD8dW_84wH_f5CVBklPKBE8N=w408-h306-k-no",
    "kgmid": "/g/1tdp97wh",
    "classification": "independent",
    "is_independent": true,
    "is_compounding": false,
    "confidence": 0.9,
    "source": "perplexity",
    "method": "llm",
    "query_location": "fairbanks_ak"
  },
  {
    "title": "Fairbanks Memorial Hospital",
    "price": null,
    "categoryName": "Pharmacy",
    "address": "1650 Cowles St, Fairbanks, AK 99701",
    "neighborhood": null,
    "street": "1650 Cowles St",
    "city": "Fairbanks",
    "postalCode": "99701",
    "state": "Alaska",
    "countryCode": "US",
    "website": "https://www.foundationhealth.org/",
    "phone": "(907) 452-8181",
    "phoneUnformatted": "+19074528181",
    "claimThisBusiness": false,
    "location": {
      "lat": 64.8312788,
      "lng": -147.7386278
    },
    "locatedIn": "Fairbanks Memorial Hospital: Emergency Department",
    "totalScore": 2.8,
    "permanentlyClosed": false,
    "temporarilyClosed": false,
    "placeId": "ChIJu-6hMbRaMlERTj_13qMD150",
    "categories": [
      "Pharmacy",
      "Doctor",
      "General hospital",
      "Home health care service",
      "Neurologist",
      "Hospital"
    ],
    "fid": "0x51325ab431a1eebb:0x9dd703a3def53f4e",
    "cid": "11373563386302644046",
    "reviewsCount": 198,
    "reviewsDistribution": {
      "oneStar": 91,
      "twoStar": 12,
      "threeStar": 11,
      "fourStar": 11,
      "fiveStar": 73
    },
    "imagesCount": 29,
    "imageCategories": [],
    "scrapedAt": "2025-06-22T07:01:18.137Z",
    "googleFoodUrl": null,
    "hotelAds": [],
    "openingHours": [
      {
        "day": "Monday",
        "hours": "Open 24 hours"
      },
      {
        "day": "Tuesday",
        "hours": "Open 24 hours"
      },
      {
        "day": "Wednesday",
        "hours": "Open 24 hours"
      },
      {
        "day": "Thursday",
        "hours": "Open 24 hours"
      },
      {
        "day": "Friday",
        "hours": "Open 24 hours"
      },
      {
        "day": "Saturday",
        "hours": "Open 24 hours"
      },
      {
        "day": "Sunday",
        "hours": "Open 24 hours"
      }
    ],
    "additionalOpeningHours": {
      "Fairbanks Memorial Hospital: Emergency Department": [
        {
          "day": "Monday",
          "hours": "Open 24 hours"
        },
        {
          "day": "Tuesday",
          "hours": "Open 24 hours"
        },
        {
          "day": "Wednesday",
          "hours": "Open 24 hours"
        },
        {
          "day": "Thursday",
          "hours": "Open 24 hours"
        },
        {
          "day": "Friday",
          "hours": "Open 24 hours"
        },
        {
          "day": "Saturday",
          "hours": "Open 24 hours"
        },
        {
          "day": "Sunday",
          "hours": "Open 24 hours"
        }
      ]
    },
    "peopleAlsoSearch": [],
    "placesTags": [],
    "reviewsTags": [],
    "additionalInfo": {
      "Accessibility": [
        {
          "Wheelchair accessible entrance": true
        },
        {
          "Wheelchair accessible parking lot": true
        }
      ],
      "Payments": [
        {
          "Credit cards": true
        }
      ]
    },
    "gasPrices": [],
    "url": "https://www.google.com/maps/search/?api=1&query=Fairbanks%20Memorial%20Hospital&query_place_id=ChIJu-6hMbRaMlERTj_13qMD150",
    "searchPageUrl": "https://www.google.com/maps/search/independent%20pharmacy%20Fairbanks%20AK/@65.04310121365691,-146.20571705729628,9z?hl=en",
    "searchString": "independent pharmacy Fairbanks AK",
    "language": "en",
    "rank": 31,
    "isAdvertisement": false,
    "imageUrl": "https://lh3.googleusercontent.com/p/AF1QipOSyC-WPx5s7bBE2CjEWV6mkcr_Kxv277RevD1Q=w408-h271-k-no",
    "kgmid": "/g/11g_cgcl1",
    "classification": "hospital",
    "is_independent": false,
    "confidence": 1.0,
    "source": "rule-based"
  },
  {
    "title": "Chief Andrew Isaac Health Center",
    "price": null,
    "categoryName": "Pharmacy",
    "address": "1717 W Cowles St, Fairbanks, AK 99701",
    "neighborhood": null,
    "street": "1717 W Cowles St",
    "city": "Fairbanks",
    "postalCode": "99701",
    "state": "Alaska",
    "countryCode": "US",
    "website": "https://www.tananachiefs.org/services/health/chief-andrew-isaac-health-center/",
    "phone": "(907) 451-6682",
    "phoneUnformatted": "+19074516682",
    "claimThisBusiness": false,
    "location": {
      "lat": 64.8324751,
      "lng": -147.7452316
    },
    "totalScore": 3.9,
    "permanentlyClosed": false,
    "temporarilyClosed": false,
    "placeId": "ChIJa4njEbRaMlER4VyLmhkw2As",
    "categories": [
      "Pharmacy",
      "Medical clinic",
      "Surgical center"
    ],
    "fid": "0x51325ab411e3896b:0xbd830199a8b5ce1",
    "cid": "853485015911849185",
    "reviewsCount": 112,
    "reviewsDistribution": {
      "oneStar": 22,
      "twoStar": 4,
      "threeStar": 8,
      "fourStar": 12,
      "fiveStar": 66
    },
    "imagesCount": 25,
    "imageCategories": [],
    "scrapedAt": "2025-06-22T07:01:18.137Z",
    "googleFoodUrl": null,
    "hotelAds": [],
    "openingHours": [
      {
        "day": "Monday",
        "hours": "8:30\u202fAM to 5\u202fPM"
      },
      {
        "day": "Tuesday",
        "hours": "8:30\u202fAM to 5\u202fPM"
      },
      {
        "day": "Wednesday",
        "hours": "9:30\u202fAM to 5\u202fPM"
      },
      {
        "day": "Thursday",
        "hours": "8:30\u202fAM to 5\u202fPM"
      },
      {
        "day": "Friday",
        "hours": "8:30\u202fAM to 5\u202fPM"
      },
      {
        "day": "Saturday",
        "hours": "Closed"
      },
      {
        "day": "Sunday",
        "hours": "Closed"
      }
    ],
    "peopleAlsoSearch": [],
    "placesTags": [],
    "reviewsTags": [],
    "additionalInfo": {
      "Accessibility": [
        {
          "Wheelchair accessible entrance": true
        },
        {
          "Wheelchair accessible parking lot": true
        },
        {
          "Wheelchair accessible restroom": true
        }
      ],
      "Amenities": [
        {
          "Restroom": true
        }
      ],
      "Planning": [
        {
          "Appointments recommended": true
        }
      ],
      "Payments": [
        {
          "Credit cards": true
        }
      ]
    },
    "gasPrices": [],
    "url": "https://www.google.com/maps/search/?api=1&query=Chief%20Andrew%20Isaac%20Health%20Center&query_place_id=ChIJa4njEbRaMlER4VyLmhkw2As",
    "searchPageUrl": "https://www.google.com/maps/search/independent%20pharmacy%20Fairbanks%20AK/@65.04310121365691,-146.20571705729628,9z?hl=en",
    "searchString": "independent pharmacy Fairbanks AK",
    "language": "en",
    "rank": 33,
    "isAdvertisement": false,
    "imageUrl": "https://lh3.googleusercontent.com/p/AF1QipNXbUudYflXA9DfgZyOSn-vuKAfGmE19BxIzm0V=w408-h271-k-no",
    "kgmid": "/g/1hhxq0kth",
    "classification": "hospital",
    "is_independent": false,
    "confidence": 1.0,
    "source": "rule-based"
  },
  {
    "title": "Island Pharmacy Incorporated",
    "price": null,
    "categoryName": "Pharmacy",
    "address": "3526 Tongass Ave, Ketchikan, AK 99901",
    "neighborhood": null,
    "street": "3526 Tongass Ave",
    "city": "Ketchikan",
    "postalCode": "99901",
    "state": "Alaska",
    "countryCode": "US",
    "website": "http://www.islandpharmacyak.com/",
    "phone": "(907) 225-6186",
    "phoneUnformatted": "+19072256186",
    "claimThisBusiness": false,
    "location": {
      "lat": 55.3560196,
      "lng": -131.6924302
    },
    "totalScore": 4.6,
    "permanentlyClosed": false,
    "temporarilyClosed": false,
    "placeId": null,
    "categories": [
      "Pharmacy"
    ],
    "fid": "0x540c25b8c64d284f:0x692e17d4afd88928",
    "cid": "7579021425161832744",
    "reviewsCount": 22,
    "imagesCount": 4,
    "imageCategories": [],
    "scrapedAt": "2025-06-22T07:01:36.506Z",
    "googleFoodUrl": null,
    "hotelAds": [],
    "openingHours": [
      {
        "day": "Monday",
        "hours": "9\u202fAM to 5:30\u202fPM"
      },
      {
        "day": "Tuesday",
        "hours": "9\u202fAM to 5:30\u202fPM"
      },
      {
        "day": "Wednesday",
        "hours": "9\u202fAM to 5:30\u202fPM"
      },
      {
        "day": "Thursday",
        "hours": "9\u202fAM to 5:30\u202fPM"
      },
      {
        "day": "Friday",
        "hours": "9\u202fAM to 5:30\u202fPM"
      },
      {
        "day": "Saturday",
        "hours": "9\u202fAM to 12\u202fPM"
      },
      {
        "day": "Sunday",
        "hours": "Closed"
      }
    ],
    "peopleAlsoSearch": [],
    "placesTags": [],
    "reviewsTags": [],
    "additionalInfo": {
      "From the business": [
        {
          "Small business": true
        }
      ],
      "Service options": [
        {
          "In-store pickup": true
        },
        {
          "In-store shopping": true
        }
      ],
      "Accessibility": [
        {
          "Wheelchair accessible entrance": true
        },
        {
          "Wheelchair accessible parking lot": true
        },
        {
          "Wheelchair accessible seating": true
        }
      ],
      "Payments": [
        {
          "Checks": true
        },
        {
          "Credit cards": true
        },
        {
          "Debit cards": true
        },
        {
          "NFC mobile payments": true
        },
        {
          "Credit cards": true
        }
      ],
      "Parking": [
        {
          "Free parking lot": true
        }
      ]
    },
    "gasPrices": [],
    "url": "https://www.google.com/maps/search/?api=1&query=Island%20Pharmacy%20Incorporated&query_place_id=ChIJTyhNxrglDFQRKInYr9QXLmk",
    "searchPageUrl": "https://www.google.com/maps/search/independent%20pharmacy%20Fairbanks%20AK/@55.316446237835436,-131.24533024350896,9z?hl=en",
    "searchString": "independent pharmacy Fairbanks AK",
    "language": "en",
    "rank": 1,
    "isAdvertisement": false,
    "imageUrl": "https://lh3.googleusercontent.com/p/AF1QipMIkqXqIUS0pnBwel0UtF_7mC35P-pGISeybDFl=w408-h257-k-no",
    "kgmid": "/g/1tfrm077",
    "classification": "independent",
    "is_independent": true,
    "is_compounding": false,
    "confidence": 0.9,
    "source": "perplexity",
    "method": "llm",
    "query_location": "fairbanks_ak"
  },
  {
    "title": "Petersburg Rexall Drug",
    "price": null,
    "categoryName": "Pharmacy",
    "address": "215 N Nordic Dr, Petersburg, AK 99833",
    "neighborhood": null,
    "street": "215 N Nordic Dr",
    "city": "Petersburg",
    "postalCode": "99833",
    "state": "Alaska",
    "countryCode": "US",
    "website": "https://www.petersburgrexalldrug.com/",
    "phone": "(907) 772-3265",
    "phoneUnformatted": "+19077723265",
    "claimThisBusiness": false,
    "location": {
      "lat": 56.8128603,
      "lng": -132.9577762
    },
    "totalScore": 5,
    "permanentlyClosed": false,
    "temporarilyClosed": false,
    "placeId": null,
    "categories": [
      "Pharmacy"
    ],
    "fid": "0x5406038d6f8b20c1:0x869a21af7d130799",
    "cid": "9699101785097176985",
    "reviewsCount": 4,
    "imagesCount": 1,
    "imageCategories": [],
    "scrapedAt": "2025-06-22T07:01:43.802Z",
    "googleFoodUrl": null,
    "hotelAds": [],
    "openingHours": [
      {
        "day": "Monday",
        "hours": "9:30\u202fAM to 5:30\u202fPM"
      },
      {
        "day": "Tuesday",
        "hours": "9:30\u202fAM to 5:30\u202fPM"
      },
      {
        "day": "Wednesday",
        "hours": "9:30\u202fAM to 5:30\u202fPM"
      },
      {
        "day": "Thursday",
        "hours": "9:30\u202fAM to 5:30\u202fPM"
      },
      {
        "day": "Friday",
        "hours": "9:30\u202fAM to 5:30\u202fPM"
      },
      {
        "day": "Saturday",
        "hours": "9:30\u202fAM to 5\u202fPM"
      },
      {
        "day": "Sunday",
        "hours": "Closed"
      }
    ],
    "peopleAlsoSearch": [],
    "placesTags": [],
    "reviewsTags": [],
    "additionalInfo": {
      "From the business": [
        {
          "Small business": true
        }
      ],
      "Accessibility": [
        {
          "Wheelchair accessible parking lot": true
        }
      ],
      "Payments": [
        {
          "Debit cards": true
        },
        {
          "NFC mobile payments": true
        },
        {
          "Credit cards": true
        }
      ]
    },
    "gasPrices": [],
    "url": "https://www.google.com/maps/search/?api=1&query=Petersburg%20Rexall%20Drug&query_place_id=ChIJwSCLb40DBlQRmQcTfa8hmoY",
    "searchPageUrl": "https://www.google.com/maps/search/independent%20pharmacy%20Fairbanks%20AK/@56.705968377238506,-133.54692821486086,9z?hl=en",
    "searchString": "independent pharmacy Fairbanks AK",
    "language": "en",
    "rank": 1,
    "isAdvertisement": false,
    "imageUrl": "https://streetviewpixels-pa.googleapis.com/v1/thumbnail?panoid=yE1eRRyXRIyZ-i_7Cwx5Cw&cb_client=search.gws-prod.gps&w=408&h=240&yaw=261.1552&pitch=0&thumbfov=100",
    "kgmid": "/g/1tt1gxct",
    "classification": "independent",
    "is_independent": true,
    "is_compounding": false,
    "confidence": 0.9,
    "source": "perplexity",
    "method": "llm",
    "query_location": "fairbanks_ak"
  },
  {
    "title": "Stikine Drug",
    "price": null,
    "categoryName": "Pharmacy",
    "address": "202 Front St, Wrangell, AK 99929",
    "neighborhood": null,
    "street": "202 Front St",
    "city": "Wrangell",
    "postalCode": "99929",
    "state": "Alaska",
    "countryCode": "US",
    "website": "https://www.stikinedrug.com/",
    "phone": "(907) 874-3422",
    "phoneUnformatted": "+19078743422",
    "claimThisBusiness": false,
    "location": {
      "lat": 56.4716749,
      "lng": -132.3841176
    },
    "totalScore": 3.8,
    "permanentlyClosed": false,
    "temporarilyClosed": false,
    "placeId": null,
    "categories": [
      "Pharmacy"
    ],
    "fid": "0x5408ca36deda6b49:0xc0e29b2ec02a6a1e",
    "cid": "13898842025113578014",
    "reviewsCount": 10,
    "imagesCount": 6,
    "imageCategories": [],
    "scrapedAt": "2025-06-22T07:01:43.802Z",
    "googleFoodUrl": null,
    "hotelAds": [],
    "openingHours": [
      {
        "day": "Monday",
        "hours": "11\u202fAM to 5\u202fPM"
      },
      {
        "day": "Tuesday",
        "hours": "11\u202fAM to 5\u202fPM"
      },
      {
        "day": "Wednesday",
        "hours": "11\u202fAM to 5\u202fPM"
      },
      {
        "day": "Thursday",
        "hours": "11\u202fAM to 5\u202fPM"
      },
      {
        "day": "Friday",
        "hours": "11\u202fAM to 5\u202fPM"
      },
      {
        "day": "Saturday",
        "hours": "11\u202fAM to 4\u202fPM"
      },
      {
        "day": "Sunday",
        "hours": "Closed"
      }
    ],
    "peopleAlsoSearch": [],
    "placesTags": [],
    "reviewsTags": [],
    "additionalInfo": {
      "Accessibility": [
        {
          "Wheelchair accessible entrance": true
        },
        {
          "Wheelchair accessible parking lot": true
        }
      ],
      "Planning": [
        {
          "Quick visit": true
        }
      ],
      "Payments": [
        {
          "Credit cards": true
        },
        {
          "Debit cards": true
        },
        {
          "NFC mobile payments": true
        },
        {
          "Credit cards": true
        }
      ]
    },
    "gasPrices": [],
    "url": "https://www.google.com/maps/search/?api=1&query=Stikine%20Drug&query_place_id=ChIJSWva3jbKCFQRHmoqwC6b4sA",
    "searchPageUrl": "https://www.google.com/maps/search/independent%20pharmacy%20Fairbanks%20AK/@56.705968377238506,-133.54692821486086,9z?hl=en",
    "searchString": "independent pharmacy Fairbanks AK",
    "language": "en",
    "rank": 3,
    "isAdvertisement": false,
    "imageUrl": "https://lh3.googleusercontent.com/gps-cs-s/AC9h4nqlLsgoTNUJcy7WyT5xFT422oCKIXlAK8beSumC44Wq8LOliNtoAoTSv7Jg5SpDJ8_RWksMz3-pKv9QUBRbBXVRzCAbVYEgAJxR-PHMoZI6h_oSXuMEggEY4omMEnuihM6m28dGgQ=w408-h306-k-no",
    "kgmid": "/g/1txy209h",
    "classification": "independent",
    "is_independent": true,
    "is_compounding": false,
    "confidence": 0.9,
    "source": "perplexity",
    "method": "llm",
    "query_location": "fairbanks_ak"
  }
]