[
  {
    "title": "Midtown Pharmacy",
    "price": null,
    "categoryName": "Pharmacy",
    "address": "2152 Airport Blvd, Mobile, AL 36606",
    "neighborhood": "Carlen",
    "street": "2152 Airport Blvd",
    "city": "Mobile",
    "postalCode": "36606",
    "state": "Alabama",
    "countryCode": "US",
    "website": "http://www.midtownpharmacyrx.com/",
    "phone": "(251) 479-2424",
    "phoneUnformatted": "+12514792424",
    "claimThisBusiness": false,
    "location": {
      "lat": 30.6766422,
      "lng": -88.0920908
    },
    "totalScore": 4.9,
    "permanentlyClosed": false,
    "temporarilyClosed": false,
    "placeId": null,
    "categories": [
      "Pharmacy"
    ],
    "fid": "0x889a4de05ce8e88b:0x4e47589b2ec003c2",
    "cid": "5640574481832346562",
    "reviewsCount": 56,
    "imagesCount": 12,
    "imageCategories": [],
    "scrapedAt": "2025-06-22T04:08:33.505Z",
    "googleFoodUrl": null,
    "hotelAds": [],
    "openingHours": [
      {
        "day": "Monday",
        "hours": "9\u202fAM to 6\u202fPM"
      },
      {
        "day": "Tuesday",
        "hours": "9\u202fAM to 6\u202fPM"
      },
      {
        "day": "Wednesday",
        "hours": "9\u202fAM to 6\u202fPM"
      },
      {
        "day": "Thursday",
        "hours": "9\u202fAM to 6\u202fPM"
      },
      {
        "day": "Friday",
        "hours": "9\u202fAM to 6\u202fPM"
      },
      {
        "day": "Saturday",
        "hours": "9\u202fAM to 1\u202fPM"
      },
      {
        "day": "Sunday",
        "hours": "Closed"
      }
    ],
    "peopleAlsoSearch": [],
    "placesTags": [],
    "reviewsTags": [],
    "additionalInfo": {
      "Service options": [
        {
          "Delivery": true
        },
        {
          "In-store pickup": true
        },
        {
          "Same-day delivery": true
        }
      ],
      "Accessibility": [
        {
          "Wheelchair accessible entrance": true
        },
        {
          "Wheelchair accessible parking lot": true
        }
      ],
      "Planning": [
        {
          "Quick visit": true
        }
      ],
      "Payments": [
        {
          "Credit cards": true
        },
        {
          "Debit cards": true
        },
        {
          "NFC mobile payments": true
        },
        {
          "Credit cards": true
        }
      ]
    },
    "gasPrices": [],
    "url": "https://www.google.com/maps/search/?api=1&query=Midtown%20Pharmacy&query_place_id=ChIJi-joXOBNmogRwgPALptYR04",
    "searchPageUrl": "https://www.google.com/maps/search/independent%20pharmacy%20Mobile%20AL/@62.264056934850785,-143.9041190859444,9z?hl=en",
    "searchString": "independent pharmacy Mobile AL",
    "language": "en",
    "rank": 1,
    "isAdvertisement": false,
    "imageUrl": "https://lh3.googleusercontent.com/gps-cs-s/AC9h4no1-zqFp-_5hpHFBj60_YrgaLddEdg75-cgge_QSYyJcYLaqZk8o4JbeKWV7mVZoeUlrMxj4MAdYwpbP2ILLF-QI0cupDv2WZSJSBeqgvZXt06TTQiY2KQIBaHfHV6Ewc0RKk2h8w=w408-h544-k-no",
    "kgmid": "/g/1tlqqs3v",
    "classification": "independent",
    "is_independent": true,
    "is_compounding": false,
    "confidence": 0.9,
    "source": "perplexity",
    "method": "llm"
  },
  {
    "title": "Pharmacy Services of Mobile, LLC",
    "price": null,
    "categoryName": "Pharmacy",
    "address": "6001 Grelot Rd, Mobile, AL 36609",
    "neighborhood": "Claremont",
    "street": "6001 Grelot Rd",
    "city": "Mobile",
    "postalCode": "36609",
    "state": "Alabama",
    "countryCode": "US",
    "website": "https://www.rxofmobile.com/",
    "phone": "(251) 338-0519",
    "phoneUnformatted": "+12513380519",
    "claimThisBusiness": false,
    "location": {
      "lat": 30.6608486,
      "lng": -88.1816135
    },
    "totalScore": 5,
    "permanentlyClosed": false,
    "temporarilyClosed": false,
    "placeId": null,
    "categories": [
      "Pharmacy",
      "Adult day care center",
      "Assisted living facility",
      "Home health care service",
      "Nursing home"
    ],
    "fid": "0x889a4daa4775dfed:0x904760f424d4d4d6",
    "cid": "10396384866514293974",
    "reviewsCount": 3,
    "imagesCount": 3,
    "imageCategories": [],
    "scrapedAt": "2025-06-22T04:08:33.506Z",
    "googleFoodUrl": null,
    "hotelAds": [],
    "openingHours": [
      {
        "day": "Monday",
        "hours": "8:30\u202fAM to 5\u202fPM"
      },
      {
        "day": "Tuesday",
        "hours": "8:30\u202fAM to 5\u202fPM"
      },
      {
        "day": "Wednesday",
        "hours": "8:30\u202fAM to 5\u202fPM"
      },
      {
        "day": "Thursday",
        "hours": "8:30\u202fAM to 5\u202fPM"
      },
      {
        "day": "Friday",
        "hours": "8:30\u202fAM to 5\u202fPM"
      },
      {
        "day": "Saturday",
        "hours": "Closed"
      },
      {
        "day": "Sunday",
        "hours": "Closed"
      }
    ],
    "peopleAlsoSearch": [],
    "placesTags": [],
    "reviewsTags": [],
    "additionalInfo": {
      "From the business": [
        {
          "Small business": true
        }
      ],
      "Service options": [
        {
          "Delivery": true
        }
      ],
      "Accessibility": [
        {
          "Wheelchair accessible entrance": true
        },
        {
          "Wheelchair accessible parking lot": true
        }
      ],
      "Payments": [
        {
          "Credit cards": true
        }
      ]
    },
    "gasPrices": [],
    "url": "https://www.google.com/maps/search/?api=1&query=Pharmacy%20Services%20of%20Mobile%2C%20LLC&query_place_id=ChIJ7d91R6pNmogR1tTUJPRgR5A",
    "searchPageUrl": "https://www.google.com/maps/search/independent%20pharmacy%20Mobile%20AL/@62.264056934850785,-143.9041190859444,9z?hl=en",
    "searchString": "independent pharmacy Mobile AL",
    "language": "en",
    "rank": 2,
    "isAdvertisement": false,
    "imageUrl": "https://lh3.googleusercontent.com/gps-cs-s/AC9h4nroJbkmpRP-S3OGjWaDFBLeOWxCfNgJAay_INrz1K6jiaMhKqKyTwv8kpGvpi84wsL52uFvfyrT5BffP5UD8B4KByGZVjPDxQNPhf5YymqvtMdeBmb1VhJyyZgAAbFpKSlXO5I=w411-h240-k-no",
    "kgmid": "/g/11bc6z528_",
    "classification": "independent",
    "is_independent": true,
    "is_compounding": false,
    "confidence": 0.9,
    "source": "perplexity",
    "method": "llm"
  },
  {
    "title": "Christopher Pharmacy",
    "price": null,
    "categoryName": "Pharmacy",
    "address": "1300 Schillinger Rd S, Mobile, AL 36695",
    "neighborhood": "Kimberline",
    "street": "1300 Schillinger Rd S",
    "city": "Mobile",
    "postalCode": "36695",
    "state": "Alabama",
    "countryCode": "US",
    "website": "http://christopherpharmacy.com/",
    "phone": "(251) 288-4612",
    "phoneUnformatted": "+12512884612",
    "claimThisBusiness": false,
    "location": {
      "lat": 30.6637927,
      "lng": -88.225987
    },
    "totalScore": 4.8,
    "permanentlyClosed": false,
    "temporarilyClosed": false,
    "placeId": null,
    "categories": [
      "Pharmacy"
    ],
    "fid": "0x889bb26abc072597:0x545f1635af019823",
    "cid": "6079602441798653987",
    "reviewsCount": 33,
    "imagesCount": 2,
    "imageCategories": [],
    "scrapedAt": "2025-06-22T04:08:33.506Z",
    "googleFoodUrl": null,
    "hotelAds": [],
    "openingHours": [
      {
        "day": "Monday",
        "hours": "9\u202fAM to 6\u202fPM"
      },
      {
        "day": "Tuesday",
        "hours": "9\u202fAM to 6\u202fPM"
      },
      {
        "day": "Wednesday",
        "hours": "9\u202fAM to 6\u202fPM"
      },
      {
        "day": "Thursday",
        "hours": "9\u202fAM to 6\u202fPM"
      },
      {
        "day": "Friday",
        "hours": "9\u202fAM to 2\u202fPM"
      },
      {
        "day": "Saturday",
        "hours": "Closed"
      },
      {
        "day": "Sunday",
        "hours": "Closed"
      }
    ],
    "peopleAlsoSearch": [],
    "placesTags": [],
    "reviewsTags": [],
    "additionalInfo": {
      "From the business": [
        {
          "Small business": true
        }
      ],
      "Service options": [
        {
          "Delivery": true
        },
        {
          "In-store pickup": true
        },
        {
          "Same-day delivery": true
        }
      ],
      "Accessibility": [
        {
          "Wheelchair accessible entrance": true
        },
        {
          "Wheelchair accessible parking lot": true
        }
      ],
      "Planning": [
        {
          "Quick visit": true
        }
      ],
      "Payments": [
        {
          "Credit cards": true
        },
        {
          "Debit cards": true
        },
        {
          "NFC mobile payments": true
        },
        {
          "Credit cards": true
        }
      ]
    },
    "gasPrices": [],
    "url": "https://www.google.com/maps/search/?api=1&query=Christopher%20Pharmacy&query_place_id=ChIJlyUHvGqym4gRI5gBrzUWX1Q",
    "searchPageUrl": "https://www.google.com/maps/search/independent%20pharmacy%20Mobile%20AL/@62.264056934850785,-143.9041190859444,9z?hl=en",
    "searchString": "independent pharmacy Mobile AL",
    "language": "en",
    "rank": 3,
    "isAdvertisement": false,
    "imageUrl": "https://lh3.googleusercontent.com/gps-cs-s/AC9h4nrh-3Sl8MDCrtwNdmZyX-FsFqGOOo7X0eW6DANDwA6IVmAWvUwkKf-EDJ0JebdMs4AG35qzRxYQVh4NwPpNsOX6tlt4RhQA7YxjYb4LyFVEiRB02fIuoC4SFPzhodQAY9ym0QsE=w426-h240-k-no",
    "kgmid": "/g/1jkvsy9xc",
    "classification": "independent",
    "is_independent": true,
    "is_compounding": false,
    "confidence": 0.9,
    "source": "perplexity",
    "method": "llm"
  },
  {
    "title": "Three Notch Pharmacy",
    "price": null,
    "categoryName": "Pharmacy",
    "address": "7700 Three Notch Rd, Mobile, AL 36619",
    "neighborhood": "Travis",
    "street": "7700 Three Notch Rd",
    "city": "Mobile",
    "postalCode": "36619",
    "state": "Alabama",
    "countryCode": "US",
    "website": "http://www.threenotchpharmacyal.com/",
    "phone": "(251) 661-0066",
    "phoneUnformatted": "+12516610066",
    "claimThisBusiness": false,
    "location": {
      "lat": 30.5893825,
      "lng": -88.222263
    },
    "totalScore": 4.9,
    "permanentlyClosed": false,
    "temporarilyClosed": false,
    "placeId": null,
    "categories": [
      "Pharmacy"
    ],
    "fid": "0x889bb46f6865583d:0x6b2cf44189d396f0",
    "cid": "7722816023355954928",
    "reviewsCount": 45,
    "imagesCount": 7,
    "imageCategories": [],
    "scrapedAt": "2025-06-22T04:08:33.506Z",
    "googleFoodUrl": null,
    "hotelAds": [],
    "openingHours": [
      {
        "day": "Monday",
        "hours": "8\u202fAM to 6\u202fPM"
      },
      {
        "day": "Tuesday",
        "hours": "8\u202fAM to 6\u202fPM"
      },
      {
        "day": "Wednesday",
        "hours": "8\u202fAM to 6\u202fPM"
      },
      {
        "day": "Thursday",
        "hours": "8\u202fAM to 6\u202fPM"
      },
      {
        "day": "Friday",
        "hours": "8\u202fAM to 6\u202fPM"
      },
      {
        "day": "Saturday",
        "hours": "8\u202fAM to 1\u202fPM"
      },
      {
        "day": "Sunday",
        "hours": "Closed"
      }
    ],
    "peopleAlsoSearch": [],
    "placesTags": [],
    "reviewsTags": [],
    "additionalInfo": {
      "From the business": [
        {
          "Small business": true
        }
      ],
      "Service options": [
        {
          "Drive-through": true
        },
        {
          "In-store pickup": true
        },
        {
          "In-store shopping": true
        }
      ],
      "Accessibility": [
        {
          "Wheelchair accessible entrance": true
        },
        {
          "Wheelchair accessible parking lot": true
        }
      ],
      "Planning": [
        {
          "Quick visit": true
        }
      ],
      "Payments": [
        {
          "Checks": true
        },
        {
          "Credit cards": true
        },
        {
          "Debit cards": true
        },
        {
          "NFC mobile payments": true
        },
        {
          "Credit cards": true
        }
      ]
    },
    "gasPrices": [],
    "url": "https://www.google.com/maps/search/?api=1&query=Three%20Notch%20Pharmacy&query_place_id=ChIJPVhlaG-0m4gR8JbTiUH0LGs",
    "searchPageUrl": "https://www.google.com/maps/search/independent%20pharmacy%20Mobile%20AL/@62.264056934850785,-143.9041190859444,9z?hl=en",
    "searchString": "independent pharmacy Mobile AL",
    "language": "en",
    "rank": 4,
    "isAdvertisement": false,
    "imageUrl": "https://lh3.googleusercontent.com/p/AF1QipPbdWqtcSoE-1fsaM29ci_LuhhsPYgJB79nAris=w408-h291-k-no",
    "kgmid": "/g/1hc1bh299",
    "classification": "independent",
    "is_independent": true,
    "is_compounding": false,
    "confidence": 0.9,
    "source": "perplexity",
    "method": "llm"
  },
  {
    "title": "Dawes Pointe Pharmacy, LLC",
    "price": null,
    "categoryName": "Pharmacy",
    "address": "8650 Cottage Hill Rd #101, Mobile, AL 36695",
    "neighborhood": null,
    "street": "8650 Cottage Hill Rd #101",
    "city": "Mobile",
    "postalCode": "36695",
    "state": "Alabama",
    "countryCode": "US",
    "website": "http://www.dawespointepharmacy.com/",
    "phone": "(251) 607-9800",
    "phoneUnformatted": "+12516079800",
    "claimThisBusiness": false,
    "location": {
      "lat": 30.6406024,
      "lng": -88.24485
    },
    "totalScore": 4.6,
    "permanentlyClosed": false,
    "temporarilyClosed": false,
    "placeId": null,
    "categories": [
      "Pharmacy"
    ],
    "fid": "0x889bb3d867cd85a5:0x1f1da285f44051e7",
    "cid": "2242126885712581095",
    "reviewsCount": 46,
    "imagesCount": 4,
    "imageCategories": [],
    "scrapedAt": "2025-06-22T04:08:33.506Z",
    "googleFoodUrl": null,
    "hotelAds": [],
    "openingHours": [
      {
        "day": "Monday",
        "hours": "9\u202fAM to 7\u202fPM"
      },
      {
        "day": "Tuesday",
        "hours": "9\u202fAM to 7\u202fPM"
      },
      {
        "day": "Wednesday",
        "hours": "9\u202fAM to 7\u202fPM"
      },
      {
        "day": "Thursday",
        "hours": "9\u202fAM to 7\u202fPM"
      },
      {
        "day": "Friday",
        "hours": "9\u202fAM to 7\u202fPM"
      },
      {
        "day": "Saturday",
        "hours": "9\u202fAM to 1\u202fPM"
      },
      {
        "day": "Sunday",
        "hours": "Closed"
      }
    ],
    "peopleAlsoSearch": [],
    "placesTags": [],
    "reviewsTags": [],
    "additionalInfo": {
      "From the business": [
        {
          "Small business": true
        }
      ],
      "Service options": [
        {
          "Drive-through": true
        },
        {
          "In-store pickup": true
        },
        {
          "In-store shopping": true
        },
        {
          "Onsite services": true
        }
      ],
      "Accessibility": [
        {
          "Wheelchair accessible entrance": true
        },
        {
          "Wheelchair accessible parking lot": true
        }
      ],
      "Planning": [
        {
          "Quick visit": true
        }
      ],
      "Payments": [
        {
          "Credit cards": true
        },
        {
          "Debit cards": true
        },
        {
          "NFC mobile payments": true
        },
        {
          "Credit cards": true
        }
      ]
    },
    "gasPrices": [],
    "url": "https://www.google.com/maps/search/?api=1&query=Dawes%20Pointe%20Pharmacy%2C%20LLC&query_place_id=ChIJpYXNZ9izm4gR51FA9IWiHR8",
    "searchPageUrl": "https://www.google.com/maps/search/independent%20pharmacy%20Mobile%20AL/@62.264056934850785,-143.9041190859444,9z?hl=en",
    "searchString": "independent pharmacy Mobile AL",
    "language": "en",
    "rank": 5,
    "isAdvertisement": false,
    "imageUrl": "https://lh3.googleusercontent.com/p/AF1QipPjWGBe5hNy3K_j_shFCDknTxWtdMVJPiYWQDUG=w408-h265-k-no",
    "kgmid": "/g/11b777lpdc",
    "classification": "independent",
    "is_independent": true,
    "is_compounding": false,
    "confidence": 0.9,
    "source": "perplexity",
    "method": "llm"
  },
  {
    "title": "Ladas Pharmacy",
    "price": null,
    "categoryName": "Pharmacy",
    "address": "1050 S Broad St, Mobile, AL 36603",
    "neighborhood": "Baltimore",
    "street": "1050 S Broad St",
    "city": "Mobile",
    "postalCode": "36603",
    "state": "Alabama",
    "countryCode": "US",
    "phone": "(251) 432-5601",
    "phoneUnformatted": "+12514325601",
    "claimThisBusiness": false,
    "location": {
      "lat": 30.6652547,
      "lng": -88.0561621
    },
    "totalScore": 4.3,
    "permanentlyClosed": false,
    "temporarilyClosed": false,
    "placeId": null,
    "categories": [
      "Pharmacy"
    ],
    "fid": "0x889a4e4e79f04d27:0x8fc037c18115e0f7",
    "cid": "10358340447186051319",
    "reviewsCount": 18,
    "imagesCount": 1,
    "imageCategories": [],
    "scrapedAt": "2025-06-22T04:08:34.764Z",
    "googleFoodUrl": null,
    "hotelAds": [],
    "openingHours": [
      {
        "day": "Monday",
        "hours": "8\u202fAM to 8\u202fPM"
      },
      {
        "day": "Tuesday",
        "hours": "8\u202fAM to 8\u202fPM"
      },
      {
        "day": "Wednesday",
        "hours": "8\u202fAM to 8\u202fPM"
      },
      {
        "day": "Thursday",
        "hours": "8\u202fAM to 8\u202fPM"
      },
      {
        "day": "Friday",
        "hours": "8\u202fAM to 8\u202fPM"
      },
      {
        "day": "Saturday",
        "hours": "8\u202fAM to 8\u202fPM"
      },
      {
        "day": "Sunday",
        "hours": "Closed"
      }
    ],
    "peopleAlsoSearch": [],
    "placesTags": [],
    "reviewsTags": [],
    "additionalInfo": {
      "From the business": [
        {
          "Small business": true
        }
      ],
      "Accessibility": [
        {
          "Wheelchair accessible entrance": true
        },
        {
          "Wheelchair accessible parking lot": true
        }
      ],
      "Planning": [
        {
          "Quick visit": true
        }
      ],
      "Payments": [
        {
          "Credit cards": true
        },
        {
          "SNAP/EBT": true
        }
      ]
    },
    "gasPrices": [],
    "url": "https://www.google.com/maps/search/?api=1&query=Ladas%20Pharmacy&query_place_id=ChIJJ03weU5OmogR9-AVgcE3wI8",
    "searchPageUrl": "https://www.google.com/maps/search/independent%20pharmacy%20Mobile%20AL/@25.832780861981217,-171.66271071761585,13z?hl=en",
    "searchString": "independent pharmacy Mobile AL",
    "language": "en",
    "rank": 2,
    "isAdvertisement": false,
    "imageUrl": "https://streetviewpixels-pa.googleapis.com/v1/thumbnail?panoid=r6K1MGEbEN6MjcS1xi_jJw&cb_client=search.gws-prod.gps&w=408&h=240&yaw=133.63966&pitch=0&thumbfov=100",
    "kgmid": "/g/1tdd60_0",
    "classification": "independent",
    "is_independent": true,
    "is_compounding": false,
    "confidence": 0.85,
    "source": "perplexity",
    "method": "llm"
  },
  {
    "title": "Royal Pharmacy",
    "price": null,
    "categoryName": "Pharmacy",
    "address": "1 S Royal St, Mobile, AL 36602",
    "neighborhood": "Central Business District",
    "street": "1 S Royal St",
    "city": "Mobile",
    "postalCode": "36602",
    "state": "Alabama",
    "countryCode": "US",
    "phone": "(251) 277-8990",
    "phoneUnformatted": "+12512778990",
    "claimThisBusiness": false,
    "location": {
      "lat": 30.692185,
      "lng": -88.0406872
    },
    "totalScore": 4.7,
    "permanentlyClosed": false,
    "temporarilyClosed": false,
    "placeId": null,
    "categories": [
      "Pharmacy"
    ],
    "fid": "0x889a4f6407a9f195:0xa9ed456946830b90",
    "cid": "12244519280347122576",
    "reviewsCount": 24,
    "imagesCount": 20,
    "imageCategories": [],
    "scrapedAt": "2025-06-22T04:08:34.857Z",
    "googleFoodUrl": null,
    "hotelAds": [],
    "openingHours": [
      {
        "day": "Monday",
        "hours": "7:30\u202fAM to 5:30\u202fPM"
      },
      {
        "day": "Tuesday",
        "hours": "7:30\u202fAM to 5:30\u202fPM"
      },
      {
        "day": "Wednesday",
        "hours": "7:30\u202fAM to 5:30\u202fPM"
      },
      {
        "day": "Thursday",
        "hours": "7:30\u202fAM to 5:30\u202fPM"
      },
      {
        "day": "Friday",
        "hours": "7:30\u202fAM to 5:30\u202fPM"
      },
      {
        "day": "Saturday",
        "hours": "Closed"
      },
      {
        "day": "Sunday",
        "hours": "Closed"
      }
    ],
    "peopleAlsoSearch": [],
    "placesTags": [],
    "reviewsTags": [],
    "additionalInfo": {
      "From the business": [
        {
          "Small business": true
        }
      ],
      "Service options": [
        {
          "Delivery": true
        },
        {
          "In-store pickup": true
        }
      ],
      "Accessibility": [
        {
          "Wheelchair accessible entrance": true
        },
        {
          "Wheelchair accessible parking lot": true
        }
      ],
      "Payments": [
        {
          "Credit cards": true
        },
        {
          "Debit cards": true
        },
        {
          "NFC mobile payments": true
        },
        {
          "Credit cards": true
        }
      ]
    },
    "gasPrices": [],
    "url": "https://www.google.com/maps/search/?api=1&query=Royal%20Pharmacy&query_place_id=ChIJlfGpB2RPmogRkAuDRmlF7ak",
    "searchPageUrl": "https://www.google.com/maps/search/independent%20pharmacy%20Mobile%20AL/@-14.744829373456247,-168.22432190257456,13z?hl=en",
    "searchString": "independent pharmacy Mobile AL",
    "language": "en",
    "rank": 5,
    "isAdvertisement": false,
    "imageUrl": "https://lh3.googleusercontent.com/gps-cs-s/AC9h4noaHztncL61jzDs6HRY4F7nyNP__yoHQSJG_G6f_l7m4x-eI9vzqIS8Gq3h7lLz_YJxPIeelhDLEhQJWzWivzmhAfeWwPz9jzGQFu44VSRcmYjAm0iLgWaxxAux5ao3wnMFpwyx=w408-h544-k-no",
    "kgmid": "/g/11g3bf1bt4",
    "classification": "independent",
    "is_independent": true,
    "is_compounding": false,
    "confidence": 0.85,
    "source": "perplexity",
    "method": "llm"
  },
  {
    "title": "Next Step Specialty Pharmacy",
    "price": null,
    "categoryName": "Pharmacy",
    "address": "550 St Michael St, Mobile, AL 36602, United States",
    "neighborhood": "Central Business District",
    "street": "550 St Michael St",
    "city": "Mobile",
    "postalCode": "36602",
    "state": "Alabama",
    "countryCode": "US",
    "website": "http://www.nssprx.com/",
    "phone": "+1 833-855-1769",
    "phoneUnformatted": "+18338551769",
    "claimThisBusiness": false,
    "location": {
      "lat": 30.6911659,
      "lng": -88.0498282
    },
    "totalScore": 5,
    "permanentlyClosed": false,
    "temporarilyClosed": false,
    "placeId": null,
    "categories": [
      "Pharmacy"
    ],
    "fid": "0x889a4f041f6c1183:0x2fbedfd5e78630bd",
    "cid": "3440433275162996925",
    "reviewsCount": 1,
    "imagesCount": 3,
    "imageCategories": [],
    "scrapedAt": "2025-06-22T04:08:42.450Z",
    "googleFoodUrl": null,
    "hotelAds": [],
    "openingHours": [
      {
        "day": "Monday",
        "hours": "8\u202fAM to 5\u202fPM"
      },
      {
        "day": "Tuesday",
        "hours": "8\u202fAM to 5\u202fPM"
      },
      {
        "day": "Wednesday",
        "hours": "8\u202fAM to 5\u202fPM"
      },
      {
        "day": "Thursday",
        "hours": "8\u202fAM to 5\u202fPM"
      },
      {
        "day": "Friday",
        "hours": "8\u202fAM to 5\u202fPM"
      },
      {
        "day": "Saturday",
        "hours": "Closed"
      },
      {
        "day": "Sunday",
        "hours": "Closed"
      }
    ],
    "peopleAlsoSearch": [],
    "placesTags": [],
    "reviewsTags": [],
    "additionalInfo": {
      "From the business": [
        {
          "Small Business": true
        }
      ],
      "Accessibility": [
        {
          "Wheelchair-accessible car park": true
        },
        {
          "Wheelchair-accessible entrance": true
        }
      ]
    },
    "gasPrices": [],
    "url": "https://www.google.com/maps/search/?api=1&query=Next%20Step%20Specialty%20Pharmacy&query_place_id=ChIJgxFsHwRPmogRvTCG59Xfvi8",
    "searchPageUrl": "https://www.google.com/maps/search/independent%20pharmacy%20Mobile%20AL/@21.560804138972333,-160.19165145685741,12z?hl=en",
    "searchString": "independent pharmacy Mobile AL",
    "language": "en",
    "rank": 5,
    "isAdvertisement": false,
    "imageUrl": "https://lh3.googleusercontent.com/p/AF1QipMy2tzad3zQQNXtjoz6jEcnNVBXK6Z5_VslC_Vq=w408-h544-k-no",
    "kgmid": "/g/11ss5h947x",
    "classification": "independent",
    "is_independent": true,
    "is_compounding": false,
    "confidence": 0.85,
    "source": "perplexity",
    "method": "llm"
  },
  {
    "title": "Lorenz Raymond",
    "price": null,
    "categoryName": "Pharmacy",
    "address": "2400 Gordon Smith Dr, Mobile, AL 36617",
    "neighborhood": "Greenmound",
    "street": "2400 Gordon Smith Dr",
    "city": "Mobile",
    "postalCode": "36617",
    "state": "Alabama",
    "countryCode": "US",
    "phone": "(251) 450-1388",
    "phoneUnformatted": "+12514501388",
    "claimThisBusiness": true,
    "location": {
      "lat": 30.7057031,
      "lng": -88.0967052
    },
    "permanentlyClosed": false,
    "temporarilyClosed": false,
    "placeId": null,
    "categories": [
      "Pharmacy"
    ],
    "fid": "0x889a52040faf796b:0x26183e99746e5db7",
    "cid": "2745012801686625719",
    "reviewsCount": 0,
    "imagesCount": 1,
    "imageCategories": [],
    "scrapedAt": "2025-06-22T04:08:54.132Z",
    "googleFoodUrl": null,
    "hotelAds": [],
    "openingHours": [],
    "peopleAlsoSearch": [],
    "placesTags": [],
    "reviewsTags": [],
    "additionalInfo": {
      "Accessibility": [
        {
          "Wheelchair accessible entrance": true
        },
        {
          "Wheelchair accessible parking lot": true
        }
      ],
      "Payments": [
        {
          "Credit cards": true
        }
      ]
    },
    "gasPrices": [],
    "url": "https://www.google.com/maps/search/?api=1&query=Lorenz%20Raymond&query_place_id=ChIJa3mvDwRSmogRt11udJk-GCY",
    "searchPageUrl": "https://www.google.com/maps/search/independent%20pharmacy%20Mobile%20AL/@52.48183889042627,-173.06656398612373,11z?hl=en",
    "searchString": "independent pharmacy Mobile AL",
    "language": "en",
    "rank": 3,
    "isAdvertisement": false,
    "imageUrl": "https://streetviewpixels-pa.googleapis.com/v1/thumbnail?panoid=RiAw6wCx9ARZc4PVNb22bQ&cb_client=search.gws-prod.gps&w=408&h=240&yaw=1.4255753&pitch=0&thumbfov=100",
    "kgmid": "/g/1w6665wg",
    "classification": "independent",
    "is_independent": true,
    "is_compounding": false,
    "confidence": 0.85,
    "source": "perplexity",
    "method": "llm"
  },
  {
    "title": "Walgreens",
    "description": "Drugstore chain with health & beauty aids, prescriptions & photo services, plus mini-mart basics.",
    "price": "$$",
    "categoryName": "Drug store",
    "address": "3948 Airport Blvd, Mobile, AL 36608",
    "neighborhood": "Llanfair",
    "street": "3948 Airport Blvd",
    "city": "Mobile",
    "postalCode": "36608",
    "state": "Alabama",
    "countryCode": "US",
    "website": "https://www.walgreens.com/locator/walgreens-3948+airport+blvd-mobile-al-36608/id=1777",
    "phone": "(251) 345-3394",
    "phoneUnformatted": "+12513453394",
    "claimThisBusiness": false,
    "location": {
      "lat": 30.6765413,
      "lng": -88.1479333
    },
    "locatedIn": "Walgreens Pharmacy",
    "totalScore": 2,
    "permanentlyClosed": false,
    "temporarilyClosed": false,
    "placeId": "ChIJeZgasGpNmogRXoiQp7Uo4s4",
    "categories": [
      "Drug store",
      "Beauty supply store",
      "Convenience store",
      "Cosmetics store",
      "Greeting card shop",
      "Perfume store",
      "Stationery store"
    ],
    "fid": "0x889a4d6ab01a9879:0xcee228b5a790885e",
    "cid": "14907522477215221854",
    "reviewsCount": 173,
    "imagesCount": 14,
    "imageCategories": [],
    "scrapedAt": "2025-06-22T04:08:54.132Z",
    "googleFoodUrl": null,
    "hotelAds": [],
    "openingHours": [
      {
        "day": "Monday",
        "hours": "Open 24 hours"
      },
      {
        "day": "Tuesday",
        "hours": "Open 24 hours"
      },
      {
        "day": "Wednesday",
        "hours": "Open 24 hours"
      },
      {
        "day": "Thursday",
        "hours": "Open 24 hours"
      },
      {
        "day": "Friday",
        "hours": "Open 24 hours"
      },
      {
        "day": "Saturday",
        "hours": "Open 24 hours"
      },
      {
        "day": "Sunday",
        "hours": "Open 24 hours"
      }
    ],
    "additionalOpeningHours": {
      "Walgreens Pharmacy": [
        {
          "day": "Monday",
          "hours": "2\u202fAM\u20131:30\u202fPM"
        },
        {
          "day": "Tuesday",
          "hours": "2\u202fAM\u20131:30\u202fPM"
        },
        {
          "day": "Wednesday",
          "hours": "2\u202fAM\u20131:30\u202fPM"
        },
        {
          "day": "Thursday",
          "hours": "2\u202fAM\u20131:30\u202fPM"
        },
        {
          "day": "Friday",
          "hours": "2\u202fAM\u20131:30\u202fPM"
        },
        {
          "day": "Saturday",
          "hours": "2\u202fAM\u20131:30\u202fPM"
        },
        {
          "day": "Sunday",
          "hours": "2\u202fAM\u20131:30\u202fPM"
        }
      ],
      "Walgreens Photo": [
        {
          "day": "Monday",
          "hours": "Open 24 hours"
        },
        {
          "day": "Tuesday",
          "hours": "Open 24 hours"
        },
        {
          "day": "Wednesday",
          "hours": "Open 24 hours"
        },
        {
          "day": "Thursday",
          "hours": "Open 24 hours"
        },
        {
          "day": "Friday",
          "hours": "Open 24 hours"
        },
        {
          "day": "Saturday",
          "hours": "Open 24 hours"
        },
        {
          "day": "Sunday",
          "hours": "Open 24 hours"
        }
      ],
      "Pickup": [
        {
          "day": "Monday",
          "hours": "Open 24 hours"
        },
        {
          "day": "Tuesday",
          "hours": "Open 24 hours"
        },
        {
          "day": "Wednesday",
          "hours": "Open 24 hours"
        },
        {
          "day": "Thursday",
          "hours": "Open 24 hours"
        },
        {
          "day": "Friday",
          "hours": "Open 24 hours"
        },
        {
          "day": "Saturday",
          "hours": "Open 24 hours"
        },
        {
          "day": "Sunday",
          "hours": "Open 24 hours"
        }
      ]
    },
    "peopleAlsoSearch": [],
    "placesTags": [],
    "reviewsTags": [],
    "additionalInfo": {
      "Service options": [
        {
          "Curbside pickup": true
        },
        {
          "Delivery": true
        },
        {
          "Drive-through": true
        },
        {
          "In-store pickup": true
        },
        {
          "Onsite services": true
        }
      ],
      "Accessibility": [
        {
          "Wheelchair accessible entrance": true
        },
        {
          "Wheelchair accessible parking lot": true
        }
      ],
      "Offerings": [
        {
          "Passport photos": true
        }
      ],
      "Planning": [
        {
          "Quick visit": true
        }
      ],
      "Payments": [
        {
          "Checks": true
        },
        {
          "Credit cards": true
        },
        {
          "Debit cards": true
        },
        {
          "NFC mobile payments": true
        },
        {
          "SNAP/EBT": true
        },
        {
          "Credit cards": true
        }
      ]
    },
    "gasPrices": [],
    "url": "https://www.google.com/maps/search/?api=1&query=Walgreens&query_place_id=ChIJeZgasGpNmogRXoiQp7Uo4s4",
    "searchPageUrl": "https://www.google.com/maps/search/independent%20pharmacy%20Mobile%20AL/@52.48183889042627,-173.06656398612373,11z?hl=en",
    "searchString": "independent pharmacy Mobile AL",
    "language": "en",
    "rank": 7,
    "isAdvertisement": false,
    "imageUrl": "https://lh3.googleusercontent.com/gps-cs-s/AC9h4notRFQ0er8yVSBlltogYABYseGNR_OBrqRwCMWRxwP1A1aRoeQSsoBKNmryzFRWAYTQqISpVo0Ei8alOJ8e6J5KuADvVUPFyZwV2cuD6GJfDi_PRvJNzXtTEk6QaXekrTnNN6MG=w471-h240-k-no",
    "kgmid": "/g/1tf1pm70",
    "classification": "chain",
    "is_independent": false,
    "confidence": 1.0,
    "source": "rule-based"
  }
]