[
  {
    "title": "Friendly Pharmacy",
    "price": null,
    "categoryName": "Pharmacy",
    "address": "3712 Lawndale Dr, Greensboro, NC 27455",
    "neighborhood": null,
    "street": "3712 Lawndale Dr",
    "city": "Greensboro",
    "postalCode": "27455",
    "state": "North Carolina",
    "countryCode": "US",
    "website": "http://www.friendlypharm.com/",
    "phone": "(336) 790-7343",
    "phoneUnformatted": "+13367907343",
    "claimThisBusiness": false,
    "location": {
      "lat": 36.119356,
      "lng": -79.8290972
    },
    "totalScore": 4.9,
    "permanentlyClosed": false,
    "temporarilyClosed": false,
    "placeId": null,
    "categories": [
      "Pharmacy"
    ],
    "fid": "0x88531e9d9f00f7a3:0x91d4c028106c9bf0",
    "cid": "10508235108868987888",
    "reviewsCount": 57,
    "imagesCount": 9,
    "imageCategories": [],
    "scrapedAt": "2025-06-22T06:17:01.201Z",
    "googleFoodUrl": null,
    "hotelAds": [],
    "openingHours": [
      {
        "day": "Monday",
        "hours": "8:30\u202fAM to 6:30\u202fPM"
      },
      {
        "day": "Tuesday",
        "hours": "8:30\u202fAM to 6:30\u202fPM"
      },
      {
        "day": "Wednesday",
        "hours": "8:30\u202fAM to 6:30\u202fPM"
      },
      {
        "day": "Thursday",
        "hours": "8:30\u202fAM to 6:30\u202fPM"
      },
      {
        "day": "Friday",
        "hours": "8:30\u202fAM to 6:30\u202fPM"
      },
      {
        "day": "Saturday",
        "hours": "9\u202fAM to 2\u202fPM"
      },
      {
        "day": "Sunday",
        "hours": "Closed"
      }
    ],
    "peopleAlsoSearch": [],
    "placesTags": [],
    "reviewsTags": [],
    "additionalInfo": {
      "From the business": [
        {
          "Small business": true
        }
      ],
      "Service options": [
        {
          "Curbside pickup": true
        },
        {
          "Delivery": true
        },
        {
          "In-store pickup": true
        },
        {
          "In-store shopping": true
        },
        {
          "Same-day delivery": true
        }
      ],
      "Accessibility": [
        {
          "Wheelchair accessible entrance": true
        },
        {
          "Wheelchair accessible parking lot": true
        }
      ],
      "Planning": [
        {
          "Quick visit": true
        }
      ],
      "Payments": [
        {
          "Checks": true
        },
        {
          "Credit cards": true
        },
        {
          "Debit cards": true
        },
        {
          "NFC mobile payments": true
        },
        {
          "Credit cards": true
        }
      ]
    },
    "gasPrices": [],
    "url": "https://www.google.com/maps/search/?api=1&query=Friendly%20Pharmacy&query_place_id=ChIJo_cAn50eU4gR8JtsECjA1JE",
    "searchPageUrl": "https://www.google.com/maps/search/independent%20pharmacy%20Greensboro%20NC/@52.05066962470323,-179.97595653707245,14z?hl=en",
    "searchString": "independent pharmacy Greensboro NC",
    "language": "en",
    "rank": 1,
    "isAdvertisement": false,
    "imageUrl": "https://lh3.googleusercontent.com/p/AF1QipNhZxmhjXWtLedgGj1RdNeKTx3JK4jKMWzgWjxZ=w408-h273-k-no",
    "kgmid": "/g/11b7p__9jm",
    "classification": "independent",
    "is_independent": true,
    "is_compounding": false,
    "confidence": 0.9,
    "source": "perplexity",
    "method": "llm"
  },
  {
    "title": "Gate City Pharmacy",
    "price": null,
    "categoryName": "Pharmacy",
    "address": "803 Friendly Center Rd C, Greensboro, NC 27408",
    "neighborhood": null,
    "street": "803 Friendly Center Rd C",
    "city": "Greensboro",
    "postalCode": "27408",
    "state": "North Carolina",
    "countryCode": "US",
    "website": "http://www.gatecitypharmacy.com/",
    "phone": "(336) 292-6888",
    "phoneUnformatted": "+13362926888",
    "claimThisBusiness": false,
    "location": {
      "lat": 36.08688,
      "lng": -79.830829
    },
    "totalScore": 4.5,
    "permanentlyClosed": false,
    "temporarilyClosed": false,
    "placeId": null,
    "categories": [
      "Pharmacy"
    ],
    "fid": "0x88531bfe2224798b:0x8c5ab5f38da09c28",
    "cid": "10113595970871663656",
    "reviewsCount": 78,
    "imagesCount": 6,
    "imageCategories": [],
    "scrapedAt": "2025-06-22T06:17:01.202Z",
    "googleFoodUrl": null,
    "hotelAds": [],
    "openingHours": [
      {
        "day": "Monday",
        "hours": "8\u202fAM to 7\u202fPM"
      },
      {
        "day": "Tuesday",
        "hours": "8\u202fAM to 7\u202fPM"
      },
      {
        "day": "Wednesday",
        "hours": "8\u202fAM to 7\u202fPM"
      },
      {
        "day": "Thursday",
        "hours": "8\u202fAM to 7\u202fPM"
      },
      {
        "day": "Friday",
        "hours": "8\u202fAM to 7\u202fPM"
      },
      {
        "day": "Saturday",
        "hours": "9\u202fAM to 6\u202fPM"
      },
      {
        "day": "Sunday",
        "hours": "1 to 6\u202fPM"
      }
    ],
    "peopleAlsoSearch": [],
    "placesTags": [],
    "reviewsTags": [],
    "additionalInfo": {
      "From the business": [
        {
          "Small business": true
        }
      ],
      "Service options": [
        {
          "Delivery": true
        },
        {
          "In-store pickup": true
        },
        {
          "Same-day delivery": true
        }
      ],
      "Accessibility": [
        {
          "Wheelchair accessible entrance": true
        },
        {
          "Wheelchair accessible parking lot": true
        }
      ],
      "Offerings": [
        {
          "Medication disposal": true
        }
      ],
      "Planning": [
        {
          "Quick visit": true
        }
      ],
      "Payments": [
        {
          "Credit cards": true
        },
        {
          "Debit cards": true
        },
        {
          "NFC mobile payments": true
        },
        {
          "Credit cards": true
        }
      ]
    },
    "gasPrices": [],
    "url": "https://www.google.com/maps/search/?api=1&query=Gate%20City%20Pharmacy&query_place_id=ChIJi3kkIv4bU4gRKJygjfO1Wow",
    "searchPageUrl": "https://www.google.com/maps/search/independent%20pharmacy%20Greensboro%20NC/@52.05066962470323,-179.97595653707245,14z?hl=en",
    "searchString": "independent pharmacy Greensboro NC",
    "language": "en",
    "rank": 2,
    "isAdvertisement": false,
    "imageUrl": "https://lh3.googleusercontent.com/p/AF1QipMX6NVSvg5n3A8bnkI6Nn9fTytftDSRE9FvvsHK=w413-h240-k-no",
    "kgmid": "/g/1tdfjcwn",
    "classification": "independent",
    "is_independent": true,
    "is_compounding": false,
    "confidence": 0.9,
    "source": "perplexity",
    "method": "llm"
  },
  {
    "title": "Adler Pharmacy",
    "price": null,
    "categoryName": "Pharmacy",
    "address": "3806 N Church St A, Greensboro, NC 27405",
    "neighborhood": null,
    "street": "3806 N Church St A",
    "city": "Greensboro",
    "postalCode": "27405",
    "state": "North Carolina",
    "countryCode": "US",
    "website": "http://www.adlerpharmacy.com/",
    "phone": "(336) 897-3810",
    "phoneUnformatted": "+13368973810",
    "claimThisBusiness": false,
    "location": {
      "lat": 36.13334,
      "lng": -79.7889729
    },
    "totalScore": 4.5,
    "permanentlyClosed": false,
    "temporarilyClosed": false,
    "placeId": null,
    "categories": [
      "Pharmacy"
    ],
    "fid": "0x88531e5482e626fb:0xd9f2f3cd64aeeff7",
    "cid": "15704882914077372407",
    "reviewsCount": 34,
    "imagesCount": 6,
    "imageCategories": [],
    "scrapedAt": "2025-06-22T06:17:01.202Z",
    "googleFoodUrl": null,
    "hotelAds": [],
    "openingHours": [
      {
        "day": "Monday",
        "hours": "9\u202fAM to 6\u202fPM"
      },
      {
        "day": "Tuesday",
        "hours": "9\u202fAM to 6\u202fPM"
      },
      {
        "day": "Wednesday",
        "hours": "9\u202fAM to 6\u202fPM"
      },
      {
        "day": "Thursday",
        "hours": "9\u202fAM to 6\u202fPM"
      },
      {
        "day": "Friday",
        "hours": "9\u202fAM to 6\u202fPM"
      },
      {
        "day": "Saturday",
        "hours": "9\u202fAM to 1\u202fPM"
      },
      {
        "day": "Sunday",
        "hours": "Closed"
      }
    ],
    "peopleAlsoSearch": [],
    "placesTags": [],
    "reviewsTags": [],
    "additionalInfo": {
      "From the business": [
        {
          "Small business": true
        }
      ],
      "Service options": [
        {
          "Delivery": true
        },
        {
          "In-store pickup": true
        },
        {
          "In-store shopping": true
        },
        {
          "Same-day delivery": true
        }
      ],
      "Accessibility": [
        {
          "Wheelchair accessible entrance": true
        },
        {
          "Wheelchair accessible parking lot": true
        }
      ],
      "Planning": [
        {
          "Quick visit": true
        }
      ],
      "Payments": [
        {
          "Credit cards": true
        },
        {
          "Debit cards": true
        },
        {
          "NFC mobile payments": true
        },
        {
          "Credit cards": true
        }
      ]
    },
    "gasPrices": [],
    "url": "https://www.google.com/maps/search/?api=1&query=Adler%20Pharmacy&query_place_id=ChIJ-ybmglQeU4gR9--uZM3z8tk",
    "searchPageUrl": "https://www.google.com/maps/search/independent%20pharmacy%20Greensboro%20NC/@52.05066962470323,-179.97595653707245,14z?hl=en",
    "searchString": "independent pharmacy Greensboro NC",
    "language": "en",
    "rank": 3,
    "isAdvertisement": false,
    "imageUrl": "https://lh3.googleusercontent.com/p/AF1QipNHSFYw8lndF1QIdFxm9yJV4KT6RVuC3OsPDStj=w408-h306-k-no",
    "kgmid": "/g/11bx5q4qv2",
    "classification": "independent",
    "is_independent": true,
    "is_compounding": false,
    "confidence": 0.9,
    "source": "perplexity",
    "method": "llm"
  },
  {
    "title": "Ebers Pharmacy",
    "price": null,
    "categoryName": "Pharmacy",
    "address": "1500 Pinecroft Rd Suite 213, Greensboro, NC 27407",
    "neighborhood": null,
    "street": "1500 Pinecroft Rd Suite 213",
    "city": "Greensboro",
    "postalCode": "27407",
    "state": "North Carolina",
    "countryCode": "US",
    "website": "https://www.eberspharmacy.com/",
    "phone": "(336) 510-6635",
    "phoneUnformatted": "+13365106635",
    "claimThisBusiness": false,
    "location": {
      "lat": 36.0491466,
      "lng": -79.8446414
    },
    "totalScore": 5,
    "permanentlyClosed": false,
    "temporarilyClosed": false,
    "placeId": null,
    "categories": [
      "Pharmacy"
    ],
    "fid": "0x88531bfa2f7308bd:0xe13c077cee0b9a66",
    "cid": "16229855390287501926",
    "reviewsCount": 106,
    "imagesCount": 4,
    "imageCategories": [],
    "scrapedAt": "2025-06-22T06:17:01.202Z",
    "googleFoodUrl": null,
    "hotelAds": [],
    "openingHours": [
      {
        "day": "Monday",
        "hours": "9\u202fAM to 5\u202fPM"
      },
      {
        "day": "Tuesday",
        "hours": "9\u202fAM to 5\u202fPM"
      },
      {
        "day": "Wednesday",
        "hours": "9\u202fAM to 5\u202fPM"
      },
      {
        "day": "Thursday",
        "hours": "9\u202fAM to 5\u202fPM"
      },
      {
        "day": "Friday",
        "hours": "9\u202fAM to 5\u202fPM"
      },
      {
        "day": "Saturday",
        "hours": "Closed"
      },
      {
        "day": "Sunday",
        "hours": "Closed"
      }
    ],
    "additionalOpeningHours": {
      "Delivery": [
        {
          "day": "Monday",
          "hours": "9\u202fAM\u20135\u202fPM"
        },
        {
          "day": "Tuesday",
          "hours": "9\u202fAM\u20135\u202fPM"
        },
        {
          "day": "Wednesday",
          "hours": "9\u202fAM\u20135\u202fPM"
        },
        {
          "day": "Thursday",
          "hours": "9\u202fAM\u20135\u202fPM"
        },
        {
          "day": "Friday",
          "hours": "9\u202fAM\u20135\u202fPM"
        },
        {
          "day": "Saturday",
          "hours": "Closed"
        },
        {
          "day": "Sunday",
          "hours": "Closed"
        }
      ]
    },
    "peopleAlsoSearch": [],
    "placesTags": [],
    "reviewsTags": [],
    "additionalInfo": {
      "From the business": [
        {
          "Small business": true
        }
      ],
      "Service options": [
        {
          "Curbside pickup": true
        },
        {
          "Delivery": true
        },
        {
          "In-store pickup": true
        },
        {
          "Same-day delivery": true
        },
        {
          "Arabic": true
        }
      ],
      "Accessibility": [
        {
          "Wheelchair accessible entrance": true
        },
        {
          "Wheelchair accessible parking lot": true
        },
        {
          "Wheelchair accessible restroom": true
        },
        {
          "Wheelchair accessible seating": true
        }
      ],
      "Crowd": [
        {
          "LGBTQ+ friendly": true
        },
        {
          "Transgender safespace": true
        }
      ],
      "Payments": [
        {
          "Cash-only": true
        },
        {
          "Checks": true
        },
        {
          "Credit cards": true
        },
        {
          "Debit cards": true
        },
        {
          "NFC mobile payments": true
        },
        {
          "Credit cards": true
        }
      ],
      "Parking": [
        {
          "Free parking lot": true
        }
      ]
    },
    "gasPrices": [],
    "url": "https://www.google.com/maps/search/?api=1&query=Ebers%20Pharmacy&query_place_id=ChIJvQhzL_obU4gRZpoL7nwHPOE",
    "searchPageUrl": "https://www.google.com/maps/search/independent%20pharmacy%20Greensboro%20NC/@52.05066962470323,-179.97595653707245,14z?hl=en",
    "searchString": "independent pharmacy Greensboro NC",
    "language": "en",
    "rank": 4,
    "isAdvertisement": false,
    "imageUrl": "https://lh3.googleusercontent.com/p/AF1QipPUM5yhaOnL1OV-42rDBOHr0WzwGYenHPKxb6C7=w408-h305-k-no",
    "kgmid": "/g/11y3r30k7p",
    "classification": "independent",
    "is_independent": true,
    "is_compounding": false,
    "confidence": 0.9,
    "source": "perplexity",
    "method": "llm"
  },
  {
    "title": "SUMMIT PHARMACY & SURGICAL SUPPLY",
    "price": null,
    "categoryName": "Pharmacy",
    "address": "930 Summit Ave, Greensboro, NC 27405",
    "neighborhood": null,
    "street": "930 Summit Ave",
    "city": "Greensboro",
    "postalCode": "27405",
    "state": "North Carolina",
    "countryCode": "US",
    "website": "http://www.summitpharmacyss.com/",
    "phone": "(336) 763-7282",
    "phoneUnformatted": "+13367637282",
    "claimThisBusiness": true,
    "location": {
      "lat": 36.0841811,
      "lng": -79.7763134
    },
    "totalScore": 4.9,
    "permanentlyClosed": false,
    "temporarilyClosed": false,
    "placeId": null,
    "categories": [
      "Pharmacy"
    ],
    "fid": "0x885318d2dfbbd2c7:0xf613415390079939",
    "cid": "17731587985042282809",
    "reviewsCount": 37,
    "imagesCount": 13,
    "imageCategories": [],
    "scrapedAt": "2025-06-22T06:17:01.203Z",
    "googleFoodUrl": null,
    "hotelAds": [],
    "openingHours": [
      {
        "day": "Monday",
        "hours": "9\u202fAM to 6\u202fPM"
      },
      {
        "day": "Tuesday",
        "hours": "9\u202fAM to 6\u202fPM"
      },
      {
        "day": "Wednesday",
        "hours": "9\u202fAM to 6\u202fPM"
      },
      {
        "day": "Thursday",
        "hours": "9\u202fAM to 6\u202fPM"
      },
      {
        "day": "Friday",
        "hours": "9\u202fAM to 6\u202fPM"
      },
      {
        "day": "Saturday",
        "hours": "10\u202fAM to 1\u202fPM"
      },
      {
        "day": "Sunday",
        "hours": "Closed"
      }
    ],
    "peopleAlsoSearch": [],
    "placesTags": [],
    "reviewsTags": [],
    "additionalInfo": {
      "Service options": [
        {
          "Delivery": true
        },
        {
          "In-store pickup": true
        },
        {
          "Same-day delivery": true
        }
      ],
      "Accessibility": [
        {
          "Wheelchair accessible entrance": true
        },
        {
          "Wheelchair accessible parking lot": true
        }
      ],
      "Planning": [
        {
          "Quick visit": true
        }
      ],
      "Payments": [
        {
          "Credit cards": true
        },
        {
          "Debit cards": true
        },
        {
          "Credit cards": true
        }
      ]
    },
    "gasPrices": [],
    "url": "https://www.google.com/maps/search/?api=1&query=SUMMIT%20PHARMACY%20%26%20SURGICAL%20SUPPLY&query_place_id=ChIJx9K739IYU4gROZkHkFNBE_Y",
    "searchPageUrl": "https://www.google.com/maps/search/independent%20pharmacy%20Greensboro%20NC/@52.05066962470323,-179.97595653707245,14z?hl=en",
    "searchString": "independent pharmacy Greensboro NC",
    "language": "en",
    "rank": 5,
    "isAdvertisement": false,
    "imageUrl": "https://lh3.googleusercontent.com/gps-cs-s/AC9h4nobSYKXuC412uZUgbG49IY41Er_fQv-sj9TxELdsF1L-eO81bJ07ks9pRs2DpukeghXyBDvOVT0_4zTZ265mqAEeTzLjvQgDozFij7RStlPabt79fa_V-F-UQX0bQjK4EDei_VZiw=w408-h725-k-no",
    "kgmid": "/g/11fzb12v3p",
    "classification": "independent",
    "is_independent": true,
    "is_compounding": false,
    "confidence": 0.85,
    "source": "perplexity",
    "method": "llm"
  },
  {
    "title": "My Pharmacy",
    "price": null,
    "categoryName": "Pharmacy",
    "address": "2525 A Phillips Ave, Greensboro, NC 27405",
    "neighborhood": "Woodbriar Estates",
    "street": "2525 A Phillips Ave",
    "city": "Greensboro",
    "postalCode": "27405",
    "state": "North Carolina",
    "countryCode": "US",
    "website": "http://mypharmacync.com/",
    "phone": "(336) 900-6555",
    "phoneUnformatted": "+13369006555",
    "claimThisBusiness": false,
    "location": {
      "lat": 36.0962715,
      "lng": -79.7437117
    },
    "totalScore": 4.7,
    "permanentlyClosed": false,
    "temporarilyClosed": false,
    "placeId": null,
    "categories": [
      "Pharmacy",
      "Drug store"
    ],
    "fid": "0x88531fe5fb50aabd:0xf868e7225aa2c5ea",
    "cid": "17899810853719557610",
    "reviewsCount": 23,
    "imagesCount": 117,
    "imageCategories": [],
    "scrapedAt": "2025-06-22T06:17:01.203Z",
    "googleFoodUrl": null,
    "hotelAds": [],
    "openingHours": [
      {
        "day": "Monday",
        "hours": "10\u202fAM to 5\u202fPM"
      },
      {
        "day": "Tuesday",
        "hours": "10\u202fAM to 5\u202fPM"
      },
      {
        "day": "Wednesday",
        "hours": "10\u202fAM to 5\u202fPM"
      },
      {
        "day": "Thursday",
        "hours": "10\u202fAM to 5\u202fPM"
      },
      {
        "day": "Friday",
        "hours": "10\u202fAM to 5\u202fPM"
      },
      {
        "day": "Saturday",
        "hours": "Closed"
      },
      {
        "day": "Sunday",
        "hours": "Closed"
      }
    ],
    "additionalOpeningHours": {
      "Delivery": [
        {
          "day": "Monday",
          "hours": "10\u202fAM\u20135\u202fPM"
        },
        {
          "day": "Tuesday",
          "hours": "10\u202fAM\u20135\u202fPM"
        },
        {
          "day": "Wednesday",
          "hours": "10\u202fAM\u20135\u202fPM"
        },
        {
          "day": "Thursday",
          "hours": "10\u202fAM\u20135\u202fPM"
        },
        {
          "day": "Friday",
          "hours": "10\u202fAM\u20135\u202fPM"
        },
        {
          "day": "Saturday",
          "hours": "Closed"
        },
        {
          "day": "Sunday",
          "hours": "Closed"
        }
      ],
      "Pickup": [
        {
          "day": "Monday",
          "hours": "10\u202fAM\u20135\u202fPM"
        },
        {
          "day": "Tuesday",
          "hours": "10\u202fAM\u20135\u202fPM"
        },
        {
          "day": "Wednesday",
          "hours": "10\u202fAM\u20135\u202fPM"
        },
        {
          "day": "Thursday",
          "hours": "10\u202fAM\u20135\u202fPM"
        },
        {
          "day": "Friday",
          "hours": "10\u202fAM\u20135\u202fPM"
        },
        {
          "day": "Saturday",
          "hours": "Closed"
        },
        {
          "day": "Sunday",
          "hours": "Closed"
        }
      ]
    },
    "peopleAlsoSearch": [],
    "placesTags": [],
    "reviewsTags": [],
    "additionalInfo": {
      "From the business": [
        {
          "Small business": true
        }
      ],
      "Service options": [
        {
          "Curbside pickup": true
        },
        {
          "Delivery": true
        },
        {
          "In-store pickup": true
        },
        {
          "In-store shopping": true
        },
        {
          "Onsite services": true
        },
        {
          "Same-day delivery": true
        }
      ],
      "Accessibility": [
        {
          "Wheelchair accessible entrance": true
        },
        {
          "Wheelchair accessible parking lot": true
        }
      ],
      "Planning": [
        {
          "Quick visit": true
        }
      ],
      "Payments": [
        {
          "Credit cards": true
        },
        {
          "Debit cards": true
        },
        {
          "NFC mobile payments": true
        },
        {
          "Credit cards": true
        }
      ]
    },
    "gasPrices": [],
    "url": "https://www.google.com/maps/search/?api=1&query=My%20Pharmacy&query_place_id=ChIJvapQ--UfU4gR6sWiWiLnaPg",
    "searchPageUrl": "https://www.google.com/maps/search/independent%20pharmacy%20Greensboro%20NC/@52.05066962470323,-179.97595653707245,14z?hl=en",
    "searchString": "independent pharmacy Greensboro NC",
    "language": "en",
    "rank": 6,
    "isAdvertisement": false,
    "imageUrl": "https://lh3.googleusercontent.com/gps-cs-s/AC9h4nrR2apsnRWWjmP0wEUn8Z_oT6E4PxxhYpxp_loBWPIhLWfepE-0SUshzzerCPJTjBbe5ncdV0QLpk7pQPendvM9oFFfpym93tfSbuX_DB71ToErlqf_t4_kcJgIvvhnr78AW2c=w408-h306-k-no",
    "kgmid": "/g/11q3r26cv4",
    "classification": "independent",
    "is_independent": true,
    "is_compounding": false,
    "confidence": 0.9,
    "source": "perplexity",
    "method": "llm"
  },
  {
    "title": "Brown-Gardiner Drug",
    "price": null,
    "categoryName": "Pharmacy",
    "address": "2101 N Elm St, Greensboro, NC 27408",
    "neighborhood": "Old Irving Park",
    "street": "2101 N Elm St",
    "city": "Greensboro",
    "postalCode": "27408",
    "state": "North Carolina",
    "countryCode": "US",
    "website": "http://browngardiner.com/tag/news",
    "phone": "(336) 273-0596",
    "phoneUnformatted": "+13362730596",
    "claimThisBusiness": true,
    "location": {
      "lat": 36.1018624,
      "lng": -79.7882256
    },
    "totalScore": 4.8,
    "permanentlyClosed": false,
    "temporarilyClosed": false,
    "placeId": null,
    "categories": [
      "Pharmacy"
    ],
    "fid": "0x88531ed925648c09:0x3530c403afd50d7",
    "cid": "239548675187888343",
    "reviewsCount": 12,
    "imagesCount": 1,
    "imageCategories": [],
    "scrapedAt": "2025-06-22T06:17:01.203Z",
    "googleFoodUrl": null,
    "hotelAds": [],
    "openingHours": [],
    "peopleAlsoSearch": [],
    "placesTags": [],
    "reviewsTags": [],
    "additionalInfo": {
      "Accessibility": [
        {
          "Wheelchair accessible entrance": true
        },
        {
          "Wheelchair accessible parking lot": true
        }
      ],
      "Planning": [
        {
          "Quick visit": true
        }
      ],
      "Payments": [
        {
          "Credit cards": true
        },
        {
          "Debit cards": true
        },
        {
          "NFC mobile payments": true
        },
        {
          "Credit cards": true
        }
      ]
    },
    "gasPrices": [],
    "url": "https://www.google.com/maps/search/?api=1&query=Brown-Gardiner%20Drug&query_place_id=ChIJCYxkJdkeU4gR11D9OkAMUwM",
    "searchPageUrl": "https://www.google.com/maps/search/independent%20pharmacy%20Greensboro%20NC/@52.05066962470323,-179.97595653707245,14z?hl=en",
    "searchString": "independent pharmacy Greensboro NC",
    "language": "en",
    "rank": 7,
    "isAdvertisement": false,
    "imageUrl": "https://streetviewpixels-pa.googleapis.com/v1/thumbnail?panoid=2xJRSo6yn7EXcIm3MHMrng&cb_client=search.gws-prod.gps&w=408&h=240&yaw=265.84286&pitch=0&thumbfov=100",
    "kgmid": "/g/1thw2vr4",
    "classification": "independent",
    "is_independent": true,
    "is_compounding": false,
    "confidence": 0.9,
    "source": "perplexity",
    "method": "llm"
  },
  {
    "title": "Custom Care Pharmacy",
    "price": null,
    "categoryName": "Pharmacy",
    "address": "109 Pisgah Church Rd #2515, Greensboro, NC 27455",
    "neighborhood": null,
    "street": "109 Pisgah Church Rd #2515",
    "city": "Greensboro",
    "postalCode": "27455",
    "state": "North Carolina",
    "countryCode": "US",
    "website": "http://www.ccpcompounding.com/",
    "phone": "(336) 286-0074",
    "phoneUnformatted": "+13362860074",
    "claimThisBusiness": false,
    "location": {
      "lat": 36.1329819,
      "lng": -79.7911165
    },
    "totalScore": 4.5,
    "permanentlyClosed": false,
    "temporarilyClosed": false,
    "placeId": null,
    "categories": [
      "Pharmacy"
    ],
    "fid": "0x88531e56913d9115:0xedba51e969a5f64d",
    "cid": "17130094195598816845",
    "reviewsCount": 50,
    "imagesCount": 5,
    "imageCategories": [],
    "scrapedAt": "2025-06-22T06:17:01.203Z",
    "googleFoodUrl": null,
    "hotelAds": [],
    "openingHours": [
      {
        "day": "Monday",
        "hours": "9\u202fAM to 7\u202fPM"
      },
      {
        "day": "Tuesday",
        "hours": "9\u202fAM to 7\u202fPM"
      },
      {
        "day": "Wednesday",
        "hours": "9\u202fAM to 7\u202fPM"
      },
      {
        "day": "Thursday",
        "hours": "9\u202fAM to 7\u202fPM"
      },
      {
        "day": "Friday",
        "hours": "9\u202fAM to 7\u202fPM"
      },
      {
        "day": "Saturday",
        "hours": "10\u202fAM to 3\u202fPM"
      },
      {
        "day": "Sunday",
        "hours": "Closed"
      }
    ],
    "peopleAlsoSearch": [],
    "placesTags": [],
    "reviewsTags": [],
    "additionalInfo": {
      "From the business": [
        {
          "Small business": true
        }
      ],
      "Service options": [
        {
          "Delivery": true
        },
        {
          "Same-day delivery": true
        }
      ],
      "Accessibility": [
        {
          "Wheelchair accessible entrance": true
        },
        {
          "Wheelchair accessible parking lot": true
        }
      ],
      "Payments": [
        {
          "Credit cards": true
        },
        {
          "Debit cards": true
        },
        {
          "NFC mobile payments": true
        },
        {
          "Credit cards": true
        }
      ]
    },
    "gasPrices": [],
    "url": "https://www.google.com/maps/search/?api=1&query=Custom%20Care%20Pharmacy&query_place_id=ChIJFZE9kVYeU4gRTfalaelRuu0",
    "searchPageUrl": "https://www.google.com/maps/search/independent%20pharmacy%20Greensboro%20NC/@52.05066962470323,-179.97595653707245,14z?hl=en",
    "searchString": "independent pharmacy Greensboro NC",
    "language": "en",
    "rank": 8,
    "isAdvertisement": false,
    "imageUrl": "https://lh3.googleusercontent.com/p/AF1QipNxxVhMRR-ID9Qt4GyJEBXgH9mAP_efNyhiHgq5=w408-h306-k-no",
    "kgmid": "/g/1vntklgq",
    "classification": "independent",
    "is_independent": true,
    "is_compounding": true,
    "confidence": 0.95,
    "source": "perplexity",
    "method": "llm"
  },
  {
    "title": "Genoa Healthcare",
    "price": null,
    "categoryName": "Pharmacy",
    "address": "3200 Northline Ave Suite 132, Room 102, Greensboro, NC 27408",
    "neighborhood": null,
    "street": "3200 Northline Ave Suite 132, Room 102",
    "city": "Greensboro",
    "postalCode": "27408",
    "state": "North Carolina",
    "countryCode": "US",
    "website": "http://www.genoahealthcare.com/",
    "phone": "(336) 398-3997",
    "phoneUnformatted": "+13363983997",
    "claimThisBusiness": false,
    "location": {
      "lat": 36.0882694,
      "lng": -79.8338569
    },
    "totalScore": 4.8,
    "permanentlyClosed": false,
    "temporarilyClosed": false,
    "placeId": null,
    "categories": [
      "Pharmacy"
    ],
    "fid": "0x885319774bfef923:0xb1b1076ef35ec263",
    "cid": "12804023388701901411",
    "reviewsCount": 20,
    "imagesCount": 13,
    "imageCategories": [],
    "scrapedAt": "2025-06-22T06:17:01.203Z",
    "googleFoodUrl": null,
    "hotelAds": [],
    "openingHours": [
      {
        "day": "Monday",
        "hours": "8\u202fAM to 12\u202fPM, 1 to 5\u202fPM"
      },
      {
        "day": "Tuesday",
        "hours": "8\u202fAM to 12\u202fPM, 1 to 5\u202fPM"
      },
      {
        "day": "Wednesday",
        "hours": "8\u202fAM to 12\u202fPM, 1 to 5\u202fPM"
      },
      {
        "day": "Thursday",
        "hours": "8\u202fAM to 12\u202fPM, 1 to 5\u202fPM"
      },
      {
        "day": "Friday",
        "hours": "8\u202fAM to 12\u202fPM, 1 to 5\u202fPM"
      },
      {
        "day": "Saturday",
        "hours": "Closed"
      },
      {
        "day": "Sunday",
        "hours": "Closed"
      }
    ],
    "peopleAlsoSearch": [],
    "placesTags": [],
    "reviewsTags": [],
    "additionalInfo": {
      "Accessibility": [
        {
          "Wheelchair accessible entrance": true
        },
        {
          "Wheelchair accessible parking lot": true
        }
      ],
      "Payments": [
        {
          "Credit cards": true
        }
      ]
    },
    "gasPrices": [],
    "url": "https://www.google.com/maps/search/?api=1&query=Genoa%20Healthcare&query_place_id=ChIJI_n-S3cZU4gRY8Je824HsbE",
    "searchPageUrl": "https://www.google.com/maps/search/independent%20pharmacy%20Greensboro%20NC/@52.05066962470323,-179.97595653707245,14z?hl=en",
    "searchString": "independent pharmacy Greensboro NC",
    "language": "en",
    "rank": 9,
    "isAdvertisement": false,
    "imageUrl": "https://lh3.googleusercontent.com/gps-cs-s/AC9h4nrgC0UJELr8_95cjkEEwiQDu9DhM-xYMEOD1gNMaVobn1KHd20F5KnNwWqzVKU6F_2-yPNa69IpOhTWl74MbZ7I6vbb1_98FcRFWXoCQlu9P8BR0tPqlPG5hPkovHtLynpzBOawsQ=w408-h307-k-no",
    "kgmid": "/g/11bt_h_vhy",
    "classification": "chain",
    "is_independent": false,
    "is_compounding": false,
    "confidence": 0.95,
    "source": "perplexity",
    "method": "llm"
  },
  {
    "title": "Adams Farm Pharmacy",
    "price": null,
    "categoryName": "Pharmacy",
    "address": "5710 W Gate City Blvd Z, Greensboro, NC 27407",
    "neighborhood": null,
    "street": "5710 W Gate City Blvd Z",
    "city": "Greensboro",
    "postalCode": "27407",
    "state": "North Carolina",
    "countryCode": "US",
    "website": "http://www.adamsfarmpharmacy.com/",
    "phone": "(336) 632-4141",
    "phoneUnformatted": "+13366324141",
    "claimThisBusiness": false,
    "location": {
      "lat": 36.0170413,
      "lng": -79.8980035
    },
    "totalScore": 3.9,
    "permanentlyClosed": false,
    "temporarilyClosed": false,
    "placeId": null,
    "categories": [
      "Pharmacy",
      "Vitamin & supplements store"
    ],
    "fid": "0x88531aa2750003bf:0x45d128907f0fd365",
    "cid": "5030846859821699941",
    "reviewsCount": 37,
    "imagesCount": 1,
    "imageCategories": [],
    "scrapedAt": "2025-06-22T06:17:01.204Z",
    "googleFoodUrl": null,
    "hotelAds": [],
    "openingHours": [
      {
        "day": "Monday",
        "hours": "9\u202fAM to 6\u202fPM"
      },
      {
        "day": "Tuesday",
        "hours": "9\u202fAM to 6\u202fPM"
      },
      {
        "day": "Wednesday",
        "hours": "9\u202fAM to 6\u202fPM"
      },
      {
        "day": "Thursday",
        "hours": "9\u202fAM to 6\u202fPM"
      },
      {
        "day": "Friday",
        "hours": "9\u202fAM to 6\u202fPM"
      },
      {
        "day": "Saturday",
        "hours": "10\u202fAM to 3\u202fPM"
      },
      {
        "day": "Sunday",
        "hours": "Closed"
      }
    ],
    "additionalOpeningHours": {
      "Delivery": [
        {
          "day": "Monday",
          "hours": "9\u202fAM\u20135\u202fPM"
        },
        {
          "day": "Tuesday",
          "hours": "9\u202fAM\u20135\u202fPM"
        },
        {
          "day": "Wednesday",
          "hours": "9\u202fAM\u20135\u202fPM"
        },
        {
          "day": "Thursday",
          "hours": "9\u202fAM\u20135\u202fPM"
        },
        {
          "day": "Friday",
          "hours": "9\u202fAM\u20135\u202fPM"
        },
        {
          "day": "Saturday",
          "hours": "Closed"
        },
        {
          "day": "Sunday",
          "hours": "Closed"
        }
      ]
    },
    "peopleAlsoSearch": [],
    "placesTags": [],
    "reviewsTags": [],
    "additionalInfo": {
      "From the business": [
        {
          "Small business": true
        }
      ],
      "Service options": [
        {
          "Delivery": true
        },
        {
          "In-store pickup": true
        },
        {
          "In-store shopping": true
        },
        {
          "Onsite services": true
        },
        {
          "Same-day delivery": true
        },
        {
          "English": true
        }
      ],
      "Accessibility": [
        {
          "Wheelchair accessible entrance": true
        },
        {
          "Wheelchair accessible parking lot": true
        }
      ],
      "Planning": [
        {
          "Quick visit": true
        }
      ],
      "Payments": [
        {
          "Credit cards": true
        },
        {
          "Debit cards": true
        },
        {
          "Credit cards": true
        }
      ],
      "Parking": [
        {
          "Free parking lot": true
        },
        {
          "Free street parking": true
        },
        {
          "On-site parking": true
        }
      ]
    },
    "gasPrices": [],
    "url": "https://www.google.com/maps/search/?api=1&query=Adams%20Farm%20Pharmacy&query_place_id=ChIJvwMAdaIaU4gRZdMPf5Ao0UU",
    "searchPageUrl": "https://www.google.com/maps/search/independent%20pharmacy%20Greensboro%20NC/@52.05066962470323,-179.97595653707245,14z?hl=en",
    "searchString": "independent pharmacy Greensboro NC",
    "language": "en",
    "rank": 10,
    "isAdvertisement": false,
    "imageUrl": "https://streetviewpixels-pa.googleapis.com/v1/thumbnail?panoid=QcnXKiYuJyfPHugyAH3V1A&cb_client=search.gws-prod.gps&w=408&h=240&yaw=339.17032&pitch=0&thumbfov=100",
    "kgmid": "/g/12vsvc05y",
    "classification": "independent",
    "is_independent": true,
    "is_compounding": false,
    "confidence": 0.9,
    "source": "perplexity",
    "method": "llm"
  },
  {
    "title": "Starmount Pharmacy",
    "price": null,
    "categoryName": "Pharmacy",
    "address": "4601 W Market St, Greensboro, NC 27407",
    "neighborhood": null,
    "street": "4601 W Market St",
    "city": "Greensboro",
    "postalCode": "27407",
    "state": "North Carolina",
    "countryCode": "US",
    "claimThisBusiness": true,
    "location": {
      "lat": 36.0699302,
      "lng": -79.8620217
    },
    "totalScore": 3,
    "permanentlyClosed": false,
    "temporarilyClosed": true,
    "placeId": null,
    "categories": [
      "Pharmacy"
    ],
    "fid": "0x88531bbd40650947:0xc5278021472463e",
    "cid": "887904026873710142",
    "reviewsCount": 2,
    "imagesCount": 2,
    "imageCategories": [],
    "scrapedAt": "2025-06-22T06:17:01.204Z",
    "googleFoodUrl": null,
    "hotelAds": [],
    "openingHours": [],
    "peopleAlsoSearch": [],
    "placesTags": [],
    "reviewsTags": [],
    "additionalInfo": {
      "Service options": [
        {
          "Delivery": true
        }
      ]
    },
    "gasPrices": [],
    "url": "https://www.google.com/maps/search/?api=1&query=Starmount%20Pharmacy&query_place_id=ChIJRwllQL0bU4gRPkZyFAJ4Ugw",
    "searchPageUrl": "https://www.google.com/maps/search/independent%20pharmacy%20Greensboro%20NC/@52.05066962470323,-179.97595653707245,14z?hl=en",
    "searchString": "independent pharmacy Greensboro NC",
    "language": "en",
    "rank": 11,
    "isAdvertisement": false,
    "imageUrl": "https://lh3.googleusercontent.com/gps-cs-s/AC9h4nou5G4ibAZLYu8aSFrNgv-TEjvzquq2YYXUPj1KmTcke6bZG0rJSGJ9-XXPH0GRVHfoCOYTSRyKuiOplpUSkFEyOwyv1Jj4kXGbAytBVB_DyuZXS-RbMapRI2GKAw98ipc6v2P1Bg=w408-h725-k-no",
    "kgmid": "/g/11tsln3h2b",
    "classification": "independent",
    "is_independent": true,
    "is_compounding": false,
    "confidence": 0.9,
    "source": "perplexity",
    "method": "llm"
  },
  {
    "title": "Cone Health Community Pharmacy at MedCenter Greensboro",
    "price": null,
    "categoryName": "Pharmacy",
    "address": "3518 Drawbridge Pkwy Suite 130, Greensboro, NC 27410",
    "neighborhood": null,
    "street": "3518 Drawbridge Pkwy Suite 130",
    "city": "Greensboro",
    "postalCode": "27410",
    "state": "North Carolina",
    "countryCode": "US",
    "website": "https://www.conehealth.com/locations/profile/cone-health-community-pharmacy-at-medcenter-greensboro/",
    "phone": "(336) 890-3050",
    "phoneUnformatted": "+13368903050",
    "claimThisBusiness": false,
    "location": {
      "lat": 36.1387122,
      "lng": -79.8659961
    },
    "totalScore": 4.9,
    "permanentlyClosed": false,
    "temporarilyClosed": false,
    "placeId": null,
    "categories": [
      "Pharmacy"
    ],
    "fid": "0x88531da9a4a92433:0xaf3770d18a90912b",
    "cid": "12625684125631680811",
    "reviewsCount": 118,
    "imagesCount": 3,
    "imageCategories": [],
    "scrapedAt": "2025-06-22T06:17:01.334Z",
    "googleFoodUrl": null,
    "hotelAds": [],
    "openingHours": [
      {
        "day": "Monday",
        "hours": "7:30\u202fAM to 6\u202fPM"
      },
      {
        "day": "Tuesday",
        "hours": "7:30\u202fAM to 6\u202fPM"
      },
      {
        "day": "Wednesday",
        "hours": "7:30\u202fAM to 6\u202fPM"
      },
      {
        "day": "Thursday",
        "hours": "7:30\u202fAM to 6\u202fPM"
      },
      {
        "day": "Friday",
        "hours": "7:30\u202fAM to 6\u202fPM"
      },
      {
        "day": "Saturday",
        "hours": "8\u202fAM to 4:30\u202fPM"
      },
      {
        "day": "Sunday",
        "hours": "Closed"
      }
    ],
    "peopleAlsoSearch": [],
    "placesTags": [],
    "reviewsTags": [],
    "additionalInfo": {
      "Service options": [
        {
          "Delivery": true
        },
        {
          "Drive-through": true
        },
        {
          "In-store shopping": true
        },
        {
          "Onsite services": true
        }
      ],
      "Accessibility": [
        {
          "Wheelchair accessible entrance": true
        },
        {
          "Wheelchair accessible parking lot": true
        }
      ],
      "Payments": [
        {
          "Credit cards": true
        }
      ]
    },
    "gasPrices": [],
    "url": "https://www.google.com/maps/search/?api=1&query=Cone%20Health%20Community%20Pharmacy%20at%20MedCenter%20Greensboro&query_place_id=ChIJMySppKkdU4gRK5GQitFwN68",
    "searchPageUrl": "https://www.google.com/maps/search/independent%20pharmacy%20Greensboro%20NC/@67.1273844227615,-156.56290792837981,9z?hl=en",
    "searchString": "independent pharmacy Greensboro NC",
    "language": "en",
    "rank": 8,
    "isAdvertisement": false,
    "imageUrl": "https://lh3.googleusercontent.com/p/AF1QipN2nff7bZIsSAV69KRiQTRdqjKnnqn7MTqjoHoV=w408-h271-k-no",
    "kgmid": "/g/11rtqn6d39",
    "classification": "hospital",
    "is_independent": false,
    "is_compounding": false,
    "confidence": 0.95,
    "source": "perplexity",
    "method": "llm"
  },
  {
    "title": "Piedmont Drug",
    "price": null,
    "categoryName": "Pharmacy",
    "address": "4620 Woody Mill Rd B, Greensboro, NC 27406",
    "neighborhood": null,
    "street": "4620 Woody Mill Rd B",
    "city": "Greensboro",
    "postalCode": "27406",
    "state": "North Carolina",
    "countryCode": "US",
    "website": "http://piedmontdrug.com/",
    "phone": "(336) 674-5518",
    "phoneUnformatted": "+13366745518",
    "claimThisBusiness": false,
    "location": {
      "lat": 35.9665437,
      "lng": -79.7001857
    },
    "totalScore": 4.9,
    "permanentlyClosed": false,
    "temporarilyClosed": false,
    "placeId": null,
    "categories": [
      "Pharmacy"
    ],
    "fid": "0x88533d1932b83aa1:0x6204548b0a072394",
    "cid": "7062863071769207700",
    "reviewsCount": 35,
    "imagesCount": 1,
    "imageCategories": [],
    "scrapedAt": "2025-06-22T06:17:01.334Z",
    "googleFoodUrl": null,
    "hotelAds": [],
    "openingHours": [
      {
        "day": "Monday",
        "hours": "9\u202fAM to 7\u202fPM"
      },
      {
        "day": "Tuesday",
        "hours": "9\u202fAM to 7\u202fPM"
      },
      {
        "day": "Wednesday",
        "hours": "9\u202fAM to 7\u202fPM"
      },
      {
        "day": "Thursday",
        "hours": "9\u202fAM to 7\u202fPM"
      },
      {
        "day": "Friday",
        "hours": "9\u202fAM to 7\u202fPM"
      },
      {
        "day": "Saturday",
        "hours": "9\u202fAM to 3\u202fPM"
      },
      {
        "day": "Sunday",
        "hours": "Closed"
      }
    ],
    "peopleAlsoSearch": [],
    "placesTags": [],
    "reviewsTags": [],
    "additionalInfo": {
      "From the business": [
        {
          "Small business": true
        }
      ],
      "Service options": [
        {
          "Delivery": true
        },
        {
          "In-store pickup": true
        },
        {
          "Same-day delivery": true
        }
      ],
      "Accessibility": [
        {
          "Wheelchair accessible entrance": true
        },
        {
          "Wheelchair accessible parking lot": true
        }
      ],
      "Planning": [
        {
          "Quick visit": true
        }
      ],
      "Payments": [
        {
          "Credit cards": true
        },
        {
          "Debit cards": true
        },
        {
          "NFC mobile payments": true
        },
        {
          "Credit cards": true
        }
      ]
    },
    "gasPrices": [],
    "url": "https://www.google.com/maps/search/?api=1&query=Piedmont%20Drug&query_place_id=ChIJoTq4Mhk9U4gRlCMHCotUBGI",
    "searchPageUrl": "https://www.google.com/maps/search/independent%20pharmacy%20Greensboro%20NC/@67.1273844227615,-156.56290792837981,9z?hl=en",
    "searchString": "independent pharmacy Greensboro NC",
    "language": "en",
    "rank": 9,
    "isAdvertisement": false,
    "imageUrl": "https://streetviewpixels-pa.googleapis.com/v1/thumbnail?panoid=w-YyDSOI__lzWZn1cUSgLQ&cb_client=search.gws-prod.gps&w=408&h=240&yaw=138.71625&pitch=0&thumbfov=100",
    "kgmid": "/g/11bv3mmyjr",
    "classification": "independent",
    "is_independent": true,
    "is_compounding": false,
    "confidence": 0.9,
    "source": "perplexity",
    "method": "llm"
  },
  {
    "title": "Cone Health Community Pharmacy Specialty Pharmacy",
    "price": null,
    "categoryName": "Pharmacy",
    "address": "515 N Elam Ave, Greensboro, NC 27403",
    "neighborhood": null,
    "street": "515 N Elam Ave",
    "city": "Greensboro",
    "postalCode": "27403",
    "state": "North Carolina",
    "countryCode": "US",
    "website": "https://www.conehealth.com/services/community-pharmacy/specialty-pharmacy/",
    "phone": "(844) 642-5762",
    "phoneUnformatted": "+18446425762",
    "claimThisBusiness": false,
    "location": {
      "lat": 36.0842669,
      "lng": -79.8231787
    },
    "permanentlyClosed": false,
    "temporarilyClosed": false,
    "placeId": null,
    "categories": [
      "Pharmacy"
    ],
    "fid": "0x885319e20050e96d:0xaa85a7152df10804",
    "cid": "12287410867757189124",
    "reviewsCount": 0,
    "imagesCount": 2,
    "imageCategories": [],
    "scrapedAt": "2025-06-22T06:17:31.426Z",
    "googleFoodUrl": null,
    "hotelAds": [],
    "openingHours": [
      {
        "day": "Monday",
        "hours": "7:30\u202fAM to 5:30\u202fPM"
      },
      {
        "day": "Tuesday",
        "hours": "7:30\u202fAM to 5:30\u202fPM"
      },
      {
        "day": "Wednesday",
        "hours": "7:30\u202fAM to 5:30\u202fPM"
      },
      {
        "day": "Thursday",
        "hours": "7:30\u202fAM to 5:30\u202fPM"
      },
      {
        "day": "Friday",
        "hours": "7:30\u202fAM to 5:30\u202fPM"
      },
      {
        "day": "Saturday",
        "hours": "Closed"
      },
      {
        "day": "Sunday",
        "hours": "Closed"
      }
    ],
    "peopleAlsoSearch": [],
    "placesTags": [],
    "reviewsTags": [],
    "gasPrices": [],
    "url": "https://www.google.com/maps/search/?api=1&query=Cone%20Health%20Community%20Pharmacy%20Specialty%20Pharmacy&query_place_id=ChIJbelQAOIZU4gRBAjxLRWnhao",
    "searchPageUrl": "https://www.google.com/maps/search/independent%20pharmacy%20Greensboro%20NC/@28.10010191712085,-175.85750364999998,12z?hl=en",
    "searchString": "independent pharmacy Greensboro NC",
    "language": "en",
    "rank": 6,
    "isAdvertisement": false,
    "imageUrl": "https://lh3.googleusercontent.com/p/AF1QipPWsJC6EV0ThcZlqOZnrATevx5xsKJRA53QVczq=w408-h408-k-no",
    "kgmid": "/g/11xf0yz9nb",
    "classification": "hospital",
    "is_independent": false,
    "is_compounding": false,
    "confidence": 0.95,
    "source": "perplexity",
    "method": "llm"
  },
  {
    "title": "Cone Health Community Pharmacy at Wesley Long",
    "price": null,
    "categoryName": "Pharmacy",
    "address": "515 N Elam Ave, Greensboro, NC 27403",
    "neighborhood": null,
    "street": "515 N Elam Ave",
    "city": "Greensboro",
    "postalCode": "27403",
    "state": "North Carolina",
    "countryCode": "US",
    "website": "https://www.conehealth.com/locations/profile/community-pharmacy-at-wesley-long/",
    "phone": "(336) 218-5762",
    "phoneUnformatted": "+13362185762",
    "claimThisBusiness": false,
    "location": {
      "lat": 36.084276,
      "lng": -79.823174
    },
    "totalScore": 4.7,
    "permanentlyClosed": false,
    "temporarilyClosed": false,
    "placeId": null,
    "categories": [
      "Pharmacy"
    ],
    "fid": "0x88531953e6a68431:0x448bd8f8c431de21",
    "cid": "4939279979296972321",
    "reviewsCount": 100,
    "imagesCount": 2,
    "imageCategories": [],
    "scrapedAt": "2025-06-22T06:17:31.426Z",
    "googleFoodUrl": null,
    "hotelAds": [],
    "openingHours": [
      {
        "day": "Monday",
        "hours": "7:30\u202fAM to 6\u202fPM"
      },
      {
        "day": "Tuesday",
        "hours": "7:30\u202fAM to 6\u202fPM"
      },
      {
        "day": "Wednesday",
        "hours": "7:30\u202fAM to 6\u202fPM"
      },
      {
        "day": "Thursday",
        "hours": "7:30\u202fAM to 6\u202fPM"
      },
      {
        "day": "Friday",
        "hours": "7:30\u202fAM to 6\u202fPM"
      },
      {
        "day": "Saturday",
        "hours": "8\u202fAM to 4:30\u202fPM"
      },
      {
        "day": "Sunday",
        "hours": "Closed"
      }
    ],
    "peopleAlsoSearch": [],
    "placesTags": [],
    "reviewsTags": [],
    "additionalInfo": {
      "Service options": [
        {
          "Delivery": true
        },
        {
          "In-store pickup": true
        },
        {
          "Onsite services": true
        }
      ],
      "Accessibility": [
        {
          "Wheelchair accessible entrance": true
        },
        {
          "Wheelchair accessible parking lot": true
        }
      ],
      "Payments": [
        {
          "Credit cards": true
        }
      ],
      "Parking": [
        {
          "Free parking lot": true
        }
      ]
    },
    "gasPrices": [],
    "url": "https://www.google.com/maps/search/?api=1&query=Cone%20Health%20Community%20Pharmacy%20at%20Wesley%20Long&query_place_id=ChIJMYSm5lMZU4gRId4xxPjYi0Q",
    "searchPageUrl": "https://www.google.com/maps/search/independent%20pharmacy%20Greensboro%20NC/@28.10010191712085,-175.85750364999998,12z?hl=en",
    "searchString": "independent pharmacy Greensboro NC",
    "language": "en",
    "rank": 12,
    "isAdvertisement": false,
    "imageUrl": "https://streetviewpixels-pa.googleapis.com/v1/thumbnail?panoid=Z6IwuKawtxudbxqSZJVsDA&cb_client=search.gws-prod.gps&w=408&h=240&yaw=43.1394&pitch=0&thumbfov=100",
    "kgmid": "/g/11b7j_w630",
    "classification": "hospital",
    "is_independent": false,
    "is_compounding": false,
    "confidence": 0.98,
    "source": "perplexity",
    "method": "llm"
  },
  {
    "title": "Walgreens Pharmacy",
    "description": "Department of the Walgreens chain providing prescription medications & other health-related items.",
    "price": "$$",
    "categoryName": "Pharmacy",
    "address": "300 E Cornwallis Dr, Greensboro, NC 27408",
    "neighborhood": "Old Irving Park",
    "street": "300 E Cornwallis Dr",
    "city": "Greensboro",
    "postalCode": "27408",
    "state": "North Carolina",
    "countryCode": "US",
    "website": "https://www.walgreens.com/locator/walgreens-300+e+cornwallis+dr-greensboro-nc-27408/id=12283",
    "phone": "(336) 275-9471",
    "phoneUnformatted": "+13362759471",
    "claimThisBusiness": false,
    "location": {
      "lat": 36.1018274,
      "lng": -79.7852565
    },
    "totalScore": 4,
    "permanentlyClosed": false,
    "temporarilyClosed": false,
    "placeId": "ChIJd__PrtgeU4gR8TQwqFkrFvM",
    "categories": [
      "Pharmacy"
    ],
    "fid": "0x88531ed8aecfff77:0xf3162b59a83034f1",
    "cid": "17516235464777938161",
    "reviewsCount": 41,
    "imagesCount": 7,
    "imageCategories": [],
    "scrapedAt": "2025-06-22T06:17:31.427Z",
    "googleFoodUrl": null,
    "hotelAds": [],
    "openingHours": [
      {
        "day": "Monday",
        "hours": "2\u202fAM to 1:30\u202fAM"
      },
      {
        "day": "Tuesday",
        "hours": "2\u202fAM to 1:30\u202fAM"
      },
      {
        "day": "Wednesday",
        "hours": "2\u202fAM to 1:30\u202fAM"
      },
      {
        "day": "Thursday",
        "hours": "2\u202fAM to 1:30\u202fAM"
      },
      {
        "day": "Friday",
        "hours": "2\u202fAM to 1:30\u202fAM"
      },
      {
        "day": "Saturday",
        "hours": "2\u202fAM to 1:30\u202fAM"
      },
      {
        "day": "Sunday",
        "hours": "2\u202fAM to 1:30\u202fAM"
      }
    ],
    "additionalOpeningHours": {
      "Drive through": [
        {
          "day": "Monday",
          "hours": "2\u202fAM\u20131:30\u202fAM"
        },
        {
          "day": "Tuesday",
          "hours": "2\u202fAM\u20131:30\u202fAM"
        },
        {
          "day": "Wednesday",
          "hours": "2\u202fAM\u20131:30\u202fAM"
        },
        {
          "day": "Thursday",
          "hours": "2\u202fAM\u20131:30\u202fAM"
        },
        {
          "day": "Friday",
          "hours": "2\u202fAM\u20131:30\u202fAM"
        },
        {
          "day": "Saturday",
          "hours": "2\u202fAM\u20131:30\u202fAM"
        },
        {
          "day": "Sunday",
          "hours": "2\u202fAM\u20131:30\u202fAM"
        }
      ]
    },
    "peopleAlsoSearch": [],
    "placesTags": [],
    "reviewsTags": [],
    "additionalInfo": {
      "Service options": [
        {
          "Curbside pickup": true
        },
        {
          "Delivery": true
        },
        {
          "Drive-through": true
        },
        {
          "In-store pickup": true
        },
        {
          "Onsite services": true
        }
      ],
      "Accessibility": [
        {
          "Wheelchair accessible entrance": true
        },
        {
          "Wheelchair accessible parking lot": true
        }
      ],
      "Offerings": [
        {
          "Medication disposal": true
        },
        {
          "Naloxone": true
        }
      ],
      "Planning": [
        {
          "Quick visit": true
        }
      ],
      "Payments": [
        {
          "Credit cards": true
        },
        {
          "Debit cards": true
        }
      ]
    },
    "gasPrices": [],
    "url": "https://www.google.com/maps/search/?api=1&query=Walgreens%20Pharmacy&query_place_id=ChIJd__PrtgeU4gR8TQwqFkrFvM",
    "searchPageUrl": "https://www.google.com/maps/search/independent%20pharmacy%20Greensboro%20NC/@28.10010191712085,-175.85750364999998,12z?hl=en",
    "searchString": "independent pharmacy Greensboro NC",
    "language": "en",
    "rank": 13,
    "isAdvertisement": false,
    "imageUrl": "https://lh3.googleusercontent.com/gps-cs-s/AC9h4npZno-tA9Bck74n3ALhdZRgSgoEaFdmEMn3E7iuw3FgXCVfjL55y_SXtBOSON2xlcj-PRMIgMfZHUrpeL7wn33Vk0C9VO_cRKQvacwJoCLimsqb6uArTxK8ebcQJrNlmQKqzy4=w426-h240-k-no",
    "kgmid": "/g/11cn94s4bf",
    "classification": "chain",
    "is_independent": false,
    "confidence": 1.0,
    "source": "rule-based"
  },
  {
    "title": "CVS Pharmacy",
    "price": null,
    "categoryName": "Pharmacy",
    "address": "309 E Cornwallis Dr, Greensboro, NC 27408",
    "neighborhood": "Old Irving Park",
    "street": "309 E Cornwallis Dr",
    "city": "Greensboro",
    "postalCode": "27408",
    "state": "North Carolina",
    "countryCode": "US",
    "website": "https://www.cvs.com/store-locator/greensboro-nc-pharmacies/309-east-cornwallis-drive-greensboro-nc-27408/storeid=3880?WT.mc_id=LS_GOOGLE_RX_3880",
    "phone": "(336) 274-0179",
    "phoneUnformatted": "+13362740179",
    "claimThisBusiness": false,
    "location": {
      "lat": 36.1027246,
      "lng": -79.7849018
    },
    "totalScore": 3.8,
    "permanentlyClosed": false,
    "temporarilyClosed": false,
    "placeId": "ChIJJxqBmpcfU4gRd9JkvLW-6qI",
    "categories": [
      "Pharmacy"
    ],
    "fid": "0x88531f979a811a27:0xa2eabeb5bc64d277",
    "cid": "11739405066453701239",
    "reviewsCount": 36,
    "imagesCount": 37,
    "imageCategories": [],
    "scrapedAt": "2025-06-22T06:17:37.426Z",
    "googleFoodUrl": null,
    "hotelAds": [],
    "openingHours": [
      {
        "day": "Monday",
        "hours": "12\u202fAM to 1:30\u202fPM, 2\u202fPM to 12\u202fAM"
      },
      {
        "day": "Tuesday",
        "hours": "12\u202fAM to 1:30\u202fPM, 2\u202fPM to 12\u202fAM"
      },
      {
        "day": "Wednesday",
        "hours": "12\u202fAM to 1:30\u202fPM, 2\u202fPM to 12\u202fAM"
      },
      {
        "day": "Thursday",
        "hours": "12\u202fAM to 1:30\u202fPM, 2\u202fPM to 12\u202fAM"
      },
      {
        "day": "Friday",
        "hours": "12\u202fAM to 1:30\u202fPM, 2\u202fPM to 12\u202fAM"
      },
      {
        "day": "Saturday",
        "hours": "12\u202fAM to 1:30\u202fPM, 2\u202fPM to 12\u202fAM"
      },
      {
        "day": "Sunday",
        "hours": "12\u202fAM to 1:30\u202fPM, 2\u202fPM to 12\u202fAM"
      }
    ],
    "peopleAlsoSearch": [],
    "placesTags": [],
    "reviewsTags": [],
    "additionalInfo": {
      "Service options": [
        {
          "Delivery": true
        },
        {
          "Drive-through": true
        },
        {
          "In-store shopping": true
        },
        {
          "Onsite services": true
        }
      ],
      "Accessibility": [
        {
          "Wheelchair accessible entrance": true
        },
        {
          "Wheelchair accessible parking lot": true
        }
      ],
      "Offerings": [
        {
          "Medication disposal": true
        },
        {
          "Naloxone": true
        }
      ],
      "Crowd": [
        {
          "LGBTQ+ friendly": true
        },
        {
          "Transgender safespace": true
        }
      ],
      "Planning": [
        {
          "Quick visit": true
        }
      ],
      "Payments": [
        {
          "Credit cards": true
        },
        {
          "Debit cards": true
        },
        {
          "NFC mobile payments": true
        },
        {
          "SNAP/EBT": true
        },
        {
          "Credit cards": true
        }
      ]
    },
    "gasPrices": [],
    "url": "https://www.google.com/maps/search/?api=1&query=CVS%20Pharmacy&query_place_id=ChIJJxqBmpcfU4gRd9JkvLW-6qI",
    "searchPageUrl": "https://www.google.com/maps/search/independent%20pharmacy%20Greensboro%20NC/@24.755066651789555,-83.14804345214435,12z?hl=en",
    "searchString": "independent pharmacy Greensboro NC",
    "language": "en",
    "rank": 13,
    "isAdvertisement": false,
    "imageUrl": "https://lh3.googleusercontent.com/p/AF1QipMEzBkYz0eauBHQvth0M20m5rBrPlWr1Qp0-i8s=w408-h272-k-no",
    "kgmid": "/g/11g0mrvhts",
    "classification": "chain",
    "is_independent": false,
    "confidence": 1.0,
    "source": "rule-based"
  },
  {
    "title": "Greensboro Pharmacy",
    "price": null,
    "categoryName": "Pharmacy",
    "address": "102 S Main St, Greensboro, MD 21639, United States",
    "neighborhood": null,
    "street": "102 S Main St",
    "city": "Greensboro",
    "postalCode": "21639",
    "state": "Maryland",
    "countryCode": "US",
    "website": "https://www.mygnp.com/pharmacies/greensboro-pharmacy-greensboro-md-21639/?utm_source=google&utm_medium=local&utm_campaign=localmaps&utm_content=2111045",
    "phone": "+1 410-482-6256",
    "phoneUnformatted": "+14104826256",
    "claimThisBusiness": false,
    "location": {
      "lat": 38.9736058,
      "lng": -75.8056925
    },
    "totalScore": 4.6,
    "permanentlyClosed": false,
    "temporarilyClosed": false,
    "placeId": null,
    "categories": [
      "Pharmacy",
      "Drug store"
    ],
    "fid": "0x89b87c9d1168bcf9:0x493ec9a96b7b3798",
    "cid": "5277877542814693272",
    "reviewsCount": 29,
    "imagesCount": 3,
    "imageCategories": [],
    "scrapedAt": "2025-06-22T06:17:48.738Z",
    "googleFoodUrl": null,
    "hotelAds": [],
    "openingHours": [
      {
        "day": "Monday",
        "hours": "9\u202fAM to 6\u202fPM"
      },
      {
        "day": "Tuesday",
        "hours": "9\u202fAM to 6\u202fPM"
      },
      {
        "day": "Wednesday",
        "hours": "9\u202fAM to 6\u202fPM"
      },
      {
        "day": "Thursday",
        "hours": "9\u202fAM to 6\u202fPM"
      },
      {
        "day": "Friday",
        "hours": "9\u202fAM to 6\u202fPM"
      },
      {
        "day": "Saturday",
        "hours": "9\u202fAM to 1\u202fPM"
      },
      {
        "day": "Sunday",
        "hours": "Closed"
      }
    ],
    "peopleAlsoSearch": [],
    "placesTags": [],
    "reviewsTags": [],
    "additionalInfo": {
      "Service options": [
        {
          "Delivery": true
        },
        {
          "In-store pick-up": true
        },
        {
          "In-store shopping": true
        },
        {
          "On-site services": true
        },
        {
          "Same-day delivery": true
        }
      ],
      "Accessibility": [
        {
          "Wheelchair-accessible car park": true
        },
        {
          "Wheelchair-accessible entrance": true
        }
      ],
      "Planning": [
        {
          "Quick visit": true
        }
      ],
      "Payments": [
        {
          "Credit cards": true
        },
        {
          "Debit cards": true
        },
        {
          "NFC mobile payments": true
        },
        {
          "Credit cards": true
        }
      ]
    },
    "gasPrices": [],
    "url": "https://www.google.com/maps/search/?api=1&query=Greensboro%20Pharmacy&query_place_id=ChIJ-bxoEZ18uIkRmDd7a6nJPkk",
    "searchPageUrl": "https://www.google.com/maps/search/independent%20pharmacy%20Greensboro%20NC/@39.68245004733214,-76.98739394329682,8z?hl=en",
    "searchString": "independent pharmacy Greensboro NC",
    "language": "en",
    "rank": 1,
    "isAdvertisement": false,
    "imageUrl": "https://lh3.googleusercontent.com/gps-cs-s/AC9h4no7fZRM2RlWcDbCUMEqc6egWsekrlTzDR2lomh0RiKgfkRN27j__kP0myc0WPOoAOLnSaDFTfh_dtxmqrr_nYB22Y7H4A8lrJ14pEUmmprOAapEA6v_1_K2fRspmJ6w9uLGp6RAtQ=w426-h240-k-no",
    "kgmid": "/g/1tqnmjmc",
    "classification": "independent",
    "is_independent": true,
    "is_compounding": false,
    "confidence": 0.9,
    "source": "perplexity",
    "method": "llm"
  }
]