[
  {
    "title": "Hartford Pharmacy",
    "price": null,
    "categoryName": "Pharmacy",
    "address": "531 Park St, Hartford, CT 06106",
    "neighborhood": "Frog Hollow",
    "street": "531 Park St",
    "city": "Hartford",
    "postalCode": "06106",
    "state": "Connecticut",
    "countryCode": "US",
    "website": "http://hartfordrx.com/",
    "phone": "(860) 422-8888",
    "phoneUnformatted": "+18604228888",
    "claimThisBusiness": true,
    "location": {
      "lat": 41.7578588,
      "lng": -72.6856409
    },
    "totalScore": 4.7,
    "permanentlyClosed": false,
    "temporarilyClosed": false,
    "placeId": null,
    "categories": [
      "Pharmacy"
    ],
    "fid": "0x89e6536a6a02e82b:0xdc4dda786c047e22",
    "cid": "15874584472294030882",
    "reviewsCount": 11,
    "imagesCount": 4,
    "imageCategories": [],
    "scrapedAt": "2025-06-22T07:24:39.122Z",
    "googleFoodUrl": null,
    "hotelAds": [],
    "openingHours": [
      {
        "day": "Monday",
        "hours": "9\u202fAM to 6\u202fPM"
      },
      {
        "day": "Tuesday",
        "hours": "9\u202fAM to 6\u202fPM"
      },
      {
        "day": "Wednesday",
        "hours": "9\u202fAM to 6\u202fPM"
      },
      {
        "day": "Thursday",
        "hours": "9\u202fAM to 6\u202fPM"
      },
      {
        "day": "Friday",
        "hours": "9\u202fAM to 6\u202fPM"
      },
      {
        "day": "Saturday",
        "hours": "9\u202fAM to 2\u202fPM"
      },
      {
        "day": "Sunday",
        "hours": "Closed"
      }
    ],
    "peopleAlsoSearch": [],
    "placesTags": [],
    "reviewsTags": [],
    "additionalInfo": {
      "Service options": [
        {
          "Delivery": true
        },
        {
          "In-store pickup": true
        },
        {
          "Same-day delivery": true
        }
      ],
      "Accessibility": [
        {
          "Wheelchair accessible parking lot": true
        }
      ],
      "Planning": [
        {
          "Quick visit": true
        }
      ],
      "Payments": [
        {
          "Debit cards": true
        },
        {
          "NFC mobile payments": true
        },
        {
          "Credit cards": true
        }
      ]
    },
    "gasPrices": [],
    "url": "https://www.google.com/maps/search/?api=1&query=Hartford%20Pharmacy&query_place_id=ChIJK-gCampT5okRIn4EbHjaTdw",
    "searchPageUrl": "https://www.google.com/maps/search/independent%20pharmacy%20Hartford%20CT/@39.68245004733214,-114.98210525670324,8z?hl=en",
    "searchString": "independent pharmacy Hartford CT",
    "language": "en",
    "rank": 1,
    "isAdvertisement": false,
    "imageUrl": "https://lh3.googleusercontent.com/gps-cs-s/AC9h4notJvXYh4P_hGhSvLtz3JiYSdhe4Jd0DEXCupe1-F9kd1e7UwPLvbkMCwbyERHRNe_BR-H4My7D3NfoAHQnPNLUHACKYU_TcES-5VJAVgjRR2rXE-GgTd1iDjDnoLkpkqZUYi2s=w408-h306-k-no",
    "kgmid": "/g/11bwytfp0f",
    "classification": "independent",
    "is_independent": true,
    "is_compounding": false,
    "confidence": 0.9,
    "source": "perplexity",
    "method": "llm",
    "query_location": "hartford_ct"
  },
  {
    "title": "Riverside Pharmacy Inc",
    "price": null,
    "categoryName": "Pharmacy",
    "address": "926 Main St, East Hartford, CT 06108",
    "neighborhood": null,
    "street": "926 Main St",
    "city": "East Hartford",
    "postalCode": "06108",
    "state": "Connecticut",
    "countryCode": "US",
    "phone": "(860) 289-0000",
    "phoneUnformatted": "+18602890000",
    "claimThisBusiness": false,
    "location": {
      "lat": 41.7698045,
      "lng": -72.643091
    },
    "totalScore": 3.7,
    "permanentlyClosed": false,
    "temporarilyClosed": false,
    "placeId": null,
    "categories": [
      "Pharmacy"
    ],
    "fid": "0x89e654744a08c4d5:0xec4c9a3f18a0222f",
    "cid": "17027153886967767599",
    "reviewsCount": 21,
    "imagesCount": 7,
    "imageCategories": [],
    "scrapedAt": "2025-06-22T07:24:39.123Z",
    "googleFoodUrl": null,
    "hotelAds": [],
    "openingHours": [],
    "peopleAlsoSearch": [],
    "placesTags": [],
    "reviewsTags": [],
    "additionalInfo": {
      "From the business": [
        {
          "Small business": true
        }
      ],
      "Service options": [
        {
          "Delivery": true
        }
      ],
      "Accessibility": [
        {
          "Wheelchair accessible entrance": true
        },
        {
          "Wheelchair accessible parking lot": true
        }
      ],
      "Planning": [
        {
          "Quick visit": true
        }
      ],
      "Payments": [
        {
          "Debit cards": true
        },
        {
          "NFC mobile payments": true
        },
        {
          "Credit cards": true
        }
      ]
    },
    "gasPrices": [],
    "url": "https://www.google.com/maps/search/?api=1&query=Riverside%20Pharmacy%20Inc&query_place_id=ChIJ1cQISnRU5okRLyKgGD-aTOw",
    "searchPageUrl": "https://www.google.com/maps/search/independent%20pharmacy%20Hartford%20CT/@39.68245004733214,-114.98210525670324,8z?hl=en",
    "searchString": "independent pharmacy Hartford CT",
    "language": "en",
    "rank": 2,
    "isAdvertisement": false,
    "imageUrl": "https://lh3.googleusercontent.com/gps-cs-s/AC9h4np1GJHoJJ7Vvd6d8Q-s9Bmqpk6q8B8SEStaxg8ixCbLiYJu82M_7VMGXEnwG9Qs3mpO82OcxxfqW6ZRIuZ3inu372wEqBFlIbw7N_XukzqLHMdU6r3D0-50cbyx5iVpToVdy8pBzg=w408-h306-k-no",
    "kgmid": "/g/11bwkzq6pb",
    "classification": "independent",
    "is_independent": true,
    "is_compounding": false,
    "confidence": 0.85,
    "source": "perplexity",
    "method": "llm",
    "query_location": "hartford_ct"
  },
  {
    "title": "Bailey's Pharmacy",
    "price": null,
    "categoryName": "Pharmacy",
    "address": "1137 Main St Suite 101, East Hartford, CT 06108",
    "neighborhood": null,
    "street": "1137 Main St Suite 101",
    "city": "East Hartford",
    "postalCode": "06108",
    "state": "Connecticut",
    "countryCode": "US",
    "website": "https://baileypharmacy.com/",
    "phone": "(860) 216-9077",
    "phoneUnformatted": "+18602169077",
    "claimThisBusiness": false,
    "location": {
      "lat": 41.7735616,
      "lng": -72.641773
    },
    "totalScore": 5,
    "permanentlyClosed": false,
    "temporarilyClosed": false,
    "placeId": null,
    "categories": [
      "Pharmacy"
    ],
    "fid": "0x89e6557160aaba59:0x85e7e5e4d01fc01d",
    "cid": "9648933497571622941",
    "reviewsCount": 19,
    "imagesCount": 3,
    "imageCategories": [],
    "scrapedAt": "2025-06-22T07:24:39.123Z",
    "googleFoodUrl": null,
    "hotelAds": [],
    "openingHours": [
      {
        "day": "Monday",
        "hours": "9\u202fAM to 5\u202fPM"
      },
      {
        "day": "Tuesday",
        "hours": "9\u202fAM to 5\u202fPM"
      },
      {
        "day": "Wednesday",
        "hours": "9\u202fAM to 5\u202fPM"
      },
      {
        "day": "Thursday",
        "hours": "9\u202fAM to 5\u202fPM"
      },
      {
        "day": "Friday",
        "hours": "9\u202fAM to 5\u202fPM"
      },
      {
        "day": "Saturday",
        "hours": "Closed"
      },
      {
        "day": "Sunday",
        "hours": "Closed"
      }
    ],
    "peopleAlsoSearch": [],
    "placesTags": [],
    "reviewsTags": [],
    "additionalInfo": {
      "Service options": [
        {
          "Delivery": true
        }
      ],
      "Accessibility": [
        {
          "Wheelchair accessible entrance": true
        },
        {
          "Wheelchair accessible parking lot": true
        }
      ],
      "Payments": [
        {
          "Credit cards": true
        }
      ]
    },
    "gasPrices": [],
    "url": "https://www.google.com/maps/search/?api=1&query=Bailey's%20Pharmacy&query_place_id=ChIJWbqqYHFV5okRHcAf0OTl54U",
    "searchPageUrl": "https://www.google.com/maps/search/independent%20pharmacy%20Hartford%20CT/@39.68245004733214,-114.98210525670324,8z?hl=en",
    "searchString": "independent pharmacy Hartford CT",
    "language": "en",
    "rank": 3,
    "isAdvertisement": false,
    "imageUrl": "https://lh3.googleusercontent.com/p/AF1QipOtbT9neRdgheYbmMTL03cZbHU1kLN95IIi_TZT=w408-h247-k-no",
    "kgmid": "/g/11vsd85mj5",
    "classification": "independent",
    "is_independent": true,
    "is_compounding": false,
    "confidence": 0.9,
    "source": "perplexity",
    "method": "llm",
    "query_location": "hartford_ct"
  },
  {
    "title": "Hartford Pharmacy II",
    "price": null,
    "categoryName": "Pharmacy",
    "address": "57 Park St, Hartford, CT 06106",
    "neighborhood": "South Green",
    "street": "57 Park St",
    "city": "Hartford",
    "postalCode": "06106",
    "state": "Connecticut",
    "countryCode": "US",
    "website": "https://www.myhartfordrx.com/locations/hartford-pharmacy-ii",
    "phone": "(860) 244-2222",
    "phoneUnformatted": "+18602442222",
    "claimThisBusiness": true,
    "location": {
      "lat": 41.757097,
      "lng": -72.6770442
    },
    "totalScore": 4.1,
    "permanentlyClosed": false,
    "temporarilyClosed": false,
    "placeId": null,
    "categories": [
      "Pharmacy"
    ],
    "fid": "0x89e6536dca823c27:0x40ad02748b1ec117",
    "cid": "4660383888971841815",
    "reviewsCount": 9,
    "imagesCount": 1,
    "imageCategories": [],
    "scrapedAt": "2025-06-22T07:24:39.123Z",
    "googleFoodUrl": null,
    "hotelAds": [],
    "openingHours": [
      {
        "day": "Monday",
        "hours": "9\u202fAM to 6\u202fPM"
      },
      {
        "day": "Tuesday",
        "hours": "9\u202fAM to 6\u202fPM"
      },
      {
        "day": "Wednesday",
        "hours": "9\u202fAM to 6\u202fPM"
      },
      {
        "day": "Thursday",
        "hours": "9\u202fAM to 6\u202fPM"
      },
      {
        "day": "Friday",
        "hours": "9\u202fAM to 6\u202fPM"
      },
      {
        "day": "Saturday",
        "hours": "9\u202fAM to 2\u202fPM"
      },
      {
        "day": "Sunday",
        "hours": "Closed"
      }
    ],
    "peopleAlsoSearch": [],
    "placesTags": [],
    "reviewsTags": [],
    "additionalInfo": {
      "Service options": [
        {
          "Delivery": true
        },
        {
          "In-store pickup": true
        }
      ],
      "Accessibility": [
        {
          "Wheelchair accessible entrance": true
        },
        {
          "Wheelchair accessible parking lot": true
        }
      ],
      "Payments": [
        {
          "Credit cards": true
        }
      ]
    },
    "gasPrices": [],
    "url": "https://www.google.com/maps/search/?api=1&query=Hartford%20Pharmacy%20II&query_place_id=ChIJJzyCym1T5okRF8Eei3QCrUA",
    "searchPageUrl": "https://www.google.com/maps/search/independent%20pharmacy%20Hartford%20CT/@39.68245004733214,-114.98210525670324,8z?hl=en",
    "searchString": "independent pharmacy Hartford CT",
    "language": "en",
    "rank": 4,
    "isAdvertisement": false,
    "imageUrl": "https://streetviewpixels-pa.googleapis.com/v1/thumbnail?panoid=nRWBszp5Aw1jWVY3AqmNnw&cb_client=search.gws-prod.gps&w=408&h=240&yaw=179.76877&pitch=0&thumbfov=100",
    "kgmid": "/g/11f3m8zg1p",
    "classification": "independent",
    "is_independent": true,
    "is_compounding": false,
    "confidence": 0.9,
    "source": "perplexity",
    "method": "llm",
    "query_location": "hartford_ct"
  },
  {
    "title": "Genoa Healthcare",
    "price": null,
    "categoryName": "Pharmacy",
    "address": "43 Woodland St, Hartford, CT 06105",
    "neighborhood": "Asylum Hill",
    "street": "43 Woodland St",
    "city": "Hartford",
    "postalCode": "06105",
    "state": "Connecticut",
    "countryCode": "US",
    "website": "https://www.genoahealthcare.com/",
    "phone": "(860) 967-0596",
    "phoneUnformatted": "+18609670596",
    "claimThisBusiness": false,
    "location": {
      "lat": 41.770688,
      "lng": -72.7028087
    },
    "totalScore": 5,
    "permanentlyClosed": false,
    "temporarilyClosed": false,
    "placeId": "ChIJWR_BVZdT5okR5jO7A2CFLjc",
    "categories": [
      "Pharmacy"
    ],
    "fid": "0x89e6539755c11f59:0x372e856003bb33e6",
    "cid": "3976262168440681446",
    "reviewsCount": 10,
    "imagesCount": 1,
    "imageCategories": [],
    "scrapedAt": "2025-06-22T07:24:39.123Z",
    "googleFoodUrl": null,
    "hotelAds": [],
    "openingHours": [
      {
        "day": "Monday",
        "hours": "8:30\u202fAM to 12:30\u202fPM, 1 to 5\u202fPM"
      },
      {
        "day": "Tuesday",
        "hours": "8:30\u202fAM to 12:30\u202fPM, 1 to 5\u202fPM"
      },
      {
        "day": "Wednesday",
        "hours": "8:30\u202fAM to 12:30\u202fPM, 1 to 5\u202fPM"
      },
      {
        "day": "Thursday",
        "hours": "8:30\u202fAM to 12:30\u202fPM, 1 to 5\u202fPM"
      },
      {
        "day": "Friday",
        "hours": "8:30\u202fAM to 12:30\u202fPM, 1 to 5\u202fPM"
      },
      {
        "day": "Saturday",
        "hours": "Closed"
      },
      {
        "day": "Sunday",
        "hours": "Closed"
      }
    ],
    "peopleAlsoSearch": [],
    "placesTags": [],
    "reviewsTags": [],
    "additionalInfo": {
      "Accessibility": [
        {
          "Wheelchair accessible entrance": true
        },
        {
          "Wheelchair accessible parking lot": true
        }
      ]
    },
    "gasPrices": [],
    "url": "https://www.google.com/maps/search/?api=1&query=Genoa%20Healthcare&query_place_id=ChIJWR_BVZdT5okR5jO7A2CFLjc",
    "searchPageUrl": "https://www.google.com/maps/search/independent%20pharmacy%20Hartford%20CT/@39.68245004733214,-114.98210525670324,8z?hl=en",
    "searchString": "independent pharmacy Hartford CT",
    "language": "en",
    "rank": 5,
    "isAdvertisement": false,
    "imageUrl": "https://streetviewpixels-pa.googleapis.com/v1/thumbnail?panoid=cs5F5VgyHL8o9sBOcF65ng&cb_client=search.gws-prod.gps&w=408&h=240&yaw=232.95538&pitch=0&thumbfov=100",
    "kgmid": "/g/11gy3fzs5s",
    "classification": "chain",
    "is_independent": false,
    "confidence": 1.0,
    "source": "rule-based"
  },
  {
    "title": "Health Care Pharmacy",
    "price": null,
    "categoryName": "Pharmacy",
    "address": "753 Maple Ave, Hartford, CT 06114",
    "neighborhood": "Barry Square",
    "street": "753 Maple Ave",
    "city": "Hartford",
    "postalCode": "06114",
    "state": "Connecticut",
    "countryCode": "US",
    "website": "http://healthcarerxonline.com/",
    "phone": "(860) 263-8585",
    "phoneUnformatted": "+18602638585",
    "claimThisBusiness": false,
    "location": {
      "lat": 41.7395413,
      "lng": -72.6848182
    },
    "totalScore": 4.3,
    "permanentlyClosed": false,
    "temporarilyClosed": false,
    "placeId": "ChIJX_P0Mx9T5okRukOfQ9V8hkk",
    "categories": [
      "Pharmacy"
    ],
    "fid": "0x89e6531f33f4f35f:0x49867cd5439f43ba",
    "cid": "5298059267052356538",
    "reviewsCount": 20,
    "imagesCount": 9,
    "imageCategories": [],
    "scrapedAt": "2025-06-22T07:24:39.123Z",
    "googleFoodUrl": null,
    "hotelAds": [],
    "openingHours": [
      {
        "day": "Monday",
        "hours": "9\u202fAM to 6\u202fPM"
      },
      {
        "day": "Tuesday",
        "hours": "9\u202fAM to 6\u202fPM"
      },
      {
        "day": "Wednesday",
        "hours": "9\u202fAM to 6\u202fPM"
      },
      {
        "day": "Thursday",
        "hours": "9\u202fAM to 6\u202fPM"
      },
      {
        "day": "Friday",
        "hours": "9\u202fAM to 6\u202fPM"
      },
      {
        "day": "Saturday",
        "hours": "9\u202fAM to 1\u202fPM"
      },
      {
        "day": "Sunday",
        "hours": "Closed"
      }
    ],
    "peopleAlsoSearch": [],
    "placesTags": [],
    "reviewsTags": [],
    "additionalInfo": {
      "From the business": [
        {
          "Small business": true
        }
      ],
      "Service options": [
        {
          "Delivery": true
        },
        {
          "Same-day delivery": true
        }
      ],
      "Accessibility": [
        {
          "Wheelchair accessible entrance": true
        },
        {
          "Wheelchair accessible parking lot": true
        }
      ],
      "Crowd": [
        {
          "LGBTQ+ friendly": true
        },
        {
          "Transgender safespace": true
        }
      ],
      "Payments": [
        {
          "Checks": true
        },
        {
          "Debit cards": true
        },
        {
          "Credit cards": true
        }
      ]
    },
    "gasPrices": [],
    "url": "https://www.google.com/maps/search/?api=1&query=Health%20Care%20Pharmacy&query_place_id=ChIJX_P0Mx9T5okRukOfQ9V8hkk",
    "searchPageUrl": "https://www.google.com/maps/search/independent%20pharmacy%20Hartford%20CT/@39.68245004733214,-114.98210525670324,8z?hl=en",
    "searchString": "independent pharmacy Hartford CT",
    "language": "en",
    "rank": 6,
    "isAdvertisement": false,
    "imageUrl": "https://lh3.googleusercontent.com/p/AF1QipOjdvWoeM9neQ5FpaxLl6ehCnnDvW6116a5vcQ=w408-h416-k-no",
    "kgmid": "/g/11dxxpyyft",
    "classification": "hospital",
    "is_independent": false,
    "confidence": 1.0,
    "source": "rule-based"
  },
  {
    "title": "Maple Pharmacy",
    "price": null,
    "categoryName": "Pharmacy",
    "address": "438 New Britain Ave, Hartford, CT 06106",
    "neighborhood": "Behind the Rocks",
    "street": "438 New Britain Ave",
    "city": "Hartford",
    "postalCode": "06106",
    "state": "Connecticut",
    "countryCode": "US",
    "website": "http://www.mymaplerx.com/",
    "phone": "(860) 560-2000",
    "phoneUnformatted": "+18605602000",
    "claimThisBusiness": false,
    "location": {
      "lat": 41.739706,
      "lng": -72.6976622
    },
    "totalScore": 4,
    "permanentlyClosed": false,
    "temporarilyClosed": false,
    "placeId": null,
    "categories": [
      "Pharmacy"
    ],
    "fid": "0x89e65318e6230d2f:0x2cebda6422571ad4",
    "cid": "3236920880803551956",
    "reviewsCount": 21,
    "imagesCount": 5,
    "imageCategories": [],
    "scrapedAt": "2025-06-22T07:24:39.124Z",
    "googleFoodUrl": null,
    "hotelAds": [],
    "openingHours": [
      {
        "day": "Monday",
        "hours": "9\u202fAM to 6\u202fPM"
      },
      {
        "day": "Tuesday",
        "hours": "9\u202fAM to 6\u202fPM"
      },
      {
        "day": "Wednesday",
        "hours": "9\u202fAM to 6\u202fPM"
      },
      {
        "day": "Thursday",
        "hours": "9\u202fAM to 6\u202fPM"
      },
      {
        "day": "Friday",
        "hours": "9\u202fAM to 6\u202fPM"
      },
      {
        "day": "Saturday",
        "hours": "9\u202fAM to 2\u202fPM"
      },
      {
        "day": "Sunday",
        "hours": "Closed"
      }
    ],
    "peopleAlsoSearch": [],
    "placesTags": [],
    "reviewsTags": [],
    "additionalInfo": {
      "From the business": [
        {
          "Identifies as women-owned": true
        },
        {
          "Small business": true
        }
      ],
      "Service options": [
        {
          "Delivery": true
        },
        {
          "In-store pickup": true
        },
        {
          "Same-day delivery": true
        }
      ],
      "Accessibility": [
        {
          "Wheelchair accessible entrance": true
        },
        {
          "Wheelchair accessible parking lot": true
        }
      ],
      "Planning": [
        {
          "Quick visit": true
        }
      ],
      "Payments": [
        {
          "Checks": true
        },
        {
          "Credit cards": true
        },
        {
          "Debit cards": true
        }
      ]
    },
    "gasPrices": [],
    "url": "https://www.google.com/maps/search/?api=1&query=Maple%20Pharmacy&query_place_id=ChIJLw0j5hhT5okR1BpXImTa6yw",
    "searchPageUrl": "https://www.google.com/maps/search/independent%20pharmacy%20Hartford%20CT/@39.68245004733214,-114.98210525670324,8z?hl=en",
    "searchString": "independent pharmacy Hartford CT",
    "language": "en",
    "rank": 7,
    "isAdvertisement": false,
    "imageUrl": "https://lh3.googleusercontent.com/gps-cs-s/AC9h4nppPKuOKD7_MgWl9Bxiq7ydNZRIGNraMqc1RFEhU5UBNiclLFCCz5kosJBWZl-YDlp9R8bRjZ_-uVpusOR9Hs9qJHGYy04qClT_EYjZFtyB57QGFskd4vxlCyBGEt2f9QpE8FYQiA=w408-h306-k-no",
    "kgmid": "/g/11c6rxvwsh",
    "classification": "independent",
    "is_independent": true,
    "is_compounding": false,
    "confidence": 0.85,
    "source": "perplexity",
    "method": "llm",
    "query_location": "hartford_ct"
  },
  {
    "title": "Genoa Healthcare",
    "price": null,
    "categoryName": "Pharmacy",
    "address": "56 Coventry St Suite B, Hartford, CT 06112",
    "neighborhood": "Northeast",
    "street": "56 Coventry St Suite B",
    "city": "Hartford",
    "postalCode": "06112",
    "state": "Connecticut",
    "countryCode": "US",
    "website": "http://www.genoahealthcare.com/",
    "phone": "(860) 967-3116",
    "phoneUnformatted": "+18609673116",
    "claimThisBusiness": false,
    "location": {
      "lat": 41.7978077,
      "lng": -72.689639
    },
    "totalScore": 5,
    "permanentlyClosed": false,
    "temporarilyClosed": false,
    "placeId": "ChIJx7vnKL5V5okRIa1k8DU_Vxo",
    "categories": [
      "Pharmacy"
    ],
    "fid": "0x89e655be28e7bbc7:0x1a573f35f064ad21",
    "cid": "1898055268858899745",
    "reviewsCount": 7,
    "imagesCount": 1,
    "imageCategories": [],
    "scrapedAt": "2025-06-22T07:24:39.124Z",
    "googleFoodUrl": null,
    "hotelAds": [],
    "openingHours": [
      {
        "day": "Monday",
        "hours": "7:30\u202fAM to 4\u202fPM"
      },
      {
        "day": "Tuesday",
        "hours": "7:30\u202fAM to 4\u202fPM"
      },
      {
        "day": "Wednesday",
        "hours": "7:30\u202fAM to 4\u202fPM"
      },
      {
        "day": "Thursday",
        "hours": "7:30\u202fAM to 4\u202fPM"
      },
      {
        "day": "Friday",
        "hours": "7:30\u202fAM to 4\u202fPM"
      },
      {
        "day": "Saturday",
        "hours": "Closed"
      },
      {
        "day": "Sunday",
        "hours": "Closed"
      }
    ],
    "peopleAlsoSearch": [],
    "placesTags": [],
    "reviewsTags": [],
    "additionalInfo": {
      "Service options": [
        {
          "In-store shopping": true
        }
      ],
      "Accessibility": [
        {
          "Wheelchair accessible entrance": true
        },
        {
          "Wheelchair accessible parking lot": true
        }
      ],
      "Amenities": [
        {
          "Wi-Fi": true
        },
        {
          "Free Wi-Fi": true
        }
      ],
      "Payments": [
        {
          "Credit cards": true
        }
      ]
    },
    "gasPrices": [],
    "url": "https://www.google.com/maps/search/?api=1&query=Genoa%20Healthcare&query_place_id=ChIJx7vnKL5V5okRIa1k8DU_Vxo",
    "searchPageUrl": "https://www.google.com/maps/search/independent%20pharmacy%20Hartford%20CT/@39.68245004733214,-114.98210525670324,8z?hl=en",
    "searchString": "independent pharmacy Hartford CT",
    "language": "en",
    "rank": 8,
    "isAdvertisement": false,
    "imageUrl": "https://streetviewpixels-pa.googleapis.com/v1/thumbnail?panoid=tJSXVzeRwe-YIKwG1PKqhw&cb_client=search.gws-prod.gps&w=408&h=240&yaw=153.62659&pitch=0&thumbfov=100",
    "kgmid": "/g/11fd67q43n",
    "classification": "chain",
    "is_independent": false,
    "confidence": 1.0,
    "source": "rule-based"
  },
  {
    "title": "Pharmacy at Blue Back",
    "price": null,
    "categoryName": "Pharmacy",
    "address": "55 Isham Rd, West Hartford, CT 06107",
    "neighborhood": null,
    "street": "55 Isham Rd",
    "city": "West Hartford",
    "postalCode": "06107",
    "state": "Connecticut",
    "countryCode": "US",
    "website": "http://www.bluebackrx.com/",
    "phone": "(860) 656-6229",
    "phoneUnformatted": "+18606566229",
    "claimThisBusiness": false,
    "location": {
      "lat": 41.7606521,
      "lng": -72.740195
    },
    "totalScore": 4.2,
    "permanentlyClosed": false,
    "temporarilyClosed": false,
    "placeId": null,
    "categories": [
      "Pharmacy",
      "Health and beauty shop",
      "Vitamin & supplements store"
    ],
    "fid": "0x89e7ad909c727591:0x857487fb00d2b195",
    "cid": "9616460616463200661",
    "reviewsCount": 10,
    "imagesCount": 35,
    "imageCategories": [],
    "scrapedAt": "2025-06-22T07:24:39.124Z",
    "googleFoodUrl": null,
    "hotelAds": [],
    "openingHours": [
      {
        "day": "Monday",
        "hours": "9\u202fAM to 5\u202fPM"
      },
      {
        "day": "Tuesday",
        "hours": "9\u202fAM to 5\u202fPM"
      },
      {
        "day": "Wednesday",
        "hours": "9\u202fAM to 5\u202fPM"
      },
      {
        "day": "Thursday",
        "hours": "9\u202fAM to 5\u202fPM"
      },
      {
        "day": "Friday",
        "hours": "9\u202fAM to 5\u202fPM"
      },
      {
        "day": "Saturday",
        "hours": "Closed"
      },
      {
        "day": "Sunday",
        "hours": "Closed"
      }
    ],
    "peopleAlsoSearch": [],
    "placesTags": [],
    "reviewsTags": [],
    "additionalInfo": {
      "From the business": [
        {
          "Small business": true
        }
      ],
      "Service options": [
        {
          "Delivery": true
        },
        {
          "In-store pickup": true
        },
        {
          "In-store shopping": true
        }
      ],
      "Accessibility": [
        {
          "Wheelchair accessible entrance": true
        },
        {
          "Wheelchair accessible parking lot": true
        }
      ],
      "Amenities": [
        {
          "Wi-Fi": true
        },
        {
          "Free Wi-Fi": true
        }
      ],
      "Planning": [
        {
          "Quick visit": true
        }
      ],
      "Payments": [
        {
          "Credit cards": true
        },
        {
          "Debit cards": true
        },
        {
          "NFC mobile payments": true
        },
        {
          "Credit cards": true
        }
      ]
    },
    "gasPrices": [],
    "url": "https://www.google.com/maps/search/?api=1&query=Pharmacy%20at%20Blue%20Back&query_place_id=ChIJkXVynJCt54kRlbHSAPuHdIU",
    "searchPageUrl": "https://www.google.com/maps/search/independent%20pharmacy%20Hartford%20CT/@39.68245004733214,-114.98210525670324,8z?hl=en",
    "searchString": "independent pharmacy Hartford CT",
    "language": "en",
    "rank": 9,
    "isAdvertisement": false,
    "imageUrl": "https://lh3.googleusercontent.com/p/AF1QipPe-rq_ntVSVm3RH0b6hPsfxjSCyu_f67YlORsi=w408-h306-k-no",
    "kgmid": "/g/11spdjvsh_",
    "classification": "independent",
    "is_independent": true,
    "is_compounding": false,
    "confidence": 0.9,
    "source": "perplexity",
    "method": "llm",
    "query_location": "hartford_ct"
  },
  {
    "title": "Community Care Pharmacy",
    "price": null,
    "categoryName": "Pharmacy",
    "address": "408 New Britain Ave, Hartford, CT 06106",
    "neighborhood": "Behind the Rocks",
    "street": "408 New Britain Ave",
    "city": "Hartford",
    "postalCode": "06106",
    "state": "Connecticut",
    "countryCode": "US",
    "phone": "(860) 560-2000",
    "phoneUnformatted": "+18605602000",
    "claimThisBusiness": true,
    "location": {
      "lat": 41.7401773,
      "lng": -72.6964075
    },
    "totalScore": 4.2,
    "permanentlyClosed": true,
    "temporarilyClosed": false,
    "placeId": null,
    "categories": [
      "Pharmacy"
    ],
    "fid": "0x89e65326388b3aeb:0x6ef8acabe0a65a97",
    "cid": "7996330992604699287",
    "reviewsCount": 5,
    "imagesCount": 1,
    "imageCategories": [],
    "scrapedAt": "2025-06-22T07:24:39.124Z",
    "googleFoodUrl": null,
    "hotelAds": [],
    "openingHours": [],
    "peopleAlsoSearch": [],
    "placesTags": [],
    "reviewsTags": [],
    "additionalInfo": {
      "Service options": [
        {
          "Delivery": true
        }
      ],
      "Payments": [
        {
          "Debit cards": true
        },
        {
          "NFC mobile payments": true
        },
        {
          "Credit cards": true
        }
      ]
    },
    "gasPrices": [],
    "url": "https://www.google.com/maps/search/?api=1&query=Community%20Care%20Pharmacy&query_place_id=ChIJ6zqLOCZT5okRl1qm4Kus-G4",
    "searchPageUrl": "https://www.google.com/maps/search/independent%20pharmacy%20Hartford%20CT/@39.68245004733214,-114.98210525670324,8z?hl=en",
    "searchString": "independent pharmacy Hartford CT",
    "language": "en",
    "rank": 10,
    "isAdvertisement": false,
    "imageUrl": "https://streetviewpixels-pa.googleapis.com/v1/thumbnail?panoid=tRFoj6tgNz_e7UrqC1r2Pw&cb_client=search.gws-prod.gps&w=408&h=240&yaw=294.31482&pitch=0&thumbfov=100",
    "kgmid": "/g/1ygbbfxxp",
    "classification": "independent",
    "is_independent": true,
    "is_compounding": false,
    "confidence": 0.85,
    "source": "perplexity",
    "method": "llm",
    "query_location": "hartford_ct"
  },
  {
    "title": "Arrow Pharmacy",
    "price": null,
    "categoryName": "Pharmacy",
    "address": "500 Farmington Ave, Hartford, CT 06105",
    "neighborhood": "West End",
    "street": "500 Farmington Ave",
    "city": "Hartford",
    "postalCode": "06105",
    "state": "Connecticut",
    "countryCode": "US",
    "website": "https://arrowrxcenter.drugstore2door.com/",
    "phone": "(860) 522-9289",
    "phoneUnformatted": "+18605229289",
    "claimThisBusiness": false,
    "location": {
      "lat": 41.7668057,
      "lng": -72.708442
    },
    "totalScore": 4.2,
    "permanentlyClosed": false,
    "temporarilyClosed": false,
    "placeId": null,
    "categories": [
      "Pharmacy"
    ],
    "fid": "0x89e6534d157769a3:0x64994ceb6b700eaa",
    "cid": "7248909649233055402",
    "reviewsCount": 72,
    "imagesCount": 12,
    "imageCategories": [],
    "scrapedAt": "2025-06-22T07:24:40.691Z",
    "googleFoodUrl": null,
    "hotelAds": [],
    "openingHours": [
      {
        "day": "Monday",
        "hours": "9\u202fAM to 6\u202fPM"
      },
      {
        "day": "Tuesday",
        "hours": "9\u202fAM to 6\u202fPM"
      },
      {
        "day": "Wednesday",
        "hours": "9\u202fAM to 6\u202fPM"
      },
      {
        "day": "Thursday",
        "hours": "9\u202fAM to 6\u202fPM"
      },
      {
        "day": "Friday",
        "hours": "9\u202fAM to 6\u202fPM"
      },
      {
        "day": "Saturday",
        "hours": "9\u202fAM to 2\u202fPM"
      },
      {
        "day": "Sunday",
        "hours": "Closed"
      }
    ],
    "peopleAlsoSearch": [],
    "placesTags": [],
    "reviewsTags": [],
    "additionalInfo": {
      "From the business": [
        {
          "Small business": true
        }
      ],
      "Service options": [
        {
          "Delivery": true
        },
        {
          "Drive-through": true
        },
        {
          "In-store pickup": true
        },
        {
          "In-store shopping": true
        },
        {
          "Same-day delivery": true
        }
      ],
      "Accessibility": [
        {
          "Wheelchair accessible entrance": true
        },
        {
          "Wheelchair accessible parking lot": true
        }
      ],
      "Payments": [
        {
          "Credit cards": true
        },
        {
          "Debit cards": true
        },
        {
          "NFC mobile payments": true
        },
        {
          "Credit cards": true
        }
      ]
    },
    "gasPrices": [],
    "url": "https://www.google.com/maps/search/?api=1&query=Arrow%20Pharmacy&query_place_id=ChIJo2l3FU1T5okRqg5wa-tMmWQ",
    "searchPageUrl": "https://www.google.com/maps/search/independent%20pharmacy%20Hartford%20CT/@36.81849750000001,-111.81587931391937,8z?hl=en",
    "searchString": "independent pharmacy Hartford CT",
    "language": "en",
    "rank": 9,
    "isAdvertisement": false,
    "imageUrl": "https://lh3.googleusercontent.com/gps-cs-s/AC9h4nqYDTQKHSp3jFNqo2bhDVTb23cEAoK7adVIok1Bm3udzRyw-qEdyA8OCDcm2WW7CT45SVgMGEgtrNX5wFs70eTnFW3jA8Wxp1ZMR8PyRvLvB3EazBy6tmFX9PhlLLCeRi8_q22HpA=w408-h307-k-no",
    "kgmid": "/g/12613y4y2",
    "classification": "independent",
    "is_independent": true,
    "is_compounding": false,
    "confidence": 0.85,
    "source": "perplexity",
    "method": "llm",
    "query_location": "hartford_ct"
  },
  {
    "title": "West Hartford Apothecary",
    "price": null,
    "categoryName": "Pharmacy",
    "address": "994 Farmington Ave, West Hartford, CT 06107",
    "neighborhood": null,
    "street": "994 Farmington Ave",
    "city": "West Hartford",
    "postalCode": "06107",
    "state": "Connecticut",
    "countryCode": "US",
    "website": "http://westhartfordapothecary.com/?utm_source=gmb&utm_medium=referral",
    "phone": "(860) 904-6063",
    "phoneUnformatted": "+18609046063",
    "claimThisBusiness": false,
    "location": {
      "lat": 41.7611498,
      "lng": -72.7456004
    },
    "totalScore": 5,
    "permanentlyClosed": false,
    "temporarilyClosed": false,
    "placeId": "ChIJFb4OsKCt54kRQp2EzWw74j4",
    "categories": [
      "Pharmacy"
    ],
    "fid": "0x89e7ada0b00ebe15:0x3ee23b6ccd849d42",
    "cid": "4531249513578667330",
    "reviewsCount": 12,
    "imagesCount": 4,
    "imageCategories": [],
    "scrapedAt": "2025-06-22T07:24:41.875Z",
    "googleFoodUrl": null,
    "hotelAds": [],
    "openingHours": [
      {
        "day": "Monday",
        "hours": "9\u202fAM to 6\u202fPM"
      },
      {
        "day": "Tuesday",
        "hours": "9\u202fAM to 6\u202fPM"
      },
      {
        "day": "Wednesday",
        "hours": "9\u202fAM to 3:30\u202fPM"
      },
      {
        "day": "Thursday",
        "hours": "9\u202fAM to 6\u202fPM"
      },
      {
        "day": "Friday",
        "hours": "9\u202fAM to 6\u202fPM"
      },
      {
        "day": "Saturday",
        "hours": "Closed"
      },
      {
        "day": "Sunday",
        "hours": "Closed"
      }
    ],
    "peopleAlsoSearch": [],
    "placesTags": [],
    "reviewsTags": [],
    "additionalInfo": {
      "From the business": [
        {
          "Small business": true
        }
      ],
      "Service options": [
        {
          "Delivery": true
        },
        {
          "In-store pickup": true
        },
        {
          "In-store shopping": true
        },
        {
          "Same-day delivery": true
        }
      ],
      "Accessibility": [
        {
          "Wheelchair accessible entrance": true
        },
        {
          "Wheelchair accessible restroom": false
        },
        {
          "Wheelchair accessible seating": false
        }
      ],
      "Planning": [
        {
          "Quick visit": true
        }
      ],
      "Payments": [
        {
          "Checks": true
        },
        {
          "Credit cards": true
        },
        {
          "Debit cards": true
        },
        {
          "Credit cards": true
        }
      ],
      "Parking": [
        {
          "Paid street parking": true
        }
      ]
    },
    "gasPrices": [],
    "url": "https://www.google.com/maps/search/?api=1&query=West%20Hartford%20Apothecary&query_place_id=ChIJFb4OsKCt54kRQp2EzWw74j4",
    "searchPageUrl": "https://www.google.com/maps/search/independent%20pharmacy%20Hartford%20CT/@36.81849750000001,-102.31720148556776,8z?hl=en",
    "searchString": "independent pharmacy Hartford CT",
    "language": "en",
    "rank": 11,
    "isAdvertisement": false,
    "imageUrl": "https://lh3.googleusercontent.com/gps-cs-s/AC9h4nqVQwSS61lwzTspNZii7yAPOfg6fwsMPFEtsbSINHRmzhctoDdWYETjobdxxQRuYC4GCKP1YDsFMWCELfTejSf2vtKKQuLyQRRbJW_VOR_p2B8xlKG-KZ4WsfhWFCHYtjcoTlKmSg=w408-h543-k-no",
    "kgmid": "/g/11smv50krw",
    "classification": "hospital",
    "is_independent": false,
    "confidence": 1.0,
    "source": "rule-based"
  },
  {
    "title": "Hartford Hospital Community Pharmacy",
    "price": null,
    "categoryName": "Pharmacy",
    "address": "85 Seymour St # 1, Hartford, CT 06106",
    "neighborhood": "South Green",
    "street": "85 Seymour St # 1",
    "city": "Hartford",
    "postalCode": "06106",
    "state": "Connecticut",
    "countryCode": "US",
    "phone": "(860) 972-7070",
    "phoneUnformatted": "+18609727070",
    "claimThisBusiness": true,
    "location": {
      "lat": 41.7545043,
      "lng": -72.6812432
    },
    "totalScore": 3.8,
    "permanentlyClosed": false,
    "temporarilyClosed": false,
    "placeId": "ChIJwULvMElT5okRKbcJTbVQcb4",
    "categories": [
      "Pharmacy"
    ],
    "fid": "0x89e6534930ef42c1:0xbe7150b54d09b729",
    "cid": "13722838279186396969",
    "reviewsCount": 12,
    "imagesCount": 1,
    "imageCategories": [],
    "scrapedAt": "2025-06-22T07:24:41.875Z",
    "googleFoodUrl": null,
    "hotelAds": [],
    "openingHours": [
      {
        "day": "Monday",
        "hours": "9\u202fAM to 5:30\u202fPM"
      },
      {
        "day": "Tuesday",
        "hours": "9\u202fAM to 5:30\u202fPM"
      },
      {
        "day": "Wednesday",
        "hours": "9\u202fAM to 5:30\u202fPM"
      },
      {
        "day": "Thursday",
        "hours": "9\u202fAM to 5:30\u202fPM"
      },
      {
        "day": "Friday",
        "hours": "9\u202fAM to 5:30\u202fPM"
      },
      {
        "day": "Saturday",
        "hours": "9\u202fAM to 1\u202fPM"
      },
      {
        "day": "Sunday",
        "hours": "9\u202fAM to 1\u202fPM"
      }
    ],
    "peopleAlsoSearch": [],
    "placesTags": [],
    "reviewsTags": [],
    "additionalInfo": {
      "Accessibility": [
        {
          "Wheelchair accessible entrance": true
        },
        {
          "Wheelchair accessible parking lot": true
        }
      ]
    },
    "gasPrices": [],
    "url": "https://www.google.com/maps/search/?api=1&query=Hartford%20Hospital%20Community%20Pharmacy&query_place_id=ChIJwULvMElT5okRKbcJTbVQcb4",
    "searchPageUrl": "https://www.google.com/maps/search/independent%20pharmacy%20Hartford%20CT/@36.81849750000001,-102.31720148556776,8z?hl=en",
    "searchString": "independent pharmacy Hartford CT",
    "language": "en",
    "rank": 12,
    "isAdvertisement": false,
    "imageUrl": "https://streetviewpixels-pa.googleapis.com/v1/thumbnail?panoid=qGFfumTPfsXqnV1TvtQSHA&cb_client=search.gws-prod.gps&w=408&h=240&yaw=269.60764&pitch=0&thumbfov=100",
    "kgmid": "/g/11q9s8x7v3",
    "classification": "hospital",
    "is_independent": false,
    "confidence": 1.0,
    "source": "rule-based"
  },
  {
    "title": "Suburban pharmacy",
    "price": null,
    "categoryName": "Pharmacy",
    "address": "342 N Main St, West Hartford, CT 06117",
    "neighborhood": null,
    "street": "342 N Main St",
    "city": "West Hartford",
    "postalCode": "06117",
    "state": "Connecticut",
    "countryCode": "US",
    "website": "http://www.suburbanltc.com/",
    "phone": "(860) 882-1808",
    "phoneUnformatted": "+18608821808",
    "claimThisBusiness": true,
    "location": {
      "lat": 41.7852759,
      "lng": -72.7462115
    },
    "totalScore": 4,
    "permanentlyClosed": false,
    "temporarilyClosed": false,
    "placeId": null,
    "categories": [
      "Pharmacy"
    ],
    "fid": "0x89e7ab004b77f8fb:0x2e5e03fe20cff74e",
    "cid": "3341112363562563406",
    "reviewsCount": 8,
    "imagesCount": 2,
    "imageCategories": [],
    "scrapedAt": "2025-06-22T07:24:41.875Z",
    "googleFoodUrl": null,
    "hotelAds": [],
    "openingHours": [],
    "peopleAlsoSearch": [],
    "placesTags": [],
    "reviewsTags": [],
    "additionalInfo": {
      "Service options": [
        {
          "Delivery": true
        }
      ],
      "Accessibility": [
        {
          "Wheelchair accessible entrance": true
        },
        {
          "Wheelchair accessible parking lot": true
        }
      ],
      "Payments": [
        {
          "Credit cards": true
        }
      ]
    },
    "gasPrices": [],
    "url": "https://www.google.com/maps/search/?api=1&query=Suburban%20pharmacy&query_place_id=ChIJ-_h3SwCr54kRTvfPIP4DXi4",
    "searchPageUrl": "https://www.google.com/maps/search/independent%20pharmacy%20Hartford%20CT/@36.81849750000001,-102.31720148556776,8z?hl=en",
    "searchString": "independent pharmacy Hartford CT",
    "language": "en",
    "rank": 13,
    "isAdvertisement": false,
    "imageUrl": "https://lh3.googleusercontent.com/gps-cs-s/AC9h4nofXA9vnSzU-bdui84uH3dJRzLVn2ccCz4Jbi_ZuhCKs8O4z7bgn-a9k4fxdQd2V93Rva7OYWfiNU9esH02zra_pdTsVaj70FtUv_91nHNukZ_le4LalTZIoiC_7s-FHmjKiDeU=w408-h725-k-no",
    "kgmid": "/g/11y50p8mcr",
    "classification": "independent",
    "is_independent": true,
    "is_compounding": false,
    "confidence": 0.85,
    "source": "perplexity",
    "method": "llm",
    "query_location": "hartford_ct"
  },
  {
    "title": "The Medicine Shoppe Pharmacy",
    "price": null,
    "categoryName": "Pharmacy",
    "address": "774 Farmington Ave, West Hartford, CT 06119",
    "neighborhood": null,
    "street": "774 Farmington Ave",
    "city": "West Hartford",
    "postalCode": "06119",
    "state": "Connecticut",
    "countryCode": "US",
    "website": "https://westhartford.medicineshoppe.com/",
    "phone": "(860) 232-4595",
    "phoneUnformatted": "+18602324595",
    "claimThisBusiness": false,
    "location": {
      "lat": 41.7653222,
      "lng": -72.7259483
    },
    "totalScore": 4.7,
    "permanentlyClosed": false,
    "temporarilyClosed": false,
    "placeId": "ChIJc_bzZ7ms54kR7KjgC0Ra_xg",
    "categories": [
      "Pharmacy"
    ],
    "fid": "0x89e7acb967f3f673:0x18ff5a440be0a8ec",
    "cid": "1801257624275036396",
    "reviewsCount": 11,
    "imagesCount": 2,
    "imageCategories": [],
    "scrapedAt": "2025-06-22T07:24:41.876Z",
    "googleFoodUrl": null,
    "hotelAds": [],
    "openingHours": [
      {
        "day": "Monday",
        "hours": "9\u202fAM to 6\u202fPM"
      },
      {
        "day": "Tuesday",
        "hours": "9\u202fAM to 6\u202fPM"
      },
      {
        "day": "Wednesday",
        "hours": "9\u202fAM to 6\u202fPM"
      },
      {
        "day": "Thursday",
        "hours": "9\u202fAM to 6\u202fPM"
      },
      {
        "day": "Friday",
        "hours": "9\u202fAM to 6\u202fPM"
      },
      {
        "day": "Saturday",
        "hours": "9\u202fAM to 1\u202fPM"
      },
      {
        "day": "Sunday",
        "hours": "Closed"
      }
    ],
    "peopleAlsoSearch": [],
    "placesTags": [],
    "reviewsTags": [],
    "additionalInfo": {
      "Service options": [
        {
          "Delivery": true
        },
        {
          "In-store pickup": true
        }
      ],
      "Accessibility": [
        {
          "Wheelchair accessible entrance": true
        },
        {
          "Wheelchair accessible parking lot": true
        }
      ],
      "Planning": [
        {
          "Quick visit": true
        }
      ],
      "Payments": [
        {
          "Credit cards": true
        },
        {
          "Debit cards": true
        },
        {
          "NFC mobile payments": true
        },
        {
          "Credit cards": true
        }
      ]
    },
    "gasPrices": [],
    "url": "https://www.google.com/maps/search/?api=1&query=The%20Medicine%20Shoppe%20Pharmacy&query_place_id=ChIJc_bzZ7ms54kR7KjgC0Ra_xg",
    "searchPageUrl": "https://www.google.com/maps/search/independent%20pharmacy%20Hartford%20CT/@36.81849750000001,-102.31720148556776,8z?hl=en",
    "searchString": "independent pharmacy Hartford CT",
    "language": "en",
    "rank": 14,
    "isAdvertisement": false,
    "imageUrl": "https://lh3.googleusercontent.com/gps-cs-s/AC9h4nrzCvTNa0O20SvqlIgI3div7D9MkiFSe7FxIyVpMtTxNU3b0hAcz-wOTQ2qINRjS5SH7V4rKmaHXC-Ir83kjrcL9SE0psE29eYsO40O2s2RyaRMS4lYjt0CMdeHXuuNm4kSzVjXvA=w408-h408-k-no",
    "kgmid": "/g/1tnhzb_3",
    "classification": "chain",
    "is_independent": false,
    "confidence": 1.0,
    "source": "rule-based"
  },
  {
    "title": "St. Francis Pharmacy",
    "price": null,
    "categoryName": "Pharmacy",
    "address": "131 Coventry St #2, Hartford, CT 06112",
    "neighborhood": null,
    "street": "131 Coventry St #2",
    "city": "Hartford",
    "postalCode": "06112",
    "state": "Connecticut",
    "countryCode": "US",
    "phone": "(860) 286-2766",
    "phoneUnformatted": "+18602862766",
    "claimThisBusiness": false,
    "location": {
      "lat": 41.8001901,
      "lng": -72.691106
    },
    "totalScore": 4.3,
    "permanentlyClosed": false,
    "temporarilyClosed": false,
    "placeId": null,
    "categories": [
      "Pharmacy"
    ],
    "fid": "0x89e6550b075132f5:0xdb20d4383751ca69",
    "cid": "15789853631472323177",
    "reviewsCount": 3,
    "imagesCount": 3,
    "imageCategories": [],
    "scrapedAt": "2025-06-22T07:24:41.876Z",
    "googleFoodUrl": null,
    "hotelAds": [],
    "openingHours": [
      {
        "day": "Monday",
        "hours": "9\u202fAM to 5\u202fPM"
      },
      {
        "day": "Tuesday",
        "hours": "9\u202fAM to 5\u202fPM"
      },
      {
        "day": "Wednesday",
        "hours": "9\u202fAM to 5\u202fPM"
      },
      {
        "day": "Thursday",
        "hours": "9\u202fAM to 5\u202fPM"
      },
      {
        "day": "Friday",
        "hours": "9\u202fAM to 5\u202fPM"
      },
      {
        "day": "Saturday",
        "hours": "Closed"
      },
      {
        "day": "Sunday",
        "hours": "Closed"
      }
    ],
    "peopleAlsoSearch": [],
    "placesTags": [],
    "reviewsTags": [],
    "additionalInfo": {
      "Accessibility": [
        {
          "Wheelchair accessible entrance": true
        },
        {
          "Wheelchair accessible parking lot": true
        }
      ],
      "Amenities": [
        {
          "Wi-Fi": true
        },
        {
          "Free Wi-Fi": true
        }
      ],
      "Payments": [
        {
          "Credit cards": true
        }
      ]
    },
    "gasPrices": [],
    "url": "https://www.google.com/maps/search/?api=1&query=St.%20Francis%20Pharmacy&query_place_id=ChIJ9TJRBwtV5okRacpRNzjUINs",
    "searchPageUrl": "https://www.google.com/maps/search/independent%20pharmacy%20Hartford%20CT/@36.81849750000001,-102.31720148556776,8z?hl=en",
    "searchString": "independent pharmacy Hartford CT",
    "language": "en",
    "rank": 15,
    "isAdvertisement": false,
    "imageUrl": "https://lh3.googleusercontent.com/p/AF1QipNSr8u7K99PHCBJXUzbnCaSzAqqwX5PD8XIvsqI=w408-h321-k-no",
    "kgmid": "/g/11q8gxlv5s",
    "classification": "independent",
    "is_independent": true,
    "is_compounding": false,
    "confidence": 0.85,
    "source": "perplexity",
    "method": "llm",
    "query_location": "hartford_ct"
  },
  {
    "title": "First Choice Health Center Pharmacy",
    "price": null,
    "categoryName": "Pharmacy",
    "address": "110 Connecticut Blvd, East Hartford, CT 06108",
    "neighborhood": null,
    "street": "110 Connecticut Blvd",
    "city": "East Hartford",
    "postalCode": "06108",
    "state": "Connecticut",
    "countryCode": "US",
    "website": "http://www.firstchc.org/",
    "phone": "(860) 610-6150",
    "phoneUnformatted": "+18606106150",
    "claimThisBusiness": false,
    "location": {
      "lat": 41.7698979,
      "lng": -72.649383
    },
    "totalScore": 4.5,
    "permanentlyClosed": false,
    "temporarilyClosed": false,
    "placeId": "ChIJSaCymXdU5okRtWCMAlRljRo",
    "categories": [
      "Pharmacy"
    ],
    "fid": "0x89e6547799b2a049:0x1a8d6554028c60b5",
    "cid": "1913296828196741301",
    "reviewsCount": 17,
    "imagesCount": 3,
    "imageCategories": [],
    "scrapedAt": "2025-06-22T07:24:41.876Z",
    "googleFoodUrl": null,
    "hotelAds": [],
    "openingHours": [
      {
        "day": "Monday",
        "hours": "8:30\u202fAM to 5:30\u202fPM"
      },
      {
        "day": "Tuesday",
        "hours": "8:30\u202fAM to 5\u202fPM"
      },
      {
        "day": "Wednesday",
        "hours": "8:30\u202fAM to 5\u202fPM"
      },
      {
        "day": "Thursday",
        "hours": "8:30\u202fAM to 5:30\u202fPM"
      },
      {
        "day": "Friday",
        "hours": "8:30\u202fAM to 3:30\u202fPM"
      },
      {
        "day": "Saturday",
        "hours": "Closed"
      },
      {
        "day": "Sunday",
        "hours": "Closed"
      }
    ],
    "peopleAlsoSearch": [],
    "placesTags": [],
    "reviewsTags": [],
    "additionalInfo": {
      "From the business": [
        {
          "Small business": true
        }
      ],
      "Accessibility": [
        {
          "Wheelchair accessible entrance": true
        },
        {
          "Wheelchair accessible parking lot": true
        }
      ],
      "Amenities": [
        {
          "Wi-Fi": true
        },
        {
          "Free Wi-Fi": true
        }
      ],
      "Payments": [
        {
          "Credit cards": true
        }
      ]
    },
    "gasPrices": [],
    "url": "https://www.google.com/maps/search/?api=1&query=First%20Choice%20Health%20Center%20Pharmacy&query_place_id=ChIJSaCymXdU5okRtWCMAlRljRo",
    "searchPageUrl": "https://www.google.com/maps/search/independent%20pharmacy%20Hartford%20CT/@36.81849750000001,-102.31720148556776,8z?hl=en",
    "searchString": "independent pharmacy Hartford CT",
    "language": "en",
    "rank": 16,
    "isAdvertisement": false,
    "imageUrl": "https://lh3.googleusercontent.com/p/AF1QipO-2_1WJGDepVhvUT6cqmhl898Zjqmzx7IdwTHG=w408-h544-k-no",
    "kgmid": "/g/11nfygn563",
    "classification": "hospital",
    "is_independent": false,
    "confidence": 1.0,
    "source": "rule-based"
  },
  {
    "title": "Arrow Prescription Center",
    "price": null,
    "categoryName": "Pharmacy",
    "address": "131 Coventry St #2, Hartford, CT 06112",
    "neighborhood": null,
    "street": "131 Coventry St #2",
    "city": "Hartford",
    "postalCode": "06112",
    "state": "Connecticut",
    "countryCode": "US",
    "phone": "(860) 286-2766",
    "phoneUnformatted": "+18602862766",
    "claimThisBusiness": true,
    "location": {
      "lat": 41.8001901,
      "lng": -72.691106
    },
    "totalScore": 5,
    "permanentlyClosed": false,
    "temporarilyClosed": false,
    "placeId": null,
    "categories": [
      "Pharmacy"
    ],
    "fid": "0x89e654c3bc22d7b7:0x21c6182ec5ba1b8d",
    "cid": "2433659237805202317",
    "reviewsCount": 1,
    "imagesCount": 1,
    "imageCategories": [],
    "scrapedAt": "2025-06-22T07:24:41.876Z",
    "googleFoodUrl": null,
    "hotelAds": [],
    "openingHours": [
      {
        "day": "Monday",
        "hours": "9\u202fAM to 5\u202fPM"
      },
      {
        "day": "Tuesday",
        "hours": "9:30\u202fAM to 5\u202fPM"
      },
      {
        "day": "Wednesday",
        "hours": "9:30\u202fAM to 5\u202fPM"
      },
      {
        "day": "Thursday",
        "hours": "9:30\u202fAM to 5\u202fPM"
      },
      {
        "day": "Friday",
        "hours": "9\u202fAM to 5\u202fPM"
      },
      {
        "day": "Saturday",
        "hours": "Closed"
      },
      {
        "day": "Sunday",
        "hours": "Closed"
      }
    ],
    "peopleAlsoSearch": [],
    "placesTags": [],
    "reviewsTags": [],
    "additionalInfo": {
      "Accessibility": [
        {
          "Wheelchair accessible entrance": true
        },
        {
          "Wheelchair accessible parking lot": true
        }
      ],
      "Payments": [
        {
          "Credit cards": true
        }
      ]
    },
    "gasPrices": [],
    "url": "https://www.google.com/maps/search/?api=1&query=Arrow%20Prescription%20Center&query_place_id=ChIJt9civMNU5okRjRu6xS4YxiE",
    "searchPageUrl": "https://www.google.com/maps/search/independent%20pharmacy%20Hartford%20CT/@36.81849750000001,-102.31720148556776,8z?hl=en",
    "searchString": "independent pharmacy Hartford CT",
    "language": "en",
    "rank": 17,
    "isAdvertisement": false,
    "imageUrl": "https://streetviewpixels-pa.googleapis.com/v1/thumbnail?panoid=H_bvkH94DhMRF_qT78__4A&cb_client=search.gws-prod.gps&w=408&h=240&yaw=213.13391&pitch=0&thumbfov=100",
    "kgmid": "/g/1260cn5tb",
    "classification": "independent",
    "is_independent": true,
    "is_compounding": false,
    "confidence": 0.85,
    "source": "perplexity",
    "method": "llm",
    "query_location": "hartford_ct"
  },
  {
    "title": "Walgreens Pharmacy",
    "description": "Department of the Walgreens chain providing prescription medications & other health-related items.",
    "price": "$$",
    "categoryName": "Pharmacy",
    "address": "100 Retreat Ave #102b, Hartford, CT 06106",
    "neighborhood": "South Green",
    "street": "100 Retreat Ave #102b",
    "city": "Hartford",
    "postalCode": "06106",
    "state": "Connecticut",
    "countryCode": "US",
    "website": "https://www.walgreens.com/locator/walgreens-100+retreat+avenue-hartford-ct-06106/id=15465",
    "phone": "(860) 595-1813",
    "phoneUnformatted": "+18605951813",
    "claimThisBusiness": false,
    "location": {
      "lat": 41.7530898,
      "lng": -72.6786423
    },
    "totalScore": 4.8,
    "permanentlyClosed": false,
    "temporarilyClosed": false,
    "placeId": "ChIJl4EIOBNT5okR9yVEWbitW0w",
    "categories": [
      "Pharmacy"
    ],
    "fid": "0x89e6531338088197:0x4c5badb8594425f7",
    "cid": "5502182377046418935",
    "reviewsCount": 12,
    "imagesCount": 2,
    "imageCategories": [],
    "scrapedAt": "2025-06-22T07:24:41.876Z",
    "googleFoodUrl": null,
    "hotelAds": [],
    "openingHours": [
      {
        "day": "Monday",
        "hours": "8:30\u202fAM to 5:30\u202fPM"
      },
      {
        "day": "Tuesday",
        "hours": "8:30\u202fAM to 5:30\u202fPM"
      },
      {
        "day": "Wednesday",
        "hours": "8:30\u202fAM to 5:30\u202fPM"
      },
      {
        "day": "Thursday",
        "hours": "8:30\u202fAM to 5:30\u202fPM"
      },
      {
        "day": "Friday",
        "hours": "8:30\u202fAM to 5:30\u202fPM"
      },
      {
        "day": "Saturday",
        "hours": "Closed"
      },
      {
        "day": "Sunday",
        "hours": "Closed"
      }
    ],
    "peopleAlsoSearch": [],
    "placesTags": [],
    "reviewsTags": [],
    "additionalInfo": {
      "Service options": [
        {
          "In-store pickup": true
        }
      ],
      "Accessibility": [
        {
          "Wheelchair accessible entrance": true
        },
        {
          "Wheelchair accessible parking lot": true
        }
      ],
      "Planning": [
        {
          "Quick visit": true
        }
      ],
      "Payments": [
        {
          "Checks": true
        },
        {
          "Credit cards": true
        },
        {
          "Debit cards": true
        },
        {
          "Credit cards": true
        }
      ]
    },
    "gasPrices": [],
    "url": "https://www.google.com/maps/search/?api=1&query=Walgreens%20Pharmacy&query_place_id=ChIJl4EIOBNT5okR9yVEWbitW0w",
    "searchPageUrl": "https://www.google.com/maps/search/independent%20pharmacy%20Hartford%20CT/@36.81849750000001,-102.31720148556776,8z?hl=en",
    "searchString": "independent pharmacy Hartford CT",
    "language": "en",
    "rank": 18,
    "isAdvertisement": false,
    "imageUrl": "https://lh3.googleusercontent.com/p/AF1QipOwlSp7HJVf3HHilXfXIx-Fm0SA5-zB2RnLEvTe=w408-h408-k-no",
    "kgmid": "/g/11b8c2tnr8",
    "classification": "chain",
    "is_independent": false,
    "confidence": 1.0,
    "source": "rule-based"
  },
  {
    "title": "Walgreens Specialty Pharmacy",
    "price": null,
    "categoryName": "Pharmacy",
    "address": "100 Retreat Ave, Hartford, CT 06106",
    "neighborhood": "South Green",
    "street": "100 Retreat Ave",
    "city": "Hartford",
    "postalCode": "06106",
    "state": "Connecticut",
    "countryCode": "US",
    "phone": "(860) 595-1813",
    "phoneUnformatted": "+18605951813",
    "claimThisBusiness": false,
    "location": {
      "lat": 41.753063,
      "lng": -72.678675
    },
    "permanentlyClosed": false,
    "temporarilyClosed": false,
    "placeId": "ChIJmWMW3n9T5okRJXAjmcngNcc",
    "categories": [
      "Pharmacy"
    ],
    "fid": "0x89e6537fde166399:0xc735e0c999237025",
    "cid": "14354626543775608869",
    "reviewsCount": 0,
    "imagesCount": 1,
    "imageCategories": [],
    "scrapedAt": "2025-06-22T07:24:41.876Z",
    "googleFoodUrl": null,
    "hotelAds": [],
    "openingHours": [
      {
        "day": "Monday",
        "hours": "8:30\u202fAM to 5:30\u202fPM"
      },
      {
        "day": "Tuesday",
        "hours": "8:30\u202fAM to 5:30\u202fPM"
      },
      {
        "day": "Wednesday",
        "hours": "8:30\u202fAM to 5:30\u202fPM"
      },
      {
        "day": "Thursday",
        "hours": "8:30\u202fAM to 5:30\u202fPM"
      },
      {
        "day": "Friday",
        "hours": "8:30\u202fAM to 5:30\u202fPM"
      },
      {
        "day": "Saturday",
        "hours": "Closed"
      },
      {
        "day": "Sunday",
        "hours": "Closed"
      }
    ],
    "peopleAlsoSearch": [],
    "placesTags": [],
    "reviewsTags": [],
    "gasPrices": [],
    "url": "https://www.google.com/maps/search/?api=1&query=Walgreens%20Specialty%20Pharmacy&query_place_id=ChIJmWMW3n9T5okRJXAjmcngNcc",
    "searchPageUrl": "https://www.google.com/maps/search/independent%20pharmacy%20Hartford%20CT/@36.81849750000001,-102.31720148556776,8z?hl=en",
    "searchString": "independent pharmacy Hartford CT",
    "language": "en",
    "rank": 19,
    "isAdvertisement": false,
    "imageUrl": "https://streetviewpixels-pa.googleapis.com/v1/thumbnail?panoid=nKZ8HLN6yOdMvgv0b1VTZg&cb_client=search.gws-prod.gps&w=408&h=240&yaw=101.06085&pitch=0&thumbfov=100",
    "kgmid": "/g/11ydlt416_",
    "classification": "chain",
    "is_independent": false,
    "confidence": 1.0,
    "source": "rule-based"
  }
]