[
  {
    "title": "Synchrony Pharmacy - Columbus",
    "price": null,
    "categoryName": "Pharmacy",
    "address": "4014 Venture Ct, Columbus, OH 43228",
    "neighborhood": "Golfview Woods",
    "street": "4014 Venture Ct",
    "city": "Columbus",
    "postalCode": "43228",
    "state": "Ohio",
    "countryCode": "US",
    "website": "https://www.synchronyhs.com/pharmacy/?utm_source=google&utm_medium=organic&utm_campaign=gbpcolumbus",
    "phone": "(866) 579-3181",
    "phoneUnformatted": "+18665793181",
    "claimThisBusiness": false,
    "location": {
      "lat": 40.0001915,
      "lng": -83.1142442
    },
    "totalScore": 3.6,
    "permanentlyClosed": false,
    "temporarilyClosed": false,
    "placeId": null,
    "categories": [
      "Pharmacy"
    ],
    "fid": "0x88388efd1ab85353:0xed3063ca8339a746",
    "cid": "17091270307307169606",
    "reviewsCount": 13,
    "imagesCount": 2,
    "imageCategories": [],
    "scrapedAt": "2025-06-22T06:21:44.609Z",
    "googleFoodUrl": null,
    "hotelAds": [],
    "openingHours": [
      {
        "day": "Monday",
        "hours": "9\u202fAM to 5\u202fPM"
      },
      {
        "day": "Tuesday",
        "hours": "9\u202fAM to 5\u202fPM"
      },
      {
        "day": "Wednesday",
        "hours": "9\u202fAM to 5\u202fPM"
      },
      {
        "day": "Thursday",
        "hours": "9\u202fAM to 5\u202fPM"
      },
      {
        "day": "Friday",
        "hours": "9\u202fAM to 5\u202fPM"
      },
      {
        "day": "Saturday",
        "hours": "Open 24 hours"
      },
      {
        "day": "Sunday",
        "hours": "Open 24 hours"
      }
    ],
    "peopleAlsoSearch": [],
    "placesTags": [],
    "reviewsTags": [],
    "additionalInfo": {
      "Service options": [
        {
          "Delivery": true
        }
      ],
      "Accessibility": [
        {
          "Wheelchair accessible entrance": true
        },
        {
          "Wheelchair accessible parking lot": true
        }
      ],
      "Payments": [
        {
          "Credit cards": true
        }
      ]
    },
    "gasPrices": [],
    "url": "https://www.google.com/maps/search/?api=1&query=Synchrony%20Pharmacy%20-%20Columbus&query_place_id=ChIJU1O4Gv2OOIgRRqc5g8pjMO0",
    "searchPageUrl": "https://www.google.com/maps/search/independent%20pharmacy%20Columbus%20OH/@18.466631353829076,-75.08316902999725,13z?hl=en",
    "searchString": "independent pharmacy Columbus OH",
    "language": "en",
    "rank": 1,
    "isAdvertisement": false,
    "imageUrl": "https://lh3.googleusercontent.com/p/AF1QipPohSfK4GbCYrhvsgA7Ge83sMfxGppZ3E1FUYpj=w426-h240-k-no",
    "kgmid": "/g/1vnnk1kq",
    "classification": "independent",
    "is_independent": true,
    "is_compounding": false,
    "confidence": 0.85,
    "source": "perplexity",
    "method": "llm"
  },
  {
    "title": "Trio Pharmacy",
    "price": null,
    "categoryName": "Pharmacy",
    "address": "1570 Cleveland Ave, Columbus, OH 43211",
    "neighborhood": "South Linden",
    "street": "1570 Cleveland Ave",
    "city": "Columbus",
    "postalCode": "43211",
    "state": "Ohio",
    "countryCode": "US",
    "website": "http://www.triopharmacy.com/",
    "phone": "(614) 298-8180",
    "phoneUnformatted": "+16142988180",
    "claimThisBusiness": false,
    "location": {
      "lat": 39.9976238,
      "lng": -82.9771851
    },
    "totalScore": 4.4,
    "permanentlyClosed": false,
    "temporarilyClosed": false,
    "placeId": null,
    "categories": [
      "Pharmacy"
    ],
    "fid": "0x8838894134da069f:0x124c97a974a81444",
    "cid": "1318595544975152196",
    "reviewsCount": 25,
    "imagesCount": 6,
    "imageCategories": [],
    "scrapedAt": "2025-06-22T06:21:44.610Z",
    "googleFoodUrl": null,
    "hotelAds": [],
    "openingHours": [
      {
        "day": "Monday",
        "hours": "8\u202fAM to 5\u202fPM"
      },
      {
        "day": "Tuesday",
        "hours": "8\u202fAM to 5\u202fPM"
      },
      {
        "day": "Wednesday",
        "hours": "8\u202fAM to 5\u202fPM"
      },
      {
        "day": "Thursday",
        "hours": "8\u202fAM to 5\u202fPM"
      },
      {
        "day": "Friday",
        "hours": "8\u202fAM to 5\u202fPM"
      },
      {
        "day": "Saturday",
        "hours": "Closed"
      },
      {
        "day": "Sunday",
        "hours": "Closed"
      }
    ],
    "additionalOpeningHours": {
      "Pickup": [
        {
          "day": "Monday",
          "hours": "8\u202fAM\u20135\u202fPM"
        },
        {
          "day": "Tuesday",
          "hours": "8\u202fAM\u20135\u202fPM"
        },
        {
          "day": "Wednesday",
          "hours": "8\u202fAM\u20135\u202fPM"
        },
        {
          "day": "Thursday",
          "hours": "8\u202fAM\u20135\u202fPM"
        },
        {
          "day": "Friday",
          "hours": "8\u202fAM\u20135\u202fPM"
        },
        {
          "day": "Saturday",
          "hours": "Closed"
        },
        {
          "day": "Sunday",
          "hours": "Closed"
        }
      ],
      "Delivery": [
        {
          "day": "Monday",
          "hours": "Closed"
        },
        {
          "day": "Tuesday",
          "hours": "Closed"
        },
        {
          "day": "Wednesday",
          "hours": "10:30\u202fAM\u20136\u202fPM"
        },
        {
          "day": "Thursday",
          "hours": "10:30\u202fAM\u20136\u202fPM"
        },
        {
          "day": "Friday",
          "hours": "Closed"
        },
        {
          "day": "Saturday",
          "hours": "Closed"
        },
        {
          "day": "Sunday",
          "hours": "Closed"
        }
      ]
    },
    "peopleAlsoSearch": [],
    "placesTags": [],
    "reviewsTags": [],
    "additionalInfo": {
      "From the business": [
        {
          "Identifies as Black-owned": true
        },
        {
          "Identifies as women-owned": true
        },
        {
          "Small business": true
        }
      ],
      "Service options": [
        {
          "Curbside pickup": true
        },
        {
          "Delivery": true
        },
        {
          "In-store pickup": true
        },
        {
          "In-store shopping": true
        },
        {
          "Same-day delivery": true
        },
        {
          "Arabic": true
        }
      ],
      "Accessibility": [
        {
          "Wheelchair accessible entrance": true
        },
        {
          "Wheelchair accessible parking lot": true
        },
        {
          "Wheelchair accessible restroom": true
        },
        {
          "Wheelchair accessible seating": true
        }
      ],
      "Amenities": [
        {
          "Gender-neutral restroom": true
        }
      ],
      "Crowd": [
        {
          "LGBTQ+ friendly": true
        },
        {
          "Transgender safespace": true
        }
      ],
      "Planning": [
        {
          "Quick visit": true
        }
      ],
      "Payments": [
        {
          "Credit cards": true
        },
        {
          "Debit cards": true
        },
        {
          "NFC mobile payments": true
        },
        {
          "Credit cards": true
        }
      ],
      "Parking": [
        {
          "Free parking garage": true
        },
        {
          "Free parking lot": true
        }
      ]
    },
    "gasPrices": [],
    "url": "https://www.google.com/maps/search/?api=1&query=Trio%20Pharmacy&query_place_id=ChIJnwbaNEGJOIgRRBSodKmXTBI",
    "searchPageUrl": "https://www.google.com/maps/search/independent%20pharmacy%20Columbus%20OH/@18.466631353829076,-75.08316902999725,13z?hl=en",
    "searchString": "independent pharmacy Columbus OH",
    "language": "en",
    "rank": 2,
    "isAdvertisement": false,
    "imageUrl": "https://lh3.googleusercontent.com/p/AF1QipN79mhmlS4Yg15zMXjm1t4a4_bAsTkpJxRlHPA-=w408-h612-k-no",
    "kgmid": "/g/11bwd00wf0",
    "classification": "independent",
    "is_independent": true,
    "is_compounding": false,
    "confidence": 0.9,
    "source": "perplexity",
    "method": "llm"
  },
  {
    "title": "Central Ohio Compounding Pharmacy",
    "price": null,
    "categoryName": "Pharmacy",
    "address": "5625 N High St #1, Worthington, OH 43085",
    "neighborhood": "Northbrook",
    "street": "5625 N High St #1",
    "city": "Worthington",
    "postalCode": "43085",
    "state": "Ohio",
    "countryCode": "US",
    "website": "https://www.cocprx.com/",
    "phone": "(614) 847-0109",
    "phoneUnformatted": "+16148470109",
    "claimThisBusiness": false,
    "location": {
      "lat": 40.0770468,
      "lng": -83.018987
    },
    "totalScore": 4.8,
    "permanentlyClosed": false,
    "temporarilyClosed": false,
    "placeId": null,
    "categories": [
      "Pharmacy",
      "Medical supply store",
      "Pain management physician",
      "Veterinary pharmacy"
    ],
    "fid": "0x8838f31e0f91aa73:0x11952bcc964064dd",
    "cid": "1266967027868787933",
    "reviewsCount": 132,
    "imagesCount": 23,
    "imageCategories": [],
    "scrapedAt": "2025-06-22T06:21:44.611Z",
    "googleFoodUrl": null,
    "hotelAds": [],
    "openingHours": [
      {
        "day": "Monday",
        "hours": "8:30\u202fAM to 5\u202fPM"
      },
      {
        "day": "Tuesday",
        "hours": "8:30\u202fAM to 5\u202fPM"
      },
      {
        "day": "Wednesday",
        "hours": "8:30\u202fAM to 5\u202fPM"
      },
      {
        "day": "Thursday",
        "hours": "8:30\u202fAM to 5\u202fPM"
      },
      {
        "day": "Friday",
        "hours": "8:30\u202fAM to 5\u202fPM"
      },
      {
        "day": "Saturday",
        "hours": "Closed"
      },
      {
        "day": "Sunday",
        "hours": "Closed"
      }
    ],
    "peopleAlsoSearch": [],
    "placesTags": [],
    "reviewsTags": [],
    "additionalInfo": {
      "Service options": [
        {
          "Curbside pickup": true
        },
        {
          "Delivery": true
        },
        {
          "In-store pickup": true
        },
        {
          "English": true
        }
      ],
      "Accessibility": [
        {
          "Wheelchair accessible entrance": true
        },
        {
          "Wheelchair accessible parking lot": true
        }
      ],
      "Crowd": [
        {
          "LGBTQ+ friendly": true
        },
        {
          "Transgender safespace": true
        }
      ],
      "Payments": [
        {
          "Checks": true
        },
        {
          "Credit cards": true
        },
        {
          "Debit cards": true
        },
        {
          "Credit cards": true
        }
      ]
    },
    "gasPrices": [],
    "url": "https://www.google.com/maps/search/?api=1&query=Central%20Ohio%20Compounding%20Pharmacy&query_place_id=ChIJc6qRDx7zOIgR3WRAlswrlRE",
    "searchPageUrl": "https://www.google.com/maps/search/independent%20pharmacy%20Columbus%20OH/@18.466631353829076,-75.08316902999725,13z?hl=en",
    "searchString": "independent pharmacy Columbus OH",
    "language": "en",
    "rank": 3,
    "isAdvertisement": false,
    "imageUrl": "https://lh3.googleusercontent.com/p/AF1QipNCJofib69aylEkIbxOlmqZGo-tkKOWTSb8k9OF=w408-h306-k-no",
    "kgmid": "/g/1v_s6k05",
    "classification": "independent",
    "is_independent": true,
    "is_compounding": true,
    "confidence": 0.95,
    "source": "perplexity",
    "method": "llm"
  },
  {
    "title": "Tremont Pharmacy",
    "price": null,
    "categoryName": "Pharmacy",
    "address": "2144 Tremont Ctr, Columbus, OH 43221",
    "neighborhood": null,
    "street": "2144 Tremont Ctr",
    "city": "Columbus",
    "postalCode": "43221",
    "state": "Ohio",
    "countryCode": "US",
    "website": "http://www.tremontpharmacy.com/",
    "phone": "(614) 488-2625",
    "phoneUnformatted": "+16144882625",
    "claimThisBusiness": true,
    "location": {
      "lat": 40.0141929,
      "lng": -83.0694019
    },
    "totalScore": 4.6,
    "permanentlyClosed": false,
    "temporarilyClosed": false,
    "placeId": null,
    "categories": [
      "Pharmacy"
    ],
    "fid": "0x88388e05e49ee0f9:0x231dbad556439866",
    "cid": "2530383991090157670",
    "reviewsCount": 26,
    "imagesCount": 21,
    "imageCategories": [],
    "scrapedAt": "2025-06-22T06:21:44.611Z",
    "googleFoodUrl": null,
    "hotelAds": [],
    "openingHours": [
      {
        "day": "Monday",
        "hours": "9\u202fAM to 7\u202fPM"
      },
      {
        "day": "Tuesday",
        "hours": "9\u202fAM to 7\u202fPM"
      },
      {
        "day": "Wednesday",
        "hours": "9\u202fAM to 7\u202fPM"
      },
      {
        "day": "Thursday",
        "hours": "9\u202fAM to 7\u202fPM"
      },
      {
        "day": "Friday",
        "hours": "9\u202fAM to 7\u202fPM"
      },
      {
        "day": "Saturday",
        "hours": "9\u202fAM to 5\u202fPM"
      },
      {
        "day": "Sunday",
        "hours": "Closed"
      }
    ],
    "peopleAlsoSearch": [],
    "placesTags": [],
    "reviewsTags": [],
    "additionalInfo": {
      "Service options": [
        {
          "Delivery": true
        },
        {
          "In-store pickup": true
        },
        {
          "Same-day delivery": true
        }
      ],
      "Accessibility": [
        {
          "Wheelchair accessible entrance": true
        },
        {
          "Wheelchair accessible parking lot": true
        }
      ],
      "Planning": [
        {
          "Quick visit": true
        }
      ],
      "Payments": [
        {
          "Credit cards": true
        },
        {
          "Debit cards": true
        },
        {
          "NFC mobile payments": true
        },
        {
          "Credit cards": true
        }
      ]
    },
    "gasPrices": [],
    "url": "https://www.google.com/maps/search/?api=1&query=Tremont%20Pharmacy&query_place_id=ChIJ-eCe5AWOOIgRZphDVtW6HSM",
    "searchPageUrl": "https://www.google.com/maps/search/independent%20pharmacy%20Columbus%20OH/@18.466631353829076,-75.08316902999725,13z?hl=en",
    "searchString": "independent pharmacy Columbus OH",
    "language": "en",
    "rank": 4,
    "isAdvertisement": false,
    "imageUrl": "https://lh3.googleusercontent.com/gps-cs-s/AC9h4noeA4BuVVO9wkCBhgAn2ct_Fb9qBrBe4vIs2coL7OiOr0LNRcIMl09Oif8Yj8XoxYwTsDUNBDdLk_HxLdk9EE1W_2-A_Z-WqGJzFtQSEe48iJHgFVUb1PQk0nJQpZH2TSWyboA=w408-h270-k-no",
    "kgmid": "/g/1tdch0g5",
    "classification": "independent",
    "is_independent": true,
    "is_compounding": false,
    "confidence": 0.9,
    "source": "perplexity",
    "method": "llm"
  },
  {
    "title": "White's Pharmacy",
    "price": null,
    "categoryName": "Pharmacy",
    "address": "4057 E Livingston Ave, Columbus, OH 43227",
    "neighborhood": "Leawood",
    "street": "4057 E Livingston Ave",
    "city": "Columbus",
    "postalCode": "43227",
    "state": "Ohio",
    "countryCode": "US",
    "website": "http://whites-pharmacy.com/",
    "phone": "(614) 237-7677",
    "phoneUnformatted": "+16142377677",
    "claimThisBusiness": false,
    "location": {
      "lat": 39.9449532,
      "lng": -82.8880561
    },
    "totalScore": 4.8,
    "permanentlyClosed": false,
    "temporarilyClosed": false,
    "placeId": null,
    "categories": [
      "Pharmacy",
      "Drug store",
      "Gift shop",
      "Medical supply store"
    ],
    "fid": "0x883862bf01169e25:0xf71f22d9f844b3a9",
    "cid": "17806989771214730153",
    "reviewsCount": 49,
    "imagesCount": 20,
    "imageCategories": [],
    "scrapedAt": "2025-06-22T06:21:44.611Z",
    "googleFoodUrl": null,
    "hotelAds": [],
    "openingHours": [
      {
        "day": "Monday",
        "hours": "9\u202fAM to 5\u202fPM"
      },
      {
        "day": "Tuesday",
        "hours": "9\u202fAM to 5\u202fPM"
      },
      {
        "day": "Wednesday",
        "hours": "9\u202fAM to 5\u202fPM"
      },
      {
        "day": "Thursday",
        "hours": "9\u202fAM to 5\u202fPM"
      },
      {
        "day": "Friday",
        "hours": "9\u202fAM to 5\u202fPM"
      },
      {
        "day": "Saturday",
        "hours": "9\u202fAM to 2\u202fPM"
      },
      {
        "day": "Sunday",
        "hours": "Closed"
      }
    ],
    "peopleAlsoSearch": [],
    "placesTags": [],
    "reviewsTags": [],
    "additionalInfo": {
      "From the business": [
        {
          "Small business": true
        }
      ],
      "Service options": [
        {
          "Delivery": true
        },
        {
          "In-store pickup": true
        },
        {
          "Same-day delivery": true
        }
      ],
      "Accessibility": [
        {
          "Wheelchair accessible entrance": true
        },
        {
          "Wheelchair accessible parking lot": true
        }
      ],
      "Planning": [
        {
          "Quick visit": true
        }
      ],
      "Payments": [
        {
          "Credit cards": true
        },
        {
          "Debit cards": true
        },
        {
          "NFC mobile payments": true
        },
        {
          "Credit cards": true
        }
      ]
    },
    "gasPrices": [],
    "url": "https://www.google.com/maps/search/?api=1&query=White's%20Pharmacy&query_place_id=ChIJJZ4WAb9iOIgRqbNE-NkiH_c",
    "searchPageUrl": "https://www.google.com/maps/search/independent%20pharmacy%20Columbus%20OH/@18.466631353829076,-75.08316902999725,13z?hl=en",
    "searchString": "independent pharmacy Columbus OH",
    "language": "en",
    "rank": 5,
    "isAdvertisement": false,
    "imageUrl": "https://lh3.googleusercontent.com/gps-cs-s/AC9h4nqkMMzLFjP85D8Rxw9LvKPIzYmw7hi1AnsbLfnwa7mseO02D53LhItx-DnbXn1fS7DpnE8DWYe0FJas_gQoJ_-j3kG3d5xw_Y2PfsPsSfmaGyeI6DLnj-8MvC-n0bUt5NPLqgONSg=w408-h306-k-no",
    "kgmid": "/g/1wnf1q6d",
    "classification": "independent",
    "is_independent": true,
    "is_compounding": false,
    "confidence": 0.9,
    "source": "perplexity",
    "method": "llm"
  },
  {
    "title": "Milestone Pharmacy LLC",
    "price": null,
    "categoryName": "Pharmacy",
    "address": "3350 Cleveland Ave #1946, Columbus, OH 43224",
    "neighborhood": "North Linden",
    "street": "3350 Cleveland Ave #1946",
    "city": "Columbus",
    "postalCode": "43224",
    "state": "Ohio",
    "countryCode": "US",
    "website": "http://www.milestonepharmacy.com/",
    "phone": "(614) 600-5524",
    "phoneUnformatted": "+16146005524",
    "claimThisBusiness": false,
    "location": {
      "lat": 40.0360793,
      "lng": -82.9616087
    },
    "totalScore": 4.8,
    "permanentlyClosed": false,
    "temporarilyClosed": false,
    "placeId": null,
    "categories": [
      "Pharmacy"
    ],
    "fid": "0x88388b1673f7f897:0xa07698f611f98acf",
    "cid": "11562597275951270607",
    "reviewsCount": 21,
    "imagesCount": 2,
    "imageCategories": [],
    "scrapedAt": "2025-06-22T06:21:44.611Z",
    "googleFoodUrl": null,
    "hotelAds": [],
    "openingHours": [
      {
        "day": "Monday",
        "hours": "9\u202fAM to 6\u202fPM"
      },
      {
        "day": "Tuesday",
        "hours": "9\u202fAM to 6\u202fPM"
      },
      {
        "day": "Wednesday",
        "hours": "9\u202fAM to 6\u202fPM"
      },
      {
        "day": "Thursday",
        "hours": "9\u202fAM to 6\u202fPM"
      },
      {
        "day": "Friday",
        "hours": "9\u202fAM to 6\u202fPM"
      },
      {
        "day": "Saturday",
        "hours": "9\u202fAM to 2\u202fPM"
      },
      {
        "day": "Sunday",
        "hours": "Closed"
      }
    ],
    "peopleAlsoSearch": [],
    "placesTags": [],
    "reviewsTags": [],
    "additionalInfo": {
      "From the business": [
        {
          "Small business": true
        }
      ],
      "Service options": [
        {
          "Delivery": true
        },
        {
          "Same-day delivery": true
        }
      ],
      "Accessibility": [
        {
          "Wheelchair accessible entrance": true
        },
        {
          "Wheelchair accessible parking lot": true
        }
      ],
      "Payments": [
        {
          "Credit cards": true
        },
        {
          "Debit cards": true
        },
        {
          "NFC mobile payments": true
        },
        {
          "Credit cards": true
        }
      ]
    },
    "gasPrices": [],
    "url": "https://www.google.com/maps/search/?api=1&query=Milestone%20Pharmacy%20LLC&query_place_id=ChIJl_j3cxaLOIgRz4r5EfaYdqA",
    "searchPageUrl": "https://www.google.com/maps/search/independent%20pharmacy%20Columbus%20OH/@18.466631353829076,-75.08316902999725,13z?hl=en",
    "searchString": "independent pharmacy Columbus OH",
    "language": "en",
    "rank": 6,
    "isAdvertisement": false,
    "imageUrl": "https://lh3.googleusercontent.com/p/AF1QipOrSB3l64bxG4G0xuErw6nef6bTRVfTq9RSHLwj=w408-h338-k-no",
    "kgmid": "/g/11mhmwq1dx",
    "classification": "independent",
    "is_independent": true,
    "is_compounding": false,
    "confidence": 0.9,
    "source": "perplexity",
    "method": "llm"
  },
  {
    "title": "Central Point Pharmacy",
    "price": null,
    "categoryName": "Pharmacy",
    "address": "699 Harrisburg Pike Suite-L, Columbus, OH 43223",
    "neighborhood": "South Hilltop",
    "street": "699 Harrisburg Pike Suite-L",
    "city": "Columbus",
    "postalCode": "43223",
    "state": "Ohio",
    "countryCode": "US",
    "website": "http://www.centralpointrx.com/",
    "phone": "(614) 272-7000",
    "phoneUnformatted": "+16142727000",
    "claimThisBusiness": false,
    "location": {
      "lat": 39.9431387,
      "lng": -83.0387016
    },
    "totalScore": 4.9,
    "permanentlyClosed": false,
    "temporarilyClosed": false,
    "placeId": null,
    "categories": [
      "Pharmacy"
    ],
    "fid": "0x88388f8246b1eca3:0x8a568d1a2a60d339",
    "cid": "9968309968750826297",
    "reviewsCount": 11,
    "imagesCount": 25,
    "imageCategories": [],
    "scrapedAt": "2025-06-22T06:21:44.611Z",
    "googleFoodUrl": null,
    "hotelAds": [],
    "openingHours": [
      {
        "day": "Monday",
        "hours": "9\u202fAM to 6\u202fPM"
      },
      {
        "day": "Tuesday",
        "hours": "9\u202fAM to 6\u202fPM"
      },
      {
        "day": "Wednesday",
        "hours": "9\u202fAM to 6\u202fPM"
      },
      {
        "day": "Thursday",
        "hours": "9\u202fAM to 6\u202fPM"
      },
      {
        "day": "Friday",
        "hours": "9\u202fAM to 6\u202fPM"
      },
      {
        "day": "Saturday",
        "hours": "Closed"
      },
      {
        "day": "Sunday",
        "hours": "Closed"
      }
    ],
    "peopleAlsoSearch": [],
    "placesTags": [],
    "reviewsTags": [],
    "additionalInfo": {
      "From the business": [
        {
          "Small business": true
        }
      ],
      "Service options": [
        {
          "Delivery": true
        },
        {
          "In-store pickup": true
        }
      ],
      "Accessibility": [
        {
          "Wheelchair accessible entrance": true
        },
        {
          "Wheelchair accessible parking lot": true
        }
      ],
      "Planning": [
        {
          "Quick visit": true
        }
      ],
      "Payments": [
        {
          "Credit cards": true
        },
        {
          "Debit cards": true
        },
        {
          "Credit cards": true
        }
      ]
    },
    "gasPrices": [],
    "url": "https://www.google.com/maps/search/?api=1&query=Central%20Point%20Pharmacy&query_place_id=ChIJo-yxRoKPOIgROdNgKhqNVoo",
    "searchPageUrl": "https://www.google.com/maps/search/independent%20pharmacy%20Columbus%20OH/@18.466631353829076,-75.08316902999725,13z?hl=en",
    "searchString": "independent pharmacy Columbus OH",
    "language": "en",
    "rank": 7,
    "isAdvertisement": false,
    "imageUrl": "https://lh3.googleusercontent.com/p/AF1QipOGg67AnydaCdtEUkt9Yzf-GpZ1_xpSA2d2hSng=w408-h306-k-no",
    "kgmid": "/g/1td6ysj2",
    "classification": "independent",
    "is_independent": true,
    "is_compounding": false,
    "confidence": 0.9,
    "source": "perplexity",
    "method": "llm"
  },
  {
    "title": "Westland Pharmacy LLC",
    "price": null,
    "categoryName": "Pharmacy",
    "address": "100 N Murray Hill Rd, Columbus, OH 43228",
    "neighborhood": "Westland",
    "street": "100 N Murray Hill Rd",
    "city": "Columbus",
    "postalCode": "43228",
    "state": "Ohio",
    "countryCode": "US",
    "phone": "(614) 853-9003",
    "phoneUnformatted": "+16148539003",
    "claimThisBusiness": true,
    "location": {
      "lat": 39.9546425,
      "lng": -83.1289245
    },
    "totalScore": 3.8,
    "permanentlyClosed": false,
    "temporarilyClosed": false,
    "placeId": null,
    "categories": [
      "Pharmacy"
    ],
    "fid": "0x8838908f21b622db:0x53fb9f22b2508b66",
    "cid": "6051605495671720806",
    "reviewsCount": 5,
    "imagesCount": 1,
    "imageCategories": [],
    "scrapedAt": "2025-06-22T06:21:44.611Z",
    "googleFoodUrl": null,
    "hotelAds": [],
    "openingHours": [
      {
        "day": "Monday",
        "hours": "8\u202fAM to 10\u202fPM"
      },
      {
        "day": "Tuesday",
        "hours": "8\u202fAM to 10\u202fPM"
      },
      {
        "day": "Wednesday",
        "hours": "8\u202fAM to 10\u202fPM"
      },
      {
        "day": "Thursday",
        "hours": "8\u202fAM to 10\u202fPM"
      },
      {
        "day": "Friday",
        "hours": "8\u202fAM to 10\u202fPM"
      },
      {
        "day": "Saturday",
        "hours": "8\u202fAM to 10\u202fPM"
      },
      {
        "day": "Sunday",
        "hours": "8\u202fAM to 10\u202fPM"
      }
    ],
    "peopleAlsoSearch": [],
    "placesTags": [],
    "reviewsTags": [],
    "additionalInfo": {
      "Service options": [
        {
          "Delivery": true
        },
        {
          "Same-day delivery": true
        }
      ],
      "Accessibility": [
        {
          "Wheelchair accessible entrance": true
        },
        {
          "Wheelchair accessible parking lot": true
        }
      ],
      "Payments": [
        {
          "Credit cards": true
        }
      ]
    },
    "gasPrices": [],
    "url": "https://www.google.com/maps/search/?api=1&query=Westland%20Pharmacy%20LLC&query_place_id=ChIJ2yK2IY-QOIgRZotQsiKf-1M",
    "searchPageUrl": "https://www.google.com/maps/search/independent%20pharmacy%20Columbus%20OH/@18.466631353829076,-75.08316902999725,13z?hl=en",
    "searchString": "independent pharmacy Columbus OH",
    "language": "en",
    "rank": 8,
    "isAdvertisement": false,
    "imageUrl": "https://streetviewpixels-pa.googleapis.com/v1/thumbnail?panoid=eEXCSdzUddOqyUMe9Mw0xg&cb_client=search.gws-prod.gps&w=408&h=240&yaw=153.82698&pitch=0&thumbfov=100",
    "kgmid": "/g/1tdl6stz",
    "classification": "independent",
    "is_independent": true,
    "is_compounding": false,
    "confidence": 0.85,
    "source": "perplexity",
    "method": "llm"
  },
  {
    "title": "Hope Pharmacy",
    "price": null,
    "categoryName": "Pharmacy",
    "address": "5791 Cleveland Ave, Columbus, OH 43231",
    "neighborhood": "Northland",
    "street": "5791 Cleveland Ave",
    "city": "Columbus",
    "postalCode": "43231",
    "state": "Ohio",
    "countryCode": "US",
    "website": "https://www.hopepharmacycolumbus.com/",
    "phone": "(614) 426-4160",
    "phoneUnformatted": "+16144264160",
    "claimThisBusiness": false,
    "location": {
      "lat": 40.0892287,
      "lng": -82.9514782
    },
    "totalScore": 4.9,
    "permanentlyClosed": false,
    "temporarilyClosed": false,
    "placeId": null,
    "categories": [
      "Pharmacy"
    ],
    "fid": "0x88388b2a02dc2ec7:0x98371b033ecd8b5e",
    "cid": "10968265118236642142",
    "reviewsCount": 17,
    "imagesCount": 3,
    "imageCategories": [],
    "scrapedAt": "2025-06-22T06:21:44.612Z",
    "googleFoodUrl": null,
    "hotelAds": [],
    "openingHours": [
      {
        "day": "Monday",
        "hours": "9\u202fAM to 6\u202fPM"
      },
      {
        "day": "Tuesday",
        "hours": "9\u202fAM to 6\u202fPM"
      },
      {
        "day": "Wednesday",
        "hours": "9\u202fAM to 6\u202fPM"
      },
      {
        "day": "Thursday",
        "hours": "9\u202fAM to 6\u202fPM"
      },
      {
        "day": "Friday",
        "hours": "9\u202fAM to 6\u202fPM"
      },
      {
        "day": "Saturday",
        "hours": "10\u202fAM to 2\u202fPM"
      },
      {
        "day": "Sunday",
        "hours": "Closed"
      }
    ],
    "peopleAlsoSearch": [],
    "placesTags": [],
    "reviewsTags": [],
    "additionalInfo": {
      "From the business": [
        {
          "Small business": true
        }
      ],
      "Service options": [
        {
          "Delivery": true
        },
        {
          "In-store pickup": true
        }
      ],
      "Accessibility": [
        {
          "Wheelchair accessible entrance": true
        },
        {
          "Wheelchair accessible parking lot": true
        }
      ],
      "Planning": [
        {
          "Quick visit": true
        }
      ],
      "Payments": [
        {
          "Credit cards": true
        },
        {
          "Debit cards": true
        },
        {
          "NFC mobile payments": true
        },
        {
          "Credit cards": true
        }
      ]
    },
    "gasPrices": [],
    "url": "https://www.google.com/maps/search/?api=1&query=Hope%20Pharmacy&query_place_id=ChIJxy7cAiqLOIgRXovNPgMbN5g",
    "searchPageUrl": "https://www.google.com/maps/search/independent%20pharmacy%20Columbus%20OH/@18.466631353829076,-75.08316902999725,13z?hl=en",
    "searchString": "independent pharmacy Columbus OH",
    "language": "en",
    "rank": 9,
    "isAdvertisement": false,
    "imageUrl": "https://lh3.googleusercontent.com/gps-cs-s/AC9h4nq07hjNfzBs-ninVKHjnGHthy5D1su7Uw9Ri4ooRIDCzjAjYSUsBfm_wYtG18mE-MEkEANbFnIl2ekXh7cM6oJYdPMM7KdeVEq7EiR9UAqWRrN9WHOv2v_5v0RIoKQS0fG317ip=w408-h322-k-no",
    "kgmid": "/g/11bymx2bx6",
    "classification": "independent",
    "is_independent": true,
    "is_compounding": false,
    "confidence": 0.9,
    "source": "perplexity",
    "method": "llm"
  },
  {
    "title": "AHF Pharmacy - Columbus",
    "price": null,
    "categoryName": "Pharmacy",
    "address": "1230 N High St, Columbus, OH 43201",
    "neighborhood": "University District",
    "street": "1230 N High St",
    "city": "Columbus",
    "postalCode": "43201",
    "state": "Ohio",
    "countryCode": "US",
    "website": "https://ahfpharmacy.org/",
    "phone": "(614) 291-2670",
    "phoneUnformatted": "+16142912670",
    "claimThisBusiness": false,
    "location": {
      "lat": 39.9874045,
      "lng": -83.0053347
    },
    "totalScore": 4.5,
    "permanentlyClosed": false,
    "temporarilyClosed": false,
    "placeId": null,
    "categories": [
      "Pharmacy"
    ],
    "fid": "0x88388ec56d61801b:0xa23a13289abc6e74",
    "cid": "11689676847909203572",
    "reviewsCount": 18,
    "imagesCount": 5,
    "imageCategories": [],
    "scrapedAt": "2025-06-22T06:21:44.612Z",
    "googleFoodUrl": null,
    "hotelAds": [],
    "openingHours": [
      {
        "day": "Monday",
        "hours": "10\u202fAM to 7\u202fPM"
      },
      {
        "day": "Tuesday",
        "hours": "10\u202fAM to 7\u202fPM"
      },
      {
        "day": "Wednesday",
        "hours": "10\u202fAM to 7\u202fPM"
      },
      {
        "day": "Thursday",
        "hours": "10\u202fAM to 7\u202fPM"
      },
      {
        "day": "Friday",
        "hours": "10\u202fAM to 7\u202fPM"
      },
      {
        "day": "Saturday",
        "hours": "10\u202fAM to 7\u202fPM"
      },
      {
        "day": "Sunday",
        "hours": "Closed"
      }
    ],
    "peopleAlsoSearch": [],
    "placesTags": [],
    "reviewsTags": [],
    "additionalInfo": {
      "Service options": [
        {
          "Delivery": true
        },
        {
          "In-store pickup": true
        },
        {
          "Same-day delivery": true
        }
      ],
      "Accessibility": [
        {
          "Wheelchair accessible entrance": true
        },
        {
          "Wheelchair accessible parking lot": true
        }
      ],
      "Planning": [
        {
          "Quick visit": true
        }
      ],
      "Payments": [
        {
          "Credit cards": true
        },
        {
          "Debit cards": true
        },
        {
          "NFC mobile payments": true
        },
        {
          "Credit cards": true
        }
      ]
    },
    "gasPrices": [],
    "url": "https://www.google.com/maps/search/?api=1&query=AHF%20Pharmacy%20-%20Columbus&query_place_id=ChIJG4BhbcWOOIgRdG68migTOqI",
    "searchPageUrl": "https://www.google.com/maps/search/independent%20pharmacy%20Columbus%20OH/@18.466631353829076,-75.08316902999725,13z?hl=en",
    "searchString": "independent pharmacy Columbus OH",
    "language": "en",
    "rank": 10,
    "isAdvertisement": false,
    "imageUrl": "https://lh3.googleusercontent.com/p/AF1QipPu04q0P2bNu3GXxGHjHii6urKklREmk2l3ZKji=w426-h240-k-no",
    "kgmid": "/g/1q6cmrtl4",
    "classification": "independent",
    "is_independent": true,
    "is_compounding": false,
    "confidence": 0.9,
    "source": "perplexity",
    "method": "llm"
  },
  {
    "title": "Linden Community Pharmacy",
    "price": null,
    "categoryName": "Pharmacy",
    "address": "1464 Cleveland Ave, Columbus, OH 43211",
    "neighborhood": "South Linden",
    "street": "1464 Cleveland Ave",
    "city": "Columbus",
    "postalCode": "43211",
    "state": "Ohio",
    "countryCode": "US",
    "website": "https://www.charitablepharmacy.org/",
    "phone": "(614) 227-0301",
    "phoneUnformatted": "+16142270301",
    "claimThisBusiness": false,
    "location": {
      "lat": 39.9950539,
      "lng": -82.9796142
    },
    "totalScore": 4.8,
    "permanentlyClosed": false,
    "temporarilyClosed": false,
    "placeId": null,
    "categories": [
      "Pharmacy"
    ],
    "fid": "0x88388923b1354d51:0x43bb2e41d7ff2f9d",
    "cid": "4880545481517641629",
    "reviewsCount": 14,
    "imagesCount": 1,
    "imageCategories": [],
    "scrapedAt": "2025-06-22T06:21:44.612Z",
    "googleFoodUrl": null,
    "hotelAds": [],
    "openingHours": [
      {
        "day": "Monday",
        "hours": "9\u202fAM to 4:30\u202fPM"
      },
      {
        "day": "Tuesday",
        "hours": "9\u202fAM to 4:30\u202fPM"
      },
      {
        "day": "Wednesday",
        "hours": "Closed"
      },
      {
        "day": "Thursday",
        "hours": "9\u202fAM to 4:30\u202fPM"
      },
      {
        "day": "Friday",
        "hours": "9\u202fAM to 4:30\u202fPM"
      },
      {
        "day": "Saturday",
        "hours": "Closed"
      },
      {
        "day": "Sunday",
        "hours": "Closed"
      }
    ],
    "peopleAlsoSearch": [],
    "placesTags": [],
    "reviewsTags": [],
    "additionalInfo": {
      "Accessibility": [
        {
          "Wheelchair accessible entrance": true
        },
        {
          "Wheelchair accessible parking lot": true
        }
      ],
      "Planning": [
        {
          "Quick visit": true
        }
      ],
      "Payments": [
        {
          "Credit cards": true
        }
      ]
    },
    "gasPrices": [],
    "url": "https://www.google.com/maps/search/?api=1&query=Linden%20Community%20Pharmacy&query_place_id=ChIJUU01sSOJOIgRnS__10Euu0M",
    "searchPageUrl": "https://www.google.com/maps/search/independent%20pharmacy%20Columbus%20OH/@18.466631353829076,-75.08316902999725,13z?hl=en",
    "searchString": "independent pharmacy Columbus OH",
    "language": "en",
    "rank": 11,
    "isAdvertisement": false,
    "imageUrl": "https://streetviewpixels-pa.googleapis.com/v1/thumbnail?panoid=dgrJD1CSclxxscB29AJ3xw&cb_client=search.gws-prod.gps&w=408&h=240&yaw=109.163055&pitch=0&thumbfov=100",
    "kgmid": "/g/11p5c1x5sp",
    "classification": "independent",
    "is_independent": true,
    "is_compounding": false,
    "confidence": 0.9,
    "source": "perplexity",
    "method": "llm"
  },
  {
    "title": "Drug Store Pharmacy",
    "price": null,
    "categoryName": "Pharmacy",
    "address": "2940 Groveport Rd, Columbus, OH 43207",
    "neighborhood": "Far South",
    "street": "2940 Groveport Rd",
    "city": "Columbus",
    "postalCode": "43207",
    "state": "Ohio",
    "countryCode": "US",
    "website": "http://www.tdspharmacy.com/",
    "phone": "(614) 491-3446",
    "phoneUnformatted": "+16144913446",
    "claimThisBusiness": false,
    "location": {
      "lat": 39.9044579,
      "lng": -82.9648987
    },
    "totalScore": 4.5,
    "permanentlyClosed": false,
    "temporarilyClosed": false,
    "placeId": null,
    "categories": [
      "Pharmacy"
    ],
    "fid": "0x883886447e884589:0xceb2e08afc210e09",
    "cid": "14894213805207784969",
    "reviewsCount": 34,
    "imagesCount": 5,
    "imageCategories": [],
    "scrapedAt": "2025-06-22T06:21:44.612Z",
    "googleFoodUrl": null,
    "hotelAds": [],
    "openingHours": [
      {
        "day": "Monday",
        "hours": "8:30\u202fAM to 6\u202fPM"
      },
      {
        "day": "Tuesday",
        "hours": "8:30\u202fAM to 6\u202fPM"
      },
      {
        "day": "Wednesday",
        "hours": "8:30\u202fAM to 6\u202fPM"
      },
      {
        "day": "Thursday",
        "hours": "8:30\u202fAM to 6\u202fPM"
      },
      {
        "day": "Friday",
        "hours": "8:30\u202fAM to 6\u202fPM"
      },
      {
        "day": "Saturday",
        "hours": "Closed"
      },
      {
        "day": "Sunday",
        "hours": "Closed"
      }
    ],
    "peopleAlsoSearch": [],
    "placesTags": [],
    "reviewsTags": [],
    "additionalInfo": {
      "From the business": [
        {
          "Small business": true
        }
      ],
      "Service options": [
        {
          "Delivery": true
        }
      ],
      "Accessibility": [
        {
          "Wheelchair accessible parking lot": true
        },
        {
          "Wheelchair accessible entrance": false
        }
      ],
      "Planning": [
        {
          "Quick visit": true
        }
      ],
      "Payments": [
        {
          "Credit cards": true
        },
        {
          "Debit cards": true
        },
        {
          "NFC mobile payments": true
        },
        {
          "Credit cards": true
        }
      ]
    },
    "gasPrices": [],
    "url": "https://www.google.com/maps/search/?api=1&query=Drug%20Store%20Pharmacy&query_place_id=ChIJiUWIfkSGOIgRCQ4h_Irgss4",
    "searchPageUrl": "https://www.google.com/maps/search/independent%20pharmacy%20Columbus%20OH/@18.466631353829076,-75.08316902999725,13z?hl=en",
    "searchString": "independent pharmacy Columbus OH",
    "language": "en",
    "rank": 12,
    "isAdvertisement": false,
    "imageUrl": "https://lh3.googleusercontent.com/p/AF1QipPLVzGgIf_52-SXJbUyAEkDoDnfZmxxcZ41_ud5=w408-h416-k-no",
    "kgmid": "/g/1td9fdvr",
    "classification": "independent",
    "is_independent": true,
    "is_compounding": false,
    "confidence": 0.85,
    "source": "perplexity",
    "method": "llm"
  },
  {
    "title": "Arena District Pharmacy",
    "price": null,
    "categoryName": "Pharmacy",
    "address": "262 Neil Ave # 130, Columbus, OH 43215",
    "neighborhood": "Downtown",
    "street": "262 Neil Ave # 130",
    "city": "Columbus",
    "postalCode": "43215",
    "state": "Ohio",
    "countryCode": "US",
    "website": "https://cocprx.com/",
    "phone": "(614) 569-4799",
    "phoneUnformatted": "+16145694799",
    "claimThisBusiness": false,
    "location": {
      "lat": 39.9665855,
      "lng": -83.0091936
    },
    "totalScore": 4.7,
    "permanentlyClosed": false,
    "temporarilyClosed": false,
    "placeId": null,
    "categories": [
      "Pharmacy",
      "Veterinary pharmacy"
    ],
    "fid": "0x88388f24a03defe9:0x9757d32b156e6188",
    "cid": "10905417204697555336",
    "reviewsCount": 29,
    "imagesCount": 30,
    "imageCategories": [],
    "scrapedAt": "2025-06-22T06:21:44.612Z",
    "googleFoodUrl": null,
    "hotelAds": [],
    "openingHours": [
      {
        "day": "Monday",
        "hours": "8:30\u202fAM to 5\u202fPM"
      },
      {
        "day": "Tuesday",
        "hours": "8:30\u202fAM to 5\u202fPM"
      },
      {
        "day": "Wednesday",
        "hours": "8:30\u202fAM to 5\u202fPM"
      },
      {
        "day": "Thursday",
        "hours": "8:30\u202fAM to 5\u202fPM"
      },
      {
        "day": "Friday",
        "hours": "8:30\u202fAM to 5\u202fPM"
      },
      {
        "day": "Saturday",
        "hours": "Closed"
      },
      {
        "day": "Sunday",
        "hours": "Closed"
      }
    ],
    "peopleAlsoSearch": [],
    "placesTags": [],
    "reviewsTags": [],
    "additionalInfo": {
      "Service options": [
        {
          "Curbside pickup": true
        },
        {
          "Delivery": true
        },
        {
          "In-store pickup": true
        },
        {
          "In-store shopping": true
        },
        {
          "English": true
        }
      ],
      "Accessibility": [
        {
          "Wheelchair accessible entrance": true
        },
        {
          "Wheelchair accessible parking lot": true
        }
      ],
      "Crowd": [
        {
          "LGBTQ+ friendly": true
        },
        {
          "Transgender safespace": true
        }
      ],
      "Payments": [
        {
          "Checks": true
        },
        {
          "Credit cards": true
        },
        {
          "Debit cards": true
        },
        {
          "NFC mobile payments": true
        },
        {
          "Credit cards": true
        }
      ]
    },
    "gasPrices": [],
    "url": "https://www.google.com/maps/search/?api=1&query=Arena%20District%20Pharmacy&query_place_id=ChIJ6e89oCSPOIgRiGFuFSvTV5c",
    "searchPageUrl": "https://www.google.com/maps/search/independent%20pharmacy%20Columbus%20OH/@18.466631353829076,-75.08316902999725,13z?hl=en",
    "searchString": "independent pharmacy Columbus OH",
    "language": "en",
    "rank": 13,
    "isAdvertisement": false,
    "imageUrl": "https://lh3.googleusercontent.com/p/AF1QipNYFxFPm6xJQc9jcsLr9PhlrRgTFTr8U-ESqqE=w408-h558-k-no",
    "kgmid": "/g/11c5g41vlp",
    "classification": "independent",
    "is_independent": true,
    "is_compounding": false,
    "confidence": 0.9,
    "source": "perplexity",
    "method": "llm"
  },
  {
    "title": "Healthland Pharmacy",
    "price": null,
    "categoryName": "Pharmacy",
    "address": "1979 Cleveland Ave, Columbus, OH 43211",
    "neighborhood": "South Linden",
    "street": "1979 Cleveland Ave",
    "city": "Columbus",
    "postalCode": "43211",
    "state": "Ohio",
    "countryCode": "US",
    "website": "https://www.healthlandpharmacy.net/",
    "phone": "(614) 299-9669",
    "phoneUnformatted": "+16142999669",
    "claimThisBusiness": true,
    "location": {
      "lat": 40.0070714,
      "lng": -82.9724449
    },
    "totalScore": 4.7,
    "permanentlyClosed": false,
    "temporarilyClosed": false,
    "placeId": null,
    "categories": [
      "Pharmacy"
    ],
    "fid": "0x8838895d808641d1:0x5ae7e0119067ebce",
    "cid": "6550450549075471310",
    "reviewsCount": 22,
    "imagesCount": 1,
    "imageCategories": [],
    "scrapedAt": "2025-06-22T06:21:44.612Z",
    "googleFoodUrl": null,
    "hotelAds": [],
    "openingHours": [
      {
        "day": "Monday",
        "hours": "9\u202fAM to 6\u202fPM"
      },
      {
        "day": "Tuesday",
        "hours": "9\u202fAM to 6\u202fPM"
      },
      {
        "day": "Wednesday",
        "hours": "9\u202fAM to 6\u202fPM"
      },
      {
        "day": "Thursday",
        "hours": "9\u202fAM to 6\u202fPM"
      },
      {
        "day": "Friday",
        "hours": "9\u202fAM to 6\u202fPM"
      },
      {
        "day": "Saturday",
        "hours": "9\u202fAM to 1\u202fPM"
      },
      {
        "day": "Sunday",
        "hours": "Closed"
      }
    ],
    "peopleAlsoSearch": [],
    "placesTags": [],
    "reviewsTags": [],
    "additionalInfo": {
      "Service options": [
        {
          "Delivery": true
        },
        {
          "In-store pickup": true
        }
      ],
      "Accessibility": [
        {
          "Wheelchair accessible entrance": true
        },
        {
          "Wheelchair accessible parking lot": true
        }
      ],
      "Planning": [
        {
          "Quick visit": true
        }
      ],
      "Payments": [
        {
          "Credit cards": true
        },
        {
          "Debit cards": true
        },
        {
          "NFC mobile payments": true
        },
        {
          "Credit cards": true
        }
      ]
    },
    "gasPrices": [],
    "url": "https://www.google.com/maps/search/?api=1&query=Healthland%20Pharmacy&query_place_id=ChIJ0UGGgF2JOIgRzutnkBHg51o",
    "searchPageUrl": "https://www.google.com/maps/search/independent%20pharmacy%20Columbus%20OH/@18.466631353829076,-75.08316902999725,13z?hl=en",
    "searchString": "independent pharmacy Columbus OH",
    "language": "en",
    "rank": 14,
    "isAdvertisement": false,
    "imageUrl": "https://streetviewpixels-pa.googleapis.com/v1/thumbnail?panoid=FZnoarDaa4DoNptDQjCcxA&cb_client=search.gws-prod.gps&w=408&h=240&yaw=239.43459&pitch=0&thumbfov=100",
    "kgmid": "/g/1260525kw",
    "classification": "independent",
    "is_independent": true,
    "is_compounding": false,
    "confidence": 0.9,
    "source": "perplexity",
    "method": "llm"
  },
  {
    "title": "Mediserv Town Street Pharmacy",
    "price": null,
    "categoryName": "Pharmacy",
    "address": "3684 Trabue Rd, Columbus, OH 43204",
    "neighborhood": "Golfview Woods",
    "street": "3684 Trabue Rd",
    "city": "Columbus",
    "postalCode": "43204",
    "state": "Ohio",
    "countryCode": "US",
    "claimThisBusiness": true,
    "location": {
      "lat": 39.9927389,
      "lng": -83.0933945
    },
    "totalScore": 5,
    "permanentlyClosed": false,
    "temporarilyClosed": false,
    "placeId": null,
    "categories": [
      "Pharmacy"
    ],
    "fid": "0x88388f6d2eaf5807:0xf48d551023de7fa9",
    "cid": "17621834444780240809",
    "reviewsCount": 1,
    "imagesCount": 1,
    "imageCategories": [],
    "scrapedAt": "2025-06-22T06:21:44.612Z",
    "googleFoodUrl": null,
    "hotelAds": [],
    "openingHours": [],
    "peopleAlsoSearch": [],
    "placesTags": [],
    "reviewsTags": [],
    "additionalInfo": {
      "Accessibility": [
        {
          "Wheelchair accessible entrance": true
        },
        {
          "Wheelchair accessible parking lot": true
        }
      ],
      "Payments": [
        {
          "Credit cards": true
        }
      ]
    },
    "gasPrices": [],
    "url": "https://www.google.com/maps/search/?api=1&query=Mediserv%20Town%20Street%20Pharmacy&query_place_id=ChIJB1ivLm2POIgRqX_eIxBVjfQ",
    "searchPageUrl": "https://www.google.com/maps/search/independent%20pharmacy%20Columbus%20OH/@18.466631353829076,-75.08316902999725,13z?hl=en",
    "searchString": "independent pharmacy Columbus OH",
    "language": "en",
    "rank": 15,
    "isAdvertisement": false,
    "imageUrl": "https://streetviewpixels-pa.googleapis.com/v1/thumbnail?panoid=kokOC-OkIt3rExn5R6ypZg&cb_client=search.gws-prod.gps&w=408&h=240&yaw=355.24966&pitch=0&thumbfov=100",
    "kgmid": "/g/1trxkynt",
    "classification": "independent",
    "is_independent": true,
    "is_compounding": false,
    "confidence": 0.85,
    "source": "perplexity",
    "method": "llm"
  },
  {
    "title": "Happy Druggist Pharmacy - KRD",
    "price": null,
    "categoryName": "Pharmacy",
    "address": "5770 Karl Rd, Columbus, OH 43229",
    "neighborhood": "Northland",
    "street": "5770 Karl Rd",
    "city": "Columbus",
    "postalCode": "43229",
    "state": "Ohio",
    "countryCode": "US",
    "phone": "(614) 847-3784",
    "phoneUnformatted": "+16148473784",
    "claimThisBusiness": false,
    "location": {
      "lat": 40.0848172,
      "lng": -82.9751956
    },
    "totalScore": 4.7,
    "permanentlyClosed": false,
    "temporarilyClosed": false,
    "placeId": null,
    "categories": [
      "Pharmacy",
      "Drug store"
    ],
    "fid": "0x88388b463738c377:0x220243972b30c93f",
    "cid": "2450595463786711359",
    "reviewsCount": 43,
    "imagesCount": 30,
    "imageCategories": [],
    "scrapedAt": "2025-06-22T06:21:44.613Z",
    "googleFoodUrl": null,
    "hotelAds": [],
    "openingHours": [
      {
        "day": "Monday",
        "hours": "9\u202fAM to 1\u202fPM, 2 to 6\u202fPM"
      },
      {
        "day": "Tuesday",
        "hours": "9\u202fAM to 1\u202fPM, 2 to 6\u202fPM"
      },
      {
        "day": "Wednesday",
        "hours": "9\u202fAM to 1\u202fPM, 2 to 6\u202fPM"
      },
      {
        "day": "Thursday",
        "hours": "9\u202fAM to 1\u202fPM, 2 to 6\u202fPM"
      },
      {
        "day": "Friday",
        "hours": "9\u202fAM to 1\u202fPM, 2 to 6\u202fPM"
      },
      {
        "day": "Saturday",
        "hours": "9\u202fAM to 12\u202fPM"
      },
      {
        "day": "Sunday",
        "hours": "Closed"
      }
    ],
    "peopleAlsoSearch": [],
    "placesTags": [],
    "reviewsTags": [],
    "additionalInfo": {
      "Service options": [
        {
          "Curbside pickup": true
        },
        {
          "Delivery": true
        },
        {
          "In-store pickup": true
        },
        {
          "In-store shopping": true
        },
        {
          "Onsite services": true
        },
        {
          "Same-day delivery": true
        }
      ],
      "Accessibility": [
        {
          "Wheelchair accessible entrance": true
        },
        {
          "Wheelchair accessible parking lot": true
        }
      ],
      "Planning": [
        {
          "Quick visit": true
        }
      ],
      "Payments": [
        {
          "Credit cards": true
        },
        {
          "Debit cards": true
        },
        {
          "NFC mobile payments": true
        },
        {
          "Credit cards": true
        }
      ]
    },
    "gasPrices": [],
    "url": "https://www.google.com/maps/search/?api=1&query=Happy%20Druggist%20Pharmacy%20-%20KRD&query_place_id=ChIJd8M4N0aLOIgRP8kwK5dDAiI",
    "searchPageUrl": "https://www.google.com/maps/search/independent%20pharmacy%20Columbus%20OH/@18.466631353829076,-75.08316902999725,13z?hl=en",
    "searchString": "independent pharmacy Columbus OH",
    "language": "en",
    "rank": 16,
    "isAdvertisement": false,
    "imageUrl": "https://lh3.googleusercontent.com/gps-cs-s/AC9h4npZYdzaSIf8N261Zvy-oOhEdnu6IFwVc6s4FLIbtOFaJR-VMC4Nslq9GOsyUzlYSQn8Kf0qleFofLqyeUnmu5JvnIzwQSqG4gyePrzCXIVNqyzO10Kn4S9FxK0USgBiww3ghCOrcg=w532-h240-k-no",
    "kgmid": "/g/11bw61y60h",
    "classification": "independent",
    "is_independent": true,
    "is_compounding": false,
    "confidence": 0.85,
    "source": "perplexity",
    "method": "llm"
  },
  {
    "title": "Buckeye Pharmacy",
    "price": null,
    "categoryName": "Pharmacy",
    "address": "27 Norton Rd, Columbus, OH 43228",
    "neighborhood": "Westland",
    "street": "27 Norton Rd",
    "city": "Columbus",
    "postalCode": "43228",
    "state": "Ohio",
    "countryCode": "US",
    "website": "http://www.buckeyepharmacy.care/",
    "phone": "(614) 465-7070",
    "phoneUnformatted": "+16144657070",
    "claimThisBusiness": false,
    "location": {
      "lat": 39.9511073,
      "lng": -83.1399642
    },
    "totalScore": 4.7,
    "permanentlyClosed": false,
    "temporarilyClosed": false,
    "placeId": null,
    "categories": [
      "Pharmacy"
    ],
    "fid": "0x88389099b99f3b3f:0xe3a1bd0b6e533c8a",
    "cid": "16402599174653295754",
    "reviewsCount": 65,
    "imagesCount": 8,
    "imageCategories": [],
    "scrapedAt": "2025-06-22T06:21:44.613Z",
    "googleFoodUrl": null,
    "hotelAds": [],
    "openingHours": [
      {
        "day": "Monday",
        "hours": "9\u202fAM to 6:30\u202fPM"
      },
      {
        "day": "Tuesday",
        "hours": "9\u202fAM to 6:30\u202fPM"
      },
      {
        "day": "Wednesday",
        "hours": "9\u202fAM to 6:30\u202fPM"
      },
      {
        "day": "Thursday",
        "hours": "9\u202fAM to 6:30\u202fPM"
      },
      {
        "day": "Friday",
        "hours": "9\u202fAM to 6:30\u202fPM"
      },
      {
        "day": "Saturday",
        "hours": "10\u202fAM to 2\u202fPM"
      },
      {
        "day": "Sunday",
        "hours": "Closed"
      }
    ],
    "peopleAlsoSearch": [],
    "placesTags": [],
    "reviewsTags": [],
    "additionalInfo": {
      "From the business": [
        {
          "Small business": true
        }
      ],
      "Service options": [
        {
          "Delivery": true
        },
        {
          "In-store pickup": true
        },
        {
          "Same-day delivery": true
        }
      ],
      "Accessibility": [
        {
          "Wheelchair accessible entrance": true
        },
        {
          "Wheelchair accessible parking lot": true
        }
      ],
      "Planning": [
        {
          "Quick visit": true
        }
      ],
      "Payments": [
        {
          "Credit cards": true
        },
        {
          "Debit cards": true
        },
        {
          "NFC mobile payments": true
        },
        {
          "Credit cards": true
        }
      ]
    },
    "gasPrices": [],
    "url": "https://www.google.com/maps/search/?api=1&query=Buckeye%20Pharmacy&query_place_id=ChIJPzufuZmQOIgRijxTbgu9oeM",
    "searchPageUrl": "https://www.google.com/maps/search/independent%20pharmacy%20Columbus%20OH/@18.466631353829076,-75.08316902999725,13z?hl=en",
    "searchString": "independent pharmacy Columbus OH",
    "language": "en",
    "rank": 17,
    "isAdvertisement": false,
    "imageUrl": "https://lh3.googleusercontent.com/p/AF1QipNBoQg9E5QZ71MHp3EeL04zB7wVeMzsuIxCFroo=w408-h265-k-no",
    "kgmid": "/g/11b7hf_fzr",
    "classification": "independent",
    "is_independent": true,
    "is_compounding": false,
    "confidence": 0.9,
    "source": "perplexity",
    "method": "llm"
  },
  {
    "title": "RMB Pharmacy",
    "price": null,
    "categoryName": "Pharmacy",
    "address": "3545 Olentangy River Rd # 100, Columbus, OH 43214",
    "neighborhood": "Knolls Thomas",
    "street": "3545 Olentangy River Rd # 100",
    "city": "Columbus",
    "postalCode": "43214",
    "state": "Ohio",
    "countryCode": "US",
    "website": "https://www.ohiohealth.com/locations/hospitals/riverside-methodist-hospital/retail-pharmacy/",
    "phone": "(614) 566-5115",
    "phoneUnformatted": "+16145665115",
    "claimThisBusiness": true,
    "location": {
      "lat": 40.0311484,
      "lng": -83.0341446
    },
    "totalScore": 5,
    "permanentlyClosed": false,
    "temporarilyClosed": false,
    "placeId": null,
    "categories": [
      "Pharmacy"
    ],
    "fid": "0x88388c33d95b6e25:0x43a45ab46d7e5e80",
    "cid": "4874120427699330688",
    "reviewsCount": 3,
    "imagesCount": 2,
    "imageCategories": [],
    "scrapedAt": "2025-06-22T06:21:44.613Z",
    "googleFoodUrl": null,
    "hotelAds": [],
    "openingHours": [
      {
        "day": "Monday",
        "hours": "8\u202fAM to 7\u202fPM"
      },
      {
        "day": "Tuesday",
        "hours": "8\u202fAM to 7\u202fPM"
      },
      {
        "day": "Wednesday",
        "hours": "8\u202fAM to 7\u202fPM"
      },
      {
        "day": "Thursday",
        "hours": "8\u202fAM to 7\u202fPM"
      },
      {
        "day": "Friday",
        "hours": "8\u202fAM to 7\u202fPM"
      },
      {
        "day": "Saturday",
        "hours": "Closed"
      },
      {
        "day": "Sunday",
        "hours": "Closed"
      }
    ],
    "peopleAlsoSearch": [],
    "placesTags": [],
    "reviewsTags": [],
    "additionalInfo": {
      "Accessibility": [
        {
          "Wheelchair accessible entrance": true
        },
        {
          "Wheelchair accessible parking lot": true
        }
      ],
      "Planning": [
        {
          "Quick visit": true
        }
      ],
      "Payments": [
        {
          "Credit cards": true
        }
      ]
    },
    "gasPrices": [],
    "url": "https://www.google.com/maps/search/?api=1&query=RMB%20Pharmacy&query_place_id=ChIJJW5b2TOMOIgRgF5-bbRapEM",
    "searchPageUrl": "https://www.google.com/maps/search/independent%20pharmacy%20Columbus%20OH/@18.466631353829076,-75.08316902999725,13z?hl=en",
    "searchString": "independent pharmacy Columbus OH",
    "language": "en",
    "rank": 18,
    "isAdvertisement": false,
    "imageUrl": "https://lh3.googleusercontent.com/gps-cs-s/AC9h4nr7tDtmHCsNLq1N_40BdPzL7DrFd_rgkJWLMxudbyIhB4sDPKH_tMUrMMoCHvw1Z-g7DeyROHuKQS6WSckvUqDY805GPC_oRvEjW6yCOdlihYHvOFO2GeneF_jK7qxiaCUladnu=w408-h544-k-no",
    "kgmid": "/g/1tt1hww_",
    "classification": "independent",
    "is_independent": true,
    "is_compounding": false,
    "confidence": 0.9,
    "source": "perplexity",
    "method": "llm"
  },
  {
    "title": "Crosby's Drugs Inc.",
    "price": null,
    "categoryName": "Pharmacy",
    "address": "2609 N High St, Columbus, OH 43202",
    "neighborhood": "Old North Columbus",
    "street": "2609 N High St",
    "city": "Columbus",
    "postalCode": "43202",
    "state": "Ohio",
    "countryCode": "US",
    "website": "https://www.crosbysdrugs.com/",
    "phone": "(614) 263-9424",
    "phoneUnformatted": "+16142639424",
    "claimThisBusiness": false,
    "location": {
      "lat": 40.015436,
      "lng": -83.011768
    },
    "totalScore": 4.1,
    "permanentlyClosed": false,
    "temporarilyClosed": false,
    "placeId": null,
    "categories": [
      "Pharmacy",
      "Drug store",
      "Medical equipment supplier"
    ],
    "fid": "0x88388ea08afe94d5:0xe3d01ba16fadcdd0",
    "cid": "16415651021942803920",
    "reviewsCount": 203,
    "imagesCount": 10,
    "imageCategories": [],
    "scrapedAt": "2025-06-22T06:21:44.613Z",
    "googleFoodUrl": null,
    "hotelAds": [],
    "openingHours": [
      {
        "day": "Monday",
        "hours": "9\u202fAM to 7\u202fPM"
      },
      {
        "day": "Tuesday",
        "hours": "9\u202fAM to 7\u202fPM"
      },
      {
        "day": "Wednesday",
        "hours": "9\u202fAM to 7\u202fPM"
      },
      {
        "day": "Thursday",
        "hours": "9\u202fAM to 7\u202fPM"
      },
      {
        "day": "Friday",
        "hours": "9\u202fAM to 7\u202fPM"
      },
      {
        "day": "Saturday",
        "hours": "9\u202fAM to 4\u202fPM"
      },
      {
        "day": "Sunday",
        "hours": "Closed"
      }
    ],
    "peopleAlsoSearch": [],
    "placesTags": [],
    "reviewsTags": [],
    "additionalInfo": {
      "From the business": [
        {
          "Identifies as women-owned": true
        }
      ],
      "Service options": [
        {
          "Delivery": true
        },
        {
          "In-store pickup": true
        },
        {
          "In-store shopping": true
        },
        {
          "Same-day delivery": true
        }
      ],
      "Accessibility": [
        {
          "Wheelchair accessible entrance": true
        },
        {
          "Wheelchair accessible parking lot": true
        }
      ],
      "Amenities": [
        {
          "Wi-Fi": true
        },
        {
          "Free Wi-Fi": true
        }
      ],
      "Planning": [
        {
          "Quick visit": true
        }
      ],
      "Payments": [
        {
          "Credit cards": true
        },
        {
          "Debit cards": true
        },
        {
          "NFC mobile payments": true
        },
        {
          "Credit cards": true
        }
      ]
    },
    "gasPrices": [],
    "url": "https://www.google.com/maps/search/?api=1&query=Crosby's%20Drugs%20Inc.&query_place_id=ChIJ1ZT-iqCOOIgR0M2tb6Eb0OM",
    "searchPageUrl": "https://www.google.com/maps/search/independent%20pharmacy%20Columbus%20OH/@18.466631353829076,-75.08316902999725,13z?hl=en",
    "searchString": "independent pharmacy Columbus OH",
    "language": "en",
    "rank": 19,
    "isAdvertisement": false,
    "imageUrl": "https://lh3.googleusercontent.com/gps-cs-s/AC9h4nohNMKNCFROErCDW3X47Kl--sFqTh_1SeXdLQUPfkbRKOsGd8Tvj0utXSZ_7fMabP6akBn0SJYGzwk3leUHiclq12FpNm5qG-hN-z1gmOz_tz7Om5mOPBYz3IY3JW-8aTl-rHUE=w408-h544-k-no",
    "kgmid": "/g/1hc1nk0pr",
    "classification": "independent",
    "is_independent": true,
    "is_compounding": false,
    "confidence": 0.9,
    "source": "perplexity",
    "method": "llm"
  },
  {
    "title": "Golden RX Pharmacy",
    "price": null,
    "categoryName": "Pharmacy",
    "address": "1959 E Dublin Granville Rd, Columbus, OH 43229",
    "neighborhood": "Northland",
    "street": "1959 E Dublin Granville Rd",
    "city": "Columbus",
    "postalCode": "43229",
    "state": "Ohio",
    "countryCode": "US",
    "website": "https://www.goldenrxohio.com/",
    "phone": "(614) 505-8366",
    "phoneUnformatted": "+16145058366",
    "claimThisBusiness": true,
    "location": {
      "lat": 40.0860503,
      "lng": -82.965582
    },
    "totalScore": 4.1,
    "permanentlyClosed": false,
    "temporarilyClosed": false,
    "placeId": null,
    "categories": [
      "Pharmacy"
    ],
    "fid": "0x88388be50b958253:0xd15d0dec847a912d",
    "cid": "15086229636247097645",
    "reviewsCount": 13,
    "imagesCount": 1,
    "imageCategories": [],
    "scrapedAt": "2025-06-22T06:21:44.613Z",
    "googleFoodUrl": null,
    "hotelAds": [],
    "openingHours": [
      {
        "day": "Monday",
        "hours": "9\u202fAM to 5\u202fPM"
      },
      {
        "day": "Tuesday",
        "hours": "9\u202fAM to 5\u202fPM"
      },
      {
        "day": "Wednesday",
        "hours": "9\u202fAM to 5\u202fPM"
      },
      {
        "day": "Thursday",
        "hours": "9\u202fAM to 5\u202fPM"
      },
      {
        "day": "Friday",
        "hours": "9\u202fAM to 5\u202fPM"
      },
      {
        "day": "Saturday",
        "hours": "9\u202fAM to 12\u202fPM"
      },
      {
        "day": "Sunday",
        "hours": "Closed"
      }
    ],
    "peopleAlsoSearch": [],
    "placesTags": [],
    "reviewsTags": [],
    "additionalInfo": {
      "Service options": [
        {
          "Delivery": true
        },
        {
          "In-store pickup": true
        },
        {
          "Same-day delivery": true
        }
      ],
      "Accessibility": [
        {
          "Wheelchair accessible entrance": true
        },
        {
          "Wheelchair accessible parking lot": true
        }
      ],
      "Payments": [
        {
          "Credit cards": true
        },
        {
          "Debit cards": true
        },
        {
          "NFC mobile payments": true
        },
        {
          "Credit cards": true
        }
      ]
    },
    "gasPrices": [],
    "url": "https://www.google.com/maps/search/?api=1&query=Golden%20RX%20Pharmacy&query_place_id=ChIJU4KVC-WLOIgRLZF6hOwNXdE",
    "searchPageUrl": "https://www.google.com/maps/search/independent%20pharmacy%20Columbus%20OH/@18.466631353829076,-75.08316902999725,13z?hl=en",
    "searchString": "independent pharmacy Columbus OH",
    "language": "en",
    "rank": 20,
    "isAdvertisement": false,
    "imageUrl": "https://streetviewpixels-pa.googleapis.com/v1/thumbnail?panoid=64jPisb3MOWSoRgFbjKpRg&cb_client=search.gws-prod.gps&w=408&h=240&yaw=189.83215&pitch=0&thumbfov=100",
    "kgmid": "/g/11fm_j69y9",
    "classification": "independent",
    "is_independent": true,
    "is_compounding": false,
    "confidence": 0.9,
    "source": "perplexity",
    "method": "llm"
  }
]