[
  {
    "title": "Portico Pharmacy",
    "price": null,
    "categoryName": "Pharmacy",
    "address": "3355 E Louise Dr, Meridian, ID 83642",
    "neighborhood": "West Boise",
    "street": "3355 E Louise Dr",
    "city": "Meridian",
    "postalCode": "83642",
    "state": "Idaho",
    "countryCode": "US",
    "website": "http://www.porticopharmacy.com/",
    "phone": "(208) 288-4341",
    "phoneUnformatted": "+12082884341",
    "claimThisBusiness": false,
    "location": {
      "lat": 43.6028874,
      "lng": -116.3530207
    },
    "totalScore": 4.7,
    "permanentlyClosed": false,
    "temporarilyClosed": false,
    "placeId": null,
    "categories": [
      "Pharmacy"
    ],
    "fid": "0x54ae56a8fbf3604b:0xa7407b034f95a168",
    "cid": "12051767856993771880",
    "reviewsCount": 62,
    "imagesCount": 11,
    "imageCategories": [],
    "scrapedAt": "2025-06-22T07:47:45.212Z",
    "googleFoodUrl": null,
    "hotelAds": [],
    "openingHours": [
      {
        "day": "Monday",
        "hours": "9\u202fAM to 6\u202fPM"
      },
      {
        "day": "Tuesday",
        "hours": "9\u202fAM to 6\u202fPM"
      },
      {
        "day": "Wednesday",
        "hours": "9\u202fAM to 6\u202fPM"
      },
      {
        "day": "Thursday",
        "hours": "9\u202fAM to 6\u202fPM"
      },
      {
        "day": "Friday",
        "hours": "9\u202fAM to 6\u202fPM"
      },
      {
        "day": "Saturday",
        "hours": "10\u202fAM to 2\u202fPM"
      },
      {
        "day": "Sunday",
        "hours": "Closed"
      }
    ],
    "peopleAlsoSearch": [],
    "placesTags": [],
    "reviewsTags": [],
    "additionalInfo": {
      "From the business": [
        {
          "Small business": true
        }
      ],
      "Service options": [
        {
          "Delivery": true
        },
        {
          "Drive-through": true
        },
        {
          "In-store pickup": true
        },
        {
          "In-store shopping": true
        },
        {
          "Same-day delivery": true
        }
      ],
      "Accessibility": [
        {
          "Wheelchair accessible entrance": true
        },
        {
          "Wheelchair accessible parking lot": true
        }
      ],
      "Planning": [
        {
          "Quick visit": true
        }
      ],
      "Payments": [
        {
          "Credit cards": true
        },
        {
          "Debit cards": true
        },
        {
          "NFC mobile payments": true
        },
        {
          "Credit cards": true
        }
      ]
    },
    "gasPrices": [],
    "url": "https://www.google.com/maps/search/?api=1&query=Portico%20Pharmacy&query_place_id=ChIJS2Dz-6hWrlQRaKGVTwN7QKc",
    "searchPageUrl": "https://www.google.com/maps/search/independent%20pharmacy%20Meridian%20ID/@-14.30178505,-170.97204273438993,12z?hl=en",
    "searchString": "independent pharmacy Meridian ID",
    "language": "en",
    "rank": 1,
    "isAdvertisement": false,
    "imageUrl": "https://lh3.googleusercontent.com/gps-cs-s/AC9h4nos6cby_3skk4fD4KTzbEq1sJgZinTwwEdWnMMrmCKUBKpvqAkTqqMQd-TJ_UxF69kVZrMJsUmkRL3EB7NGvk6Rvp9p5VlEc1YDfyX8dyaPdJApLdJe9xqzzdzY8ZAGvBE71BM=w408-h306-k-no",
    "kgmid": "/g/1vd75n28",
    "classification": "independent",
    "is_independent": true,
    "is_compounding": false,
    "confidence": 0.9,
    "source": "perplexity",
    "method": "llm",
    "query_location": "meridian_id"
  },
  {
    "title": "St. Luke's Retail Pharmacy: Meridian",
    "price": null,
    "categoryName": "Pharmacy",
    "address": "520 S Eagle Rd, Meridian, ID 83642",
    "neighborhood": "West Boise",
    "street": "520 S Eagle Rd",
    "city": "Meridian",
    "postalCode": "83642",
    "state": "Idaho",
    "countryCode": "US",
    "website": "https://www.stlukesonline.org/communities-and-locations/facilities/pharmacies/st-lukes-retail-pharmacy-meridian",
    "phone": "(208) 706-5252",
    "phoneUnformatted": "+12087065252",
    "claimThisBusiness": false,
    "location": {
      "lat": 43.5998371,
      "lng": -116.3522255
    },
    "totalScore": 4.6,
    "permanentlyClosed": false,
    "temporarilyClosed": false,
    "placeId": null,
    "categories": [
      "Pharmacy"
    ],
    "fid": "0x54ae56ae9251c213:0x47423f4cc6db1526",
    "cid": "5134736124142097702",
    "reviewsCount": 39,
    "imagesCount": 5,
    "imageCategories": [],
    "scrapedAt": "2025-06-22T07:47:45.213Z",
    "googleFoodUrl": null,
    "hotelAds": [],
    "openingHours": [
      {
        "day": "Monday",
        "hours": "8\u202fAM to 7\u202fPM"
      },
      {
        "day": "Tuesday",
        "hours": "8\u202fAM to 7\u202fPM"
      },
      {
        "day": "Wednesday",
        "hours": "8\u202fAM to 7\u202fPM"
      },
      {
        "day": "Thursday",
        "hours": "8\u202fAM to 7\u202fPM"
      },
      {
        "day": "Friday",
        "hours": "8\u202fAM to 7\u202fPM"
      },
      {
        "day": "Saturday",
        "hours": "8\u202fAM to 3\u202fPM"
      },
      {
        "day": "Sunday",
        "hours": "Closed"
      }
    ],
    "peopleAlsoSearch": [],
    "placesTags": [],
    "reviewsTags": [],
    "additionalInfo": {
      "Service options": [
        {
          "Delivery": true
        },
        {
          "In-store pickup": true
        }
      ],
      "Accessibility": [
        {
          "Wheelchair accessible entrance": true
        },
        {
          "Wheelchair accessible parking lot": true
        },
        {
          "Wheelchair accessible restroom": true
        },
        {
          "Wheelchair accessible seating": true
        }
      ],
      "Payments": [
        {
          "Credit cards": true
        }
      ]
    },
    "gasPrices": [],
    "url": "https://www.google.com/maps/search/?api=1&query=St.%20Luke's%20Retail%20Pharmacy%3A%20Meridian&query_place_id=ChIJE8JRkq5WrlQRJhXbxkw_Qkc",
    "searchPageUrl": "https://www.google.com/maps/search/independent%20pharmacy%20Meridian%20ID/@-14.30178505,-170.97204273438993,12z?hl=en",
    "searchString": "independent pharmacy Meridian ID",
    "language": "en",
    "rank": 2,
    "isAdvertisement": false,
    "imageUrl": "https://lh3.googleusercontent.com/gps-cs-s/AC9h4npuUnYvTMLNYvukEksz4zBbUrhhgA2gUmMHdOwfzc3Q5GKOoq74VEaYEJKx7b7eTotEVUDzirL0gzy0kad7opLN4-xYKpxpoKYhR7CZoZ7eLDTwk0LJ1jhSFwMxl4UHeSuNFVxpTg=w408-h725-k-no",
    "kgmid": "/g/1jkwhsx6p",
    "classification": "hospital",
    "is_independent": false,
    "is_compounding": false,
    "confidence": 0.98,
    "source": "perplexity",
    "method": "llm",
    "query_location": "meridian_id"
  },
  {
    "title": "Red Rock Pharmacy Meridian Idaho",
    "price": null,
    "categoryName": "Pharmacy",
    "address": "2370 S Titanium Pl, Meridian, ID 83642",
    "neighborhood": null,
    "street": "2370 S Titanium Pl",
    "city": "Meridian",
    "postalCode": "83642",
    "state": "Idaho",
    "countryCode": "US",
    "website": "http://www.redrockrx.com/",
    "phone": "(208) 288-1200",
    "phoneUnformatted": "+12082881200",
    "claimThisBusiness": false,
    "location": {
      "lat": 43.583212,
      "lng": -116.3525084
    },
    "totalScore": 4.6,
    "permanentlyClosed": false,
    "temporarilyClosed": false,
    "placeId": null,
    "categories": [
      "Pharmacy"
    ],
    "fid": "0x54ae5134223aaaab:0xff643604b650176b",
    "cid": "18402893371209160555",
    "reviewsCount": 27,
    "imagesCount": 1,
    "imageCategories": [],
    "scrapedAt": "2025-06-22T07:47:45.213Z",
    "googleFoodUrl": null,
    "hotelAds": [],
    "openingHours": [
      {
        "day": "Monday",
        "hours": "8\u202fAM to 8\u202fPM"
      },
      {
        "day": "Tuesday",
        "hours": "8\u202fAM to 8\u202fPM"
      },
      {
        "day": "Wednesday",
        "hours": "8\u202fAM to 8\u202fPM"
      },
      {
        "day": "Thursday",
        "hours": "8\u202fAM to 8\u202fPM"
      },
      {
        "day": "Friday",
        "hours": "8\u202fAM to 8\u202fPM"
      },
      {
        "day": "Saturday",
        "hours": "10\u202fAM to 6\u202fPM"
      },
      {
        "day": "Sunday",
        "hours": "10\u202fAM to 6\u202fPM"
      }
    ],
    "peopleAlsoSearch": [],
    "placesTags": [],
    "reviewsTags": [],
    "additionalInfo": {
      "Service options": [
        {
          "Delivery": true
        }
      ],
      "Accessibility": [
        {
          "Wheelchair accessible entrance": true
        },
        {
          "Wheelchair accessible parking lot": true
        }
      ],
      "Payments": [
        {
          "Credit cards": true
        },
        {
          "Debit cards": true
        },
        {
          "Credit cards": true
        }
      ]
    },
    "gasPrices": [],
    "url": "https://www.google.com/maps/search/?api=1&query=Red%20Rock%20Pharmacy%20Meridian%20Idaho&query_place_id=ChIJq6o6IjRRrlQRaxdQtgQ2ZP8",
    "searchPageUrl": "https://www.google.com/maps/search/independent%20pharmacy%20Meridian%20ID/@-14.30178505,-170.97204273438993,12z?hl=en",
    "searchString": "independent pharmacy Meridian ID",
    "language": "en",
    "rank": 3,
    "isAdvertisement": false,
    "imageUrl": "https://streetviewpixels-pa.googleapis.com/v1/thumbnail?panoid=0Kr1bVE1n_YeS_cOPk_0Vg&cb_client=search.gws-prod.gps&w=408&h=240&yaw=94.578735&pitch=0&thumbfov=100",
    "kgmid": "/g/11hy9pbrpg",
    "classification": "independent",
    "is_independent": true,
    "is_compounding": false,
    "confidence": 0.9,
    "source": "perplexity",
    "method": "llm",
    "query_location": "meridian_id"
  },
  {
    "title": "Full Circle Health - Meridian Pharmacy",
    "price": null,
    "categoryName": "Pharmacy",
    "address": "2275 S Eagle Rd STE 120, Meridian, ID 83642",
    "neighborhood": null,
    "street": "2275 S Eagle Rd STE 120",
    "city": "Meridian",
    "postalCode": "83642",
    "state": "Idaho",
    "countryCode": "US",
    "website": "https://www.fullcircleidaho.org/patients/pharmacy/",
    "phone": "(208) 954-8722",
    "phoneUnformatted": "+12089548722",
    "claimThisBusiness": false,
    "location": {
      "lat": 43.5842703,
      "lng": -116.3552219
    },
    "totalScore": 4.3,
    "permanentlyClosed": false,
    "temporarilyClosed": false,
    "placeId": "ChIJTSYwx41RrlQRpVB8gX4o2OQ",
    "categories": [
      "Pharmacy"
    ],
    "fid": "0x54ae518dc730264d:0xe4d8287e817c50a5",
    "cid": "16489974559420469413",
    "reviewsCount": 4,
    "imagesCount": 2,
    "imageCategories": [],
    "scrapedAt": "2025-06-22T07:47:45.213Z",
    "googleFoodUrl": null,
    "hotelAds": [],
    "openingHours": [
      {
        "day": "Monday",
        "hours": "9\u202fAM to 6\u202fPM"
      },
      {
        "day": "Tuesday",
        "hours": "9\u202fAM to 6\u202fPM"
      },
      {
        "day": "Wednesday",
        "hours": "9\u202fAM to 6\u202fPM"
      },
      {
        "day": "Thursday",
        "hours": "9\u202fAM to 6\u202fPM"
      },
      {
        "day": "Friday",
        "hours": "9\u202fAM to 6\u202fPM"
      },
      {
        "day": "Saturday",
        "hours": "Closed"
      },
      {
        "day": "Sunday",
        "hours": "Closed"
      }
    ],
    "peopleAlsoSearch": [],
    "placesTags": [],
    "reviewsTags": [],
    "additionalInfo": {
      "Accessibility": [
        {
          "Wheelchair accessible entrance": true
        },
        {
          "Wheelchair accessible parking lot": true
        }
      ],
      "Payments": [
        {
          "Credit cards": true
        }
      ]
    },
    "gasPrices": [],
    "url": "https://www.google.com/maps/search/?api=1&query=Full%20Circle%20Health%20-%20Meridian%20Pharmacy&query_place_id=ChIJTSYwx41RrlQRpVB8gX4o2OQ",
    "searchPageUrl": "https://www.google.com/maps/search/independent%20pharmacy%20Meridian%20ID/@-14.30178505,-170.97204273438993,12z?hl=en",
    "searchString": "independent pharmacy Meridian ID",
    "language": "en",
    "rank": 4,
    "isAdvertisement": false,
    "imageUrl": "https://lh3.googleusercontent.com/p/AF1QipNV8Rvtek53IUq55B26BR4dgZ3ZWKko-87e3mWG=w408-h306-k-no",
    "kgmid": "/g/11sczw33x6",
    "classification": "hospital",
    "is_independent": false,
    "confidence": 1.0,
    "source": "rule-based"
  },
  {
    "title": "Medicap Pharmacy",
    "price": null,
    "categoryName": "Pharmacy",
    "address": "2790 W Cherry Ln #100, Meridian, ID 83642",
    "neighborhood": null,
    "street": "2790 W Cherry Ln #100",
    "city": "Meridian",
    "postalCode": "83642",
    "state": "Idaho",
    "countryCode": "US",
    "website": "https://www.medicapidaho.com/",
    "phone": "(208) 288-1496",
    "phoneUnformatted": "+12082881496",
    "claimThisBusiness": false,
    "location": {
      "lat": 43.6195952,
      "lng": -116.4283583
    },
    "totalScore": 4.8,
    "permanentlyClosed": false,
    "temporarilyClosed": false,
    "placeId": null,
    "categories": [
      "Pharmacy",
      "Medical supply store",
      "Vitamin & supplements store"
    ],
    "fid": "0x54ae53af650e0adb:0x1d6314b50b319801",
    "cid": "2117559017603700737",
    "reviewsCount": 246,
    "imagesCount": 5,
    "imageCategories": [],
    "scrapedAt": "2025-06-22T07:47:45.213Z",
    "googleFoodUrl": null,
    "hotelAds": [],
    "openingHours": [
      {
        "day": "Monday",
        "hours": "9\u202fAM to 6:30\u202fPM"
      },
      {
        "day": "Tuesday",
        "hours": "9\u202fAM to 6:30\u202fPM"
      },
      {
        "day": "Wednesday",
        "hours": "9\u202fAM to 6:30\u202fPM"
      },
      {
        "day": "Thursday",
        "hours": "9\u202fAM to 6:30\u202fPM"
      },
      {
        "day": "Friday",
        "hours": "9\u202fAM to 6:30\u202fPM"
      },
      {
        "day": "Saturday",
        "hours": "9\u202fAM to 1\u202fPM"
      },
      {
        "day": "Sunday",
        "hours": "Closed"
      }
    ],
    "peopleAlsoSearch": [],
    "placesTags": [],
    "reviewsTags": [],
    "additionalInfo": {
      "Service options": [
        {
          "Delivery": true
        },
        {
          "Drive-through": true
        },
        {
          "In-store pickup": true
        },
        {
          "In-store shopping": true
        }
      ],
      "Accessibility": [
        {
          "Wheelchair accessible entrance": true
        },
        {
          "Wheelchair accessible parking lot": true
        }
      ],
      "Planning": [
        {
          "Quick visit": true
        }
      ],
      "Payments": [
        {
          "Checks": true
        },
        {
          "Credit cards": true
        },
        {
          "Debit cards": true
        },
        {
          "NFC mobile payments": true
        },
        {
          "Credit cards": true
        }
      ]
    },
    "gasPrices": [],
    "url": "https://www.google.com/maps/search/?api=1&query=Medicap%20Pharmacy&query_place_id=ChIJ2woOZa9TrlQRAZgxC7UUYx0",
    "searchPageUrl": "https://www.google.com/maps/search/independent%20pharmacy%20Meridian%20ID/@-14.30178505,-170.97204273438993,12z?hl=en",
    "searchString": "independent pharmacy Meridian ID",
    "language": "en",
    "rank": 5,
    "isAdvertisement": false,
    "imageUrl": "https://lh3.googleusercontent.com/p/AF1QipPVjodBvOVZ882TFEiSeQyYZbYXsR8p4_32J2ix=w408-h271-k-no",
    "kgmid": "/g/1v5frmpy",
    "classification": "chain",
    "is_independent": false,
    "is_compounding": false,
    "confidence": 0.95,
    "source": "perplexity",
    "method": "llm",
    "query_location": "meridian_id"
  },
  {
    "title": "PharMerica \u2013 Boise, ID",
    "price": null,
    "categoryName": "Pharmacy",
    "address": "2950 E Magic View Dr, Meridian, ID 83642",
    "neighborhood": null,
    "street": "2950 E Magic View Dr",
    "city": "Meridian",
    "postalCode": "83642",
    "state": "Idaho",
    "countryCode": "US",
    "website": "https://www.pharmerica.com/",
    "phone": "(208) 887-1951",
    "phoneUnformatted": "+12088871951",
    "claimThisBusiness": false,
    "location": {
      "lat": 43.6002382,
      "lng": -116.3584252
    },
    "permanentlyClosed": false,
    "temporarilyClosed": false,
    "placeId": null,
    "categories": [
      "Pharmacy"
    ],
    "fid": "0x54ae56ab825629a7:0x2ad92ed356f2d249",
    "cid": "3087550504770916937",
    "reviewsCount": 0,
    "imagesCount": 1,
    "imageCategories": [],
    "scrapedAt": "2025-06-22T07:47:45.213Z",
    "googleFoodUrl": null,
    "hotelAds": [],
    "openingHours": [
      {
        "day": "Monday",
        "hours": "Open 24 hours"
      },
      {
        "day": "Tuesday",
        "hours": "Open 24 hours"
      },
      {
        "day": "Wednesday",
        "hours": "Open 24 hours"
      },
      {
        "day": "Thursday",
        "hours": "Open 24 hours"
      },
      {
        "day": "Friday",
        "hours": "Open 24 hours"
      },
      {
        "day": "Saturday",
        "hours": "Open 24 hours"
      },
      {
        "day": "Sunday",
        "hours": "Open 24 hours"
      }
    ],
    "peopleAlsoSearch": [],
    "placesTags": [],
    "reviewsTags": [],
    "additionalInfo": {
      "Accessibility": [
        {
          "Wheelchair accessible entrance": true
        },
        {
          "Wheelchair accessible parking lot": true
        }
      ]
    },
    "gasPrices": [],
    "url": "https://www.google.com/maps/search/?api=1&query=PharMerica%20%E2%80%93%20Boise%2C%20ID&query_place_id=ChIJpylWgqtWrlQRSdLyVtMu2So",
    "searchPageUrl": "https://www.google.com/maps/search/independent%20pharmacy%20Meridian%20ID/@-14.30178505,-170.97204273438993,12z?hl=en",
    "searchString": "independent pharmacy Meridian ID",
    "language": "en",
    "rank": 6,
    "isAdvertisement": false,
    "imageUrl": "https://streetviewpixels-pa.googleapis.com/v1/thumbnail?panoid=3WMQXHhLmJy0vLwCEi1g9w&cb_client=search.gws-prod.gps&w=408&h=240&yaw=24.087969&pitch=0&thumbfov=100",
    "kgmid": "/g/12605_r08",
    "classification": "chain",
    "is_independent": false,
    "is_compounding": false,
    "confidence": 0.95,
    "source": "perplexity",
    "method": "llm",
    "query_location": "meridian_id"
  },
  {
    "title": "Omnicare of Boise",
    "price": null,
    "categoryName": "Pharmacy",
    "address": "320 E Corporate Dr, Meridian, ID 83642",
    "neighborhood": null,
    "street": "320 E Corporate Dr",
    "city": "Meridian",
    "postalCode": "83642",
    "state": "Idaho",
    "countryCode": "US",
    "website": "https://omnicare.com/",
    "phone": "(208) 895-8399",
    "phoneUnformatted": "+12088958399",
    "claimThisBusiness": true,
    "location": {
      "lat": 43.5997032,
      "lng": -116.389944
    },
    "totalScore": 1,
    "permanentlyClosed": false,
    "temporarilyClosed": false,
    "placeId": "ChIJZ9mh8eBTrlQRkyG2OBlguSU",
    "categories": [
      "Pharmacy"
    ],
    "fid": "0x54ae53e0f1a1d967:0x25b9601938b62193",
    "cid": "2718309511536714131",
    "reviewsCount": 1,
    "imagesCount": 1,
    "imageCategories": [],
    "scrapedAt": "2025-06-22T07:47:45.213Z",
    "googleFoodUrl": null,
    "hotelAds": [],
    "openingHours": [
      {
        "day": "Monday",
        "hours": "9\u202fAM to 6\u202fPM"
      },
      {
        "day": "Tuesday",
        "hours": "9\u202fAM to 6\u202fPM"
      },
      {
        "day": "Wednesday",
        "hours": "9\u202fAM to 6\u202fPM"
      },
      {
        "day": "Thursday",
        "hours": "9\u202fAM to 6\u202fPM"
      },
      {
        "day": "Friday",
        "hours": "9\u202fAM to 6\u202fPM"
      },
      {
        "day": "Saturday",
        "hours": "10\u202fAM to 5\u202fPM"
      },
      {
        "day": "Sunday",
        "hours": "Closed"
      }
    ],
    "peopleAlsoSearch": [],
    "placesTags": [],
    "reviewsTags": [],
    "additionalInfo": {
      "Accessibility": [
        {
          "Wheelchair accessible entrance": true
        },
        {
          "Wheelchair accessible parking lot": true
        }
      ],
      "Payments": [
        {
          "Credit cards": true
        }
      ]
    },
    "gasPrices": [],
    "url": "https://www.google.com/maps/search/?api=1&query=Omnicare%20of%20Boise&query_place_id=ChIJZ9mh8eBTrlQRkyG2OBlguSU",
    "searchPageUrl": "https://www.google.com/maps/search/independent%20pharmacy%20Meridian%20ID/@-14.30178505,-170.97204273438993,12z?hl=en",
    "searchString": "independent pharmacy Meridian ID",
    "language": "en",
    "rank": 7,
    "isAdvertisement": false,
    "imageUrl": "https://streetviewpixels-pa.googleapis.com/v1/thumbnail?panoid=bSxI4jINYqFQyhBBw9z9xw&cb_client=search.gws-prod.gps&w=408&h=240&yaw=275.97443&pitch=0&thumbfov=100",
    "kgmid": "/g/12643qw7c",
    "classification": "chain",
    "is_independent": false,
    "confidence": 1.0,
    "source": "rule-based"
  },
  {
    "title": "Sav-on Pharmacy",
    "price": null,
    "categoryName": "Pharmacy",
    "address": "3301 W Cherry Ln, Meridian, ID 83642",
    "neighborhood": null,
    "street": "3301 W Cherry Ln",
    "city": "Meridian",
    "postalCode": "83642",
    "state": "Idaho",
    "countryCode": "US",
    "website": "https://www.albertsons.com/pharmacy/covid-19.html",
    "phone": "(208) 884-5475",
    "phoneUnformatted": "+12088845475",
    "claimThisBusiness": true,
    "location": {
      "lat": 43.6180007,
      "lng": -116.4344189
    },
    "totalScore": 4.1,
    "permanentlyClosed": false,
    "temporarilyClosed": false,
    "placeId": null,
    "categories": [
      "Pharmacy"
    ],
    "fid": "0x54ae53ac25b7b3c3:0xe88cbae632d89a03",
    "cid": "16756973811397073411",
    "reviewsCount": 7,
    "imagesCount": 1,
    "imageCategories": [],
    "scrapedAt": "2025-06-22T07:47:45.214Z",
    "googleFoodUrl": null,
    "hotelAds": [],
    "openingHours": [
      {
        "day": "Monday",
        "hours": "8\u202fAM to 8\u202fPM"
      },
      {
        "day": "Tuesday",
        "hours": "8\u202fAM to 8\u202fPM"
      },
      {
        "day": "Wednesday",
        "hours": "8\u202fAM to 8\u202fPM"
      },
      {
        "day": "Thursday",
        "hours": "8\u202fAM to 8\u202fPM"
      },
      {
        "day": "Friday",
        "hours": "8\u202fAM to 8\u202fPM"
      },
      {
        "day": "Saturday",
        "hours": "9\u202fAM to 6\u202fPM"
      },
      {
        "day": "Sunday",
        "hours": "10\u202fAM to 5\u202fPM"
      }
    ],
    "peopleAlsoSearch": [],
    "placesTags": [],
    "reviewsTags": [],
    "additionalInfo": {
      "Accessibility": [
        {
          "Wheelchair accessible entrance": true
        },
        {
          "Wheelchair accessible parking lot": true
        }
      ],
      "Planning": [
        {
          "Quick visit": true
        }
      ],
      "Payments": [
        {
          "Credit cards": true
        },
        {
          "Debit cards": true
        },
        {
          "Credit cards": true
        }
      ]
    },
    "gasPrices": [],
    "url": "https://www.google.com/maps/search/?api=1&query=Sav-on%20Pharmacy&query_place_id=ChIJw7O3JaxTrlQRA5rYMua6jOg",
    "searchPageUrl": "https://www.google.com/maps/search/independent%20pharmacy%20Meridian%20ID/@-14.30178505,-170.97204273438993,12z?hl=en",
    "searchString": "independent pharmacy Meridian ID",
    "language": "en",
    "rank": 8,
    "isAdvertisement": false,
    "imageUrl": "https://streetviewpixels-pa.googleapis.com/v1/thumbnail?panoid=VEnv9u1F7uUKZJlnJUKFXw&cb_client=search.gws-prod.gps&w=408&h=240&yaw=176.91864&pitch=0&thumbfov=100",
    "kgmid": "/g/11r3sm9t4x",
    "classification": "chain",
    "is_independent": false,
    "is_compounding": false,
    "confidence": 0.98,
    "source": "perplexity",
    "method": "llm",
    "query_location": "meridian_id"
  },
  {
    "title": "Peachy-Keen Health + Wellness",
    "price": null,
    "categoryName": "Pharmacy",
    "address": "3715 E Overland Rd #115, Meridian, ID 83642",
    "neighborhood": null,
    "street": "3715 E Overland Rd #115",
    "city": "Meridian",
    "postalCode": "83642",
    "state": "Idaho",
    "countryCode": "US",
    "website": "https://www.feelpeachykeen.com/",
    "phone": "(208) 203-1355",
    "phoneUnformatted": "+12082031355",
    "claimThisBusiness": false,
    "location": {
      "lat": 43.5897987,
      "lng": -116.3473989
    },
    "totalScore": 5,
    "permanentlyClosed": false,
    "temporarilyClosed": false,
    "placeId": "ChIJBXS3qPNXrlQRVbZY3VLYHuA",
    "categories": [
      "Pharmacy"
    ],
    "fid": "0x54ae57f3a8b77405:0xe01ed852dd58b655",
    "cid": "16149583164209673813",
    "reviewsCount": 3,
    "imagesCount": 6,
    "imageCategories": [],
    "scrapedAt": "2025-06-22T07:47:45.214Z",
    "googleFoodUrl": null,
    "hotelAds": [],
    "openingHours": [
      {
        "day": "Monday",
        "hours": "9:30\u202fAM to 1:30\u202fPM, 2 to 6\u202fPM"
      },
      {
        "day": "Tuesday",
        "hours": "9:30\u202fAM to 1:30\u202fPM, 2 to 6\u202fPM"
      },
      {
        "day": "Wednesday",
        "hours": "9:30\u202fAM to 1:30\u202fPM, 2 to 6\u202fPM"
      },
      {
        "day": "Thursday",
        "hours": "9:30\u202fAM to 1:30\u202fPM, 2 to 6\u202fPM"
      },
      {
        "day": "Friday",
        "hours": "9:30\u202fAM to 1:30\u202fPM, 2 to 6\u202fPM"
      },
      {
        "day": "Saturday",
        "hours": "Closed"
      },
      {
        "day": "Sunday",
        "hours": "Closed"
      }
    ],
    "peopleAlsoSearch": [],
    "placesTags": [],
    "reviewsTags": [],
    "additionalInfo": {
      "Accessibility": [
        {
          "Wheelchair accessible entrance": true
        },
        {
          "Wheelchair accessible parking lot": true
        }
      ],
      "Payments": [
        {
          "Credit cards": true
        }
      ]
    },
    "gasPrices": [],
    "url": "https://www.google.com/maps/search/?api=1&query=Peachy-Keen%20Health%20%2B%20Wellness&query_place_id=ChIJBXS3qPNXrlQRVbZY3VLYHuA",
    "searchPageUrl": "https://www.google.com/maps/search/independent%20pharmacy%20Meridian%20ID/@-14.30178505,-170.97204273438993,12z?hl=en",
    "searchString": "independent pharmacy Meridian ID",
    "language": "en",
    "rank": 9,
    "isAdvertisement": false,
    "imageUrl": "https://lh3.googleusercontent.com/p/AF1QipNNMjTK8Dr0zyIh6t_gOctKikH-MZC6UfmYa0U9=w408-h306-k-no",
    "kgmid": "/g/11w7kq1750",
    "classification": "hospital",
    "is_independent": false,
    "confidence": 1.0,
    "source": "rule-based"
  },
  {
    "title": "Walgreens Pharmacy",
    "description": "Department of the Walgreens chain providing prescription medications & other health-related items.",
    "price": "$$",
    "categoryName": "Pharmacy",
    "address": "4850 N Linder Rd, Meridian, ID 83646",
    "neighborhood": null,
    "street": "4850 N Linder Rd",
    "city": "Meridian",
    "postalCode": "83646",
    "state": "Idaho",
    "countryCode": "US",
    "website": "https://www.walgreens.com/locator/walgreens-4850+n+linder+rd-meridian-id-83646/id=11687",
    "phone": "(208) 319-0047",
    "phoneUnformatted": "+12083190047",
    "claimThisBusiness": false,
    "location": {
      "lat": 43.6487462,
      "lng": -116.4131364
    },
    "totalScore": 2.4,
    "permanentlyClosed": false,
    "temporarilyClosed": false,
    "placeId": "ChIJG3eydmBTrlQR_WTiZ9m6oso",
    "categories": [
      "Pharmacy"
    ],
    "fid": "0x54ae536076b2771b:0xcaa2bad967e264fd",
    "cid": "14601438384802129149",
    "reviewsCount": 22,
    "imagesCount": 4,
    "imageCategories": [],
    "scrapedAt": "2025-06-22T07:47:45.214Z",
    "googleFoodUrl": null,
    "hotelAds": [],
    "openingHours": [
      {
        "day": "Monday",
        "hours": "9\u202fAM to 1:30\u202fPM, 2 to 9\u202fPM"
      },
      {
        "day": "Tuesday",
        "hours": "9\u202fAM to 1:30\u202fPM, 2 to 9\u202fPM"
      },
      {
        "day": "Wednesday",
        "hours": "9\u202fAM to 1:30\u202fPM, 2 to 9\u202fPM"
      },
      {
        "day": "Thursday",
        "hours": "9\u202fAM to 1:30\u202fPM, 2 to 9\u202fPM"
      },
      {
        "day": "Friday",
        "hours": "9\u202fAM to 1:30\u202fPM, 2 to 9\u202fPM"
      },
      {
        "day": "Saturday",
        "hours": "9\u202fAM to 1:30\u202fPM, 2 to 5\u202fPM"
      },
      {
        "day": "Sunday",
        "hours": "9\u202fAM to 1:30\u202fPM, 2 to 5\u202fPM"
      }
    ],
    "additionalOpeningHours": {
      "Drive through": [
        {
          "day": "Monday",
          "hours": "9\u202fAM\u20131:30\u202fPM"
        },
        {
          "day": "Tuesday",
          "hours": "9\u202fAM\u20131:30\u202fPM"
        },
        {
          "day": "Wednesday",
          "hours": "9\u202fAM\u20131:30\u202fPM"
        },
        {
          "day": "Thursday",
          "hours": "9\u202fAM\u20131:30\u202fPM"
        },
        {
          "day": "Friday",
          "hours": "9\u202fAM\u20131:30\u202fPM"
        },
        {
          "day": "Saturday",
          "hours": "9\u202fAM\u20131:30\u202fPM"
        },
        {
          "day": "Sunday",
          "hours": "9\u202fAM\u20131:30\u202fPM"
        }
      ]
    },
    "peopleAlsoSearch": [],
    "placesTags": [],
    "reviewsTags": [],
    "additionalInfo": {
      "Service options": [
        {
          "Drive-through": true
        },
        {
          "In-store pickup": true
        },
        {
          "Onsite services": true
        }
      ],
      "Accessibility": [
        {
          "Wheelchair accessible entrance": true
        },
        {
          "Wheelchair accessible parking lot": true
        }
      ],
      "Offerings": [
        {
          "Naloxone": true
        }
      ],
      "Planning": [
        {
          "Quick visit": true
        }
      ],
      "Payments": [
        {
          "Credit cards": true
        },
        {
          "Debit cards": true
        }
      ]
    },
    "gasPrices": [],
    "url": "https://www.google.com/maps/search/?api=1&query=Walgreens%20Pharmacy&query_place_id=ChIJG3eydmBTrlQR_WTiZ9m6oso",
    "searchPageUrl": "https://www.google.com/maps/search/independent%20pharmacy%20Meridian%20ID/@-14.30178505,-170.97204273438993,12z?hl=en",
    "searchString": "independent pharmacy Meridian ID",
    "language": "en",
    "rank": 10,
    "isAdvertisement": false,
    "imageUrl": "https://lh3.googleusercontent.com/p/AF1QipO-gWxw8xZaMdGt2BSyaCJGPX57GrxreFpCvmgL=w525-h240-k-no",
    "kgmid": "/g/11cn96z5lm",
    "classification": "chain",
    "is_independent": false,
    "confidence": 1.0,
    "source": "rule-based"
  },
  {
    "title": "Terry Reilly Health Services Pharmacy - Meridian",
    "price": null,
    "categoryName": "Pharmacy",
    "address": "3115 E Florence Dr, Meridian, ID 83642",
    "neighborhood": null,
    "street": "3115 E Florence Dr",
    "city": "Meridian",
    "postalCode": "83642",
    "state": "Idaho",
    "countryCode": "US",
    "website": "https://trhs.org/",
    "phone": "(208) 932-8992",
    "phoneUnformatted": "+12089328992",
    "claimThisBusiness": false,
    "location": {
      "lat": 43.6163052,
      "lng": -116.3551551
    },
    "permanentlyClosed": false,
    "temporarilyClosed": false,
    "placeId": "ChIJGSVgjtJVrlQRamPKPgiM7go",
    "categories": [
      "Pharmacy"
    ],
    "fid": "0x54ae55d28e602519:0xaee8c083eca636a",
    "cid": "787720951877493610",
    "reviewsCount": 0,
    "imagesCount": 2,
    "imageCategories": [],
    "scrapedAt": "2025-06-22T07:47:45.214Z",
    "googleFoodUrl": null,
    "hotelAds": [],
    "openingHours": [
      {
        "day": "Monday",
        "hours": "9\u202fAM to 5\u202fPM"
      },
      {
        "day": "Tuesday",
        "hours": "9\u202fAM to 5\u202fPM"
      },
      {
        "day": "Wednesday",
        "hours": "9\u202fAM to 5\u202fPM"
      },
      {
        "day": "Thursday",
        "hours": "9\u202fAM to 5\u202fPM"
      },
      {
        "day": "Friday",
        "hours": "9\u202fAM to 5\u202fPM"
      },
      {
        "day": "Saturday",
        "hours": "Closed"
      },
      {
        "day": "Sunday",
        "hours": "Closed"
      }
    ],
    "peopleAlsoSearch": [],
    "placesTags": [],
    "reviewsTags": [],
    "additionalInfo": {
      "Accessibility": [
        {
          "Wheelchair accessible entrance": true
        },
        {
          "Wheelchair accessible parking lot": true
        }
      ],
      "Payments": [
        {
          "Credit cards": true
        }
      ]
    },
    "gasPrices": [],
    "url": "https://www.google.com/maps/search/?api=1&query=Terry%20Reilly%20Health%20Services%20Pharmacy%20-%20Meridian&query_place_id=ChIJGSVgjtJVrlQRamPKPgiM7go",
    "searchPageUrl": "https://www.google.com/maps/search/independent%20pharmacy%20Meridian%20ID/@-14.30178505,-170.97204273438993,12z?hl=en",
    "searchString": "independent pharmacy Meridian ID",
    "language": "en",
    "rank": 11,
    "isAdvertisement": false,
    "imageUrl": "https://lh3.googleusercontent.com/p/AF1QipMdXYZOI72imDF8xtzQv4Yvko_4fV06jqjgR-X2=w408-h272-k-no",
    "kgmid": "/g/11v9kc4l85",
    "classification": "hospital",
    "is_independent": false,
    "confidence": 1.0,
    "source": "rule-based"
  },
  {
    "title": "Albertsons Pharmacy",
    "price": null,
    "categoryName": "Pharmacy",
    "address": "4657 S Eagle Rd, Meridian, ID 83642",
    "neighborhood": null,
    "street": "4657 S Eagle Rd",
    "city": "Meridian",
    "postalCode": "83642",
    "state": "Idaho",
    "countryCode": "US",
    "website": "https://local.pharmacy.albertsons.com/id/meridian/4657-s-eagle-rd.html",
    "phone": "(208) 272-9730",
    "phoneUnformatted": "+12082729730",
    "claimThisBusiness": false,
    "location": {
      "lat": 43.5625047,
      "lng": -116.3569071
    },
    "totalScore": 4.1,
    "permanentlyClosed": false,
    "temporarilyClosed": false,
    "placeId": "ChIJ0ZAxltJRrlQR1x31Fqe8iWA",
    "categories": [
      "Pharmacy",
      "Drug store",
      "Vitamin & supplements store"
    ],
    "fid": "0x54ae51d2963190d1:0x6089bca716f51dd7",
    "cid": "6956298525281164759",
    "reviewsCount": 12,
    "imagesCount": 13,
    "imageCategories": [],
    "scrapedAt": "2025-06-22T07:47:45.214Z",
    "googleFoodUrl": null,
    "hotelAds": [],
    "openingHours": [
      {
        "day": "Monday",
        "hours": "8\u202fAM to 8\u202fPM"
      },
      {
        "day": "Tuesday",
        "hours": "8\u202fAM to 8\u202fPM"
      },
      {
        "day": "Wednesday",
        "hours": "8\u202fAM to 8\u202fPM"
      },
      {
        "day": "Thursday",
        "hours": "8\u202fAM to 8\u202fPM"
      },
      {
        "day": "Friday",
        "hours": "8\u202fAM to 8\u202fPM"
      },
      {
        "day": "Saturday",
        "hours": "9\u202fAM to 6\u202fPM"
      },
      {
        "day": "Sunday",
        "hours": "10\u202fAM to 5\u202fPM"
      }
    ],
    "peopleAlsoSearch": [],
    "placesTags": [],
    "reviewsTags": [],
    "additionalInfo": {
      "Service options": [
        {
          "Drive-through": true
        },
        {
          "In-store pickup": true
        },
        {
          "In-store shopping": true
        }
      ],
      "Accessibility": [
        {
          "Wheelchair accessible entrance": true
        },
        {
          "Wheelchair accessible parking lot": true
        }
      ],
      "Crowd": [
        {
          "LGBTQ+ friendly": true
        }
      ],
      "Planning": [
        {
          "Appointment required": true
        },
        {
          "Quick visit": true
        }
      ],
      "Payments": [
        {
          "Credit cards": true
        },
        {
          "Debit cards": true
        },
        {
          "Credit cards": true
        }
      ]
    },
    "gasPrices": [],
    "url": "https://www.google.com/maps/search/?api=1&query=Albertsons%20Pharmacy&query_place_id=ChIJ0ZAxltJRrlQR1x31Fqe8iWA",
    "searchPageUrl": "https://www.google.com/maps/search/independent%20pharmacy%20Meridian%20ID/@-14.30178505,-170.97204273438993,12z?hl=en",
    "searchString": "independent pharmacy Meridian ID",
    "language": "en",
    "rank": 12,
    "isAdvertisement": false,
    "imageUrl": "https://lh3.googleusercontent.com/p/AF1QipMDdgQOAfxxp9I1AVuLkWi38lIU6tPFEQbmiYT7=w408-h306-k-no",
    "kgmid": "/g/11t4y1r4ln",
    "classification": "chain",
    "is_independent": false,
    "confidence": 1.0,
    "source": "rule-based"
  },
  {
    "title": "Reddish Pharmacy",
    "price": null,
    "categoryName": "Pharmacy",
    "address": "215 E Hawaii Ave #100, Nampa, ID 83686",
    "neighborhood": null,
    "street": "215 E Hawaii Ave #100",
    "city": "Nampa",
    "postalCode": "83686",
    "state": "Idaho",
    "countryCode": "US",
    "website": "https://www.reddishpharmacy.com/",
    "phone": "(208) 466-7823",
    "phoneUnformatted": "+12084667823",
    "claimThisBusiness": false,
    "location": {
      "lat": 43.554544,
      "lng": -116.570748
    },
    "totalScore": 4.9,
    "permanentlyClosed": false,
    "temporarilyClosed": false,
    "placeId": null,
    "categories": [
      "Pharmacy"
    ],
    "fid": "0x54ae4bfc31df129d:0xfe0d9df6c79230da",
    "cid": "18306461743566696666",
    "reviewsCount": 95,
    "imagesCount": 1,
    "imageCategories": [],
    "scrapedAt": "2025-06-22T07:47:45.214Z",
    "googleFoodUrl": null,
    "hotelAds": [],
    "openingHours": [
      {
        "day": "Monday",
        "hours": "9\u202fAM to 6\u202fPM"
      },
      {
        "day": "Tuesday",
        "hours": "9\u202fAM to 6\u202fPM"
      },
      {
        "day": "Wednesday",
        "hours": "9\u202fAM to 6\u202fPM"
      },
      {
        "day": "Thursday",
        "hours": "9\u202fAM to 6\u202fPM"
      },
      {
        "day": "Friday",
        "hours": "9\u202fAM to 6\u202fPM"
      },
      {
        "day": "Saturday",
        "hours": "9\u202fAM to 12\u202fPM"
      },
      {
        "day": "Sunday",
        "hours": "Closed"
      }
    ],
    "peopleAlsoSearch": [],
    "placesTags": [],
    "reviewsTags": [],
    "additionalInfo": {
      "From the business": [
        {
          "Small business": true
        }
      ],
      "Service options": [
        {
          "Curbside pickup": true
        },
        {
          "Delivery": true
        },
        {
          "In-store pickup": true
        }
      ],
      "Accessibility": [
        {
          "Wheelchair accessible entrance": true
        },
        {
          "Wheelchair accessible parking lot": true
        }
      ],
      "Payments": [
        {
          "Credit cards": true
        },
        {
          "Debit cards": true
        },
        {
          "NFC mobile payments": true
        },
        {
          "Credit cards": true
        }
      ]
    },
    "gasPrices": [],
    "url": "https://www.google.com/maps/search/?api=1&query=Reddish%20Pharmacy&query_place_id=ChIJnRLfMfxLrlQR2jCSx_adDf4",
    "searchPageUrl": "https://www.google.com/maps/search/independent%20pharmacy%20Meridian%20ID/@-14.30178505,-170.97204273438993,12z?hl=en",
    "searchString": "independent pharmacy Meridian ID",
    "language": "en",
    "rank": 13,
    "isAdvertisement": false,
    "imageUrl": "https://streetviewpixels-pa.googleapis.com/v1/thumbnail?panoid=C8wK0cKzGbj9c5DTIPZaWQ&cb_client=search.gws-prod.gps&w=408&h=240&yaw=352.6699&pitch=0&thumbfov=100",
    "kgmid": "/g/1v3hzq3v",
    "classification": "independent",
    "is_independent": true,
    "is_compounding": false,
    "confidence": 0.9,
    "source": "perplexity",
    "method": "llm",
    "query_location": "meridian_id"
  },
  {
    "title": "Albertsons Pharmacy",
    "price": "$$",
    "categoryName": "Pharmacy",
    "address": "3301 W Cherry Ln, Meridian, ID 83642",
    "neighborhood": null,
    "street": "3301 W Cherry Ln",
    "city": "Meridian",
    "postalCode": "83642",
    "state": "Idaho",
    "countryCode": "US",
    "website": "https://local.pharmacy.albertsons.com/id/meridian/3301-w-cherry-ln.html",
    "phone": "(208) 884-5475",
    "phoneUnformatted": "+12088845475",
    "claimThisBusiness": false,
    "location": {
      "lat": 43.6179991,
      "lng": -116.4343071
    },
    "totalScore": 3.3,
    "permanentlyClosed": false,
    "temporarilyClosed": false,
    "placeId": "ChIJw7O3JaxTrlQRh6B8xuWq5wc",
    "categories": [
      "Pharmacy",
      "Drug store",
      "Vitamin & supplements store"
    ],
    "fid": "0x54ae53ac25b7b3c3:0x7e7aae5c67ca087",
    "cid": "569611781739946119",
    "reviewsCount": 43,
    "imagesCount": 6,
    "imageCategories": [],
    "scrapedAt": "2025-06-22T07:47:45.214Z",
    "googleFoodUrl": null,
    "hotelAds": [],
    "openingHours": [
      {
        "day": "Monday",
        "hours": "8\u202fAM to 8\u202fPM"
      },
      {
        "day": "Tuesday",
        "hours": "8\u202fAM to 8\u202fPM"
      },
      {
        "day": "Wednesday",
        "hours": "8\u202fAM to 8\u202fPM"
      },
      {
        "day": "Thursday",
        "hours": "8\u202fAM to 8\u202fPM"
      },
      {
        "day": "Friday",
        "hours": "8\u202fAM to 8\u202fPM"
      },
      {
        "day": "Saturday",
        "hours": "9\u202fAM to 6\u202fPM"
      },
      {
        "day": "Sunday",
        "hours": "10\u202fAM to 5\u202fPM"
      }
    ],
    "peopleAlsoSearch": [],
    "placesTags": [],
    "reviewsTags": [],
    "additionalInfo": {
      "Service options": [
        {
          "Delivery": true
        },
        {
          "In-store pickup": true
        },
        {
          "In-store shopping": true
        },
        {
          "Same-day delivery": true
        }
      ],
      "Accessibility": [
        {
          "Wheelchair accessible entrance": true
        },
        {
          "Wheelchair accessible parking lot": true
        }
      ],
      "Crowd": [
        {
          "LGBTQ+ friendly": true
        }
      ],
      "Planning": [
        {
          "Appointment required": true
        },
        {
          "Quick visit": true
        }
      ],
      "Payments": [
        {
          "Checks": true
        },
        {
          "Debit cards": true
        },
        {
          "Credit cards": true
        }
      ]
    },
    "gasPrices": [],
    "url": "https://www.google.com/maps/search/?api=1&query=Albertsons%20Pharmacy&query_place_id=ChIJw7O3JaxTrlQRh6B8xuWq5wc",
    "searchPageUrl": "https://www.google.com/maps/search/independent%20pharmacy%20Meridian%20ID/@-14.30178505,-170.97204273438993,12z?hl=en",
    "searchString": "independent pharmacy Meridian ID",
    "language": "en",
    "rank": 14,
    "isAdvertisement": false,
    "imageUrl": "https://lh3.googleusercontent.com/p/AF1QipMvE-XoRcvRlnYLudSU8MMS-IwSZ9_hZt8JyH4=w427-h240-k-no",
    "kgmid": "/g/1td12_fy",
    "classification": "chain",
    "is_independent": false,
    "confidence": 1.0,
    "source": "rule-based"
  },
  {
    "title": "Walgreens Pharmacy",
    "description": "Department of the Walgreens chain providing prescription medications & other health-related items.",
    "price": "$$",
    "categoryName": "Pharmacy",
    "address": "1570 E Fairview Ave, Meridian, ID 83642",
    "neighborhood": null,
    "street": "1570 E Fairview Ave",
    "city": "Meridian",
    "postalCode": "83642",
    "state": "Idaho",
    "countryCode": "US",
    "website": "https://www.walgreens.com/locator/walgreens-1570+e+fairview+ave-meridian-id-83642/id=6200",
    "phone": "(208) 888-0034",
    "phoneUnformatted": "+12088880034",
    "claimThisBusiness": false,
    "location": {
      "lat": 43.6201681,
      "lng": -116.3752348
    },
    "totalScore": 4,
    "permanentlyClosed": false,
    "temporarilyClosed": false,
    "placeId": "ChIJYXwMrnRUrlQReXo-lTNc8Kw",
    "categories": [
      "Pharmacy"
    ],
    "fid": "0x54ae5474ae0c7c61:0xacf05c33953e7a79",
    "cid": "12461561545551149689",
    "reviewsCount": 4,
    "imagesCount": 3,
    "imageCategories": [],
    "scrapedAt": "2025-06-22T07:47:45.214Z",
    "googleFoodUrl": null,
    "hotelAds": [],
    "openingHours": [
      {
        "day": "Monday",
        "hours": "9\u202fAM to 1:30\u202fPM, 2 to 6\u202fPM"
      },
      {
        "day": "Tuesday",
        "hours": "9\u202fAM to 1:30\u202fPM, 2 to 6\u202fPM"
      },
      {
        "day": "Wednesday",
        "hours": "9\u202fAM to 1:30\u202fPM, 2 to 6\u202fPM"
      },
      {
        "day": "Thursday",
        "hours": "9\u202fAM to 1:30\u202fPM, 2 to 6\u202fPM"
      },
      {
        "day": "Friday",
        "hours": "9\u202fAM to 1:30\u202fPM, 2 to 6\u202fPM"
      },
      {
        "day": "Saturday",
        "hours": "9\u202fAM to 1:30\u202fPM, 2 to 5\u202fPM"
      },
      {
        "day": "Sunday",
        "hours": "Closed"
      }
    ],
    "additionalOpeningHours": {
      "Drive through": [
        {
          "day": "Monday",
          "hours": "9\u202fAM\u20131:30\u202fPM"
        },
        {
          "day": "Tuesday",
          "hours": "9\u202fAM\u20131:30\u202fPM"
        },
        {
          "day": "Wednesday",
          "hours": "9\u202fAM\u20131:30\u202fPM"
        },
        {
          "day": "Thursday",
          "hours": "9\u202fAM\u20131:30\u202fPM"
        },
        {
          "day": "Friday",
          "hours": "9\u202fAM\u20131:30\u202fPM"
        },
        {
          "day": "Saturday",
          "hours": "9\u202fAM\u20131:30\u202fPM"
        },
        {
          "day": "Sunday",
          "hours": "Closed"
        }
      ]
    },
    "peopleAlsoSearch": [],
    "placesTags": [],
    "reviewsTags": [],
    "additionalInfo": {
      "Service options": [
        {
          "Drive-through": true
        },
        {
          "In-store pickup": true
        }
      ],
      "Accessibility": [
        {
          "Wheelchair accessible entrance": true
        },
        {
          "Wheelchair accessible parking lot": true
        }
      ],
      "Offerings": [
        {
          "Naloxone": true
        }
      ],
      "Planning": [
        {
          "Quick visit": true
        }
      ],
      "Payments": [
        {
          "Credit cards": true
        },
        {
          "Debit cards": true
        }
      ]
    },
    "gasPrices": [],
    "url": "https://www.google.com/maps/search/?api=1&query=Walgreens%20Pharmacy&query_place_id=ChIJYXwMrnRUrlQReXo-lTNc8Kw",
    "searchPageUrl": "https://www.google.com/maps/search/independent%20pharmacy%20Meridian%20ID/@-14.30178505,-170.97204273438993,12z?hl=en",
    "searchString": "independent pharmacy Meridian ID",
    "language": "en",
    "rank": 15,
    "isAdvertisement": false,
    "imageUrl": "https://lh3.googleusercontent.com/p/AF1QipPkl6Jmn2Dhd2zQFxq79o20-QV-nFBUAXJsrudg=w525-h240-k-no",
    "kgmid": "/g/11cn93lgzh",
    "classification": "chain",
    "is_independent": false,
    "confidence": 1.0,
    "source": "rule-based"
  },
  {
    "title": "Mountain Care Pharmacy",
    "price": null,
    "categoryName": "Pharmacy",
    "address": "286 N Maple Grove Rd, Boise, ID 83704",
    "neighborhood": "West Boise",
    "street": "286 N Maple Grove Rd",
    "city": "Boise",
    "postalCode": "83704",
    "state": "Idaho",
    "countryCode": "US",
    "website": "https://mtncarerx.com/?utm_source=google&utm_medium=website&utm_campaign=gmb",
    "phone": "(208) 287-4667",
    "phoneUnformatted": "+12082874667",
    "claimThisBusiness": false,
    "location": {
      "lat": 43.6073221,
      "lng": -116.2928982
    },
    "totalScore": 4.9,
    "permanentlyClosed": false,
    "temporarilyClosed": false,
    "placeId": null,
    "categories": [
      "Pharmacy"
    ],
    "fid": "0x54ae566590fe5423:0x3bee0722492d0772",
    "cid": "4318396936532854642",
    "reviewsCount": 413,
    "imagesCount": 7,
    "imageCategories": [],
    "scrapedAt": "2025-06-22T07:47:45.215Z",
    "googleFoodUrl": null,
    "hotelAds": [],
    "openingHours": [
      {
        "day": "Monday",
        "hours": "9\u202fAM to 5\u202fPM"
      },
      {
        "day": "Tuesday",
        "hours": "9\u202fAM to 5\u202fPM"
      },
      {
        "day": "Wednesday",
        "hours": "9\u202fAM to 5\u202fPM"
      },
      {
        "day": "Thursday",
        "hours": "9\u202fAM to 5\u202fPM"
      },
      {
        "day": "Friday",
        "hours": "9\u202fAM to 5\u202fPM"
      },
      {
        "day": "Saturday",
        "hours": "1 to 4\u202fPM"
      },
      {
        "day": "Sunday",
        "hours": "1 to 4\u202fPM"
      }
    ],
    "peopleAlsoSearch": [],
    "placesTags": [],
    "reviewsTags": [],
    "additionalInfo": {
      "From the business": [
        {
          "Small business": true
        }
      ],
      "Service options": [
        {
          "Delivery": true
        },
        {
          "Onsite services": true
        },
        {
          "Same-day delivery": true
        },
        {
          "In-store shopping": false
        }
      ],
      "Accessibility": [
        {
          "Wheelchair accessible entrance": true
        },
        {
          "Wheelchair accessible parking lot": true
        }
      ],
      "Payments": [
        {
          "Checks": true
        },
        {
          "Credit cards": true
        },
        {
          "Debit cards": true
        },
        {
          "Credit cards": true
        }
      ]
    },
    "gasPrices": [],
    "url": "https://www.google.com/maps/search/?api=1&query=Mountain%20Care%20Pharmacy&query_place_id=ChIJI1T-kGVWrlQRcgctSSIH7js",
    "searchPageUrl": "https://www.google.com/maps/search/independent%20pharmacy%20Meridian%20ID/@-14.30178505,-170.97204273438993,12z?hl=en",
    "searchString": "independent pharmacy Meridian ID",
    "language": "en",
    "rank": 16,
    "isAdvertisement": false,
    "imageUrl": "https://lh3.googleusercontent.com/gps-cs-s/AC9h4nqOkosyzu4i4gUVT7CLi1agaX4JcdmpyNEzkqI6EV9Wz10lQ-dtCjBMEAE2yLgdUgQjim8NHp8g9JK9Fyp6x4GPX4barjpR_6HAS2r-jshdXDkxaBzOMHNTVSI0s--i9Sh092w5AA=w408-h544-k-no",
    "kgmid": "/g/1tt1sdws",
    "classification": "independent",
    "is_independent": true,
    "is_compounding": false,
    "confidence": 0.9,
    "source": "perplexity",
    "method": "llm",
    "query_location": "meridian_id"
  },
  {
    "title": "Fred Meyer Pharmacy",
    "price": null,
    "categoryName": "Pharmacy",
    "address": "1400 W Chinden Blvd, Meridian, ID 83646",
    "neighborhood": null,
    "street": "1400 W Chinden Blvd",
    "city": "Meridian",
    "postalCode": "83646",
    "state": "Idaho",
    "countryCode": "US",
    "website": "https://www.fredmeyer.com/rx/pharmacy/details/701/00685?cid=loc_70100685P_gmb",
    "phone": "(208) 893-6033",
    "phoneUnformatted": "+12088936033",
    "claimThisBusiness": false,
    "location": {
      "lat": 43.6660119,
      "lng": -116.4111789
    },
    "totalScore": 2.4,
    "permanentlyClosed": false,
    "temporarilyClosed": false,
    "placeId": "ChIJ167WQa5UrlQR0t_km-HIris",
    "categories": [
      "Pharmacy",
      "Drug store",
      "Health counselor",
      "Home health care service"
    ],
    "fid": "0x54ae54ae41d6aed7:0x2baec8e19be4dfd2",
    "cid": "3147674060887220178",
    "reviewsCount": 45,
    "imagesCount": 11,
    "imageCategories": [],
    "scrapedAt": "2025-06-22T07:47:45.215Z",
    "googleFoodUrl": null,
    "hotelAds": [],
    "openingHours": [
      {
        "day": "Monday",
        "hours": "9\u202fAM to 1\u202fPM, 1:30 to 8\u202fPM"
      },
      {
        "day": "Tuesday",
        "hours": "9\u202fAM to 1\u202fPM, 1:30 to 8\u202fPM"
      },
      {
        "day": "Wednesday",
        "hours": "9\u202fAM to 1\u202fPM, 1:30 to 8\u202fPM"
      },
      {
        "day": "Thursday",
        "hours": "9\u202fAM to 1\u202fPM, 1:30 to 8\u202fPM"
      },
      {
        "day": "Friday",
        "hours": "9\u202fAM to 1\u202fPM, 1:30 to 8\u202fPM"
      },
      {
        "day": "Saturday",
        "hours": "9\u202fAM to 1\u202fPM, 1:30 to 6\u202fPM"
      },
      {
        "day": "Sunday",
        "hours": "10\u202fAM to 1\u202fPM, 1:30 to 5\u202fPM"
      }
    ],
    "additionalOpeningHours": {
      "Drive through": [
        {
          "day": "Monday",
          "hours": "9\u202fAM\u20131\u202fPM"
        },
        {
          "day": "Tuesday",
          "hours": "9\u202fAM\u20131\u202fPM"
        },
        {
          "day": "Wednesday",
          "hours": "9\u202fAM\u20131\u202fPM"
        },
        {
          "day": "Thursday",
          "hours": "9\u202fAM\u20131\u202fPM"
        },
        {
          "day": "Friday",
          "hours": "9\u202fAM\u20131\u202fPM"
        },
        {
          "day": "Saturday",
          "hours": "9\u202fAM\u20131\u202fPM"
        },
        {
          "day": "Sunday",
          "hours": "10\u202fAM\u20131\u202fPM"
        }
      ]
    },
    "peopleAlsoSearch": [],
    "placesTags": [],
    "reviewsTags": [],
    "additionalInfo": {
      "Service options": [
        {
          "Curbside pickup": true
        },
        {
          "Delivery": true
        },
        {
          "Drive-through": true
        },
        {
          "In-store pickup": true
        },
        {
          "In-store shopping": true
        },
        {
          "Same-day delivery": true
        }
      ],
      "Accessibility": [
        {
          "Wheelchair accessible entrance": true
        },
        {
          "Wheelchair accessible parking lot": true
        },
        {
          "Wheelchair accessible restroom": true
        },
        {
          "Wheelchair accessible seating": true
        }
      ],
      "Offerings": [
        {
          "Passport photos": true
        }
      ],
      "Amenities": [
        {
          "Wi-Fi": true
        }
      ],
      "Crowd": [
        {
          "LGBTQ+ friendly": true
        },
        {
          "Transgender safespace": true
        }
      ],
      "Planning": [
        {
          "Quick visit": true
        }
      ],
      "Payments": [
        {
          "Checks": true
        },
        {
          "Credit cards": true
        },
        {
          "Debit cards": true
        },
        {
          "NFC mobile payments": true
        },
        {
          "Credit cards": true
        }
      ]
    },
    "gasPrices": [],
    "url": "https://www.google.com/maps/search/?api=1&query=Fred%20Meyer%20Pharmacy&query_place_id=ChIJ167WQa5UrlQR0t_km-HIris",
    "searchPageUrl": "https://www.google.com/maps/search/independent%20pharmacy%20Meridian%20ID/@-14.30178505,-170.97204273438993,12z?hl=en",
    "searchString": "independent pharmacy Meridian ID",
    "language": "en",
    "rank": 17,
    "isAdvertisement": false,
    "imageUrl": "https://lh3.googleusercontent.com/p/AF1QipPZaWQYV50aHnNsdM-gP_Hf67o7nkjYQ5gAUyS0=w426-h240-k-no",
    "kgmid": "/g/1ptwktl3t",
    "classification": "chain",
    "is_independent": false,
    "confidence": 1.0,
    "source": "rule-based"
  },
  {
    "title": "Walgreens Pharmacy",
    "description": "Department of the Walgreens chain providing prescription medications & other health-related items.",
    "price": "$$",
    "categoryName": "Pharmacy",
    "address": "3150 W Cherry Ln, Meridian, ID 83642",
    "neighborhood": null,
    "street": "3150 W Cherry Ln",
    "city": "Meridian",
    "postalCode": "83642",
    "state": "Idaho",
    "countryCode": "US",
    "website": "https://www.walgreens.com/locator/walgreens-3150+w+cherry+ln-meridian-id-83642/id=10197",
    "phone": "(208) 319-2312",
    "phoneUnformatted": "+12083192312",
    "claimThisBusiness": false,
    "location": {
      "lat": 43.6198454,
      "lng": -116.4328446
    },
    "totalScore": 2.8,
    "permanentlyClosed": false,
    "temporarilyClosed": false,
    "placeId": "ChIJkdpCzK5TrlQRCb28pvdeUcM",
    "categories": [
      "Pharmacy"
    ],
    "fid": "0x54ae53aecc42da91:0xc3515ef7a6bcbd09",
    "cid": "14074134728256830729",
    "reviewsCount": 16,
    "imagesCount": 6,
    "imageCategories": [],
    "scrapedAt": "2025-06-22T07:47:45.215Z",
    "googleFoodUrl": null,
    "hotelAds": [],
    "openingHours": [
      {
        "day": "Monday",
        "hours": "9\u202fAM to 1:30\u202fPM, 2 to 8\u202fPM"
      },
      {
        "day": "Tuesday",
        "hours": "9\u202fAM to 1:30\u202fPM, 2 to 8\u202fPM"
      },
      {
        "day": "Wednesday",
        "hours": "9\u202fAM to 1:30\u202fPM, 2 to 8\u202fPM"
      },
      {
        "day": "Thursday",
        "hours": "9\u202fAM to 1:30\u202fPM, 2 to 8\u202fPM"
      },
      {
        "day": "Friday",
        "hours": "9\u202fAM to 1:30\u202fPM, 2 to 8\u202fPM"
      },
      {
        "day": "Saturday",
        "hours": "9\u202fAM to 1:30\u202fPM, 2 to 5\u202fPM"
      },
      {
        "day": "Sunday",
        "hours": "9\u202fAM to 1:30\u202fPM, 2 to 5\u202fPM"
      }
    ],
    "additionalOpeningHours": {
      "Drive through": [
        {
          "day": "Monday",
          "hours": "9\u202fAM\u20131:30\u202fPM"
        },
        {
          "day": "Tuesday",
          "hours": "9\u202fAM\u20131:30\u202fPM"
        },
        {
          "day": "Wednesday",
          "hours": "9\u202fAM\u20131:30\u202fPM"
        },
        {
          "day": "Thursday",
          "hours": "9\u202fAM\u20131:30\u202fPM"
        },
        {
          "day": "Friday",
          "hours": "9\u202fAM\u20131:30\u202fPM"
        },
        {
          "day": "Saturday",
          "hours": "9\u202fAM\u20131:30\u202fPM"
        },
        {
          "day": "Sunday",
          "hours": "9\u202fAM\u20131:30\u202fPM"
        }
      ]
    },
    "peopleAlsoSearch": [],
    "placesTags": [],
    "reviewsTags": [],
    "additionalInfo": {
      "Service options": [
        {
          "Delivery": true
        },
        {
          "Drive-through": true
        },
        {
          "In-store pickup": true
        }
      ],
      "Accessibility": [
        {
          "Wheelchair accessible entrance": true
        },
        {
          "Wheelchair accessible parking lot": true
        }
      ],
      "Offerings": [
        {
          "Naloxone": true
        }
      ],
      "Planning": [
        {
          "Quick visit": true
        }
      ],
      "Payments": [
        {
          "Checks": true
        },
        {
          "Credit cards": true
        },
        {
          "Debit cards": true
        }
      ]
    },
    "gasPrices": [],
    "url": "https://www.google.com/maps/search/?api=1&query=Walgreens%20Pharmacy&query_place_id=ChIJkdpCzK5TrlQRCb28pvdeUcM",
    "searchPageUrl": "https://www.google.com/maps/search/independent%20pharmacy%20Meridian%20ID/@-14.30178505,-170.97204273438993,12z?hl=en",
    "searchString": "independent pharmacy Meridian ID",
    "language": "en",
    "rank": 18,
    "isAdvertisement": false,
    "imageUrl": "https://lh3.googleusercontent.com/gps-cs-s/AC9h4nop9hbNckcH4SScOCxFdImInC-bW2XDJWIxPEYc3Eokysgpp5Tl-KoQBKVz4VcYqNzGMcjIddc7CkgpgEczgKUofh3H1SLuXQB1JnGBbNpAXGM6YjNzd0R0n2VLDANrLMzVEdj2=w408-h306-k-no",
    "kgmid": "/g/11cn93zw76",
    "classification": "chain",
    "is_independent": false,
    "confidence": 1.0,
    "source": "rule-based"
  },
  {
    "title": "Albertsons Pharmacy",
    "price": "$$",
    "categoryName": "Pharmacy",
    "address": "20 E Fairview Ave, Meridian, ID 83642",
    "neighborhood": null,
    "street": "20 E Fairview Ave",
    "city": "Meridian",
    "postalCode": "83642",
    "state": "Idaho",
    "countryCode": "US",
    "website": "https://local.pharmacy.albertsons.com/id/meridian/20-e-fairview-ave.html",
    "phone": "(208) 888-4414",
    "phoneUnformatted": "+12088884414",
    "claimThisBusiness": false,
    "location": {
      "lat": 43.6206979,
      "lng": -116.3927992
    },
    "totalScore": 3.8,
    "permanentlyClosed": false,
    "temporarilyClosed": false,
    "placeId": "ChIJu4oonI5TrlQRhGqpYXmGO8Q",
    "categories": [
      "Pharmacy",
      "Drug store",
      "Vitamin & supplements store"
    ],
    "fid": "0x54ae538e9c288abb:0xc43b867961a96a84",
    "cid": "14140043310947461764",
    "reviewsCount": 25,
    "imagesCount": 6,
    "imageCategories": [],
    "scrapedAt": "2025-06-22T07:47:45.215Z",
    "googleFoodUrl": null,
    "hotelAds": [],
    "openingHours": [
      {
        "day": "Monday",
        "hours": "8\u202fAM to 8\u202fPM"
      },
      {
        "day": "Tuesday",
        "hours": "8\u202fAM to 8\u202fPM"
      },
      {
        "day": "Wednesday",
        "hours": "8\u202fAM to 8\u202fPM"
      },
      {
        "day": "Thursday",
        "hours": "8\u202fAM to 8\u202fPM"
      },
      {
        "day": "Friday",
        "hours": "8\u202fAM to 8\u202fPM"
      },
      {
        "day": "Saturday",
        "hours": "9\u202fAM to 6\u202fPM"
      },
      {
        "day": "Sunday",
        "hours": "10\u202fAM to 5\u202fPM"
      }
    ],
    "peopleAlsoSearch": [],
    "placesTags": [],
    "reviewsTags": [],
    "additionalInfo": {
      "Service options": [
        {
          "Delivery": true
        },
        {
          "In-store pickup": true
        },
        {
          "In-store shopping": true
        },
        {
          "Same-day delivery": true
        }
      ],
      "Accessibility": [
        {
          "Wheelchair accessible entrance": true
        },
        {
          "Wheelchair accessible parking lot": true
        }
      ],
      "Crowd": [
        {
          "LGBTQ+ friendly": true
        }
      ],
      "Planning": [
        {
          "Appointment required": true
        },
        {
          "Quick visit": true
        }
      ],
      "Payments": [
        {
          "Checks": true
        },
        {
          "Debit cards": true
        },
        {
          "Credit cards": true
        }
      ]
    },
    "gasPrices": [],
    "url": "https://www.google.com/maps/search/?api=1&query=Albertsons%20Pharmacy&query_place_id=ChIJu4oonI5TrlQRhGqpYXmGO8Q",
    "searchPageUrl": "https://www.google.com/maps/search/independent%20pharmacy%20Meridian%20ID/@-14.30178505,-170.97204273438993,12z?hl=en",
    "searchString": "independent pharmacy Meridian ID",
    "language": "en",
    "rank": 19,
    "isAdvertisement": false,
    "imageUrl": "https://lh3.googleusercontent.com/p/AF1QipM_a4t5G7aSBOFQCVsmACK7mYt-Q-67ps4fOMCD=w427-h240-k-no",
    "kgmid": "/g/11cjkvlpwy",
    "classification": "chain",
    "is_independent": false,
    "confidence": 1.0,
    "source": "rule-based"
  },
  {
    "title": "Fred Meyer Pharmacy",
    "price": null,
    "categoryName": "Pharmacy",
    "address": "1850 E Fairview Ave, Meridian, ID 83642",
    "neighborhood": null,
    "street": "1850 E Fairview Ave",
    "city": "Meridian",
    "postalCode": "83642",
    "state": "Idaho",
    "countryCode": "US",
    "website": "https://www.fredmeyer.com/rx/pharmacy/details/701/00198?cid=loc_70100198P_gmb",
    "phone": "(208) 887-5273",
    "phoneUnformatted": "+12088875273",
    "claimThisBusiness": false,
    "location": {
      "lat": 43.6211272,
      "lng": -116.3723417
    },
    "totalScore": 3.6,
    "permanentlyClosed": false,
    "temporarilyClosed": false,
    "placeId": "ChIJN7KfM3NUrlQRLLkT1B-SYSI",
    "categories": [
      "Pharmacy",
      "Drug store",
      "Health counselor",
      "Home health care service"
    ],
    "fid": "0x54ae5473339fb237:0x2261921fd413b92c",
    "cid": "2477421935430187308",
    "reviewsCount": 41,
    "imagesCount": 14,
    "imageCategories": [],
    "scrapedAt": "2025-06-22T07:47:45.215Z",
    "googleFoodUrl": null,
    "hotelAds": [],
    "openingHours": [
      {
        "day": "Monday",
        "hours": "9\u202fAM to 1\u202fPM, 1:30 to 8\u202fPM"
      },
      {
        "day": "Tuesday",
        "hours": "9\u202fAM to 1\u202fPM, 1:30 to 8\u202fPM"
      },
      {
        "day": "Wednesday",
        "hours": "9\u202fAM to 1\u202fPM, 1:30 to 8\u202fPM"
      },
      {
        "day": "Thursday",
        "hours": "9\u202fAM to 1\u202fPM, 1:30 to 8\u202fPM"
      },
      {
        "day": "Friday",
        "hours": "9\u202fAM to 1\u202fPM, 1:30 to 8\u202fPM"
      },
      {
        "day": "Saturday",
        "hours": "9\u202fAM to 1\u202fPM, 1:30 to 6\u202fPM"
      },
      {
        "day": "Sunday",
        "hours": "10\u202fAM to 1\u202fPM, 1:30 to 5\u202fPM"
      }
    ],
    "additionalOpeningHours": {
      "Drive through": [
        {
          "day": "Monday",
          "hours": "9\u202fAM\u20131\u202fPM"
        },
        {
          "day": "Tuesday",
          "hours": "9\u202fAM\u20131\u202fPM"
        },
        {
          "day": "Wednesday",
          "hours": "9\u202fAM\u20131\u202fPM"
        },
        {
          "day": "Thursday",
          "hours": "9\u202fAM\u20131\u202fPM"
        },
        {
          "day": "Friday",
          "hours": "9\u202fAM\u20131\u202fPM"
        },
        {
          "day": "Saturday",
          "hours": "9\u202fAM\u20131\u202fPM"
        },
        {
          "day": "Sunday",
          "hours": "10\u202fAM\u20131\u202fPM"
        }
      ]
    },
    "peopleAlsoSearch": [],
    "placesTags": [],
    "reviewsTags": [],
    "additionalInfo": {
      "Service options": [
        {
          "Curbside pickup": true
        },
        {
          "Delivery": true
        },
        {
          "Drive-through": true
        },
        {
          "In-store pickup": true
        },
        {
          "In-store shopping": true
        },
        {
          "Same-day delivery": true
        }
      ],
      "Accessibility": [
        {
          "Wheelchair accessible entrance": true
        },
        {
          "Wheelchair accessible parking lot": true
        },
        {
          "Wheelchair accessible restroom": true
        },
        {
          "Wheelchair accessible seating": true
        }
      ],
      "Amenities": [
        {
          "Wi-Fi": true
        }
      ],
      "Crowd": [
        {
          "LGBTQ+ friendly": true
        },
        {
          "Transgender safespace": true
        }
      ],
      "Planning": [
        {
          "Quick visit": true
        }
      ],
      "Payments": [
        {
          "Checks": true
        },
        {
          "Credit cards": true
        },
        {
          "Debit cards": true
        },
        {
          "NFC mobile payments": true
        },
        {
          "Credit cards": true
        }
      ]
    },
    "gasPrices": [],
    "url": "https://www.google.com/maps/search/?api=1&query=Fred%20Meyer%20Pharmacy&query_place_id=ChIJN7KfM3NUrlQRLLkT1B-SYSI",
    "searchPageUrl": "https://www.google.com/maps/search/independent%20pharmacy%20Meridian%20ID/@-14.30178505,-170.97204273438993,12z?hl=en",
    "searchString": "independent pharmacy Meridian ID",
    "language": "en",
    "rank": 20,
    "isAdvertisement": false,
    "imageUrl": "https://lh3.googleusercontent.com/p/AF1QipOCVkK2nIXnBKqFLWLHfNd9dihn_DNMLTrIQW4C=w426-h240-k-no",
    "kgmid": "/g/1v44q3wg",
    "classification": "chain",
    "is_independent": false,
    "confidence": 1.0,
    "source": "rule-based"
  }
]