[
  {
    "title": "Lawton Heritage Compounding Pharmacy",
    "price": null,
    "categoryName": "Pharmacy",
    "address": "12 NW Sheridan Rd, Lawton, OK 73505",
    "neighborhood": null,
    "street": "12 NW Sheridan Rd",
    "city": "Lawton",
    "postalCode": "73505",
    "state": "Oklahoma",
    "countryCode": "US",
    "website": "https://www.lawtonheritagerx.com/",
    "phone": "(580) 354-9860",
    "phoneUnformatted": "+15803549860",
    "claimThisBusiness": false,
    "location": {
      "lat": 34.6098265,
      "lng": -98.4239226
    },
    "totalScore": 4.8,
    "permanentlyClosed": false,
    "temporarilyClosed": false,
    "placeId": null,
    "categories": [
      "Pharmacy",
      "Drug store"
    ],
    "fid": "0x87ad1f224922edc9:0xeff99d2a37c5f101",
    "cid": "17292025048915636481",
    "reviewsCount": 41,
    "imagesCount": 2,
    "imageCategories": [],
    "scrapedAt": "2025-06-22T09:21:43.880Z",
    "googleFoodUrl": null,
    "hotelAds": [],
    "openingHours": [
      {
        "day": "Monday",
        "hours": "9\u202fAM to 6\u202fPM"
      },
      {
        "day": "Tuesday",
        "hours": "9\u202fAM to 6\u202fPM"
      },
      {
        "day": "Wednesday",
        "hours": "9\u202fAM to 6\u202fPM"
      },
      {
        "day": "Thursday",
        "hours": "9\u202fAM to 6\u202fPM"
      },
      {
        "day": "Friday",
        "hours": "9\u202fAM to 6\u202fPM"
      },
      {
        "day": "Saturday",
        "hours": "9\u202fAM to 1\u202fPM"
      },
      {
        "day": "Sunday",
        "hours": "Closed"
      }
    ],
    "peopleAlsoSearch": [],
    "placesTags": [],
    "reviewsTags": [],
    "additionalInfo": {
      "From the business": [
        {
          "Small business": true
        }
      ],
      "Service options": [
        {
          "Delivery": true
        },
        {
          "Drive-through": true
        },
        {
          "In-store pickup": true
        },
        {
          "Onsite services": true
        },
        {
          "Same-day delivery": true
        }
      ],
      "Accessibility": [
        {
          "Wheelchair accessible entrance": true
        },
        {
          "Wheelchair accessible parking lot": true
        }
      ],
      "Planning": [
        {
          "Quick visit": true
        }
      ],
      "Payments": [
        {
          "Credit cards": true
        },
        {
          "Debit cards": true
        },
        {
          "NFC mobile payments": true
        },
        {
          "Credit cards": true
        }
      ]
    },
    "gasPrices": [],
    "url": "https://www.google.com/maps/search/?api=1&query=Lawton%20Heritage%20Compounding%20Pharmacy&query_place_id=ChIJye0iSSIfrYcRAfHFNyqd-e8",
    "searchPageUrl": "https://www.google.com/maps/search/independent%20pharmacy%20Lawton%20OK/@52.19374911259121,175.63765607391932,12z?hl=en",
    "searchString": "independent pharmacy Lawton OK",
    "language": "en",
    "rank": 1,
    "isAdvertisement": false,
    "imageUrl": "https://lh3.googleusercontent.com/p/AF1QipNbHwyDogsN9qWKAU9WtB5ivN1SH2uEg7cI3B8h=w408-h306-k-no",
    "kgmid": "/g/1tj588g5",
    "classification": "independent",
    "is_independent": true,
    "is_compounding": true,
    "confidence": 0.95,
    "source": "perplexity",
    "method": "llm"
  },
  {
    "title": "Lawton Ihs Pharmacy",
    "price": null,
    "categoryName": "Pharmacy",
    "address": "1515 NE Lawrie Tatum Rd, Lawton, OK 73507",
    "neighborhood": null,
    "street": "1515 NE Lawrie Tatum Rd",
    "city": "Lawton",
    "postalCode": "73507",
    "state": "Oklahoma",
    "countryCode": "US",
    "website": "https://www.ihs.gov/oklahomacity/healthcarefacilities/lawton/",
    "phone": "(580) 354-5532",
    "phoneUnformatted": "+15803545532",
    "claimThisBusiness": true,
    "location": {
      "lat": 34.6275681,
      "lng": -98.3842405
    },
    "totalScore": 5,
    "permanentlyClosed": false,
    "temporarilyClosed": false,
    "placeId": "ChIJtQ49ayUZrYcRslQf_qwkQEw",
    "categories": [
      "Pharmacy"
    ],
    "fid": "0x87ad19256b3d0eb5:0x4c4024acfe1f54b2",
    "cid": "5494431870808446130",
    "reviewsCount": 2,
    "imagesCount": 1,
    "imageCategories": [],
    "scrapedAt": "2025-06-22T09:21:43.881Z",
    "googleFoodUrl": null,
    "hotelAds": [],
    "openingHours": [],
    "peopleAlsoSearch": [],
    "placesTags": [],
    "reviewsTags": [],
    "additionalInfo": {
      "Accessibility": [
        {
          "Wheelchair accessible entrance": true
        },
        {
          "Wheelchair accessible parking lot": true
        }
      ],
      "Payments": [
        {
          "Credit cards": true
        }
      ]
    },
    "gasPrices": [],
    "url": "https://www.google.com/maps/search/?api=1&query=Lawton%20Ihs%20Pharmacy&query_place_id=ChIJtQ49ayUZrYcRslQf_qwkQEw",
    "searchPageUrl": "https://www.google.com/maps/search/independent%20pharmacy%20Lawton%20OK/@52.19374911259121,175.63765607391932,12z?hl=en",
    "searchString": "independent pharmacy Lawton OK",
    "language": "en",
    "rank": 2,
    "isAdvertisement": false,
    "imageUrl": "https://streetviewpixels-pa.googleapis.com/v1/thumbnail?panoid=hThna7OsbZYvchDgvdWG5Q&cb_client=search.gws-prod.gps&w=408&h=240&yaw=277.00784&pitch=0&thumbfov=100",
    "kgmid": "/g/11h3vbsty9",
    "classification": "hospital",
    "is_independent": false,
    "confidence": 1.0,
    "source": "rule-based"
  },
  {
    "title": "Ken's Discount Pharmacy",
    "price": null,
    "categoryName": "Pharmacy",
    "address": "802 W Gore Blvd, Lawton, OK 73501",
    "neighborhood": null,
    "street": "802 W Gore Blvd",
    "city": "Lawton",
    "postalCode": "73501",
    "state": "Oklahoma",
    "countryCode": "US",
    "phone": "(580) 353-4113",
    "phoneUnformatted": "+15803534113",
    "claimThisBusiness": true,
    "location": {
      "lat": 34.6083116,
      "lng": -98.4004457
    },
    "totalScore": 4.4,
    "permanentlyClosed": false,
    "temporarilyClosed": false,
    "placeId": null,
    "categories": [
      "Pharmacy"
    ],
    "fid": "0x87ad1f2db69ee7fb:0xb66e077473099362",
    "cid": "13145452559068664674",
    "reviewsCount": 88,
    "imagesCount": 3,
    "imageCategories": [],
    "scrapedAt": "2025-06-22T09:21:43.881Z",
    "googleFoodUrl": null,
    "hotelAds": [],
    "openingHours": [
      {
        "day": "Monday",
        "hours": "8:30\u202fAM to 7\u202fPM"
      },
      {
        "day": "Tuesday",
        "hours": "8:30\u202fAM to 7\u202fPM"
      },
      {
        "day": "Wednesday",
        "hours": "8:30\u202fAM to 7\u202fPM"
      },
      {
        "day": "Thursday",
        "hours": "8:30\u202fAM to 7\u202fPM"
      },
      {
        "day": "Friday",
        "hours": "8:30\u202fAM to 7\u202fPM"
      },
      {
        "day": "Saturday",
        "hours": "8:30\u202fAM to 5\u202fPM"
      },
      {
        "day": "Sunday",
        "hours": "Closed"
      }
    ],
    "peopleAlsoSearch": [],
    "placesTags": [],
    "reviewsTags": [],
    "additionalInfo": {
      "Service options": [
        {
          "Delivery": true
        },
        {
          "Drive-through": true
        },
        {
          "In-store pickup": true
        },
        {
          "Same-day delivery": true
        }
      ],
      "Accessibility": [
        {
          "Wheelchair accessible entrance": true
        },
        {
          "Wheelchair accessible parking lot": true
        }
      ],
      "Planning": [
        {
          "Quick visit": true
        }
      ],
      "Payments": [
        {
          "Credit cards": true
        },
        {
          "Debit cards": true
        },
        {
          "NFC mobile payments": true
        },
        {
          "Credit cards": true
        }
      ]
    },
    "gasPrices": [],
    "url": "https://www.google.com/maps/search/?api=1&query=Ken's%20Discount%20Pharmacy&query_place_id=ChIJ--eeti0frYcRYpMJc3QHbrY",
    "searchPageUrl": "https://www.google.com/maps/search/independent%20pharmacy%20Lawton%20OK/@52.19374911259121,175.63765607391932,12z?hl=en",
    "searchString": "independent pharmacy Lawton OK",
    "language": "en",
    "rank": 3,
    "isAdvertisement": false,
    "imageUrl": "https://lh3.googleusercontent.com/gps-cs-s/AC9h4nqXIttv3yDZgJ5GBVF4XWhbO6xxKu8XxLvVqPzj4D8mYZdLL9vaRmvr2NXUS2_bzAbgmzb5q75qHflkaVFIHC0vrI1EqVbCflsX-yHNLzCWY7UX1DXkPQCCuk5fRbBfAKfCiH8=w408-h411-k-no",
    "kgmid": "/g/1vp6_pkh",
    "classification": "independent",
    "is_independent": true,
    "is_compounding": false,
    "confidence": 0.85,
    "source": "perplexity",
    "method": "llm"
  },
  {
    "title": "Sheridan Express Pharmacy",
    "price": null,
    "categoryName": "Pharmacy",
    "address": "205 SW Sheridan Rd, Lawton, OK 73505",
    "neighborhood": null,
    "street": "205 SW Sheridan Rd",
    "city": "Lawton",
    "postalCode": "73505",
    "state": "Oklahoma",
    "countryCode": "US",
    "website": "http://www.sheridanexpresspharmacy.com/",
    "phone": "(580) 248-0300",
    "phoneUnformatted": "+15802480300",
    "claimThisBusiness": true,
    "location": {
      "lat": 34.605873,
      "lng": -98.4227549
    },
    "totalScore": 4.6,
    "permanentlyClosed": false,
    "temporarilyClosed": false,
    "placeId": null,
    "categories": [
      "Pharmacy"
    ],
    "fid": "0x87ad1f1993311e91:0xd01a0a5d8744bd55",
    "cid": "14995309306101153109",
    "reviewsCount": 64,
    "imagesCount": 1,
    "imageCategories": [],
    "scrapedAt": "2025-06-22T09:21:43.881Z",
    "googleFoodUrl": null,
    "hotelAds": [],
    "openingHours": [
      {
        "day": "Monday",
        "hours": "8:30\u202fAM to 7\u202fPM"
      },
      {
        "day": "Tuesday",
        "hours": "8:30\u202fAM to 7\u202fPM"
      },
      {
        "day": "Wednesday",
        "hours": "8:30\u202fAM to 7\u202fPM"
      },
      {
        "day": "Thursday",
        "hours": "8:30\u202fAM to 7\u202fPM"
      },
      {
        "day": "Friday",
        "hours": "8:30\u202fAM to 7\u202fPM"
      },
      {
        "day": "Saturday",
        "hours": "8:30\u202fAM to 3\u202fPM"
      },
      {
        "day": "Sunday",
        "hours": "Closed"
      }
    ],
    "peopleAlsoSearch": [],
    "placesTags": [],
    "reviewsTags": [],
    "additionalInfo": {
      "Service options": [
        {
          "Delivery": true
        },
        {
          "Drive-through": true
        },
        {
          "In-store pickup": true
        },
        {
          "Onsite services": true
        },
        {
          "Same-day delivery": true
        }
      ],
      "Accessibility": [
        {
          "Wheelchair accessible entrance": true
        },
        {
          "Wheelchair accessible parking lot": true
        }
      ],
      "Planning": [
        {
          "Quick visit": true
        }
      ],
      "Payments": [
        {
          "Credit cards": true
        },
        {
          "Debit cards": true
        },
        {
          "NFC mobile payments": true
        },
        {
          "Credit cards": true
        }
      ]
    },
    "gasPrices": [],
    "url": "https://www.google.com/maps/search/?api=1&query=Sheridan%20Express%20Pharmacy&query_place_id=ChIJkR4xkxkfrYcRVb1Eh10KGtA",
    "searchPageUrl": "https://www.google.com/maps/search/independent%20pharmacy%20Lawton%20OK/@52.19374911259121,175.63765607391932,12z?hl=en",
    "searchString": "independent pharmacy Lawton OK",
    "language": "en",
    "rank": 4,
    "isAdvertisement": false,
    "imageUrl": "https://streetviewpixels-pa.googleapis.com/v1/thumbnail?panoid=uMbO6rGoJhN-sRFW8ix1TA&cb_client=search.gws-prod.gps&w=408&h=240&yaw=241.16225&pitch=0&thumbfov=100",
    "kgmid": "/g/1trsyj3j",
    "classification": "independent",
    "is_independent": true,
    "is_compounding": false,
    "confidence": 0.85,
    "source": "perplexity",
    "method": "llm"
  },
  {
    "title": "Anderson Pharmacy & Accents",
    "price": null,
    "categoryName": "Pharmacy",
    "address": "5366 NW Cache Rd # 1, Lawton, OK 73505",
    "neighborhood": null,
    "street": "5366 NW Cache Rd # 1",
    "city": "Lawton",
    "postalCode": "73505",
    "state": "Oklahoma",
    "countryCode": "US",
    "website": "http://www.andersonpharmacyandaccents.com/",
    "phone": "(580) 595-9500",
    "phoneUnformatted": "+15805959500",
    "claimThisBusiness": false,
    "location": {
      "lat": 34.6230344,
      "lng": -98.4631248
    },
    "totalScore": 4.9,
    "permanentlyClosed": false,
    "temporarilyClosed": false,
    "placeId": null,
    "categories": [
      "Pharmacy"
    ],
    "fid": "0x87ad1e37ec188433:0x1a08277bc9307395",
    "cid": "1875792657409667989",
    "reviewsCount": 59,
    "imagesCount": 19,
    "imageCategories": [],
    "scrapedAt": "2025-06-22T09:21:43.881Z",
    "googleFoodUrl": null,
    "hotelAds": [],
    "openingHours": [
      {
        "day": "Monday",
        "hours": "7\u202fAM to 7\u202fPM"
      },
      {
        "day": "Tuesday",
        "hours": "7\u202fAM to 7\u202fPM"
      },
      {
        "day": "Wednesday",
        "hours": "7\u202fAM to 7\u202fPM"
      },
      {
        "day": "Thursday",
        "hours": "7\u202fAM to 7\u202fPM"
      },
      {
        "day": "Friday",
        "hours": "7\u202fAM to 7\u202fPM"
      },
      {
        "day": "Saturday",
        "hours": "7\u202fAM to 3\u202fPM"
      },
      {
        "day": "Sunday",
        "hours": "Closed"
      }
    ],
    "peopleAlsoSearch": [],
    "placesTags": [],
    "reviewsTags": [],
    "additionalInfo": {
      "From the business": [
        {
          "Small business": true
        }
      ],
      "Service options": [
        {
          "Delivery": true
        },
        {
          "In-store pickup": true
        },
        {
          "In-store shopping": true
        },
        {
          "Onsite services": true
        }
      ],
      "Accessibility": [
        {
          "Wheelchair accessible entrance": true
        },
        {
          "Wheelchair accessible parking lot": true
        }
      ],
      "Amenities": [
        {
          "Wi-Fi": true
        },
        {
          "Free Wi-Fi": true
        }
      ],
      "Planning": [
        {
          "Quick visit": true
        }
      ],
      "Payments": [
        {
          "Checks": true
        },
        {
          "Credit cards": true
        },
        {
          "Debit cards": true
        },
        {
          "NFC mobile payments": true
        },
        {
          "Credit cards": true
        }
      ]
    },
    "gasPrices": [],
    "url": "https://www.google.com/maps/search/?api=1&query=Anderson%20Pharmacy%20%26%20Accents&query_place_id=ChIJM4QY7DcerYcRlXMwyXsnCBo",
    "searchPageUrl": "https://www.google.com/maps/search/independent%20pharmacy%20Lawton%20OK/@52.19374911259121,175.63765607391932,12z?hl=en",
    "searchString": "independent pharmacy Lawton OK",
    "language": "en",
    "rank": 5,
    "isAdvertisement": false,
    "imageUrl": "https://lh3.googleusercontent.com/p/AF1QipNiBdXrNwPIGB2VpIU5E924p6FNgG4nO14jISa8=w408-h272-k-no",
    "kgmid": "/g/1v940kt_",
    "classification": "independent",
    "is_independent": true,
    "is_compounding": false,
    "confidence": 0.9,
    "source": "perplexity",
    "method": "llm"
  },
  {
    "title": "Eastside Pharmacy",
    "price": null,
    "categoryName": "Pharmacy",
    "address": "3612 SE Lee Blvd, Lawton, OK 73501",
    "neighborhood": null,
    "street": "3612 SE Lee Blvd",
    "city": "Lawton",
    "postalCode": "73501",
    "state": "Oklahoma",
    "countryCode": "US",
    "website": "https://www.eastsidepharmacyok.com/",
    "phone": "(580) 355-6400",
    "phoneUnformatted": "+15803556400",
    "claimThisBusiness": false,
    "location": {
      "lat": 34.5949176,
      "lng": -98.3453612
    },
    "totalScore": 4.5,
    "permanentlyClosed": false,
    "temporarilyClosed": false,
    "placeId": null,
    "categories": [
      "Pharmacy"
    ],
    "fid": "0x87ad1866de02bbb1:0xf239e2ef19e8dccc",
    "cid": "17454231347410820300",
    "reviewsCount": 43,
    "imagesCount": 2,
    "imageCategories": [],
    "scrapedAt": "2025-06-22T09:21:43.882Z",
    "googleFoodUrl": null,
    "hotelAds": [],
    "openingHours": [
      {
        "day": "Monday",
        "hours": "8:30\u202fAM to 7\u202fPM"
      },
      {
        "day": "Tuesday",
        "hours": "8:30\u202fAM to 7\u202fPM"
      },
      {
        "day": "Wednesday",
        "hours": "8:30\u202fAM to 7\u202fPM"
      },
      {
        "day": "Thursday",
        "hours": "8:30\u202fAM to 7\u202fPM"
      },
      {
        "day": "Friday",
        "hours": "8:30\u202fAM to 7\u202fPM"
      },
      {
        "day": "Saturday",
        "hours": "8:30\u202fAM to 3\u202fPM"
      },
      {
        "day": "Sunday",
        "hours": "Closed"
      }
    ],
    "peopleAlsoSearch": [],
    "placesTags": [],
    "reviewsTags": [],
    "additionalInfo": {
      "From the business": [
        {
          "Small business": true
        }
      ],
      "Service options": [
        {
          "Curbside pickup": true
        },
        {
          "Delivery": true
        },
        {
          "Drive-through": true
        },
        {
          "In-store shopping": true
        }
      ],
      "Accessibility": [
        {
          "Wheelchair accessible entrance": true
        },
        {
          "Wheelchair accessible parking lot": true
        }
      ],
      "Planning": [
        {
          "Quick visit": true
        }
      ],
      "Payments": [
        {
          "Credit cards": true
        },
        {
          "Debit cards": true
        },
        {
          "NFC mobile payments": true
        },
        {
          "Credit cards": true
        }
      ]
    },
    "gasPrices": [],
    "url": "https://www.google.com/maps/search/?api=1&query=Eastside%20Pharmacy&query_place_id=ChIJsbsC3mYYrYcRzNzoGe_iOfI",
    "searchPageUrl": "https://www.google.com/maps/search/independent%20pharmacy%20Lawton%20OK/@52.19374911259121,175.63765607391932,12z?hl=en",
    "searchString": "independent pharmacy Lawton OK",
    "language": "en",
    "rank": 6,
    "isAdvertisement": false,
    "imageUrl": "https://lh3.googleusercontent.com/p/AF1QipONX-QkWO1L-folAoIgVb8zJALWJIH_1BGemvX4=w408-h408-k-no",
    "kgmid": "/g/1ptyqztqj",
    "classification": "independent",
    "is_independent": true,
    "is_compounding": false,
    "confidence": 0.9,
    "source": "perplexity",
    "method": "llm"
  },
  {
    "title": "Great Plains Pharmacy",
    "price": null,
    "categoryName": "Pharmacy",
    "address": "3201 W Gore Blvd, Lawton, OK 73505",
    "neighborhood": null,
    "street": "3201 W Gore Blvd",
    "city": "Lawton",
    "postalCode": "73505",
    "state": "Oklahoma",
    "countryCode": "US",
    "website": "https://www.ccmhhealth.com/",
    "phone": "(580) 585-5401",
    "phoneUnformatted": "+15805855401",
    "claimThisBusiness": false,
    "location": {
      "lat": 34.6096007,
      "lng": -98.4325594
    },
    "totalScore": 4.7,
    "permanentlyClosed": false,
    "temporarilyClosed": false,
    "placeId": null,
    "categories": [
      "Pharmacy"
    ],
    "fid": "0x87ad1f06b27ebb3f:0x97a82256227f1a0f",
    "cid": "10928022249155795471",
    "reviewsCount": 9,
    "imagesCount": 1,
    "imageCategories": [],
    "scrapedAt": "2025-06-22T09:21:43.882Z",
    "googleFoodUrl": null,
    "hotelAds": [],
    "openingHours": [
      {
        "day": "Monday",
        "hours": "8\u202fAM to 5\u202fPM"
      },
      {
        "day": "Tuesday",
        "hours": "8\u202fAM to 5\u202fPM"
      },
      {
        "day": "Wednesday",
        "hours": "8\u202fAM to 5\u202fPM"
      },
      {
        "day": "Thursday",
        "hours": "8\u202fAM to 5\u202fPM"
      },
      {
        "day": "Friday",
        "hours": "8\u202fAM to 5\u202fPM"
      },
      {
        "day": "Saturday",
        "hours": "Closed"
      },
      {
        "day": "Sunday",
        "hours": "Closed"
      }
    ],
    "peopleAlsoSearch": [],
    "placesTags": [],
    "reviewsTags": [],
    "additionalInfo": {
      "Service options": [
        {
          "Delivery": true
        },
        {
          "In-store shopping": true
        },
        {
          "Same-day delivery": true
        }
      ],
      "Accessibility": [
        {
          "Wheelchair accessible entrance": true
        },
        {
          "Wheelchair accessible parking lot": true
        }
      ],
      "Payments": [
        {
          "Credit cards": true
        },
        {
          "Debit cards": true
        },
        {
          "NFC mobile payments": true
        },
        {
          "Credit cards": true
        }
      ]
    },
    "gasPrices": [],
    "url": "https://www.google.com/maps/search/?api=1&query=Great%20Plains%20Pharmacy&query_place_id=ChIJP7t-sgYfrYcRDxp_IlYiqJc",
    "searchPageUrl": "https://www.google.com/maps/search/independent%20pharmacy%20Lawton%20OK/@52.19374911259121,175.63765607391932,12z?hl=en",
    "searchString": "independent pharmacy Lawton OK",
    "language": "en",
    "rank": 7,
    "isAdvertisement": false,
    "imageUrl": "https://streetviewpixels-pa.googleapis.com/v1/thumbnail?panoid=Aw3iSGJ0l6FoYD1RqWx2pw&cb_client=search.gws-prod.gps&w=408&h=240&yaw=57.66335&pitch=0&thumbfov=100",
    "kgmid": "/g/1tfgdr8d",
    "classification": "hospital",
    "is_independent": false,
    "is_compounding": false,
    "confidence": 0.95,
    "source": "perplexity",
    "method": "llm"
  },
  {
    "title": "LCHC Pharmacy",
    "price": null,
    "categoryName": "Pharmacy",
    "address": "5404 SW Lee Blvd, Lawton, OK 73505",
    "neighborhood": null,
    "street": "5404 SW Lee Blvd",
    "city": "Lawton",
    "postalCode": "73505",
    "state": "Oklahoma",
    "countryCode": "US",
    "website": "https://www.lawtoncommunityhealthcenter.com/pharmacy/",
    "phone": "(580) 280-4376",
    "phoneUnformatted": "+15802804376",
    "claimThisBusiness": true,
    "location": {
      "lat": 34.5938905,
      "lng": -98.4610401
    },
    "totalScore": 4.3,
    "permanentlyClosed": false,
    "temporarilyClosed": false,
    "placeId": null,
    "categories": [
      "Pharmacy"
    ],
    "fid": "0x87ad1fd4d80343bf:0x3aec016a4b69ae5d",
    "cid": "4245770104746913373",
    "reviewsCount": 7,
    "imagesCount": 1,
    "imageCategories": [],
    "scrapedAt": "2025-06-22T09:21:43.882Z",
    "googleFoodUrl": null,
    "hotelAds": [],
    "openingHours": [
      {
        "day": "Monday",
        "hours": "8:30\u202fAM to 5:30\u202fPM"
      },
      {
        "day": "Tuesday",
        "hours": "8:30\u202fAM to 5:30\u202fPM"
      },
      {
        "day": "Wednesday",
        "hours": "8:30\u202fAM to 5:30\u202fPM"
      },
      {
        "day": "Thursday",
        "hours": "8:30\u202fAM to 5:30\u202fPM"
      },
      {
        "day": "Friday",
        "hours": "8:30\u202fAM to 5\u202fPM"
      },
      {
        "day": "Saturday",
        "hours": "Closed"
      },
      {
        "day": "Sunday",
        "hours": "Closed"
      }
    ],
    "peopleAlsoSearch": [],
    "placesTags": [],
    "reviewsTags": [],
    "additionalInfo": {
      "From the business": [
        {
          "Small business": true
        }
      ],
      "Service options": [
        {
          "Delivery": true
        },
        {
          "In-store pickup": true
        },
        {
          "Onsite services": true
        }
      ],
      "Accessibility": [
        {
          "Wheelchair accessible entrance": true
        },
        {
          "Wheelchair accessible parking lot": true
        }
      ],
      "Payments": [
        {
          "Credit cards": true
        }
      ]
    },
    "gasPrices": [],
    "url": "https://www.google.com/maps/search/?api=1&query=LCHC%20Pharmacy&query_place_id=ChIJv0MD2NQfrYcRXa5pS2oB7Do",
    "searchPageUrl": "https://www.google.com/maps/search/independent%20pharmacy%20Lawton%20OK/@52.19374911259121,175.63765607391932,12z?hl=en",
    "searchString": "independent pharmacy Lawton OK",
    "language": "en",
    "rank": 8,
    "isAdvertisement": false,
    "imageUrl": "https://streetviewpixels-pa.googleapis.com/v1/thumbnail?panoid=Ags77JORHNpPr17QN-1oBg&cb_client=search.gws-prod.gps&w=408&h=240&yaw=0.14538041&pitch=0&thumbfov=100",
    "kgmid": "/g/11v51_p_md",
    "classification": "hospital",
    "is_independent": false,
    "is_compounding": false,
    "confidence": 0.95,
    "source": "perplexity",
    "method": "llm"
  },
  {
    "title": "CVS Pharmacy",
    "price": null,
    "categoryName": "Pharmacy",
    "address": "1016 SW Lee Blvd, Lawton, OK 73501",
    "neighborhood": null,
    "street": "1016 SW Lee Blvd",
    "city": "Lawton",
    "postalCode": "73501",
    "state": "Oklahoma",
    "countryCode": "US",
    "website": "https://www.cvs.com/store-locator/lawton-ok-pharmacies/1016-sw-lee-blvd-lawton-ok-73501/storeid=6128?WT.mc_id=LS_GOOGLE_RX_6128",
    "phone": "(580) 353-1940",
    "phoneUnformatted": "+15803531940",
    "claimThisBusiness": false,
    "location": {
      "lat": 34.5936994,
      "lng": -98.4041112
    },
    "totalScore": 4.5,
    "permanentlyClosed": false,
    "temporarilyClosed": false,
    "placeId": "ChIJQ2u1yEkfrYcRKxOkOjnfMc0",
    "categories": [
      "Pharmacy"
    ],
    "fid": "0x87ad1f49c8b56b43:0xcd31df393aa4132b",
    "cid": "14785844488524010283",
    "reviewsCount": 14,
    "imagesCount": 14,
    "imageCategories": [],
    "scrapedAt": "2025-06-22T09:21:43.882Z",
    "googleFoodUrl": null,
    "hotelAds": [],
    "openingHours": [
      {
        "day": "Monday",
        "hours": "9\u202fAM to 1:30\u202fPM, 2 to 7\u202fPM"
      },
      {
        "day": "Tuesday",
        "hours": "9\u202fAM to 1:30\u202fPM, 2 to 7\u202fPM"
      },
      {
        "day": "Wednesday",
        "hours": "9\u202fAM to 1:30\u202fPM, 2 to 7\u202fPM"
      },
      {
        "day": "Thursday",
        "hours": "9\u202fAM to 1:30\u202fPM, 2 to 7\u202fPM"
      },
      {
        "day": "Friday",
        "hours": "9\u202fAM to 1:30\u202fPM, 2 to 7\u202fPM"
      },
      {
        "day": "Saturday",
        "hours": "10\u202fAM to 1:30\u202fPM, 2 to 5\u202fPM"
      },
      {
        "day": "Sunday",
        "hours": "Closed"
      }
    ],
    "peopleAlsoSearch": [],
    "placesTags": [],
    "reviewsTags": [],
    "additionalInfo": {
      "Service options": [
        {
          "Delivery": true
        },
        {
          "Drive-through": true
        },
        {
          "In-store shopping": true
        }
      ],
      "Accessibility": [
        {
          "Wheelchair accessible entrance": true
        },
        {
          "Wheelchair accessible parking lot": true
        }
      ],
      "Offerings": [
        {
          "Naloxone": true
        },
        {
          "Passport photos": true
        }
      ],
      "Crowd": [
        {
          "LGBTQ+ friendly": true
        },
        {
          "Transgender safespace": true
        }
      ],
      "Planning": [
        {
          "Quick visit": true
        }
      ],
      "Payments": [
        {
          "Credit cards": true
        },
        {
          "Debit cards": true
        },
        {
          "NFC mobile payments": true
        },
        {
          "SNAP/EBT": true
        },
        {
          "Credit cards": true
        }
      ]
    },
    "gasPrices": [],
    "url": "https://www.google.com/maps/search/?api=1&query=CVS%20Pharmacy&query_place_id=ChIJQ2u1yEkfrYcRKxOkOjnfMc0",
    "searchPageUrl": "https://www.google.com/maps/search/independent%20pharmacy%20Lawton%20OK/@52.19374911259121,175.63765607391932,12z?hl=en",
    "searchString": "independent pharmacy Lawton OK",
    "language": "en",
    "rank": 9,
    "isAdvertisement": false,
    "imageUrl": "https://lh3.googleusercontent.com/p/AF1QipNHLpIo-WEh25koQVzrMDTzZSaFSHhiYjZe9uX6=w408-h272-k-no",
    "kgmid": "/g/11c469d81n",
    "classification": "chain",
    "is_independent": false,
    "confidence": 1.0,
    "source": "rule-based"
  },
  {
    "title": "Michael S. Anderson, DPH",
    "price": null,
    "categoryName": "Pharmacy",
    "address": "6734 North West Cache Road, Lawton, OK 73505, 5366 NW Cache Rd # 1, Lawton, OK 73505",
    "neighborhood": null,
    "street": "6734 North West Cache Road, Lawton, OK 73505, 5366 NW Cache Rd # 1",
    "city": "Lawton",
    "postalCode": "73505",
    "state": "OK",
    "countryCode": "US",
    "phone": "(580) 595-9500",
    "phoneUnformatted": "+15805959500",
    "claimThisBusiness": true,
    "location": {
      "lat": 34.6231828,
      "lng": -98.4632722
    },
    "permanentlyClosed": false,
    "temporarilyClosed": false,
    "placeId": null,
    "categories": [
      "Pharmacy"
    ],
    "fid": "0x87ad1e256518341d:0xdfe16142f065410f",
    "cid": "16132282280346730767",
    "reviewsCount": 0,
    "imagesCount": 1,
    "imageCategories": [],
    "scrapedAt": "2025-06-22T09:21:43.882Z",
    "googleFoodUrl": null,
    "hotelAds": [],
    "openingHours": [],
    "peopleAlsoSearch": [],
    "placesTags": [],
    "reviewsTags": [],
    "additionalInfo": {
      "Accessibility": [
        {
          "Wheelchair accessible entrance": true
        },
        {
          "Wheelchair accessible parking lot": true
        }
      ]
    },
    "gasPrices": [],
    "url": "https://www.google.com/maps/search/?api=1&query=Michael%20S.%20Anderson%2C%20DPH&query_place_id=ChIJHTQYZSUerYcRD0Fl8EJh4d8",
    "searchPageUrl": "https://www.google.com/maps/search/independent%20pharmacy%20Lawton%20OK/@52.19374911259121,175.63765607391932,12z?hl=en",
    "searchString": "independent pharmacy Lawton OK",
    "language": "en",
    "rank": 10,
    "isAdvertisement": false,
    "imageUrl": "https://streetviewpixels-pa.googleapis.com/v1/thumbnail?panoid=_qpYB3RpR91RvYkLEocvug&cb_client=search.gws-prod.gps&w=408&h=240&yaw=149.09317&pitch=0&thumbfov=100",
    "kgmid": "/g/1wfvn4mn",
    "classification": "independent",
    "is_independent": true,
    "is_compounding": false,
    "confidence": 0.85,
    "source": "perplexity",
    "method": "llm"
  },
  {
    "title": "Maxor Pharmacy",
    "price": null,
    "categoryName": "Pharmacy",
    "address": "901 SW Goodyear Blvd, Lawton, OK 73505",
    "neighborhood": null,
    "street": "901 SW Goodyear Blvd",
    "city": "Lawton",
    "postalCode": "73505",
    "state": "Oklahoma",
    "countryCode": "US",
    "website": "https://www.goodyearpharmacy.com/",
    "phone": "(580) 531-5858",
    "phoneUnformatted": "+15805315858",
    "claimThisBusiness": false,
    "location": {
      "lat": 34.5999181,
      "lng": -98.5120816
    },
    "totalScore": 4.8,
    "permanentlyClosed": false,
    "temporarilyClosed": false,
    "placeId": null,
    "categories": [
      "Pharmacy"
    ],
    "fid": "0x87ace04f317142d3:0xeb5d1a7977efc0f6",
    "cid": "16959740880752722166",
    "reviewsCount": 6,
    "imagesCount": 1,
    "imageCategories": [],
    "scrapedAt": "2025-06-22T09:21:43.882Z",
    "googleFoodUrl": null,
    "hotelAds": [],
    "openingHours": [
      {
        "day": "Monday",
        "hours": "9\u202fAM to 7:30\u202fPM"
      },
      {
        "day": "Tuesday",
        "hours": "9\u202fAM to 7:30\u202fPM"
      },
      {
        "day": "Wednesday",
        "hours": "9\u202fAM to 7:30\u202fPM"
      },
      {
        "day": "Thursday",
        "hours": "9\u202fAM to 7:30\u202fPM"
      },
      {
        "day": "Friday",
        "hours": "9\u202fAM to 7:30\u202fPM"
      },
      {
        "day": "Saturday",
        "hours": "Closed"
      },
      {
        "day": "Sunday",
        "hours": "Closed"
      }
    ],
    "peopleAlsoSearch": [],
    "placesTags": [],
    "reviewsTags": [],
    "additionalInfo": {
      "From the business": [
        {
          "Small business": true
        }
      ],
      "Accessibility": [
        {
          "Wheelchair accessible entrance": true
        },
        {
          "Wheelchair accessible parking lot": true
        }
      ],
      "Payments": [
        {
          "Credit cards": true
        }
      ]
    },
    "gasPrices": [],
    "url": "https://www.google.com/maps/search/?api=1&query=Maxor%20Pharmacy&query_place_id=ChIJ00JxMU_grIcR9sDvd3kaXes",
    "searchPageUrl": "https://www.google.com/maps/search/independent%20pharmacy%20Lawton%20OK/@52.19374911259121,175.63765607391932,12z?hl=en",
    "searchString": "independent pharmacy Lawton OK",
    "language": "en",
    "rank": 11,
    "isAdvertisement": false,
    "imageUrl": "https://streetviewpixels-pa.googleapis.com/v1/thumbnail?panoid=Xdv7c5mX6E9lmqFMBUTTmg&cb_client=search.gws-prod.gps&w=408&h=240&yaw=300.502&pitch=0&thumbfov=100",
    "kgmid": "/g/11fy4k47xd",
    "classification": "chain",
    "is_independent": false,
    "is_compounding": false,
    "confidence": 0.9,
    "source": "perplexity",
    "method": "llm"
  },
  {
    "title": "Legacy RX",
    "price": null,
    "categoryName": "Pharmacy",
    "address": "927 SW D Ave, Lawton, OK 73501",
    "neighborhood": null,
    "street": "927 SW D Ave",
    "city": "Lawton",
    "postalCode": "73501",
    "state": "Oklahoma",
    "countryCode": "US",
    "phone": "(580) 699-8052",
    "phoneUnformatted": "+15806998052",
    "claimThisBusiness": false,
    "location": {
      "lat": 34.6042977,
      "lng": -98.4030279
    },
    "permanentlyClosed": false,
    "temporarilyClosed": false,
    "placeId": null,
    "categories": [
      "Pharmacy"
    ],
    "fid": "0x87ad1f870867f1c7:0x6af8aab0e91dbf54",
    "cid": "7708098439046610772",
    "reviewsCount": 0,
    "imagesCount": 1,
    "imageCategories": [],
    "scrapedAt": "2025-06-22T09:21:43.883Z",
    "googleFoodUrl": null,
    "hotelAds": [],
    "openingHours": [],
    "peopleAlsoSearch": [],
    "placesTags": [],
    "reviewsTags": [],
    "additionalInfo": {
      "Accessibility": [
        {
          "Wheelchair accessible entrance": true
        },
        {
          "Wheelchair accessible parking lot": true
        }
      ]
    },
    "gasPrices": [],
    "url": "https://www.google.com/maps/search/?api=1&query=Legacy%20RX&query_place_id=ChIJx_FnCIcfrYcRVL8d6bCq-Go",
    "searchPageUrl": "https://www.google.com/maps/search/independent%20pharmacy%20Lawton%20OK/@52.19374911259121,175.63765607391932,12z?hl=en",
    "searchString": "independent pharmacy Lawton OK",
    "language": "en",
    "rank": 12,
    "isAdvertisement": false,
    "imageUrl": "https://streetviewpixels-pa.googleapis.com/v1/thumbnail?panoid=wsNzzmwEW3V4apv-au99hA&cb_client=search.gws-prod.gps&w=408&h=240&yaw=6.70545&pitch=0&thumbfov=100",
    "kgmid": "/g/11w1wfrnc1",
    "classification": "independent",
    "is_independent": true,
    "is_compounding": false,
    "confidence": 0.85,
    "source": "perplexity",
    "method": "llm"
  },
  {
    "title": "Walgreens Pharmacy",
    "description": "Department of the Walgreens chain providing prescription medications & other health-related items.",
    "price": "$$",
    "categoryName": "Pharmacy",
    "address": "6701 NW Cache Rd, Lawton, OK 73505",
    "neighborhood": null,
    "street": "6701 NW Cache Rd",
    "city": "Lawton",
    "postalCode": "73505",
    "state": "Oklahoma",
    "countryCode": "US",
    "website": "https://www.walgreens.com/locator/walgreens-6701+nw+cache+rd-lawton-ok-73505/id=6199",
    "phone": "(580) 536-4621",
    "phoneUnformatted": "+15805364621",
    "claimThisBusiness": false,
    "location": {
      "lat": 34.6239072,
      "lng": -98.4756702
    },
    "totalScore": 2.6,
    "permanentlyClosed": false,
    "temporarilyClosed": false,
    "placeId": "ChIJi8blcyUerYcRq02bB5TrfWs",
    "categories": [
      "Pharmacy"
    ],
    "fid": "0x87ad1e2573e5c68b:0x6b7deb94079b4dab",
    "cid": "7745605955162426795",
    "reviewsCount": 14,
    "imagesCount": 2,
    "imageCategories": [],
    "scrapedAt": "2025-06-22T09:21:43.883Z",
    "googleFoodUrl": null,
    "hotelAds": [],
    "openingHours": [
      {
        "day": "Monday",
        "hours": "9\u202fAM to 1:30\u202fPM, 2 to 6:30\u202fPM"
      },
      {
        "day": "Tuesday",
        "hours": "9\u202fAM to 1:30\u202fPM, 2 to 6:30\u202fPM"
      },
      {
        "day": "Wednesday",
        "hours": "9\u202fAM to 1:30\u202fPM, 2 to 6:30\u202fPM"
      },
      {
        "day": "Thursday",
        "hours": "9\u202fAM to 1:30\u202fPM, 2 to 6:30\u202fPM"
      },
      {
        "day": "Friday",
        "hours": "9\u202fAM to 1:30\u202fPM, 2 to 6:30\u202fPM"
      },
      {
        "day": "Saturday",
        "hours": "Closed"
      },
      {
        "day": "Sunday",
        "hours": "Closed"
      }
    ],
    "additionalOpeningHours": {
      "Drive through": [
        {
          "day": "Monday",
          "hours": "9\u202fAM\u20131:30\u202fPM"
        },
        {
          "day": "Tuesday",
          "hours": "9\u202fAM\u20131:30\u202fPM"
        },
        {
          "day": "Wednesday",
          "hours": "9\u202fAM\u20131:30\u202fPM"
        },
        {
          "day": "Thursday",
          "hours": "9\u202fAM\u20131:30\u202fPM"
        },
        {
          "day": "Friday",
          "hours": "9\u202fAM\u20131:30\u202fPM"
        },
        {
          "day": "Saturday",
          "hours": "Closed"
        },
        {
          "day": "Sunday",
          "hours": "Closed"
        }
      ]
    },
    "peopleAlsoSearch": [],
    "placesTags": [],
    "reviewsTags": [],
    "additionalInfo": {
      "Service options": [
        {
          "Drive-through": true
        },
        {
          "In-store pickup": true
        }
      ],
      "Accessibility": [
        {
          "Wheelchair accessible entrance": true
        },
        {
          "Wheelchair accessible parking lot": true
        }
      ],
      "Offerings": [
        {
          "Naloxone": true
        }
      ],
      "Planning": [
        {
          "Quick visit": true
        }
      ],
      "Payments": [
        {
          "Checks": true
        },
        {
          "Credit cards": true
        },
        {
          "Debit cards": true
        }
      ]
    },
    "gasPrices": [],
    "url": "https://www.google.com/maps/search/?api=1&query=Walgreens%20Pharmacy&query_place_id=ChIJi8blcyUerYcRq02bB5TrfWs",
    "searchPageUrl": "https://www.google.com/maps/search/independent%20pharmacy%20Lawton%20OK/@52.19374911259121,175.63765607391932,12z?hl=en",
    "searchString": "independent pharmacy Lawton OK",
    "language": "en",
    "rank": 13,
    "isAdvertisement": false,
    "imageUrl": "https://lh3.googleusercontent.com/p/AF1QipOLSsKOZNdp4WFsZ5o19MtFnfgARFwh95SRfl_k=w525-h240-k-no",
    "kgmid": "/g/11cn93hgwh",
    "classification": "chain",
    "is_independent": false,
    "confidence": 1.0,
    "source": "rule-based"
  },
  {
    "title": "Walgreens Pharmacy",
    "description": "Department of the Walgreens chain providing prescription medications & other health-related items.",
    "price": "$$",
    "categoryName": "Pharmacy",
    "address": "701 NW Sheridan Rd, Lawton, OK 73505",
    "neighborhood": null,
    "street": "701 NW Sheridan Rd",
    "city": "Lawton",
    "postalCode": "73505",
    "state": "Oklahoma",
    "countryCode": "US",
    "website": "https://www.walgreens.com/locator/walgreens-701+nw+sheridan+rd-lawton-ok-73505/id=4703",
    "phone": "(580) 353-3948",
    "phoneUnformatted": "+15803533948",
    "claimThisBusiness": false,
    "location": {
      "lat": 34.6164158,
      "lng": -98.4213339
    },
    "totalScore": 4,
    "permanentlyClosed": false,
    "temporarilyClosed": false,
    "placeId": "ChIJX5kHzeEerYcRjeJMd6vWkqE",
    "categories": [
      "Pharmacy"
    ],
    "fid": "0x87ad1ee1cd07995f:0xa192d6ab774ce28d",
    "cid": "11642604018635432589",
    "reviewsCount": 38,
    "imagesCount": 6,
    "imageCategories": [],
    "scrapedAt": "2025-06-22T09:21:48.923Z",
    "googleFoodUrl": null,
    "hotelAds": [],
    "openingHours": [
      {
        "day": "Monday",
        "hours": "9\u202fAM to 1:30\u202fPM, 2 to 9\u202fPM"
      },
      {
        "day": "Tuesday",
        "hours": "9\u202fAM to 1:30\u202fPM, 2 to 9\u202fPM"
      },
      {
        "day": "Wednesday",
        "hours": "9\u202fAM to 1:30\u202fPM, 2 to 9\u202fPM"
      },
      {
        "day": "Thursday",
        "hours": "9\u202fAM to 1:30\u202fPM, 2 to 9\u202fPM"
      },
      {
        "day": "Friday",
        "hours": "9\u202fAM to 1:30\u202fPM, 2 to 9\u202fPM"
      },
      {
        "day": "Saturday",
        "hours": "9\u202fAM to 1:30\u202fPM, 2 to 6\u202fPM"
      },
      {
        "day": "Sunday",
        "hours": "10\u202fAM to 1:30\u202fPM, 2 to 6\u202fPM"
      }
    ],
    "additionalOpeningHours": {
      "Drive through": [
        {
          "day": "Monday",
          "hours": "9\u202fAM\u20131:30\u202fPM"
        },
        {
          "day": "Tuesday",
          "hours": "9\u202fAM\u20131:30\u202fPM"
        },
        {
          "day": "Wednesday",
          "hours": "9\u202fAM\u20131:30\u202fPM"
        },
        {
          "day": "Thursday",
          "hours": "9\u202fAM\u20131:30\u202fPM"
        },
        {
          "day": "Friday",
          "hours": "9\u202fAM\u20131:30\u202fPM"
        },
        {
          "day": "Saturday",
          "hours": "9\u202fAM\u20131:30\u202fPM"
        },
        {
          "day": "Sunday",
          "hours": "10\u202fAM\u20131:30\u202fPM"
        }
      ]
    },
    "peopleAlsoSearch": [],
    "placesTags": [],
    "reviewsTags": [],
    "additionalInfo": {
      "Service options": [
        {
          "Drive-through": true
        },
        {
          "In-store pickup": true
        }
      ],
      "Accessibility": [
        {
          "Wheelchair accessible entrance": true
        },
        {
          "Wheelchair accessible parking lot": true
        }
      ],
      "Offerings": [
        {
          "Medication disposal": true
        },
        {
          "Naloxone": true
        }
      ],
      "Planning": [
        {
          "Quick visit": true
        }
      ],
      "Payments": [
        {
          "Checks": true
        },
        {
          "Credit cards": true
        },
        {
          "Debit cards": true
        }
      ]
    },
    "gasPrices": [],
    "url": "https://www.google.com/maps/search/?api=1&query=Walgreens%20Pharmacy&query_place_id=ChIJX5kHzeEerYcRjeJMd6vWkqE",
    "searchPageUrl": "https://www.google.com/maps/search/independent%20pharmacy%20Lawton%20OK/@18.336340046170918,-75.08316902999725,13z?hl=en",
    "searchString": "independent pharmacy Lawton OK",
    "language": "en",
    "rank": 11,
    "isAdvertisement": false,
    "imageUrl": "https://lh3.googleusercontent.com/gps-cs-s/AC9h4noKKRMsw_uLJNEQ89espU_fCU4Hihguf9MUnkr6ZZb5hxMC-4th_WTQqSXFd7QoXWc-IOZQNO2Vaih8Sy3ByGZtzkvSc7AzkACFWXjohmeYnI-vwQ1a5H2JQHqi71sLmNT09Un1=w408-h544-k-no",
    "kgmid": "/g/11cn946n_f",
    "classification": "chain",
    "is_independent": false,
    "confidence": 1.0,
    "source": "rule-based"
  },
  {
    "title": "CVS Pharmacy",
    "description": "Drugstore chain selling a variety of beauty & health products, plus some grocery & household items.",
    "price": null,
    "categoryName": "Pharmacy",
    "address": "2030 NW 82nd St, Lawton, OK 73505",
    "neighborhood": null,
    "street": "2030 NW 82nd St",
    "city": "Lawton",
    "postalCode": "73505",
    "state": "Oklahoma",
    "countryCode": "US",
    "website": "https://www.cvs.com/store-locator/lawton-ok-pharmacies/2030-nw-82nd-street-lawton-ok-73505/storeid=17612?WT.mc_id=LS_GOOGLE_RX_17612",
    "phone": "(580) 354-7275",
    "phoneUnformatted": "+15803547275",
    "claimThisBusiness": false,
    "location": {
      "lat": 34.6298655,
      "lng": -98.4953944
    },
    "totalScore": 4.1,
    "permanentlyClosed": false,
    "temporarilyClosed": false,
    "placeId": "ChIJ8X9fpt3hrIcRbQgmL9TmgYE",
    "categories": [
      "Pharmacy"
    ],
    "fid": "0x87ace1dda65f7ff1:0x8181e6d42f26086d",
    "cid": "9331993701886855277",
    "reviewsCount": 14,
    "imagesCount": 5,
    "imageCategories": [],
    "scrapedAt": "2025-06-22T09:21:49.784Z",
    "googleFoodUrl": null,
    "hotelAds": [],
    "openingHours": [
      {
        "day": "Monday",
        "hours": "10\u202fAM to 1:30\u202fPM, 2 to 6\u202fPM"
      },
      {
        "day": "Tuesday",
        "hours": "10\u202fAM to 1:30\u202fPM, 2 to 6\u202fPM"
      },
      {
        "day": "Wednesday",
        "hours": "10\u202fAM to 1:30\u202fPM, 2 to 6\u202fPM"
      },
      {
        "day": "Thursday",
        "hours": "10\u202fAM to 1:30\u202fPM, 2 to 6\u202fPM"
      },
      {
        "day": "Friday",
        "hours": "10\u202fAM to 1:30\u202fPM, 2 to 6\u202fPM"
      },
      {
        "day": "Saturday",
        "hours": "Closed"
      },
      {
        "day": "Sunday",
        "hours": "Closed"
      }
    ],
    "peopleAlsoSearch": [],
    "placesTags": [],
    "reviewsTags": [],
    "additionalInfo": {
      "Service options": [
        {
          "Delivery": true
        },
        {
          "In-store shopping": true
        },
        {
          "Onsite services": true
        }
      ],
      "Accessibility": [
        {
          "Wheelchair accessible entrance": true
        },
        {
          "Wheelchair accessible parking lot": true
        }
      ],
      "Offerings": [
        {
          "Naloxone": true
        }
      ],
      "Crowd": [
        {
          "LGBTQ+ friendly": true
        },
        {
          "Transgender safespace": true
        }
      ],
      "Planning": [
        {
          "Quick visit": true
        }
      ],
      "Payments": [
        {
          "Credit cards": true
        },
        {
          "Debit cards": true
        },
        {
          "Credit cards": true
        }
      ]
    },
    "gasPrices": [],
    "url": "https://www.google.com/maps/search/?api=1&query=CVS%20Pharmacy&query_place_id=ChIJ8X9fpt3hrIcRbQgmL9TmgYE",
    "searchPageUrl": "https://www.google.com/maps/search/independent%20pharmacy%20Lawton%20OK/@36.81849750000001,-102.31720148556776,8z?hl=en",
    "searchString": "independent pharmacy Lawton OK",
    "language": "en",
    "rank": 15,
    "isAdvertisement": false,
    "imageUrl": "https://lh3.googleusercontent.com/p/AF1QipMQjII7chl_HblFIqKaHwIPpblRWDP7N3R_4EXy=w408-h272-k-no",
    "kgmid": "/g/12vslj6n4",
    "classification": "chain",
    "is_independent": false,
    "confidence": 1.0,
    "source": "rule-based"
  },
  {
    "title": "Ernie R. Scott, DPH",
    "price": null,
    "categoryName": "Pharmacy",
    "address": "1515 North East Lawrie Tatum Road, Lawton, OK 73507, 1515 NE Lawrie Tatum Rd, Lawton, OK 73507",
    "neighborhood": null,
    "street": "1515 North East Lawrie Tatum Road, Lawton, OK 73507, 1515 NE Lawrie Tatum Rd",
    "city": "Lawton",
    "postalCode": "73507",
    "state": "OK",
    "countryCode": "US",
    "phone": "(580) 353-0350",
    "phoneUnformatted": "+15803530350",
    "claimThisBusiness": true,
    "location": {
      "lat": 34.6275681,
      "lng": -98.3842405
    },
    "permanentlyClosed": false,
    "temporarilyClosed": false,
    "placeId": null,
    "categories": [
      "Pharmacy"
    ],
    "fid": "0x87ad192f8af3399f:0x25ccac4d71c06750",
    "cid": "2723741323273201488",
    "reviewsCount": 0,
    "imagesCount": 1,
    "imageCategories": [],
    "scrapedAt": "2025-06-22T09:21:49.784Z",
    "googleFoodUrl": null,
    "hotelAds": [],
    "openingHours": [],
    "peopleAlsoSearch": [],
    "placesTags": [],
    "reviewsTags": [],
    "additionalInfo": {
      "Accessibility": [
        {
          "Wheelchair accessible entrance": true
        },
        {
          "Wheelchair accessible parking lot": true
        }
      ]
    },
    "gasPrices": [],
    "url": "https://www.google.com/maps/search/?api=1&query=Ernie%20R.%20Scott%2C%20DPH&query_place_id=ChIJnznzii8ZrYcRUGfAcU2szCU",
    "searchPageUrl": "https://www.google.com/maps/search/independent%20pharmacy%20Lawton%20OK/@36.81849750000001,-102.31720148556776,8z?hl=en",
    "searchString": "independent pharmacy Lawton OK",
    "language": "en",
    "rank": 16,
    "isAdvertisement": false,
    "imageUrl": "https://streetviewpixels-pa.googleapis.com/v1/thumbnail?panoid=hThna7OsbZYvchDgvdWG5Q&cb_client=search.gws-prod.gps&w=408&h=240&yaw=277.00784&pitch=0&thumbfov=100",
    "kgmid": "/g/1v5_9ynz",
    "classification": "independent",
    "is_independent": true,
    "is_compounding": false,
    "confidence": 0.85,
    "source": "perplexity",
    "method": "llm"
  },
  {
    "title": "Walmart Pharmacy",
    "description": "Chain retailer with a vast selection including groceries, apparel, home goods & electronics.",
    "price": "$",
    "categoryName": "Pharmacy",
    "address": "6301 Nw Quannah Parker Trl, Lawton, OK 73505",
    "neighborhood": null,
    "street": "6301 Nw Quannah Parker Trl",
    "city": "Lawton",
    "postalCode": "73505",
    "state": "Oklahoma",
    "countryCode": "US",
    "website": "https://www.walmart.com/store/5071-lawton-ok/pharmacy/?veh=seo_loc",
    "phone": "(580) 510-0357",
    "phoneUnformatted": "+15805100357",
    "claimThisBusiness": false,
    "location": {
      "lat": 34.6323996,
      "lng": -98.4720512
    },
    "totalScore": 3.9,
    "permanentlyClosed": false,
    "temporarilyClosed": false,
    "placeId": "ChIJ7cajY93hrIcRJ3MYnt3AeOI",
    "categories": [
      "Pharmacy",
      "Herbal medicine store",
      "Medical supply store",
      "Parapharmacy",
      "Vitamin & supplements store"
    ],
    "fid": "0x87ace1dd63a3c6ed:0xe278c0dd9e187327",
    "cid": "16319005307849700135",
    "reviewsCount": 28,
    "imagesCount": 5,
    "imageCategories": [],
    "scrapedAt": "2025-06-22T09:21:49.784Z",
    "googleFoodUrl": null,
    "hotelAds": [],
    "openingHours": [
      {
        "day": "Monday",
        "hours": "9\u202fAM to 7\u202fPM"
      },
      {
        "day": "Tuesday",
        "hours": "9\u202fAM to 7\u202fPM"
      },
      {
        "day": "Wednesday",
        "hours": "9\u202fAM to 7\u202fPM"
      },
      {
        "day": "Thursday",
        "hours": "9\u202fAM to 7\u202fPM"
      },
      {
        "day": "Friday",
        "hours": "9\u202fAM to 7\u202fPM"
      },
      {
        "day": "Saturday",
        "hours": "9\u202fAM to 7\u202fPM"
      },
      {
        "day": "Sunday",
        "hours": "10\u202fAM to 6\u202fPM"
      }
    ],
    "peopleAlsoSearch": [],
    "placesTags": [],
    "reviewsTags": [],
    "additionalInfo": {
      "Service options": [
        {
          "Delivery": true
        },
        {
          "In-store pickup": true
        },
        {
          "In-store shopping": true
        }
      ],
      "Accessibility": [
        {
          "Wheelchair accessible entrance": true
        },
        {
          "Wheelchair accessible parking lot": true
        },
        {
          "Wheelchair accessible restroom": true
        }
      ],
      "Offerings": [
        {
          "Passport photos": true
        }
      ],
      "Amenities": [
        {
          "Wi-Fi": true
        },
        {
          "Free Wi-Fi": true
        }
      ],
      "Planning": [
        {
          "Quick visit": true
        }
      ],
      "Payments": [
        {
          "Credit cards": true
        },
        {
          "Debit cards": true
        },
        {
          "Credit cards": true
        }
      ]
    },
    "gasPrices": [],
    "url": "https://www.google.com/maps/search/?api=1&query=Walmart%20Pharmacy&query_place_id=ChIJ7cajY93hrIcRJ3MYnt3AeOI",
    "searchPageUrl": "https://www.google.com/maps/search/independent%20pharmacy%20Lawton%20OK/@36.81849750000001,-102.31720148556776,8z?hl=en",
    "searchString": "independent pharmacy Lawton OK",
    "language": "en",
    "rank": 17,
    "isAdvertisement": false,
    "imageUrl": "https://lh3.googleusercontent.com/p/AF1QipMm9IYkVdvarU6IilYC_htKv3sb5HcBwWcIxoF9=w408-h306-k-no",
    "kgmid": "/g/1tkmn1ld",
    "classification": "chain",
    "is_independent": false,
    "confidence": 1.0,
    "source": "rule-based"
  },
  {
    "title": "William H. Smith, DPH",
    "price": null,
    "categoryName": "Pharmacy",
    "address": "205 SW Sheridan Rd, Lawton, OK 73505",
    "neighborhood": null,
    "street": "205 SW Sheridan Rd",
    "city": "Lawton",
    "postalCode": "73505",
    "state": "Oklahoma",
    "countryCode": "US",
    "phone": "(580) 248-0300",
    "phoneUnformatted": "+15802480300",
    "claimThisBusiness": true,
    "location": {
      "lat": 34.6059154,
      "lng": -98.4228768
    },
    "permanentlyClosed": false,
    "temporarilyClosed": false,
    "placeId": null,
    "categories": [
      "Pharmacy"
    ],
    "fid": "0x87ad1f1993311e91:0xf29c9181dbab3469",
    "cid": "17482007840467661929",
    "reviewsCount": 0,
    "imagesCount": 1,
    "imageCategories": [],
    "scrapedAt": "2025-06-22T09:21:52.043Z",
    "googleFoodUrl": null,
    "hotelAds": [],
    "openingHours": [
      {
        "day": "Monday",
        "hours": "8:30\u202fAM to 7\u202fPM"
      },
      {
        "day": "Tuesday",
        "hours": "8:30\u202fAM to 7\u202fPM"
      },
      {
        "day": "Wednesday",
        "hours": "8:30\u202fAM to 7\u202fPM"
      },
      {
        "day": "Thursday",
        "hours": "8:30\u202fAM to 7\u202fPM"
      },
      {
        "day": "Friday",
        "hours": "8:30\u202fAM to 7\u202fPM"
      },
      {
        "day": "Saturday",
        "hours": "8:30\u202fAM to 5\u202fPM"
      },
      {
        "day": "Sunday",
        "hours": "Closed"
      }
    ],
    "peopleAlsoSearch": [],
    "placesTags": [],
    "reviewsTags": [],
    "additionalInfo": {
      "Accessibility": [
        {
          "Wheelchair accessible entrance": true
        },
        {
          "Wheelchair accessible parking lot": true
        }
      ],
      "Payments": [
        {
          "Credit cards": true
        }
      ]
    },
    "gasPrices": [],
    "url": "https://www.google.com/maps/search/?api=1&query=William%20H.%20Smith%2C%20DPH&query_place_id=ChIJkR4xkxkfrYcRaTSr24GRnPI",
    "searchPageUrl": "https://www.google.com/maps/search/independent%20pharmacy%20Lawton%20OK/@48.27430768932854,-86.48607177164843,8z?hl=en",
    "searchString": "independent pharmacy Lawton OK",
    "language": "en",
    "rank": 17,
    "isAdvertisement": false,
    "imageUrl": "https://streetviewpixels-pa.googleapis.com/v1/thumbnail?panoid=uMbO6rGoJhN-sRFW8ix1TA&cb_client=search.gws-prod.gps&w=408&h=240&yaw=258.96475&pitch=0&thumbfov=100",
    "kgmid": "/g/1tffpvsr",
    "classification": "independent",
    "is_independent": true,
    "is_compounding": false,
    "confidence": 0.85,
    "source": "perplexity",
    "method": "llm"
  },
  {
    "title": "Sam's Club Pharmacy",
    "price": "\u20ac",
    "categoryName": "Pharmacy",
    "address": "802 NW Sheridan Rd, Lawton, OK 73505, United States",
    "neighborhood": null,
    "street": "802 NW Sheridan Rd",
    "city": "Lawton",
    "postalCode": "73505",
    "state": "Oklahoma",
    "countryCode": "US",
    "website": "https://www.samsclub.com/local/pharmacy/lawton-ok-sams-club/8239",
    "phone": "+1 580-713-7160",
    "phoneUnformatted": "+15807137160",
    "claimThisBusiness": false,
    "location": {
      "lat": 34.6169667,
      "lng": -98.4235289
    },
    "totalScore": 5,
    "permanentlyClosed": false,
    "temporarilyClosed": false,
    "placeId": null,
    "categories": [
      "Pharmacy"
    ],
    "fid": "0x87ad1ee2268dcabd:0x5cf2f5590beb65",
    "cid": "26162833432243045",
    "reviewsCount": 12,
    "imagesCount": 8,
    "imageCategories": [],
    "scrapedAt": "2025-06-22T09:21:57.833Z",
    "googleFoodUrl": null,
    "hotelAds": [],
    "openingHours": [
      {
        "day": "Monday",
        "hours": "9\u202fAM to 7\u202fPM"
      },
      {
        "day": "Tuesday",
        "hours": "9\u202fAM to 7\u202fPM"
      },
      {
        "day": "Wednesday",
        "hours": "9\u202fAM to 7\u202fPM"
      },
      {
        "day": "Thursday",
        "hours": "9\u202fAM to 7\u202fPM"
      },
      {
        "day": "Friday",
        "hours": "9\u202fAM to 7\u202fPM"
      },
      {
        "day": "Saturday",
        "hours": "9\u202fAM to 6\u202fPM"
      },
      {
        "day": "Sunday",
        "hours": "Closed"
      }
    ],
    "peopleAlsoSearch": [],
    "placesTags": [],
    "reviewsTags": [],
    "additionalInfo": {
      "Service options": [
        {
          "Kerbside pickup": true
        },
        {
          "Delivery": true
        },
        {
          "In-store pick-up": true
        },
        {
          "In-store shopping": true
        },
        {
          "On-site services": true
        },
        {
          "Same-day delivery": true
        }
      ],
      "Accessibility": [
        {
          "Wheelchair-accessible car park": true
        },
        {
          "Wheelchair-accessible entrance": true
        }
      ],
      "Planning": [
        {
          "Quick visit": true
        }
      ],
      "Payments": [
        {
          "Credit cards": true
        },
        {
          "Debit cards": true
        },
        {
          "Credit cards": true
        }
      ]
    },
    "gasPrices": [],
    "url": "https://www.google.com/maps/search/?api=1&query=Sam's%20Club%20Pharmacy&query_place_id=ChIJvcqNJuIerYcRZesLWfXyXAA",
    "searchPageUrl": "https://www.google.com/maps/search/independent%20pharmacy%20Lawton%20OK/@62.264056934850785,-161.1661038710836,9z?hl=en",
    "searchString": "independent pharmacy Lawton OK",
    "language": "en",
    "rank": 13,
    "isAdvertisement": false,
    "imageUrl": "https://lh3.googleusercontent.com/p/AF1QipOXHzCZRgLFpnRX1Oj5UdHqYwmXxLTyhV1UgDcM=w408-h272-k-no",
    "kgmid": "/g/11bv2b2x5v",
    "classification": "chain",
    "is_independent": false,
    "is_compounding": false,
    "confidence": 0.99,
    "source": "perplexity",
    "method": "llm"
  }
]