[
  {
    "title": "Sunshine Pharmacy",
    "price": null,
    "categoryName": "Pharmacy",
    "address": "43009 Hayes Rd, Sterling Heights, MI 48313",
    "neighborhood": null,
    "street": "43009 Hayes Rd",
    "city": "Sterling Heights",
    "postalCode": "48313",
    "state": "Michigan",
    "countryCode": "US",
    "website": "https://www.mygnp.com/pharmacies/sunshine-pharmacy-sterling-heights-mi-48313/?utm_source=google&utm_medium=local&utm_campaign=localmaps&utm_content=2374394",
    "phone": "(586) 286-5005",
    "phoneUnformatted": "+15862865005",
    "claimThisBusiness": false,
    "location": {
      "lat": 42.6132634,
      "lng": -82.9737951
    },
    "totalScore": 4.8,
    "permanentlyClosed": false,
    "temporarilyClosed": false,
    "placeId": null,
    "categories": [
      "Pharmacy",
      "Drug store"
    ],
    "fid": "0x8824de5263dc6fb9:0x99e800a639cc02ac",
    "cid": "11090114796334088876",
    "reviewsCount": 70,
    "imagesCount": 1,
    "imageCategories": [],
    "scrapedAt": "2025-06-22T05:48:29.867Z",
    "googleFoodUrl": null,
    "hotelAds": [],
    "openingHours": [
      {
        "day": "Monday",
        "hours": "9:30\u202fAM to 6\u202fPM"
      },
      {
        "day": "Tuesday",
        "hours": "9:30\u202fAM to 6\u202fPM"
      },
      {
        "day": "Wednesday",
        "hours": "9:30\u202fAM to 6\u202fPM"
      },
      {
        "day": "Thursday",
        "hours": "9:30\u202fAM to 6\u202fPM"
      },
      {
        "day": "Friday",
        "hours": "9:30\u202fAM to 6\u202fPM"
      },
      {
        "day": "Saturday",
        "hours": "9:30\u202fAM to 2\u202fPM"
      },
      {
        "day": "Sunday",
        "hours": "Closed"
      }
    ],
    "peopleAlsoSearch": [],
    "placesTags": [],
    "reviewsTags": [],
    "additionalInfo": {
      "Service options": [
        {
          "Delivery": true
        },
        {
          "In-store pickup": true
        },
        {
          "In-store shopping": true
        },
        {
          "Onsite services": true
        },
        {
          "Same-day delivery": true
        }
      ],
      "Accessibility": [
        {
          "Wheelchair accessible entrance": true
        },
        {
          "Wheelchair accessible parking lot": true
        }
      ],
      "Planning": [
        {
          "Quick visit": true
        }
      ],
      "Payments": [
        {
          "Credit cards": true
        },
        {
          "Debit cards": true
        },
        {
          "NFC mobile payments": true
        },
        {
          "Credit cards": true
        }
      ]
    },
    "gasPrices": [],
    "url": "https://www.google.com/maps/search/?api=1&query=Sunshine%20Pharmacy&query_place_id=ChIJuW_cY1LeJIgRrALMOaYA6Jk",
    "searchPageUrl": "https://www.google.com/maps/search/independent%20pharmacy%20Sterling%20Heights%20MI/@67.1273844227615,-157.71370691405576,9z?hl=en",
    "searchString": "independent pharmacy Sterling Heights MI",
    "language": "en",
    "rank": 1,
    "isAdvertisement": false,
    "imageUrl": "https://streetviewpixels-pa.googleapis.com/v1/thumbnail?panoid=lEzy6GYZYn0todBaUk0-Hw&cb_client=search.gws-prod.gps&w=408&h=240&yaw=18.59537&pitch=0&thumbfov=100",
    "kgmid": "/g/1tc_4qk4",
    "classification": "independent",
    "is_independent": true,
    "is_compounding": false,
    "confidence": 0.9,
    "source": "perplexity",
    "method": "llm"
  },
  {
    "title": "Pharm AtoZ",
    "price": null,
    "categoryName": "Pharmacy",
    "address": "35814 Dequindre Rd, Sterling Heights, MI 48310",
    "neighborhood": null,
    "street": "35814 Dequindre Rd",
    "city": "Sterling Heights",
    "postalCode": "48310",
    "state": "Michigan",
    "countryCode": "US",
    "website": "http://www.pharmatoz.com/",
    "phone": "(586) 698-1874",
    "phoneUnformatted": "+15866981874",
    "claimThisBusiness": false,
    "location": {
      "lat": 42.5552203,
      "lng": -83.087812
    },
    "totalScore": 4.8,
    "permanentlyClosed": false,
    "temporarilyClosed": false,
    "placeId": null,
    "categories": [
      "Pharmacy"
    ],
    "fid": "0x8824c4c8f9c6051f:0x2bd051913aa0def7",
    "cid": "3157113022982446839",
    "reviewsCount": 19,
    "imagesCount": 5,
    "imageCategories": [],
    "scrapedAt": "2025-06-22T05:48:29.868Z",
    "googleFoodUrl": null,
    "hotelAds": [],
    "openingHours": [
      {
        "day": "Monday",
        "hours": "9\u202fAM to 6\u202fPM"
      },
      {
        "day": "Tuesday",
        "hours": "9\u202fAM to 6\u202fPM"
      },
      {
        "day": "Wednesday",
        "hours": "9\u202fAM to 6\u202fPM"
      },
      {
        "day": "Thursday",
        "hours": "9\u202fAM to 6\u202fPM"
      },
      {
        "day": "Friday",
        "hours": "9\u202fAM to 6\u202fPM"
      },
      {
        "day": "Saturday",
        "hours": "10\u202fAM to 3\u202fPM"
      },
      {
        "day": "Sunday",
        "hours": "Closed"
      }
    ],
    "additionalOpeningHours": {
      "Delivery": [
        {
          "day": "Monday",
          "hours": "9\u202fAM\u20135\u202fPM"
        },
        {
          "day": "Tuesday",
          "hours": "9\u202fAM\u20135\u202fPM"
        },
        {
          "day": "Wednesday",
          "hours": "9\u202fAM\u20135\u202fPM"
        },
        {
          "day": "Thursday",
          "hours": "9\u202fAM\u20135\u202fPM"
        },
        {
          "day": "Friday",
          "hours": "9\u202fAM\u20135\u202fPM"
        },
        {
          "day": "Saturday",
          "hours": "Closed"
        },
        {
          "day": "Sunday",
          "hours": "Closed"
        }
      ]
    },
    "peopleAlsoSearch": [],
    "placesTags": [],
    "reviewsTags": [],
    "additionalInfo": {
      "From the business": [
        {
          "Small business": true
        }
      ],
      "Service options": [
        {
          "Delivery": true
        },
        {
          "In-store pickup": true
        },
        {
          "In-store shopping": true
        },
        {
          "Same-day delivery": true
        }
      ],
      "Accessibility": [
        {
          "Wheelchair accessible entrance": true
        },
        {
          "Wheelchair accessible parking lot": true
        }
      ],
      "Amenities": [
        {
          "Wi-Fi": true
        },
        {
          "Free Wi-Fi": true
        }
      ],
      "Crowd": [
        {
          "LGBTQ+ friendly": true
        },
        {
          "Transgender safespace": true
        }
      ],
      "Payments": [
        {
          "Checks": true
        },
        {
          "Credit cards": true
        },
        {
          "Debit cards": true
        },
        {
          "NFC mobile payments": true
        },
        {
          "Credit cards": true
        }
      ]
    },
    "gasPrices": [],
    "url": "https://www.google.com/maps/search/?api=1&query=Pharm%20AtoZ&query_place_id=ChIJHwXG-cjEJIgR996gOpFR0Cs",
    "searchPageUrl": "https://www.google.com/maps/search/independent%20pharmacy%20Sterling%20Heights%20MI/@67.1273844227615,-157.71370691405576,9z?hl=en",
    "searchString": "independent pharmacy Sterling Heights MI",
    "language": "en",
    "rank": 2,
    "isAdvertisement": false,
    "imageUrl": "https://lh3.googleusercontent.com/p/AF1QipNM8KUzg3F7JQIWYS6TaYcxz0J-EaZvFJApnZGU=w408-h306-k-no",
    "kgmid": "/g/11bymsq99g",
    "classification": "independent",
    "is_independent": true,
    "is_compounding": false,
    "confidence": 0.85,
    "source": "perplexity",
    "method": "llm"
  },
  {
    "title": "Bluestone Pharmacy",
    "price": null,
    "categoryName": "Pharmacy",
    "address": "13469 E 14 Mile Rd, Sterling Heights, MI 48312",
    "neighborhood": null,
    "street": "13469 E 14 Mile Rd",
    "city": "Sterling Heights",
    "postalCode": "48312",
    "state": "Michigan",
    "countryCode": "US",
    "phone": "(586) 275-0723",
    "phoneUnformatted": "+15862750723",
    "claimThisBusiness": false,
    "location": {
      "lat": 42.5387383,
      "lng": -82.9914457
    },
    "totalScore": 5,
    "permanentlyClosed": false,
    "temporarilyClosed": false,
    "placeId": null,
    "categories": [
      "Pharmacy"
    ],
    "fid": "0x8824d9678ed549bd:0xfb468704bb2b035f",
    "cid": "18106307806279435103",
    "reviewsCount": 25,
    "imagesCount": 4,
    "imageCategories": [],
    "scrapedAt": "2025-06-22T05:48:29.869Z",
    "googleFoodUrl": null,
    "hotelAds": [],
    "openingHours": [
      {
        "day": "Monday",
        "hours": "9\u202fAM to 6\u202fPM"
      },
      {
        "day": "Tuesday",
        "hours": "9\u202fAM to 6\u202fPM"
      },
      {
        "day": "Wednesday",
        "hours": "9\u202fAM to 6\u202fPM"
      },
      {
        "day": "Thursday",
        "hours": "9\u202fAM to 6\u202fPM"
      },
      {
        "day": "Friday",
        "hours": "9\u202fAM to 6\u202fPM"
      },
      {
        "day": "Saturday",
        "hours": "10\u202fAM to 1:30\u202fPM"
      },
      {
        "day": "Sunday",
        "hours": "Closed"
      }
    ],
    "peopleAlsoSearch": [],
    "placesTags": [],
    "reviewsTags": [],
    "additionalInfo": {
      "From the business": [
        {
          "Small business": true
        }
      ],
      "Service options": [
        {
          "Delivery": true
        },
        {
          "In-store shopping": true
        }
      ],
      "Accessibility": [
        {
          "Wheelchair accessible entrance": true
        },
        {
          "Wheelchair accessible parking lot": true
        }
      ],
      "Payments": [
        {
          "Checks": true
        },
        {
          "Credit cards": true
        },
        {
          "Debit cards": true
        },
        {
          "NFC mobile payments": true
        },
        {
          "Credit cards": true
        }
      ]
    },
    "gasPrices": [],
    "url": "https://www.google.com/maps/search/?api=1&query=Bluestone%20Pharmacy&query_place_id=ChIJvUnVjmfZJIgRXwMruwSHRvs",
    "searchPageUrl": "https://www.google.com/maps/search/independent%20pharmacy%20Sterling%20Heights%20MI/@67.1273844227615,-157.71370691405576,9z?hl=en",
    "searchString": "independent pharmacy Sterling Heights MI",
    "language": "en",
    "rank": 3,
    "isAdvertisement": false,
    "imageUrl": "https://streetviewpixels-pa.googleapis.com/v1/thumbnail?panoid=fwY9eU-aK-WE7P7Ix1EiMA&cb_client=search.gws-prod.gps&w=408&h=240&yaw=306.80582&pitch=0&thumbfov=100",
    "kgmid": "/g/11pdvxfv7l",
    "classification": "independent",
    "is_independent": true,
    "is_compounding": false,
    "confidence": 0.85,
    "source": "perplexity",
    "method": "llm"
  },
  {
    "title": "Caremont Pharmacy & Compounding",
    "price": null,
    "categoryName": "Pharmacy",
    "address": "44344 Dequindre Rd STE #120, Sterling Heights, MI 48314",
    "neighborhood": null,
    "street": "44344 Dequindre Rd STE #120",
    "city": "Sterling Heights",
    "postalCode": "48314",
    "state": "Michigan",
    "countryCode": "US",
    "website": "http://www.caremontpharmacy.com/",
    "phone": "(586) 323-6400",
    "phoneUnformatted": "+15863236400",
    "claimThisBusiness": false,
    "location": {
      "lat": 42.6184225,
      "lng": -83.090041
    },
    "totalScore": 4.3,
    "permanentlyClosed": false,
    "temporarilyClosed": false,
    "placeId": null,
    "categories": [
      "Pharmacy"
    ],
    "fid": "0x8824c2d83f49bca7:0xd74170a84ad0afa8",
    "cid": "15510802459752705960",
    "reviewsCount": 24,
    "imagesCount": 10,
    "imageCategories": [],
    "scrapedAt": "2025-06-22T05:48:29.869Z",
    "googleFoodUrl": null,
    "hotelAds": [],
    "openingHours": [
      {
        "day": "Monday",
        "hours": "9\u202fAM to 5\u202fPM"
      },
      {
        "day": "Tuesday",
        "hours": "9\u202fAM to 5\u202fPM"
      },
      {
        "day": "Wednesday",
        "hours": "9\u202fAM to 5\u202fPM"
      },
      {
        "day": "Thursday",
        "hours": "9\u202fAM to 5\u202fPM"
      },
      {
        "day": "Friday",
        "hours": "9\u202fAM to 5\u202fPM"
      },
      {
        "day": "Saturday",
        "hours": "Closed"
      },
      {
        "day": "Sunday",
        "hours": "Closed"
      }
    ],
    "peopleAlsoSearch": [],
    "placesTags": [],
    "reviewsTags": [],
    "additionalInfo": {
      "From the business": [
        {
          "Small business": true
        }
      ],
      "Service options": [
        {
          "Delivery": true
        },
        {
          "Same-day delivery": true
        }
      ],
      "Accessibility": [
        {
          "Wheelchair accessible entrance": true
        },
        {
          "Wheelchair accessible parking lot": true
        },
        {
          "Wheelchair accessible restroom": true
        },
        {
          "Wheelchair accessible seating": true
        }
      ],
      "Payments": [
        {
          "Credit cards": true
        },
        {
          "Debit cards": true
        },
        {
          "NFC mobile payments": true
        },
        {
          "Credit cards": true
        }
      ]
    },
    "gasPrices": [],
    "url": "https://www.google.com/maps/search/?api=1&query=Caremont%20Pharmacy%20%26%20Compounding&query_place_id=ChIJp7xJP9jCJIgRqK_QSqhwQdc",
    "searchPageUrl": "https://www.google.com/maps/search/independent%20pharmacy%20Sterling%20Heights%20MI/@67.1273844227615,-157.71370691405576,9z?hl=en",
    "searchString": "independent pharmacy Sterling Heights MI",
    "language": "en",
    "rank": 4,
    "isAdvertisement": false,
    "imageUrl": "https://lh3.googleusercontent.com/gps-cs-s/AC9h4nrDcuakuznoXmrL2lUr-EKll7GCwDPR7i3lNQVrEcrCK7DFiZpIsofMnu2Ln9VWFvYYBXR1UI3U21PcWpdNITwnZejpae-nvv8DbsN09GLCKF4glHJ95o1YaQHVK4ySvUW5Hf2I=w408-h544-k-no",
    "kgmid": "/g/1tj8b13h",
    "classification": "independent",
    "is_independent": true,
    "is_compounding": true,
    "confidence": 0.95,
    "source": "perplexity",
    "method": "llm"
  },
  {
    "title": "Plum Rx Pharmacy",
    "price": null,
    "categoryName": "Pharmacy",
    "address": "39880 Van Dyke Ave Ste 101, Sterling Heights, MI 48313",
    "neighborhood": null,
    "street": "39880 Van Dyke Ave Ste 101",
    "city": "Sterling Heights",
    "postalCode": "48313",
    "state": "Michigan",
    "countryCode": "US",
    "website": "https://plumrxpharmacy.com/",
    "phone": "(586) 939-9580",
    "phoneUnformatted": "+15869399580",
    "claimThisBusiness": false,
    "location": {
      "lat": 42.5863656,
      "lng": -83.0296915
    },
    "totalScore": 4.4,
    "permanentlyClosed": false,
    "temporarilyClosed": false,
    "placeId": null,
    "categories": [
      "Pharmacy"
    ],
    "fid": "0x8824dc6460cf87bf:0x60381b861be2cac",
    "cid": "433332618071518380",
    "reviewsCount": 48,
    "imagesCount": 3,
    "imageCategories": [],
    "scrapedAt": "2025-06-22T05:48:29.869Z",
    "googleFoodUrl": null,
    "hotelAds": [],
    "openingHours": [
      {
        "day": "Monday",
        "hours": "9\u202fAM to 5:30\u202fPM"
      },
      {
        "day": "Tuesday",
        "hours": "9\u202fAM to 5:30\u202fPM"
      },
      {
        "day": "Wednesday",
        "hours": "9\u202fAM to 3\u202fPM"
      },
      {
        "day": "Thursday",
        "hours": "9\u202fAM to 5:30\u202fPM"
      },
      {
        "day": "Friday",
        "hours": "9\u202fAM to 5:30\u202fPM"
      },
      {
        "day": "Saturday",
        "hours": "Closed"
      },
      {
        "day": "Sunday",
        "hours": "Closed"
      }
    ],
    "peopleAlsoSearch": [],
    "placesTags": [],
    "reviewsTags": [],
    "additionalInfo": {
      "Service options": [
        {
          "Delivery": true
        }
      ],
      "Accessibility": [
        {
          "Wheelchair accessible entrance": true
        },
        {
          "Wheelchair accessible parking lot": true
        }
      ],
      "Planning": [
        {
          "Quick visit": true
        }
      ],
      "Payments": [
        {
          "Credit cards": true
        },
        {
          "Debit cards": true
        },
        {
          "NFC mobile payments": true
        },
        {
          "Credit cards": true
        }
      ]
    },
    "gasPrices": [],
    "url": "https://www.google.com/maps/search/?api=1&query=Plum%20Rx%20Pharmacy&query_place_id=ChIJv4fPYGTcJIgRrCy-YbiBAwY",
    "searchPageUrl": "https://www.google.com/maps/search/independent%20pharmacy%20Sterling%20Heights%20MI/@67.1273844227615,-157.71370691405576,9z?hl=en",
    "searchString": "independent pharmacy Sterling Heights MI",
    "language": "en",
    "rank": 5,
    "isAdvertisement": false,
    "imageUrl": "https://lh3.googleusercontent.com/gps-cs-s/AC9h4noW31cJflQEKZwY0gCMbRN3GJu2zsFm_GdHYq9K5MrM3NPoarnaON9aEfP2rYLFJcgxZ_8qMSiqpG3j2UWox4pYe-dzCtEoqD9cz5urq3myFjQAKnsY2USsokzSSyp9Jjt-e2g_=w408-h544-k-no",
    "kgmid": "/g/1wfcps2b",
    "classification": "independent",
    "is_independent": true,
    "is_compounding": false,
    "confidence": 0.9,
    "source": "perplexity",
    "method": "llm"
  },
  {
    "title": "Mobile App | Ryan Health Pharmacy",
    "price": null,
    "categoryName": "Pharmacy",
    "address": "38800 Ryan Rd, Sterling Heights, MI 48310",
    "neighborhood": null,
    "street": "38800 Ryan Rd",
    "city": "Sterling Heights",
    "postalCode": "48310",
    "state": "Michigan",
    "countryCode": "US",
    "website": "https://www.ryanhealthpharmacy.com/contact",
    "phone": "(586) 983-9652",
    "phoneUnformatted": "+15869839652",
    "claimThisBusiness": false,
    "location": {
      "lat": 42.5780742,
      "lng": -83.0695681
    },
    "totalScore": 5,
    "permanentlyClosed": false,
    "temporarilyClosed": false,
    "placeId": null,
    "categories": [
      "Pharmacy"
    ],
    "fid": "0x8824dca86853b61f:0x7d3d2c4c2441d3d4",
    "cid": "9024417933857772500",
    "reviewsCount": 5,
    "imagesCount": 1,
    "imageCategories": [],
    "scrapedAt": "2025-06-22T05:48:29.869Z",
    "googleFoodUrl": null,
    "hotelAds": [],
    "openingHours": [
      {
        "day": "Monday",
        "hours": "9:30\u202fAM to 5:30\u202fPM"
      },
      {
        "day": "Tuesday",
        "hours": "9:30\u202fAM to 5:30\u202fPM"
      },
      {
        "day": "Wednesday",
        "hours": "9:30\u202fAM to 5:30\u202fPM"
      },
      {
        "day": "Thursday",
        "hours": "9:30\u202fAM to 5:30\u202fPM"
      },
      {
        "day": "Friday",
        "hours": "9:30\u202fAM to 5:30\u202fPM"
      },
      {
        "day": "Saturday",
        "hours": "9\u202fAM to 1\u202fPM"
      },
      {
        "day": "Sunday",
        "hours": "Closed"
      }
    ],
    "peopleAlsoSearch": [],
    "placesTags": [],
    "reviewsTags": [],
    "additionalInfo": {
      "Service options": [
        {
          "Delivery": true
        }
      ],
      "Accessibility": [
        {
          "Wheelchair accessible entrance": true
        },
        {
          "Wheelchair accessible parking lot": true
        }
      ],
      "Planning": [
        {
          "Quick visit": true
        }
      ],
      "Payments": [
        {
          "Credit cards": true
        },
        {
          "Debit cards": true
        },
        {
          "NFC mobile payments": true
        },
        {
          "Credit cards": true
        }
      ]
    },
    "gasPrices": [],
    "url": "https://www.google.com/maps/search/?api=1&query=Mobile%20App%20%7C%20Ryan%20Health%20Pharmacy&query_place_id=ChIJH7ZTaKjcJIgR1NNBJEwsPX0",
    "searchPageUrl": "https://www.google.com/maps/search/independent%20pharmacy%20Sterling%20Heights%20MI/@67.1273844227615,-157.71370691405576,9z?hl=en",
    "searchString": "independent pharmacy Sterling Heights MI",
    "language": "en",
    "rank": 6,
    "isAdvertisement": false,
    "imageUrl": "https://streetviewpixels-pa.googleapis.com/v1/thumbnail?panoid=TkPQwgOs9odtzMOVo2-xZQ&cb_client=search.gws-prod.gps&w=408&h=240&yaw=101.836975&pitch=0&thumbfov=100",
    "kgmid": "/g/11rjyxcp_7",
    "classification": "independent",
    "is_independent": true,
    "is_compounding": false,
    "confidence": 0.85,
    "source": "perplexity",
    "method": "llm"
  },
  {
    "title": "Sterling Heights Pharmacy",
    "price": null,
    "categoryName": "Pharmacy",
    "address": "38924 Dequindre Rd, Sterling Heights, MI 48310",
    "neighborhood": null,
    "street": "38924 Dequindre Rd",
    "city": "Sterling Heights",
    "postalCode": "48310",
    "state": "Michigan",
    "countryCode": "US",
    "phone": "(586) 983-9740",
    "phoneUnformatted": "+15869839740",
    "claimThisBusiness": false,
    "location": {
      "lat": 42.577395,
      "lng": -83.088481
    },
    "totalScore": 4.6,
    "permanentlyClosed": false,
    "temporarilyClosed": false,
    "placeId": null,
    "categories": [
      "Pharmacy",
      "Drug store"
    ],
    "fid": "0x8824c357fd0215b5:0x407c584317b17c24",
    "cid": "4646685960723069988",
    "reviewsCount": 25,
    "imagesCount": 9,
    "imageCategories": [],
    "scrapedAt": "2025-06-22T05:48:29.869Z",
    "googleFoodUrl": null,
    "hotelAds": [],
    "openingHours": [
      {
        "day": "Monday",
        "hours": "9\u202fAM to 5\u202fPM"
      },
      {
        "day": "Tuesday",
        "hours": "9\u202fAM to 5\u202fPM"
      },
      {
        "day": "Wednesday",
        "hours": "9\u202fAM to 5\u202fPM"
      },
      {
        "day": "Thursday",
        "hours": "9\u202fAM to 5\u202fPM"
      },
      {
        "day": "Friday",
        "hours": "9\u202fAM to 5\u202fPM"
      },
      {
        "day": "Saturday",
        "hours": "9\u202fAM to 1\u202fPM"
      },
      {
        "day": "Sunday",
        "hours": "Closed"
      }
    ],
    "peopleAlsoSearch": [],
    "placesTags": [],
    "reviewsTags": [],
    "additionalInfo": {
      "From the business": [
        {
          "Small business": true
        }
      ],
      "Service options": [
        {
          "Delivery": true
        },
        {
          "In-store pickup": true
        },
        {
          "In-store shopping": true
        },
        {
          "Onsite services": true
        }
      ],
      "Accessibility": [
        {
          "Wheelchair accessible entrance": true
        },
        {
          "Wheelchair accessible parking lot": true
        }
      ],
      "Planning": [
        {
          "Quick visit": true
        }
      ],
      "Payments": [
        {
          "Credit cards": true
        },
        {
          "Debit cards": true
        },
        {
          "NFC mobile payments": true
        },
        {
          "Credit cards": true
        }
      ]
    },
    "gasPrices": [],
    "url": "https://www.google.com/maps/search/?api=1&query=Sterling%20Heights%20Pharmacy&query_place_id=ChIJtRUC_VfDJIgRJHyxF0NYfEA",
    "searchPageUrl": "https://www.google.com/maps/search/independent%20pharmacy%20Sterling%20Heights%20MI/@67.1273844227615,-157.71370691405576,9z?hl=en",
    "searchString": "independent pharmacy Sterling Heights MI",
    "language": "en",
    "rank": 7,
    "isAdvertisement": false,
    "imageUrl": "https://lh3.googleusercontent.com/p/AF1QipOJikkNRYtOdovwAxKL8rqA0IRuMhw2SY3VRYEz=w408-h280-k-no",
    "kgmid": "/g/11g6vfjzvt",
    "classification": "independent",
    "is_independent": true,
    "is_compounding": false,
    "confidence": 0.85,
    "source": "perplexity",
    "method": "llm"
  },
  {
    "title": "The Medicine Shoppe Pharmacy",
    "price": null,
    "categoryName": "Pharmacy",
    "address": "3979 17 Mile Rd, Sterling Heights, MI 48310",
    "neighborhood": null,
    "street": "3979 17 Mile Rd",
    "city": "Sterling Heights",
    "postalCode": "48310",
    "state": "Michigan",
    "countryCode": "US",
    "website": "http://www.medicineshoppe.com/pharmacy-locations/michigan/sterling%20heights/home",
    "phone": "(586) 268-6266",
    "phoneUnformatted": "+15862686266",
    "claimThisBusiness": true,
    "location": {
      "lat": 42.579971,
      "lng": -83.0711313
    },
    "totalScore": 4.5,
    "permanentlyClosed": false,
    "temporarilyClosed": false,
    "placeId": null,
    "categories": [
      "Pharmacy"
    ],
    "fid": "0x8824dca8836512fd:0x6aed3a14916baeb9",
    "cid": "7704878397514297017",
    "reviewsCount": 4,
    "imagesCount": 3,
    "imageCategories": [],
    "scrapedAt": "2025-06-22T05:48:29.870Z",
    "googleFoodUrl": null,
    "hotelAds": [],
    "openingHours": [
      {
        "day": "Monday",
        "hours": "10\u202fAM to 6\u202fPM"
      },
      {
        "day": "Tuesday",
        "hours": "10\u202fAM to 6\u202fPM"
      },
      {
        "day": "Wednesday",
        "hours": "10\u202fAM to 6\u202fPM"
      },
      {
        "day": "Thursday",
        "hours": "10\u202fAM to 6\u202fPM"
      },
      {
        "day": "Friday",
        "hours": "10\u202fAM to 6\u202fPM"
      },
      {
        "day": "Saturday",
        "hours": "10\u202fAM to 2\u202fPM"
      },
      {
        "day": "Sunday",
        "hours": "Closed"
      }
    ],
    "peopleAlsoSearch": [],
    "placesTags": [],
    "reviewsTags": [],
    "additionalInfo": {
      "Service options": [
        {
          "Delivery": true
        },
        {
          "In-store pickup": true
        }
      ],
      "Accessibility": [
        {
          "Wheelchair accessible entrance": true
        },
        {
          "Wheelchair accessible parking lot": true
        }
      ],
      "Planning": [
        {
          "Quick visit": true
        }
      ],
      "Payments": [
        {
          "Credit cards": true
        }
      ]
    },
    "gasPrices": [],
    "url": "https://www.google.com/maps/search/?api=1&query=The%20Medicine%20Shoppe%20Pharmacy&query_place_id=ChIJ_RJlg6jcJIgRua5rkRQ67Wo",
    "searchPageUrl": "https://www.google.com/maps/search/independent%20pharmacy%20Sterling%20Heights%20MI/@67.1273844227615,-157.71370691405576,9z?hl=en",
    "searchString": "independent pharmacy Sterling Heights MI",
    "language": "en",
    "rank": 8,
    "isAdvertisement": false,
    "imageUrl": "https://lh3.googleusercontent.com/gps-cs-s/AC9h4nqu9b57U9f10SawXvkDAFkDMYzEdFVMf5-A4nOlh6z6z28qA2O_sDgXbHIUdlRDqiRYtwEpEwS4ELtJD4czk4sUDyuSNBhafJOALyyMBG-i_rbWhhUg37HPwQCwXFSWOStsVr4=w408-h544-k-no",
    "kgmid": "/g/1tdr8tll",
    "classification": "independent",
    "is_independent": true,
    "is_compounding": false,
    "confidence": 0.92,
    "source": "perplexity",
    "method": "llm"
  },
  {
    "title": "Holiday Pharmacy",
    "price": null,
    "categoryName": "Pharmacy",
    "address": "37771 Schoenherr Rd #105, Sterling Heights, MI 48312",
    "neighborhood": null,
    "street": "37771 Schoenherr Rd #105",
    "city": "Sterling Heights",
    "postalCode": "48312",
    "state": "Michigan",
    "countryCode": "US",
    "website": "https://holidaypharm.com/pharmacy/",
    "phone": "(586) 274-4332",
    "phoneUnformatted": "+15862744332",
    "claimThisBusiness": true,
    "location": {
      "lat": 42.567988,
      "lng": -82.9891551
    },
    "totalScore": 4,
    "permanentlyClosed": false,
    "temporarilyClosed": false,
    "placeId": null,
    "categories": [
      "Pharmacy"
    ],
    "fid": "0x8824d954417d7d27:0xb87e3d965e1a1f86",
    "cid": "13294130866077441926",
    "reviewsCount": 26,
    "imagesCount": null,
    "imageCategories": [],
    "scrapedAt": "2025-06-22T05:48:29.870Z",
    "googleFoodUrl": null,
    "hotelAds": [],
    "openingHours": [
      {
        "day": "Monday",
        "hours": "9\u202fAM to 6\u202fPM"
      },
      {
        "day": "Tuesday",
        "hours": "9\u202fAM to 6\u202fPM"
      },
      {
        "day": "Wednesday",
        "hours": "9\u202fAM to 6\u202fPM"
      },
      {
        "day": "Thursday",
        "hours": "9\u202fAM to 6\u202fPM"
      },
      {
        "day": "Friday",
        "hours": "9\u202fAM to 6\u202fPM"
      },
      {
        "day": "Saturday",
        "hours": "9\u202fAM to 3\u202fPM"
      },
      {
        "day": "Sunday",
        "hours": "Closed"
      }
    ],
    "peopleAlsoSearch": [],
    "placesTags": [],
    "reviewsTags": [],
    "additionalInfo": {
      "Service options": [
        {
          "Delivery": true
        },
        {
          "In-store pickup": true
        }
      ],
      "Accessibility": [
        {
          "Wheelchair accessible entrance": true
        },
        {
          "Wheelchair accessible parking lot": true
        }
      ],
      "Planning": [
        {
          "Quick visit": true
        }
      ],
      "Payments": [
        {
          "Credit cards": true
        },
        {
          "Debit cards": true
        },
        {
          "Credit cards": true
        }
      ]
    },
    "gasPrices": [],
    "url": "https://www.google.com/maps/search/?api=1&query=Holiday%20Pharmacy&query_place_id=ChIJJ319QVTZJIgRhh8aXpY9frg",
    "searchPageUrl": "https://www.google.com/maps/search/independent%20pharmacy%20Sterling%20Heights%20MI/@67.1273844227615,-157.71370691405576,9z?hl=en",
    "searchString": "independent pharmacy Sterling Heights MI",
    "language": "en",
    "rank": 9,
    "isAdvertisement": false,
    "kgmid": "/g/1tkc2qxj",
    "classification": "independent",
    "is_independent": true,
    "is_compounding": false,
    "confidence": 0.9,
    "source": "perplexity",
    "method": "llm"
  },
  {
    "title": "Sterling City Pharmacy",
    "price": null,
    "categoryName": "Pharmacy",
    "address": "35450 Dequindre Rd # 102, Sterling Heights, MI 48310",
    "neighborhood": null,
    "street": "35450 Dequindre Rd # 102",
    "city": "Sterling Heights",
    "postalCode": "48310",
    "state": "Michigan",
    "countryCode": "US",
    "phone": "(248) 268-1641",
    "phoneUnformatted": "+12482681641",
    "claimThisBusiness": false,
    "location": {
      "lat": 42.5534408,
      "lng": -83.0874235
    },
    "totalScore": 4.8,
    "permanentlyClosed": false,
    "temporarilyClosed": false,
    "placeId": null,
    "categories": [
      "Pharmacy"
    ],
    "fid": "0x8824c4c8d6c129c1:0x126e01fac759c315",
    "cid": "1328001116718875413",
    "reviewsCount": 21,
    "imagesCount": 2,
    "imageCategories": [],
    "scrapedAt": "2025-06-22T05:48:29.870Z",
    "googleFoodUrl": null,
    "hotelAds": [],
    "openingHours": [
      {
        "day": "Monday",
        "hours": "10\u202fAM to 3\u202fPM"
      },
      {
        "day": "Tuesday",
        "hours": "10\u202fAM to 3\u202fPM"
      },
      {
        "day": "Wednesday",
        "hours": "10\u202fAM to 3\u202fPM"
      },
      {
        "day": "Thursday",
        "hours": "10\u202fAM to 3\u202fPM"
      },
      {
        "day": "Friday",
        "hours": "10\u202fAM to 3\u202fPM"
      },
      {
        "day": "Saturday",
        "hours": "11\u202fAM to 1\u202fPM"
      },
      {
        "day": "Sunday",
        "hours": "Closed"
      }
    ],
    "peopleAlsoSearch": [],
    "placesTags": [],
    "reviewsTags": [],
    "additionalInfo": {
      "From the business": [
        {
          "Small business": true
        }
      ],
      "Service options": [
        {
          "Delivery": true
        },
        {
          "Same-day delivery": true
        }
      ],
      "Accessibility": [
        {
          "Wheelchair accessible entrance": true
        },
        {
          "Wheelchair accessible parking lot": true
        }
      ],
      "Planning": [
        {
          "Quick visit": true
        }
      ],
      "Payments": [
        {
          "Credit cards": true
        },
        {
          "Debit cards": true
        },
        {
          "NFC mobile payments": true
        },
        {
          "Credit cards": true
        }
      ]
    },
    "gasPrices": [],
    "url": "https://www.google.com/maps/search/?api=1&query=Sterling%20City%20Pharmacy&query_place_id=ChIJwSnB1sjEJIgRFcNZx_oBbhI",
    "searchPageUrl": "https://www.google.com/maps/search/independent%20pharmacy%20Sterling%20Heights%20MI/@67.1273844227615,-157.71370691405576,9z?hl=en",
    "searchString": "independent pharmacy Sterling Heights MI",
    "language": "en",
    "rank": 10,
    "isAdvertisement": false,
    "imageUrl": "https://lh3.googleusercontent.com/p/AF1QipOK_R6TIrDa7y1UurmqOk7dqrsSsgSDxcXDws4g=w408-h403-k-no",
    "kgmid": "/g/11f0__cdcl",
    "classification": "independent",
    "is_independent": true,
    "is_compounding": false,
    "confidence": 0.85,
    "source": "perplexity",
    "method": "llm"
  },
  {
    "title": "Dalcoma Specialty Pharmacy & Compounding Services",
    "price": null,
    "categoryName": "Pharmacy",
    "address": "43337 Schoenherr Rd, Sterling Heights, MI 48313",
    "neighborhood": null,
    "street": "43337 Schoenherr Rd",
    "city": "Sterling Heights",
    "postalCode": "48313",
    "state": "Michigan",
    "countryCode": "US",
    "website": "http://dalcomarx.com/",
    "phone": "(586) 697-3877",
    "phoneUnformatted": "+15866973877",
    "claimThisBusiness": false,
    "location": {
      "lat": 42.6128903,
      "lng": -82.9933961
    },
    "totalScore": 4.5,
    "permanentlyClosed": false,
    "temporarilyClosed": false,
    "placeId": null,
    "categories": [
      "Pharmacy",
      "Veterinary pharmacy"
    ],
    "fid": "0x8824de5a381034cf:0x6457232352c93523",
    "cid": "7230286361386366243",
    "reviewsCount": 87,
    "imagesCount": 19,
    "imageCategories": [],
    "scrapedAt": "2025-06-22T05:48:29.870Z",
    "googleFoodUrl": null,
    "hotelAds": [],
    "openingHours": [
      {
        "day": "Monday",
        "hours": "9\u202fAM to 4\u202fPM"
      },
      {
        "day": "Tuesday",
        "hours": "9\u202fAM to 4\u202fPM"
      },
      {
        "day": "Wednesday",
        "hours": "9\u202fAM to 4\u202fPM"
      },
      {
        "day": "Thursday",
        "hours": "9\u202fAM to 4\u202fPM"
      },
      {
        "day": "Friday",
        "hours": "9\u202fAM to 2\u202fPM"
      },
      {
        "day": "Saturday",
        "hours": "10\u202fAM to 2\u202fPM"
      },
      {
        "day": "Sunday",
        "hours": "Closed"
      }
    ],
    "peopleAlsoSearch": [],
    "placesTags": [],
    "reviewsTags": [],
    "additionalInfo": {
      "From the business": [
        {
          "Identifies as women-owned": true
        },
        {
          "Small business": true
        }
      ],
      "Service options": [
        {
          "Curbside pickup": true
        },
        {
          "Delivery": true
        },
        {
          "In-store pickup": true
        },
        {
          "In-store shopping": true
        },
        {
          "Onsite services": true
        },
        {
          "Same-day delivery": true
        },
        {
          "English": true
        }
      ],
      "Accessibility": [
        {
          "Wheelchair accessible entrance": true
        },
        {
          "Wheelchair accessible parking lot": true
        }
      ],
      "Payments": [
        {
          "Credit cards": true
        },
        {
          "Debit cards": true
        },
        {
          "NFC mobile payments": true
        },
        {
          "Credit cards": true
        }
      ]
    },
    "gasPrices": [],
    "url": "https://www.google.com/maps/search/?api=1&query=Dalcoma%20Specialty%20Pharmacy%20%26%20Compounding%20Services&query_place_id=ChIJzzQQOFreJIgRIzXJUiMjV2Q",
    "searchPageUrl": "https://www.google.com/maps/search/independent%20pharmacy%20Sterling%20Heights%20MI/@67.1273844227615,-157.71370691405576,9z?hl=en",
    "searchString": "independent pharmacy Sterling Heights MI",
    "language": "en",
    "rank": 11,
    "isAdvertisement": false,
    "imageUrl": "https://lh3.googleusercontent.com/p/AF1QipP3eKcrF0fOkLWoF985-6MlAYSX3xIHe9yKTO8=w408-h544-k-no",
    "kgmid": "/g/11cmhfg2kt",
    "classification": "independent",
    "is_independent": true,
    "is_compounding": true,
    "confidence": 0.95,
    "source": "perplexity",
    "method": "llm"
  },
  {
    "title": "US Care Pharmacy",
    "price": null,
    "categoryName": "Pharmacy",
    "address": "35200 Dequindre Rd Suite 200, Sterling Heights, MI 48310",
    "neighborhood": null,
    "street": "35200 Dequindre Rd Suite 200",
    "city": "Sterling Heights",
    "postalCode": "48310",
    "state": "Michigan",
    "countryCode": "US",
    "website": "http://uscarepharmacy.net/",
    "phone": "(248) 985-4222",
    "phoneUnformatted": "+12489854222",
    "claimThisBusiness": false,
    "location": {
      "lat": 42.5515978,
      "lng": -83.0873979
    },
    "totalScore": 5,
    "permanentlyClosed": false,
    "temporarilyClosed": false,
    "placeId": null,
    "categories": [
      "Pharmacy"
    ],
    "fid": "0x8824c50eb505ff21:0x12b82ff8fae1cc21",
    "cid": "1348880834804960289",
    "reviewsCount": 16,
    "imagesCount": 2,
    "imageCategories": [],
    "scrapedAt": "2025-06-22T05:48:29.870Z",
    "googleFoodUrl": null,
    "hotelAds": [],
    "openingHours": [
      {
        "day": "Monday",
        "hours": "10\u202fAM to 6\u202fPM"
      },
      {
        "day": "Tuesday",
        "hours": "10\u202fAM to 6\u202fPM"
      },
      {
        "day": "Wednesday",
        "hours": "10\u202fAM to 6\u202fPM"
      },
      {
        "day": "Thursday",
        "hours": "10\u202fAM to 6\u202fPM"
      },
      {
        "day": "Friday",
        "hours": "10\u202fAM to 6\u202fPM"
      },
      {
        "day": "Saturday",
        "hours": "10\u202fAM to 3\u202fPM"
      },
      {
        "day": "Sunday",
        "hours": "Closed"
      }
    ],
    "peopleAlsoSearch": [],
    "placesTags": [],
    "reviewsTags": [],
    "additionalInfo": {
      "From the business": [
        {
          "Small business": true
        }
      ],
      "Service options": [
        {
          "Delivery": true
        },
        {
          "In-store shopping": true
        },
        {
          "Same-day delivery": true
        }
      ],
      "Accessibility": [
        {
          "Wheelchair accessible entrance": true
        },
        {
          "Wheelchair accessible parking lot": true
        }
      ],
      "Payments": [
        {
          "Credit cards": true
        }
      ]
    },
    "gasPrices": [],
    "url": "https://www.google.com/maps/search/?api=1&query=US%20Care%20Pharmacy&query_place_id=ChIJIf8FtQ7FJIgRIczh-vgvuBI",
    "searchPageUrl": "https://www.google.com/maps/search/independent%20pharmacy%20Sterling%20Heights%20MI/@67.1273844227615,-157.71370691405576,9z?hl=en",
    "searchString": "independent pharmacy Sterling Heights MI",
    "language": "en",
    "rank": 12,
    "isAdvertisement": false,
    "imageUrl": "https://lh3.googleusercontent.com/p/AF1QipPpnyNUdz5TEYrPuvF49h3dwuXkUddG2mVrB9tv=w408-h417-k-no",
    "kgmid": "/g/11t6wz3bxx",
    "classification": "independent",
    "is_independent": true,
    "is_compounding": false,
    "confidence": 0.85,
    "source": "perplexity",
    "method": "llm"
  },
  {
    "title": "True Rx LLC Pharmacy",
    "price": null,
    "categoryName": "Pharmacy",
    "address": "38300 Van Dyke Ave #102, Sterling Heights, MI 48312",
    "neighborhood": null,
    "street": "38300 Van Dyke Ave #102",
    "city": "Sterling Heights",
    "postalCode": "48312",
    "state": "Michigan",
    "countryCode": "US",
    "phone": "(586) 275-0422",
    "phoneUnformatted": "+15862750422",
    "claimThisBusiness": false,
    "location": {
      "lat": 42.5756357,
      "lng": -83.0286816
    },
    "totalScore": 4.8,
    "permanentlyClosed": false,
    "temporarilyClosed": false,
    "placeId": null,
    "categories": [
      "Pharmacy"
    ],
    "fid": "0x8824dd3155a45879:0xfc900d5e1ae6fc72",
    "cid": "18199060792033606770",
    "reviewsCount": 52,
    "imagesCount": 19,
    "imageCategories": [],
    "scrapedAt": "2025-06-22T05:48:29.870Z",
    "googleFoodUrl": null,
    "hotelAds": [],
    "openingHours": [
      {
        "day": "Monday",
        "hours": "9:30\u202fAM to 5:30\u202fPM"
      },
      {
        "day": "Tuesday",
        "hours": "9:30\u202fAM to 5:30\u202fPM"
      },
      {
        "day": "Wednesday",
        "hours": "9:30\u202fAM to 5:30\u202fPM"
      },
      {
        "day": "Thursday",
        "hours": "9:30\u202fAM to 5:30\u202fPM"
      },
      {
        "day": "Friday",
        "hours": "9:30\u202fAM to 5:30\u202fPM"
      },
      {
        "day": "Saturday",
        "hours": "Closed"
      },
      {
        "day": "Sunday",
        "hours": "Closed"
      }
    ],
    "peopleAlsoSearch": [],
    "placesTags": [],
    "reviewsTags": [],
    "additionalInfo": {
      "From the business": [
        {
          "Small business": true
        }
      ],
      "Service options": [
        {
          "Delivery": true
        },
        {
          "In-store pickup": true
        },
        {
          "In-store shopping": true
        },
        {
          "Same-day delivery": true
        },
        {
          "Arabic": true
        }
      ],
      "Accessibility": [
        {
          "Wheelchair accessible entrance": true
        },
        {
          "Wheelchair accessible parking lot": true
        },
        {
          "Wheelchair accessible restroom": true
        },
        {
          "Wheelchair accessible seating": true
        }
      ],
      "Amenities": [
        {
          "Gender-neutral restroom": true
        },
        {
          "Wi-Fi": true
        },
        {
          "Free Wi-Fi": true
        }
      ],
      "Crowd": [
        {
          "LGBTQ+ friendly": true
        },
        {
          "Transgender safespace": true
        }
      ],
      "Payments": [
        {
          "Checks": true
        },
        {
          "Credit cards": true
        },
        {
          "Debit cards": true
        },
        {
          "NFC mobile payments": true
        },
        {
          "Credit cards": true
        }
      ]
    },
    "gasPrices": [],
    "url": "https://www.google.com/maps/search/?api=1&query=True%20Rx%20LLC%20Pharmacy&query_place_id=ChIJeVikVTHdJIgRcvzmGl4NkPw",
    "searchPageUrl": "https://www.google.com/maps/search/independent%20pharmacy%20Sterling%20Heights%20MI/@67.1273844227615,-157.71370691405576,9z?hl=en",
    "searchString": "independent pharmacy Sterling Heights MI",
    "language": "en",
    "rank": 13,
    "isAdvertisement": false,
    "imageUrl": "https://lh3.googleusercontent.com/gps-cs-s/AC9h4nqitdiPZVMiUusQH1i7Fcb2NVZQl_Y5UzAtQ5TAp5ErWAal_Dtr5dcYhQcitujjLusAueYfwY2k_rcucIWKLZpm4B3tfyN80ML-ndVPNg5Hr9rKi6Jd5gFWOcI8HKVd0anmkBtO=w408-h306-k-no",
    "kgmid": "/g/11h3m81k65",
    "classification": "independent",
    "is_independent": true,
    "is_compounding": false,
    "confidence": 0.85,
    "source": "perplexity",
    "method": "llm"
  },
  {
    "title": "Get Better Rx Pharmacy",
    "price": null,
    "categoryName": "Pharmacy",
    "address": "2567 Metro Pkwy # 102, Sterling Heights, MI 48310",
    "neighborhood": null,
    "street": "2567 Metro Pkwy # 102",
    "city": "Sterling Heights",
    "postalCode": "48310",
    "state": "Michigan",
    "countryCode": "US",
    "phone": "(586) 838-4400",
    "phoneUnformatted": "+15868384400",
    "claimThisBusiness": false,
    "location": {
      "lat": 42.5646671,
      "lng": -83.0825917
    },
    "totalScore": 5,
    "permanentlyClosed": false,
    "temporarilyClosed": false,
    "placeId": null,
    "categories": [
      "Pharmacy"
    ],
    "fid": "0x8824c542b44688fb:0xf4b33038fdf3a4aa",
    "cid": "17632489987422528682",
    "reviewsCount": 39,
    "imagesCount": 11,
    "imageCategories": [],
    "scrapedAt": "2025-06-22T05:48:29.870Z",
    "googleFoodUrl": null,
    "hotelAds": [],
    "openingHours": [
      {
        "day": "Monday",
        "hours": "10\u202fAM to 5\u202fPM"
      },
      {
        "day": "Tuesday",
        "hours": "10\u202fAM to 5\u202fPM"
      },
      {
        "day": "Wednesday",
        "hours": "10\u202fAM to 5\u202fPM"
      },
      {
        "day": "Thursday",
        "hours": "10\u202fAM to 5\u202fPM"
      },
      {
        "day": "Friday",
        "hours": "10\u202fAM to 5\u202fPM"
      },
      {
        "day": "Saturday",
        "hours": "Closed"
      },
      {
        "day": "Sunday",
        "hours": "Closed"
      }
    ],
    "peopleAlsoSearch": [],
    "placesTags": [],
    "reviewsTags": [],
    "additionalInfo": {
      "From the business": [
        {
          "Small business": true
        }
      ],
      "Service options": [
        {
          "Curbside pickup": true
        },
        {
          "Delivery": true
        },
        {
          "In-store shopping": true
        },
        {
          "Same-day delivery": true
        },
        {
          "Arabic": true
        }
      ],
      "Accessibility": [
        {
          "Wheelchair accessible entrance": true
        },
        {
          "Wheelchair accessible parking lot": true
        }
      ],
      "Amenities": [
        {
          "Wi-Fi": true
        },
        {
          "Free Wi-Fi": true
        }
      ],
      "Payments": [
        {
          "Credit cards": true
        },
        {
          "Debit cards": true
        },
        {
          "NFC mobile payments": true
        },
        {
          "Credit cards": true
        }
      ],
      "Parking": [
        {
          "Free parking lot": true
        }
      ]
    },
    "gasPrices": [],
    "url": "https://www.google.com/maps/search/?api=1&query=Get%20Better%20Rx%20Pharmacy&query_place_id=ChIJ-4hGtELFJIgRqqTz_Tgws_Q",
    "searchPageUrl": "https://www.google.com/maps/search/independent%20pharmacy%20Sterling%20Heights%20MI/@67.1273844227615,-157.71370691405576,9z?hl=en",
    "searchString": "independent pharmacy Sterling Heights MI",
    "language": "en",
    "rank": 14,
    "isAdvertisement": false,
    "imageUrl": "https://lh3.googleusercontent.com/p/AF1QipOaua6uOHZVp29mxM5q1rd3QG9KLl9gPFzhjDKt=w408-h544-k-no",
    "kgmid": "/g/11ldhgl42d",
    "classification": "independent",
    "is_independent": true,
    "is_compounding": false,
    "confidence": 0.85,
    "source": "perplexity",
    "method": "llm"
  },
  {
    "title": "INFINITY PHARMACY",
    "price": null,
    "categoryName": "Pharmacy",
    "address": "36909 Schoenherr Rd Suite 300, Sterling Heights, MI 48312",
    "neighborhood": null,
    "street": "36909 Schoenherr Rd Suite 300",
    "city": "Sterling Heights",
    "postalCode": "48312",
    "state": "Michigan",
    "countryCode": "US",
    "phone": "(586) 303-4545",
    "phoneUnformatted": "+15863034545",
    "claimThisBusiness": false,
    "location": {
      "lat": 42.5664391,
      "lng": -82.9886502
    },
    "permanentlyClosed": false,
    "temporarilyClosed": false,
    "placeId": null,
    "categories": [
      "Pharmacy"
    ],
    "fid": "0x8824d9b97ca39411:0x1245026af14023b3",
    "cid": "1316461124413039539",
    "reviewsCount": 0,
    "imagesCount": null,
    "imageCategories": [],
    "scrapedAt": "2025-06-22T05:48:29.871Z",
    "googleFoodUrl": null,
    "hotelAds": [],
    "openingHours": [
      {
        "day": "Monday",
        "hours": "10\u202fAM to 5\u202fPM"
      },
      {
        "day": "Tuesday",
        "hours": "10\u202fAM to 5\u202fPM"
      },
      {
        "day": "Wednesday",
        "hours": "10\u202fAM to 5\u202fPM"
      },
      {
        "day": "Thursday",
        "hours": "10\u202fAM to 5\u202fPM"
      },
      {
        "day": "Friday",
        "hours": "10\u202fAM to 5\u202fPM"
      },
      {
        "day": "Saturday",
        "hours": "Closed"
      },
      {
        "day": "Sunday",
        "hours": "Closed"
      }
    ],
    "peopleAlsoSearch": [],
    "placesTags": [],
    "reviewsTags": [],
    "additionalInfo": {
      "Accessibility": [
        {
          "Wheelchair accessible entrance": true
        },
        {
          "Wheelchair accessible parking lot": true
        }
      ],
      "Planning": [
        {
          "Quick visit": true
        }
      ],
      "Payments": [
        {
          "Credit cards": true
        }
      ]
    },
    "gasPrices": [],
    "url": "https://www.google.com/maps/search/?api=1&query=INFINITY%20PHARMACY&query_place_id=ChIJEZSjfLnZJIgRsyNA8WoCRRI",
    "searchPageUrl": "https://www.google.com/maps/search/independent%20pharmacy%20Sterling%20Heights%20MI/@67.1273844227615,-157.71370691405576,9z?hl=en",
    "searchString": "independent pharmacy Sterling Heights MI",
    "language": "en",
    "rank": 15,
    "isAdvertisement": false,
    "kgmid": "/g/11w1dwpgvm",
    "classification": "independent",
    "is_independent": true,
    "is_compounding": false,
    "confidence": 0.85,
    "source": "perplexity",
    "method": "llm"
  },
  {
    "title": "Canal Pharmacy",
    "price": null,
    "categoryName": "Pharmacy",
    "address": "Inside Macomb Medical Clinic, 2405 E 14 Mile Rd, Sterling Heights, MI 48310",
    "neighborhood": null,
    "street": "Inside Macomb Medical Clinic, 2405 E 14 Mile Rd",
    "city": "Sterling Heights",
    "postalCode": "48310",
    "state": "Michigan",
    "countryCode": "US",
    "website": "https://stores.healthmart.com/canalpharmacy2405/stores.aspx",
    "phone": "(586) 439-3550",
    "phoneUnformatted": "+15864393550",
    "claimThisBusiness": false,
    "location": {
      "lat": 42.5354064,
      "lng": -83.081842
    },
    "totalScore": 4.6,
    "permanentlyClosed": false,
    "temporarilyClosed": false,
    "placeId": null,
    "categories": [
      "Pharmacy"
    ],
    "fid": "0x8824c52baa13a81f:0xd90b48d684bbb836",
    "cid": "15639674217161275446",
    "reviewsCount": 17,
    "imagesCount": 2,
    "imageCategories": [],
    "scrapedAt": "2025-06-22T05:48:29.871Z",
    "googleFoodUrl": null,
    "hotelAds": [],
    "openingHours": [
      {
        "day": "Monday",
        "hours": "9\u202fAM to 6\u202fPM"
      },
      {
        "day": "Tuesday",
        "hours": "9\u202fAM to 5\u202fPM"
      },
      {
        "day": "Wednesday",
        "hours": "9\u202fAM to 5\u202fPM"
      },
      {
        "day": "Thursday",
        "hours": "9\u202fAM to 5\u202fPM"
      },
      {
        "day": "Friday",
        "hours": "9\u202fAM to 1\u202fPM"
      },
      {
        "day": "Saturday",
        "hours": "Closed"
      },
      {
        "day": "Sunday",
        "hours": "Closed"
      }
    ],
    "peopleAlsoSearch": [],
    "placesTags": [],
    "reviewsTags": [],
    "additionalInfo": {
      "Service options": [
        {
          "In-store shopping": true
        }
      ],
      "Accessibility": [
        {
          "Wheelchair accessible entrance": true
        },
        {
          "Wheelchair accessible parking lot": true
        }
      ],
      "Planning": [
        {
          "Quick visit": true
        }
      ],
      "Payments": [
        {
          "Credit cards": true
        },
        {
          "Debit cards": true
        },
        {
          "NFC mobile payments": true
        },
        {
          "Credit cards": true
        }
      ]
    },
    "gasPrices": [],
    "url": "https://www.google.com/maps/search/?api=1&query=Canal%20Pharmacy&query_place_id=ChIJH6gTqivFJIgRNri7hNZIC9k",
    "searchPageUrl": "https://www.google.com/maps/search/independent%20pharmacy%20Sterling%20Heights%20MI/@67.1273844227615,-157.71370691405576,9z?hl=en",
    "searchString": "independent pharmacy Sterling Heights MI",
    "language": "en",
    "rank": 16,
    "isAdvertisement": false,
    "imageUrl": "https://lh3.googleusercontent.com/gps-cs-s/AC9h4npu6soa3zadLmlA8EDsEAESApK81SiIHdACdS0LJD3OMo7cjL9y4DD1WiVAcWouAd1rrnol9HpxQpsHEwNszcpiPYp_anJ1BVl2v4SPUEn1MtGp7rZY_uzfu9G9lgGYYXEtFMdMOSF8KSmV=w408-h544-k-no",
    "kgmid": "/g/11c31775yb",
    "classification": "hospital",
    "is_independent": false,
    "is_compounding": false,
    "confidence": 0.95,
    "source": "perplexity",
    "method": "llm"
  },
  {
    "title": "Henry Ford Pharmacy - Sterling Heights",
    "price": null,
    "categoryName": "Pharmacy",
    "address": "3500 15 Mile Rd, Sterling Heights, MI 48310",
    "neighborhood": null,
    "street": "3500 15 Mile Rd",
    "city": "Sterling Heights",
    "postalCode": "48310",
    "state": "Michigan",
    "countryCode": "US",
    "website": "https://www.henryford.com/locations/sterling-heights/pharmacy?utm_campaign=website-link&utm_medium=organic&utm_source=local-listing",
    "phone": "(586) 977-9971",
    "phoneUnformatted": "+15869779971",
    "claimThisBusiness": false,
    "location": {
      "lat": 42.54936,
      "lng": -83.0731324
    },
    "totalScore": 3.7,
    "permanentlyClosed": false,
    "temporarilyClosed": false,
    "placeId": null,
    "categories": [
      "Pharmacy"
    ],
    "fid": "0x8824db3184d47c3f:0xf0e5e99085c09b7c",
    "cid": "17358537145697999740",
    "reviewsCount": 25,
    "imagesCount": 4,
    "imageCategories": [],
    "scrapedAt": "2025-06-22T05:48:29.871Z",
    "googleFoodUrl": null,
    "hotelAds": [],
    "openingHours": [
      {
        "day": "Monday",
        "hours": "8\u202fAM to 8\u202fPM"
      },
      {
        "day": "Tuesday",
        "hours": "8\u202fAM to 8\u202fPM"
      },
      {
        "day": "Wednesday",
        "hours": "8\u202fAM to 8\u202fPM"
      },
      {
        "day": "Thursday",
        "hours": "8\u202fAM to 8\u202fPM"
      },
      {
        "day": "Friday",
        "hours": "8\u202fAM to 8\u202fPM"
      },
      {
        "day": "Saturday",
        "hours": "8\u202fAM to 4\u202fPM"
      },
      {
        "day": "Sunday",
        "hours": "8\u202fAM to 4\u202fPM"
      }
    ],
    "peopleAlsoSearch": [],
    "placesTags": [],
    "reviewsTags": [],
    "additionalInfo": {
      "Service options": [
        {
          "Drive-through": true
        },
        {
          "In-store pickup": true
        }
      ],
      "Accessibility": [
        {
          "Wheelchair accessible entrance": true
        },
        {
          "Wheelchair accessible parking lot": true
        },
        {
          "Wheelchair accessible restroom": true
        },
        {
          "Wheelchair accessible seating": true
        }
      ],
      "Crowd": [
        {
          "LGBTQ+ friendly": true
        },
        {
          "Transgender safespace": true
        }
      ],
      "Payments": [
        {
          "Debit cards": true
        },
        {
          "Credit cards": true
        }
      ]
    },
    "gasPrices": [],
    "url": "https://www.google.com/maps/search/?api=1&query=Henry%20Ford%20Pharmacy%20-%20Sterling%20Heights&query_place_id=ChIJP3zUhDHbJIgRfJvAhZDp5fA",
    "searchPageUrl": "https://www.google.com/maps/search/independent%20pharmacy%20Sterling%20Heights%20MI/@67.1273844227615,-157.71370691405576,9z?hl=en",
    "searchString": "independent pharmacy Sterling Heights MI",
    "language": "en",
    "rank": 17,
    "isAdvertisement": false,
    "imageUrl": "https://lh3.googleusercontent.com/p/AF1QipMI-O104ym-UqLxLsn_d5Oh6ZfyHjj3chz2oKso=w426-h240-k-no",
    "kgmid": "/g/11c53cxr4p",
    "classification": "hospital",
    "is_independent": false,
    "is_compounding": false,
    "confidence": 0.98,
    "source": "perplexity",
    "method": "llm"
  },
  {
    "title": "Meijer Pharmacy",
    "price": "$$",
    "categoryName": "Pharmacy",
    "address": "36600 Van Dyke Ave, Sterling Heights, MI 48312",
    "neighborhood": null,
    "street": "36600 Van Dyke Ave",
    "city": "Sterling Heights",
    "postalCode": "48312",
    "state": "Michigan",
    "countryCode": "US",
    "website": "https://www.meijer.com/shopping/store-locator/55.html?cmpid=LM:Web::::05112021::GooglePharmacy",
    "phone": "(586) 274-1610",
    "phoneUnformatted": "+15862741610",
    "claimThisBusiness": false,
    "location": {
      "lat": 42.5634203,
      "lng": -83.0269403
    },
    "totalScore": 2.3,
    "permanentlyClosed": false,
    "temporarilyClosed": false,
    "placeId": "ChIJAQZox5rbJIgRokNby3rdQ78",
    "categories": [
      "Pharmacy",
      "Medical supply store",
      "Drug store"
    ],
    "fid": "0x8824db9ac7680601:0xbf43dd7acb5b43a2",
    "cid": "13782102804151354274",
    "reviewsCount": 88,
    "imagesCount": 56,
    "imageCategories": [],
    "scrapedAt": "2025-06-22T05:48:29.871Z",
    "googleFoodUrl": null,
    "hotelAds": [],
    "openingHours": [
      {
        "day": "Monday",
        "hours": "9\u202fAM to 8\u202fPM"
      },
      {
        "day": "Tuesday",
        "hours": "9\u202fAM to 8\u202fPM"
      },
      {
        "day": "Wednesday",
        "hours": "9\u202fAM to 8\u202fPM"
      },
      {
        "day": "Thursday",
        "hours": "9\u202fAM to 8\u202fPM"
      },
      {
        "day": "Friday",
        "hours": "9\u202fAM to 8\u202fPM"
      },
      {
        "day": "Saturday",
        "hours": "10\u202fAM to 6\u202fPM"
      },
      {
        "day": "Sunday",
        "hours": "10\u202fAM to 6\u202fPM"
      }
    ],
    "additionalOpeningHours": {
      "Drive through": [
        {
          "day": "Monday",
          "hours": "9\u202fAM\u20138\u202fPM"
        },
        {
          "day": "Tuesday",
          "hours": "9\u202fAM\u20138\u202fPM"
        },
        {
          "day": "Wednesday",
          "hours": "9\u202fAM\u20138\u202fPM"
        },
        {
          "day": "Thursday",
          "hours": "9\u202fAM\u20138\u202fPM"
        },
        {
          "day": "Friday",
          "hours": "9\u202fAM\u20138\u202fPM"
        },
        {
          "day": "Saturday",
          "hours": "10\u202fAM\u20136\u202fPM"
        },
        {
          "day": "Sunday",
          "hours": "10\u202fAM\u20136\u202fPM"
        }
      ],
      "Pickup": [
        {
          "day": "Monday",
          "hours": "9\u202fAM\u20138\u202fPM"
        },
        {
          "day": "Tuesday",
          "hours": "9\u202fAM\u20138\u202fPM"
        },
        {
          "day": "Wednesday",
          "hours": "9\u202fAM\u20138\u202fPM"
        },
        {
          "day": "Thursday",
          "hours": "9\u202fAM\u20138\u202fPM"
        },
        {
          "day": "Friday",
          "hours": "9\u202fAM\u20138\u202fPM"
        },
        {
          "day": "Saturday",
          "hours": "10\u202fAM\u20136\u202fPM"
        },
        {
          "day": "Sunday",
          "hours": "10\u202fAM\u20136\u202fPM"
        }
      ]
    },
    "peopleAlsoSearch": [],
    "placesTags": [],
    "reviewsTags": [],
    "additionalInfo": {
      "Service options": [
        {
          "Curbside pickup": true
        },
        {
          "Delivery": true
        },
        {
          "Drive-through": true
        },
        {
          "In-store pickup": true
        },
        {
          "In-store shopping": true
        }
      ],
      "Accessibility": [
        {
          "Wheelchair accessible entrance": true
        },
        {
          "Wheelchair accessible parking lot": true
        }
      ],
      "Offerings": [
        {
          "Medication disposal": true
        }
      ],
      "Planning": [
        {
          "Quick visit": true
        }
      ],
      "Payments": [
        {
          "Checks": true
        },
        {
          "Debit cards": true
        },
        {
          "NFC mobile payments": true
        }
      ]
    },
    "gasPrices": [],
    "url": "https://www.google.com/maps/search/?api=1&query=Meijer%20Pharmacy&query_place_id=ChIJAQZox5rbJIgRokNby3rdQ78",
    "searchPageUrl": "https://www.google.com/maps/search/independent%20pharmacy%20Sterling%20Heights%20MI/@67.1273844227615,-157.71370691405576,9z?hl=en",
    "searchString": "independent pharmacy Sterling Heights MI",
    "language": "en",
    "rank": 18,
    "isAdvertisement": false,
    "imageUrl": "https://lh3.googleusercontent.com/p/AF1QipN3ghY8Xx_COHoAERJiudzcM6QFnFakB2kMs9Jl=w408-h272-k-no",
    "kgmid": "/g/1td0bkh0",
    "classification": "chain",
    "is_independent": false,
    "confidence": 1.0,
    "source": "rule-based"
  },
  {
    "title": "Prestige Pharmacy",
    "price": null,
    "categoryName": "Pharmacy",
    "address": "Miles & Ryan Rd, 3739 15 Mile Rd, Sterling Heights, MI 48310",
    "neighborhood": null,
    "street": "Miles & Ryan Rd, 3739 15 Mile Rd",
    "city": "Sterling Heights",
    "postalCode": "48310",
    "state": "Michigan",
    "countryCode": "US",
    "phone": "(586) 275-0150",
    "phoneUnformatted": "+15862750150",
    "claimThisBusiness": false,
    "location": {
      "lat": 42.5508848,
      "lng": -83.0699431
    },
    "totalScore": 4.4,
    "permanentlyClosed": true,
    "temporarilyClosed": false,
    "placeId": null,
    "categories": [
      "Pharmacy"
    ],
    "fid": "0x8824db7a7232ec07:0x289eaffd1a7a544d",
    "cid": "2926970309443212365",
    "reviewsCount": 21,
    "imagesCount": 4,
    "imageCategories": [],
    "scrapedAt": "2025-06-22T05:48:29.871Z",
    "googleFoodUrl": null,
    "hotelAds": [],
    "openingHours": [],
    "peopleAlsoSearch": [],
    "placesTags": [],
    "reviewsTags": [],
    "additionalInfo": {
      "From the business": [
        {
          "Identifies as women-owned": true
        },
        {
          "Small business": true
        }
      ],
      "Service options": [
        {
          "Delivery": true
        },
        {
          "Same-day delivery": true
        }
      ],
      "Accessibility": [
        {
          "Wheelchair accessible entrance": true
        },
        {
          "Wheelchair accessible parking lot": true
        }
      ],
      "Crowd": [
        {
          "LGBTQ+ friendly": true
        }
      ],
      "Payments": [
        {
          "Checks": true
        },
        {
          "Debit cards": true
        },
        {
          "NFC mobile payments": true
        },
        {
          "Credit cards": true
        }
      ]
    },
    "gasPrices": [],
    "url": "https://www.google.com/maps/search/?api=1&query=Prestige%20Pharmacy&query_place_id=ChIJB-wycnrbJIgRTVR6Gv2vnig",
    "searchPageUrl": "https://www.google.com/maps/search/independent%20pharmacy%20Sterling%20Heights%20MI/@67.1273844227615,-157.71370691405576,9z?hl=en",
    "searchString": "independent pharmacy Sterling Heights MI",
    "language": "en",
    "rank": 19,
    "isAdvertisement": false,
    "imageUrl": "https://lh3.googleusercontent.com/p/AF1QipNFeVm_WxvwjLAkrek_jd-gMcs4EZyA9x463H0s=w426-h240-k-no",
    "kgmid": "/g/11g49p5hl5",
    "classification": "independent",
    "is_independent": true,
    "is_compounding": false,
    "confidence": 0.85,
    "source": "perplexity",
    "method": "llm"
  },
  {
    "title": "Henry Ford Pharmacy - Lakeside",
    "price": null,
    "categoryName": "Pharmacy",
    "address": "14500 Hall Rd, Sterling Heights, MI 48313",
    "neighborhood": null,
    "street": "14500 Hall Rd",
    "city": "Sterling Heights",
    "postalCode": "48313",
    "state": "Michigan",
    "countryCode": "US",
    "website": "https://www.henryford.com/locations/lakeside/pharmacy?utm_campaign=website-link&utm_medium=organic&utm_source=local-listing",
    "phone": "(586) 247-2990",
    "phoneUnformatted": "+15862472990",
    "claimThisBusiness": false,
    "location": {
      "lat": 42.6261949,
      "lng": -82.9811523
    },
    "totalScore": 4.6,
    "permanentlyClosed": false,
    "temporarilyClosed": false,
    "placeId": null,
    "categories": [
      "Pharmacy"
    ],
    "fid": "0x8824de6d96f1345f:0x8e770a2a8bc27d39",
    "cid": "10265685053464018233",
    "reviewsCount": 18,
    "imagesCount": 3,
    "imageCategories": [],
    "scrapedAt": "2025-06-22T05:48:33.573Z",
    "googleFoodUrl": null,
    "hotelAds": [],
    "openingHours": [
      {
        "day": "Monday",
        "hours": "7:30\u202fAM to 8\u202fPM"
      },
      {
        "day": "Tuesday",
        "hours": "7:30\u202fAM to 8\u202fPM"
      },
      {
        "day": "Wednesday",
        "hours": "7:30\u202fAM to 6\u202fPM"
      },
      {
        "day": "Thursday",
        "hours": "7:30\u202fAM to 5\u202fPM"
      },
      {
        "day": "Friday",
        "hours": "7:30\u202fAM to 5\u202fPM"
      },
      {
        "day": "Saturday",
        "hours": "Closed"
      },
      {
        "day": "Sunday",
        "hours": "Closed"
      }
    ],
    "peopleAlsoSearch": [],
    "placesTags": [],
    "reviewsTags": [],
    "additionalInfo": {
      "Service options": [
        {
          "Delivery": true
        },
        {
          "In-store pickup": true
        }
      ],
      "Accessibility": [
        {
          "Wheelchair accessible entrance": true
        },
        {
          "Wheelchair accessible parking lot": true
        },
        {
          "Wheelchair accessible restroom": true
        },
        {
          "Wheelchair accessible seating": true
        }
      ],
      "Crowd": [
        {
          "LGBTQ+ friendly": true
        },
        {
          "Transgender safespace": true
        }
      ],
      "Payments": [
        {
          "Debit cards": true
        },
        {
          "Credit cards": true
        }
      ]
    },
    "gasPrices": [],
    "url": "https://www.google.com/maps/search/?api=1&query=Henry%20Ford%20Pharmacy%20-%20Lakeside&query_place_id=ChIJXzTxlm3eJIgROX3CiyoKd44",
    "searchPageUrl": "https://www.google.com/maps/search/independent%20pharmacy%20Sterling%20Heights%20MI/@70.60118977126913,-155.41210894270387,9z?hl=en",
    "searchString": "independent pharmacy Sterling Heights MI",
    "language": "en",
    "rank": 18,
    "isAdvertisement": false,
    "imageUrl": "https://lh3.googleusercontent.com/p/AF1QipO7KO28DLqvViT0zD7OeY1dbF_Yot56EqUxwEHW=w426-h240-k-no",
    "kgmid": "/g/11c53qmmm4",
    "classification": "hospital",
    "is_independent": false,
    "is_compounding": false,
    "confidence": 0.98,
    "source": "perplexity",
    "method": "llm"
  }
]