[
  {
    "title": "Anderson's Discount Pharmacy",
    "price": null,
    "categoryName": "Pharmacy",
    "address": "700 Lexington Ave, Fort Smith, AR 72901",
    "neighborhood": null,
    "street": "700 Lexington Ave",
    "city": "Fort Smith",
    "postalCode": "72901",
    "state": "Arkansas",
    "countryCode": "US",
    "phone": "(479) 782-2881",
    "phoneUnformatted": "+14797822881",
    "claimThisBusiness": false,
    "location": {
      "lat": 35.3771101,
      "lng": -94.4180106
    },
    "totalScore": 3.4,
    "permanentlyClosed": false,
    "temporarilyClosed": false,
    "placeId": null,
    "categories": [
      "Pharmacy",
      "Drug store"
    ],
    "fid": "0x87ca4cbfdd05cefb:0xf0069dc12a9bac3f",
    "cid": "17295684871932062783",
    "reviewsCount": 244,
    "imagesCount": 8,
    "imageCategories": [],
    "scrapedAt": "2025-06-22T07:14:49.003Z",
    "googleFoodUrl": null,
    "hotelAds": [],
    "openingHours": [
      {
        "day": "Monday",
        "hours": "8\u202fAM to 10\u202fPM"
      },
      {
        "day": "Tuesday",
        "hours": "8\u202fAM to 10\u202fPM"
      },
      {
        "day": "Wednesday",
        "hours": "8\u202fAM to 10\u202fPM"
      },
      {
        "day": "Thursday",
        "hours": "8\u202fAM to 10\u202fPM"
      },
      {
        "day": "Friday",
        "hours": "8\u202fAM to 10\u202fPM"
      },
      {
        "day": "Saturday",
        "hours": "8\u202fAM to 10\u202fPM"
      },
      {
        "day": "Sunday",
        "hours": "8\u202fAM to 10\u202fPM"
      }
    ],
    "peopleAlsoSearch": [],
    "placesTags": [],
    "reviewsTags": [],
    "additionalInfo": {
      "Service options": [
        {
          "Curbside pickup": true
        },
        {
          "Delivery": true
        },
        {
          "Drive-through": true
        },
        {
          "In-store pickup": true
        },
        {
          "In-store shopping": true
        },
        {
          "Onsite services": true
        },
        {
          "Same-day delivery": true
        }
      ],
      "Accessibility": [
        {
          "Wheelchair accessible entrance": true
        },
        {
          "Wheelchair accessible parking lot": true
        }
      ],
      "Planning": [
        {
          "Quick visit": true
        }
      ],
      "Payments": [
        {
          "Checks": true
        },
        {
          "Credit cards": true
        },
        {
          "Debit cards": true
        },
        {
          "NFC mobile payments": true
        },
        {
          "Credit cards": true
        }
      ]
    },
    "gasPrices": [],
    "url": "https://www.google.com/maps/search/?api=1&query=Anderson's%20Discount%20Pharmacy&query_place_id=ChIJ-84F3b9MyocRP6ybKsGdBvA",
    "searchPageUrl": "https://www.google.com/maps/search/independent%20pharmacy%20Fort%20Smith%20AR/@27.61526808287915,-175.85750364999998,12z?hl=en",
    "searchString": "independent pharmacy Fort Smith AR",
    "language": "en",
    "rank": 1,
    "isAdvertisement": false,
    "imageUrl": "https://lh3.googleusercontent.com/gps-cs-s/AC9h4nr_FLozN0sRKt9-q4Zv2Pn8fnzS0xvNoUNccd_TJIkzFBbliE6mIjfje15bjRiCEVHwm2Ls0w-raps30BLOw5YSv8e2NN-jL9-ooVfuJSnqTMDfb_SMiSo4M1JVJwygKJOHcNDC=w426-h240-k-no",
    "kgmid": "/g/1tff_0kn",
    "classification": "independent",
    "is_independent": true,
    "is_compounding": false,
    "confidence": 0.85,
    "source": "perplexity",
    "method": "llm"
  },
  {
    "title": "Coleman Pharmacy",
    "price": null,
    "categoryName": "Pharmacy",
    "address": "3610 Grand Ave, Fort Smith, AR 72904",
    "neighborhood": null,
    "street": "3610 Grand Ave",
    "city": "Fort Smith",
    "postalCode": "72904",
    "state": "Arkansas",
    "countryCode": "US",
    "website": "https://www.butlerpharmacies.com/",
    "phone": "(479) 783-5171",
    "phoneUnformatted": "+14797835171",
    "claimThisBusiness": false,
    "location": {
      "lat": 35.3856144,
      "lng": -94.3926737
    },
    "totalScore": 4.7,
    "permanentlyClosed": false,
    "temporarilyClosed": false,
    "placeId": null,
    "categories": [
      "Pharmacy"
    ],
    "fid": "0x87cbb34e762d7ba5:0xd4251b667a89d8dc",
    "cid": "15286654637135485148",
    "reviewsCount": 135,
    "imagesCount": 2,
    "imageCategories": [],
    "scrapedAt": "2025-06-22T07:14:49.005Z",
    "googleFoodUrl": null,
    "hotelAds": [],
    "openingHours": [
      {
        "day": "Monday",
        "hours": "8:30\u202fAM to 6\u202fPM"
      },
      {
        "day": "Tuesday",
        "hours": "8:30\u202fAM to 6\u202fPM"
      },
      {
        "day": "Wednesday",
        "hours": "8:30\u202fAM to 6\u202fPM"
      },
      {
        "day": "Thursday",
        "hours": "8:30\u202fAM to 6\u202fPM"
      },
      {
        "day": "Friday",
        "hours": "8:30\u202fAM to 6\u202fPM"
      },
      {
        "day": "Saturday",
        "hours": "9\u202fAM to 1\u202fPM"
      },
      {
        "day": "Sunday",
        "hours": "Closed"
      }
    ],
    "peopleAlsoSearch": [],
    "placesTags": [],
    "reviewsTags": [],
    "additionalInfo": {
      "Service options": [
        {
          "Delivery": true
        },
        {
          "In-store pickup": true
        }
      ],
      "Accessibility": [
        {
          "Wheelchair accessible parking lot": true
        }
      ],
      "Planning": [
        {
          "Quick visit": true
        }
      ],
      "Payments": [
        {
          "Debit cards": true
        },
        {
          "NFC mobile payments": true
        },
        {
          "Credit cards": true
        }
      ]
    },
    "gasPrices": [],
    "url": "https://www.google.com/maps/search/?api=1&query=Coleman%20Pharmacy&query_place_id=ChIJpXstdk6zy4cR3NiJemYbJdQ",
    "searchPageUrl": "https://www.google.com/maps/search/independent%20pharmacy%20Fort%20Smith%20AR/@27.61526808287915,-175.85750364999998,12z?hl=en",
    "searchString": "independent pharmacy Fort Smith AR",
    "language": "en",
    "rank": 2,
    "isAdvertisement": false,
    "imageUrl": "https://lh3.googleusercontent.com/p/AF1QipOOCsjMAmajNmeQ_plMX9YQMK3Ye6FihSVdqPMi=w408-h306-k-no",
    "kgmid": "/g/1xgrnggy",
    "classification": "independent",
    "is_independent": true,
    "is_compounding": false,
    "confidence": 0.9,
    "source": "perplexity",
    "method": "llm"
  },
  {
    "title": "Harps Pharmacy",
    "price": null,
    "categoryName": "Pharmacy",
    "address": "2507 Market Trce, Fort Smith, AR 72908",
    "neighborhood": null,
    "street": "2507 Market Trce",
    "city": "Fort Smith",
    "postalCode": "72908",
    "state": "Arkansas",
    "countryCode": "US",
    "website": "http://www.harpsfood.com/",
    "phone": "(479) 646-5505",
    "phoneUnformatted": "+14796465505",
    "claimThisBusiness": false,
    "location": {
      "lat": 35.3020269,
      "lng": -94.4085141
    },
    "totalScore": 4.8,
    "permanentlyClosed": false,
    "temporarilyClosed": false,
    "placeId": null,
    "categories": [
      "Pharmacy",
      "Grocery store",
      "Supermarket"
    ],
    "fid": "0x87ca52a56d3996cb:0xad930bb023fea7d9",
    "cid": "12507353441284040665",
    "reviewsCount": 19,
    "imagesCount": 1,
    "imageCategories": [],
    "scrapedAt": "2025-06-22T07:15:27.040Z",
    "googleFoodUrl": null,
    "hotelAds": [],
    "openingHours": [
      {
        "day": "Monday",
        "hours": "9\u202fAM to 7\u202fPM"
      },
      {
        "day": "Tuesday",
        "hours": "9\u202fAM to 7\u202fPM"
      },
      {
        "day": "Wednesday",
        "hours": "9\u202fAM to 7\u202fPM"
      },
      {
        "day": "Thursday",
        "hours": "9\u202fAM to 7\u202fPM"
      },
      {
        "day": "Friday",
        "hours": "9\u202fAM to 7\u202fPM"
      },
      {
        "day": "Saturday",
        "hours": "9\u202fAM to 2\u202fPM"
      },
      {
        "day": "Sunday",
        "hours": "Closed"
      }
    ],
    "peopleAlsoSearch": [],
    "placesTags": [],
    "reviewsTags": [],
    "additionalInfo": {
      "Service options": [
        {
          "Drive-through": true
        },
        {
          "In-store pickup": true
        }
      ],
      "Accessibility": [
        {
          "Wheelchair accessible entrance": true
        },
        {
          "Wheelchair accessible parking lot": true
        }
      ],
      "Planning": [
        {
          "Quick visit": true
        }
      ],
      "Payments": [
        {
          "Credit cards": true
        }
      ]
    },
    "gasPrices": [],
    "url": "https://www.google.com/maps/search/?api=1&query=Harps%20Pharmacy&query_place_id=ChIJy5Y5baVSyocR2af-I7ALk60",
    "searchPageUrl": "https://www.google.com/maps/search/independent%20pharmacy%20Fort%20Smith%20AR/@62.99917890220563,-169.47971104960186,11z?hl=en",
    "searchString": "independent pharmacy Fort Smith AR",
    "language": "en",
    "rank": 2,
    "isAdvertisement": false,
    "imageUrl": "https://streetviewpixels-pa.googleapis.com/v1/thumbnail?panoid=CtvgvUoxpmyYKeeh643s6w&cb_client=search.gws-prod.gps&w=408&h=240&yaw=319.4018&pitch=0&thumbfov=100",
    "kgmid": "/g/11b6hyv_ff",
    "classification": "chain",
    "is_independent": false,
    "is_compounding": false,
    "confidence": 0.9,
    "source": "perplexity",
    "method": "llm"
  },
  {
    "title": "National Family Pharmacy",
    "price": null,
    "categoryName": "Pharmacy",
    "address": "1615 Dodson Ave, Fort Smith, AR 72901",
    "neighborhood": null,
    "street": "1615 Dodson Ave",
    "city": "Fort Smith",
    "postalCode": "72901",
    "state": "Arkansas",
    "countryCode": "US",
    "website": "https://www.mygnp.com/pharmacies/national-family-pharmacy-fort-smith-ar-72901/?utm_source=google&utm_medium=local&utm_campaign=localmaps&utm_content=402963",
    "phone": "(479) 783-6135",
    "phoneUnformatted": "+14797836135",
    "claimThisBusiness": false,
    "location": {
      "lat": 35.3726406,
      "lng": -94.4158645
    },
    "totalScore": 4.2,
    "permanentlyClosed": false,
    "temporarilyClosed": false,
    "placeId": null,
    "categories": [
      "Pharmacy",
      "Drug store"
    ],
    "fid": "0x87ca4cc1a91c37ab:0x28f39d3c713ea0e1",
    "cid": "2950875063781335265",
    "reviewsCount": 118,
    "imagesCount": 3,
    "imageCategories": [],
    "scrapedAt": "2025-06-22T07:15:27.040Z",
    "googleFoodUrl": null,
    "hotelAds": [],
    "openingHours": [
      {
        "day": "Monday",
        "hours": "9\u202fAM to 8\u202fPM"
      },
      {
        "day": "Tuesday",
        "hours": "9\u202fAM to 8\u202fPM"
      },
      {
        "day": "Wednesday",
        "hours": "9\u202fAM to 8\u202fPM"
      },
      {
        "day": "Thursday",
        "hours": "9\u202fAM to 8\u202fPM"
      },
      {
        "day": "Friday",
        "hours": "9\u202fAM to 8\u202fPM"
      },
      {
        "day": "Saturday",
        "hours": "9\u202fAM to 6\u202fPM"
      },
      {
        "day": "Sunday",
        "hours": "12 to 6\u202fPM"
      }
    ],
    "peopleAlsoSearch": [],
    "placesTags": [],
    "reviewsTags": [],
    "additionalInfo": {
      "Service options": [
        {
          "Curbside pickup": true
        },
        {
          "Delivery": true
        },
        {
          "Drive-through": true
        },
        {
          "In-store pickup": true
        },
        {
          "In-store shopping": true
        },
        {
          "Same-day delivery": true
        }
      ],
      "Accessibility": [
        {
          "Wheelchair accessible entrance": true
        },
        {
          "Wheelchair accessible parking lot": true
        }
      ],
      "Planning": [
        {
          "Quick visit": true
        }
      ],
      "Payments": [
        {
          "Credit cards": true
        },
        {
          "Debit cards": true
        },
        {
          "NFC mobile payments": true
        },
        {
          "Credit cards": true
        }
      ]
    },
    "gasPrices": [],
    "url": "https://www.google.com/maps/search/?api=1&query=National%20Family%20Pharmacy&query_place_id=ChIJqzccqcFMyocR4aA-cTyd8yg",
    "searchPageUrl": "https://www.google.com/maps/search/independent%20pharmacy%20Fort%20Smith%20AR/@62.99917890220563,-169.47971104960186,11z?hl=en",
    "searchString": "independent pharmacy Fort Smith AR",
    "language": "en",
    "rank": 3,
    "isAdvertisement": false,
    "imageUrl": "https://lh3.googleusercontent.com/gps-cs-s/AC9h4np8uXznVBsxgoP1-xVT9SQqKlaPrz6mO0hZMHBULIOWTffZitYjWcObIwmpu0lQDG-kH91m2tQ7d5JCjIyp6bZNG0CpwUddrSGDBFEKmz5w5OettsgPnVd_sW9b3z16Tj2t24I=w426-h240-k-no",
    "kgmid": "/g/1tdm8vw7",
    "classification": "independent",
    "is_independent": true,
    "is_compounding": false,
    "confidence": 0.9,
    "source": "perplexity",
    "method": "llm"
  },
  {
    "title": "TruCare Pharmacy",
    "price": null,
    "categoryName": "Pharmacy",
    "address": "7206 US-271, Fort Smith, AR 72908",
    "neighborhood": null,
    "street": "7206 US-271",
    "city": "Fort Smith",
    "postalCode": "72908",
    "state": "Arkansas",
    "countryCode": "US",
    "website": "https://www.trucarepharmacy.com/",
    "phone": "(479) 922-2253",
    "phoneUnformatted": "+14799222253",
    "claimThisBusiness": false,
    "location": {
      "lat": 35.3155941,
      "lng": -94.4236074
    },
    "totalScore": 4.3,
    "permanentlyClosed": false,
    "temporarilyClosed": false,
    "placeId": null,
    "categories": [
      "Pharmacy",
      "Drug store"
    ],
    "fid": "0x87cbb4565256ba4f:0xaf14d38732cee876",
    "cid": "12615941033798068342",
    "reviewsCount": 3,
    "imagesCount": 1,
    "imageCategories": [],
    "scrapedAt": "2025-06-22T07:15:27.041Z",
    "googleFoodUrl": null,
    "hotelAds": [],
    "openingHours": [
      {
        "day": "Monday",
        "hours": "8\u202fAM to 6\u202fPM"
      },
      {
        "day": "Tuesday",
        "hours": "8\u202fAM to 6\u202fPM"
      },
      {
        "day": "Wednesday",
        "hours": "8\u202fAM to 6\u202fPM"
      },
      {
        "day": "Thursday",
        "hours": "8\u202fAM to 6\u202fPM"
      },
      {
        "day": "Friday",
        "hours": "8\u202fAM to 6\u202fPM"
      },
      {
        "day": "Saturday",
        "hours": "9\u202fAM to 5\u202fPM"
      },
      {
        "day": "Sunday",
        "hours": "Closed"
      }
    ],
    "peopleAlsoSearch": [],
    "placesTags": [],
    "reviewsTags": [],
    "additionalInfo": {
      "Accessibility": [
        {
          "Wheelchair accessible entrance": true
        },
        {
          "Wheelchair accessible parking lot": true
        }
      ],
      "Payments": [
        {
          "Checks": true
        },
        {
          "Credit cards": true
        },
        {
          "Debit cards": true
        },
        {
          "Credit cards": true
        }
      ]
    },
    "gasPrices": [],
    "url": "https://www.google.com/maps/search/?api=1&query=TruCare%20Pharmacy&query_place_id=ChIJT7pWUla0y4cRdujOMofTFK8",
    "searchPageUrl": "https://www.google.com/maps/search/independent%20pharmacy%20Fort%20Smith%20AR/@62.99917890220563,-169.47971104960186,11z?hl=en",
    "searchString": "independent pharmacy Fort Smith AR",
    "language": "en",
    "rank": 4,
    "isAdvertisement": false,
    "imageUrl": "https://streetviewpixels-pa.googleapis.com/v1/thumbnail?panoid=6GbEi-1QyOMYiVTtq3x5eA&cb_client=search.gws-prod.gps&w=408&h=240&yaw=260.82693&pitch=0&thumbfov=100",
    "kgmid": "/g/11bvt3wz6n",
    "classification": "independent",
    "is_independent": true,
    "is_compounding": false,
    "confidence": 0.9,
    "source": "perplexity",
    "method": "llm"
  },
  {
    "title": "Pharmacy Specialties Group ( PSG Pharmacy )",
    "price": null,
    "categoryName": "Pharmacy",
    "address": "12110 US-71, Fort Smith, AR 72916",
    "neighborhood": null,
    "street": "12110 US-71",
    "city": "Fort Smith",
    "postalCode": "72916",
    "state": "Arkansas",
    "countryCode": "US",
    "website": "https://psgrx.net/",
    "phone": "(479) 648-0000",
    "phoneUnformatted": "+14796480000",
    "claimThisBusiness": false,
    "location": {
      "lat": 35.2693541,
      "lng": -94.3702052
    },
    "totalScore": 4.1,
    "permanentlyClosed": false,
    "temporarilyClosed": false,
    "placeId": null,
    "categories": [
      "Pharmacy"
    ],
    "fid": "0x87cbad1da162301b:0x1c13b3411addda05",
    "cid": "2023157749824477701",
    "reviewsCount": 35,
    "imagesCount": 14,
    "imageCategories": [],
    "scrapedAt": "2025-06-22T07:15:27.041Z",
    "googleFoodUrl": null,
    "hotelAds": [],
    "openingHours": [
      {
        "day": "Monday",
        "hours": "9:30\u202fAM to 1:45\u202fPM, 3:15 to 6\u202fPM"
      },
      {
        "day": "Tuesday",
        "hours": "9:30\u202fAM to 1:45\u202fPM, 3:15 to 6\u202fPM"
      },
      {
        "day": "Wednesday",
        "hours": "9:30\u202fAM to 1:45\u202fPM, 3:15 to 6\u202fPM"
      },
      {
        "day": "Thursday",
        "hours": "9:30\u202fAM to 1:45\u202fPM, 3:15 to 6\u202fPM"
      },
      {
        "day": "Friday",
        "hours": "9:30\u202fAM to 1:45\u202fPM, 3:15 to 6\u202fPM"
      },
      {
        "day": "Saturday",
        "hours": "10:30\u202fAM to 1\u202fPM"
      },
      {
        "day": "Sunday",
        "hours": "Closed"
      }
    ],
    "peopleAlsoSearch": [],
    "placesTags": [],
    "reviewsTags": [],
    "additionalInfo": {
      "From the business": [
        {
          "Small business": true
        }
      ],
      "Service options": [
        {
          "Delivery": true
        },
        {
          "Drive-through": true
        },
        {
          "In-store pickup": true
        },
        {
          "In-store shopping": true
        },
        {
          "Same-day delivery": true
        }
      ],
      "Accessibility": [
        {
          "Wheelchair accessible entrance": true
        },
        {
          "Wheelchair accessible parking lot": true
        }
      ],
      "Planning": [
        {
          "Quick visit": true
        }
      ],
      "Payments": [
        {
          "Credit cards": true
        },
        {
          "Debit cards": true
        },
        {
          "NFC mobile payments": true
        },
        {
          "Credit cards": true
        }
      ]
    },
    "gasPrices": [],
    "url": "https://www.google.com/maps/search/?api=1&query=Pharmacy%20Specialties%20Group%20(%20PSG%20Pharmacy%20)&query_place_id=ChIJGzBioR2ty4cRBdrdGkGzExw",
    "searchPageUrl": "https://www.google.com/maps/search/independent%20pharmacy%20Fort%20Smith%20AR/@62.99917890220563,-169.47971104960186,11z?hl=en",
    "searchString": "independent pharmacy Fort Smith AR",
    "language": "en",
    "rank": 5,
    "isAdvertisement": false,
    "imageUrl": "https://lh3.googleusercontent.com/p/AF1QipN1h2bvK3C9A-snCFQD72QPgcgWtL-YJESEZuQ_=w426-h240-k-no",
    "kgmid": "/g/1q67r9xxj",
    "classification": "independent",
    "is_independent": true,
    "is_compounding": false,
    "confidence": 0.85,
    "source": "perplexity",
    "method": "llm"
  },
  {
    "title": "Walgreens Pharmacy",
    "description": "Department of the Walgreens chain providing prescription medications & other health-related items.",
    "price": "$$",
    "categoryName": "Pharmacy",
    "address": "1925 S Zero St, Fort Smith, AR 72901",
    "neighborhood": null,
    "street": "1925 S Zero St",
    "city": "Fort Smith",
    "postalCode": "72901",
    "state": "Arkansas",
    "countryCode": "US",
    "website": "https://www.walgreens.com/locator/walgreens-1925+s+zero+st-fort+smith-ar-72901/id=9594",
    "phone": "(479) 646-5208",
    "phoneUnformatted": "+14796465208",
    "claimThisBusiness": false,
    "location": {
      "lat": 35.3284682,
      "lng": -94.4148088
    },
    "totalScore": 3,
    "permanentlyClosed": false,
    "temporarilyClosed": false,
    "placeId": "ChIJn-4_SkFNyocRAtZ3jHbgtBk",
    "categories": [
      "Pharmacy"
    ],
    "fid": "0x87ca4d414a3fee9f:0x19b4e0768c77d602",
    "cid": "1852352146523543042",
    "reviewsCount": 22,
    "imagesCount": 15,
    "imageCategories": [],
    "scrapedAt": "2025-06-22T07:15:27.041Z",
    "googleFoodUrl": null,
    "hotelAds": [],
    "openingHours": [
      {
        "day": "Monday",
        "hours": "9\u202fAM to 1:30\u202fPM, 2 to 7\u202fPM"
      },
      {
        "day": "Tuesday",
        "hours": "9\u202fAM to 1:30\u202fPM, 2 to 7\u202fPM"
      },
      {
        "day": "Wednesday",
        "hours": "9\u202fAM to 1:30\u202fPM, 2 to 7\u202fPM"
      },
      {
        "day": "Thursday",
        "hours": "9\u202fAM to 1:30\u202fPM, 2 to 7\u202fPM"
      },
      {
        "day": "Friday",
        "hours": "9\u202fAM to 1:30\u202fPM, 2 to 7\u202fPM"
      },
      {
        "day": "Saturday",
        "hours": "Closed"
      },
      {
        "day": "Sunday",
        "hours": "Closed"
      }
    ],
    "additionalOpeningHours": {
      "Drive through": [
        {
          "day": "Monday",
          "hours": "9\u202fAM\u20131:30\u202fPM"
        },
        {
          "day": "Tuesday",
          "hours": "9\u202fAM\u20131:30\u202fPM"
        },
        {
          "day": "Wednesday",
          "hours": "9\u202fAM\u20131:30\u202fPM"
        },
        {
          "day": "Thursday",
          "hours": "9\u202fAM\u20131:30\u202fPM"
        },
        {
          "day": "Friday",
          "hours": "9\u202fAM\u20131:30\u202fPM"
        },
        {
          "day": "Saturday",
          "hours": "Closed"
        },
        {
          "day": "Sunday",
          "hours": "Closed"
        }
      ]
    },
    "peopleAlsoSearch": [],
    "placesTags": [],
    "reviewsTags": [],
    "additionalInfo": {
      "Service options": [
        {
          "Drive-through": true
        },
        {
          "In-store pickup": true
        }
      ],
      "Accessibility": [
        {
          "Wheelchair accessible entrance": true
        },
        {
          "Wheelchair accessible parking lot": true
        }
      ],
      "Offerings": [
        {
          "Naloxone": true
        }
      ],
      "Planning": [
        {
          "Quick visit": true
        }
      ],
      "Payments": [
        {
          "Checks": true
        },
        {
          "Credit cards": true
        },
        {
          "Debit cards": true
        }
      ]
    },
    "gasPrices": [],
    "url": "https://www.google.com/maps/search/?api=1&query=Walgreens%20Pharmacy&query_place_id=ChIJn-4_SkFNyocRAtZ3jHbgtBk",
    "searchPageUrl": "https://www.google.com/maps/search/independent%20pharmacy%20Fort%20Smith%20AR/@62.99917890220563,-169.47971104960186,11z?hl=en",
    "searchString": "independent pharmacy Fort Smith AR",
    "language": "en",
    "rank": 6,
    "isAdvertisement": false,
    "imageUrl": "https://lh3.googleusercontent.com/gps-cs-s/AC9h4nqPIWmce7ujLxXQ8O2PxniMRrpQ-Dz3xFPjzqg4LfGSzObuq97ZgNcPnOKNdQnraDsTILrYGBOOOZFnKIbaJxxCWjbkiyv5J9aGNiRplJrKUowl-MkncqA-WDiHujK3hifft4g=w534-h240-k-no",
    "kgmid": "/g/11cn96g150",
    "classification": "chain",
    "is_independent": false,
    "confidence": 1.0,
    "source": "rule-based"
  },
  {
    "title": "MediSav Homecare Pharmacy",
    "price": null,
    "categoryName": "Pharmacy",
    "address": "1910 S Zero St A, Fort Smith, AR 72901",
    "neighborhood": null,
    "street": "1910 S Zero St A",
    "city": "Fort Smith",
    "postalCode": "72901",
    "state": "Arkansas",
    "countryCode": "US",
    "website": "http://medisav.com/",
    "phone": "(479) 646-2971",
    "phoneUnformatted": "+14796462971",
    "claimThisBusiness": false,
    "location": {
      "lat": 35.3275433,
      "lng": -94.4159379
    },
    "totalScore": 4.4,
    "permanentlyClosed": false,
    "temporarilyClosed": false,
    "placeId": null,
    "categories": [
      "Pharmacy",
      "Drug store"
    ],
    "fid": "0x87ca4d4150445adb:0x1dc2a238280929a5",
    "cid": "2144454734655334821",
    "reviewsCount": 27,
    "imagesCount": 10,
    "imageCategories": [],
    "scrapedAt": "2025-06-22T07:15:27.041Z",
    "googleFoodUrl": null,
    "hotelAds": [],
    "openingHours": [
      {
        "day": "Monday",
        "hours": "9\u202fAM to 6\u202fPM"
      },
      {
        "day": "Tuesday",
        "hours": "9\u202fAM to 6\u202fPM"
      },
      {
        "day": "Wednesday",
        "hours": "9\u202fAM to 6\u202fPM"
      },
      {
        "day": "Thursday",
        "hours": "9\u202fAM to 6\u202fPM"
      },
      {
        "day": "Friday",
        "hours": "9\u202fAM to 6\u202fPM"
      },
      {
        "day": "Saturday",
        "hours": "9\u202fAM to 12\u202fPM"
      },
      {
        "day": "Sunday",
        "hours": "Closed"
      }
    ],
    "peopleAlsoSearch": [],
    "placesTags": [],
    "reviewsTags": [],
    "additionalInfo": {
      "Service options": [
        {
          "Curbside pickup": true
        },
        {
          "Delivery": true
        },
        {
          "Drive-through": true
        },
        {
          "In-store pickup": true
        },
        {
          "In-store shopping": true
        },
        {
          "Same-day delivery": true
        }
      ],
      "Accessibility": [
        {
          "Wheelchair accessible entrance": true
        },
        {
          "Wheelchair accessible parking lot": true
        }
      ],
      "Planning": [
        {
          "Quick visit": true
        }
      ],
      "Payments": [
        {
          "Checks": true
        },
        {
          "Credit cards": true
        },
        {
          "Debit cards": true
        },
        {
          "NFC mobile payments": true
        },
        {
          "Credit cards": true
        }
      ]
    },
    "gasPrices": [],
    "url": "https://www.google.com/maps/search/?api=1&query=MediSav%20Homecare%20Pharmacy&query_place_id=ChIJ21pEUEFNyocRpSkJKDiiwh0",
    "searchPageUrl": "https://www.google.com/maps/search/independent%20pharmacy%20Fort%20Smith%20AR/@62.99917890220563,-169.47971104960186,11z?hl=en",
    "searchString": "independent pharmacy Fort Smith AR",
    "language": "en",
    "rank": 7,
    "isAdvertisement": false,
    "imageUrl": "https://lh3.googleusercontent.com/p/AF1QipPq3MfIKarSR53-QPdTbhYFevIMcfDmav2HXU68=w408-h306-k-no",
    "kgmid": "/g/1tgdtnyp",
    "classification": "independent",
    "is_independent": true,
    "is_compounding": false,
    "confidence": 0.85,
    "source": "perplexity",
    "method": "llm"
  },
  {
    "title": "MediSav Homecare Pharmacy",
    "price": null,
    "categoryName": "Pharmacy",
    "address": "8820 Rogers Ave, Fort Smith, AR 72903",
    "neighborhood": null,
    "street": "8820 Rogers Ave",
    "city": "Fort Smith",
    "postalCode": "72903",
    "state": "Arkansas",
    "countryCode": "US",
    "website": "http://www.medisav.com/",
    "phone": "(479) 452-0278",
    "phoneUnformatted": "+14794520278",
    "claimThisBusiness": false,
    "location": {
      "lat": 35.345502,
      "lng": -94.334833
    },
    "totalScore": 4.4,
    "permanentlyClosed": false,
    "temporarilyClosed": false,
    "placeId": null,
    "categories": [
      "Pharmacy",
      "Drug store"
    ],
    "fid": "0x87cbb23818bf9585:0x507428514015075d",
    "cid": "5797302949765252957",
    "reviewsCount": 94,
    "imagesCount": 3,
    "imageCategories": [],
    "scrapedAt": "2025-06-22T07:15:27.041Z",
    "googleFoodUrl": null,
    "hotelAds": [],
    "openingHours": [
      {
        "day": "Monday",
        "hours": "9\u202fAM to 7\u202fPM"
      },
      {
        "day": "Tuesday",
        "hours": "9\u202fAM to 7\u202fPM"
      },
      {
        "day": "Wednesday",
        "hours": "9\u202fAM to 7\u202fPM"
      },
      {
        "day": "Thursday",
        "hours": "9\u202fAM to 7\u202fPM"
      },
      {
        "day": "Friday",
        "hours": "9\u202fAM to 7\u202fPM"
      },
      {
        "day": "Saturday",
        "hours": "9\u202fAM to 5\u202fPM"
      },
      {
        "day": "Sunday",
        "hours": "1 to 5\u202fPM"
      }
    ],
    "peopleAlsoSearch": [],
    "placesTags": [],
    "reviewsTags": [],
    "additionalInfo": {
      "Service options": [
        {
          "Curbside pickup": true
        },
        {
          "Delivery": true
        },
        {
          "Drive-through": true
        },
        {
          "In-store pickup": true
        },
        {
          "In-store shopping": true
        },
        {
          "Same-day delivery": true
        }
      ],
      "Accessibility": [
        {
          "Wheelchair accessible entrance": true
        },
        {
          "Wheelchair accessible parking lot": true
        }
      ],
      "Planning": [
        {
          "Quick visit": true
        }
      ],
      "Payments": [
        {
          "Checks": true
        },
        {
          "Credit cards": true
        },
        {
          "Debit cards": true
        },
        {
          "NFC mobile payments": true
        },
        {
          "Credit cards": true
        }
      ]
    },
    "gasPrices": [],
    "url": "https://www.google.com/maps/search/?api=1&query=MediSav%20Homecare%20Pharmacy&query_place_id=ChIJhZW_GDiyy4cRXQcVQFEodFA",
    "searchPageUrl": "https://www.google.com/maps/search/independent%20pharmacy%20Fort%20Smith%20AR/@62.99917890220563,-169.47971104960186,11z?hl=en",
    "searchString": "independent pharmacy Fort Smith AR",
    "language": "en",
    "rank": 8,
    "isAdvertisement": false,
    "imageUrl": "https://lh3.googleusercontent.com/p/AF1QipOebdMvHQ2IPLAYpqrg5l1_NK3g78xcEDO06N7e=w426-h240-k-no",
    "kgmid": "/g/1tdlhv17",
    "classification": "independent",
    "is_independent": true,
    "is_compounding": false,
    "confidence": 0.85,
    "source": "perplexity",
    "method": "llm"
  },
  {
    "title": "Vaughn Prescription Drug Store",
    "price": null,
    "categoryName": "Pharmacy",
    "address": "507 Lexington Ave, Fort Smith, AR 72901",
    "neighborhood": null,
    "street": "507 Lexington Ave",
    "city": "Fort Smith",
    "postalCode": "72901",
    "state": "Arkansas",
    "countryCode": "US",
    "phone": "(479) 782-8200",
    "phoneUnformatted": "+14797828200",
    "claimThisBusiness": false,
    "location": {
      "lat": 35.3835086,
      "lng": -94.4158942
    },
    "totalScore": 4.8,
    "permanentlyClosed": false,
    "temporarilyClosed": false,
    "placeId": "ChIJgb37L75MyocRjFxaZgJckzY",
    "categories": [
      "Pharmacy"
    ],
    "fid": "0x87ca4cbe2ffbbd81:0x36935c02665a5c8c",
    "cid": "3932588065001462924",
    "reviewsCount": 16,
    "imagesCount": 16,
    "imageCategories": [],
    "scrapedAt": "2025-06-22T07:15:27.041Z",
    "googleFoodUrl": null,
    "hotelAds": [],
    "openingHours": [
      {
        "day": "Monday",
        "hours": "9\u202fAM to 5\u202fPM"
      },
      {
        "day": "Tuesday",
        "hours": "9\u202fAM to 5\u202fPM"
      },
      {
        "day": "Wednesday",
        "hours": "9\u202fAM to 5\u202fPM"
      },
      {
        "day": "Thursday",
        "hours": "9\u202fAM to 5\u202fPM"
      },
      {
        "day": "Friday",
        "hours": "9\u202fAM to 5\u202fPM"
      },
      {
        "day": "Saturday",
        "hours": "Closed"
      },
      {
        "day": "Sunday",
        "hours": "Closed"
      }
    ],
    "additionalOpeningHours": {
      "Drive through": [
        {
          "day": "Monday",
          "hours": "9\u202fAM\u20135\u202fPM"
        },
        {
          "day": "Tuesday",
          "hours": "9\u202fAM\u20135\u202fPM"
        },
        {
          "day": "Wednesday",
          "hours": "9\u202fAM\u20135\u202fPM"
        },
        {
          "day": "Thursday",
          "hours": "9\u202fAM\u20135\u202fPM"
        },
        {
          "day": "Friday",
          "hours": "9\u202fAM\u20135\u202fPM"
        },
        {
          "day": "Saturday",
          "hours": "Closed"
        },
        {
          "day": "Sunday",
          "hours": "Closed"
        }
      ],
      "Delivery": [
        {
          "day": "Monday",
          "hours": "12\u20135\u202fPM"
        },
        {
          "day": "Tuesday",
          "hours": "12\u20135\u202fPM"
        },
        {
          "day": "Wednesday",
          "hours": "12\u20135\u202fPM"
        },
        {
          "day": "Thursday",
          "hours": "12\u20135\u202fPM"
        },
        {
          "day": "Friday",
          "hours": "12\u20135\u202fPM"
        },
        {
          "day": "Saturday",
          "hours": "Closed"
        },
        {
          "day": "Sunday",
          "hours": "Closed"
        }
      ],
      "Pickup": [
        {
          "day": "Monday",
          "hours": "9\u202fAM\u20135\u202fPM"
        },
        {
          "day": "Tuesday",
          "hours": "9\u202fAM\u20135\u202fPM"
        },
        {
          "day": "Wednesday",
          "hours": "9\u202fAM\u20135\u202fPM"
        },
        {
          "day": "Thursday",
          "hours": "9\u202fAM\u20135\u202fPM"
        },
        {
          "day": "Friday",
          "hours": "9\u202fAM\u20135\u202fPM"
        },
        {
          "day": "Saturday",
          "hours": "Closed"
        },
        {
          "day": "Sunday",
          "hours": "Closed"
        }
      ],
      "Senior hours": [
        {
          "day": "Monday",
          "hours": "9\u202fAM\u20135\u202fPM"
        },
        {
          "day": "Tuesday",
          "hours": "9\u202fAM\u20135\u202fPM"
        },
        {
          "day": "Wednesday",
          "hours": "9\u202fAM\u20135\u202fPM"
        },
        {
          "day": "Thursday",
          "hours": "9\u202fAM\u20135\u202fPM"
        },
        {
          "day": "Friday",
          "hours": "9\u202fAM\u20135\u202fPM"
        },
        {
          "day": "Saturday",
          "hours": "Closed"
        },
        {
          "day": "Sunday",
          "hours": "Closed"
        }
      ]
    },
    "peopleAlsoSearch": [],
    "placesTags": [],
    "reviewsTags": [],
    "additionalInfo": {
      "From the business": [
        {
          "Identifies as women-owned": true
        },
        {
          "Small business": true
        }
      ],
      "Service options": [
        {
          "Curbside pickup": true
        },
        {
          "Delivery": true
        },
        {
          "Drive-through": true
        },
        {
          "In-store shopping": true
        },
        {
          "Onsite services": true
        },
        {
          "Same-day delivery": true
        },
        {
          "Arabic": true
        }
      ],
      "Accessibility": [
        {
          "Wheelchair accessible entrance": true
        },
        {
          "Wheelchair accessible parking lot": true
        },
        {
          "Wheelchair accessible seating": true
        },
        {
          "Wheelchair accessible restroom": false
        }
      ],
      "Crowd": [
        {
          "LGBTQ+ friendly": true
        },
        {
          "Transgender safespace": true
        }
      ],
      "Planning": [
        {
          "Quick visit": true
        }
      ],
      "Recycling": [
        {
          "Electronics": true
        }
      ],
      "Payments": [
        {
          "Checks": true
        },
        {
          "Credit cards": true
        },
        {
          "Debit cards": true
        },
        {
          "NFC mobile payments": true
        },
        {
          "Credit cards": true
        }
      ]
    },
    "gasPrices": [],
    "url": "https://www.google.com/maps/search/?api=1&query=Vaughn%20Prescription%20Drug%20Store&query_place_id=ChIJgb37L75MyocRjFxaZgJckzY",
    "searchPageUrl": "https://www.google.com/maps/search/independent%20pharmacy%20Fort%20Smith%20AR/@62.99917890220563,-169.47971104960186,11z?hl=en",
    "searchString": "independent pharmacy Fort Smith AR",
    "language": "en",
    "rank": 9,
    "isAdvertisement": false,
    "imageUrl": "https://lh3.googleusercontent.com/p/AF1QipO6iwLWRE7RARZaoSU9fR4zMZWhXY76Mg5I2Zxl=w426-h240-k-no",
    "kgmid": "/g/1v3dsnjv",
    "classification": "hospital",
    "is_independent": false,
    "confidence": 1.0,
    "source": "rule-based"
  },
  {
    "title": "CVS Pharmacy",
    "description": "Drugstore chain selling a variety of beauty & health products, plus some grocery & household items.",
    "price": null,
    "categoryName": "Pharmacy",
    "address": "4001 Phoenix Ave, Fort Smith, AR 72903",
    "neighborhood": null,
    "street": "4001 Phoenix Ave",
    "city": "Fort Smith",
    "postalCode": "72903",
    "state": "Arkansas",
    "countryCode": "US",
    "website": "https://www.cvs.com/store-locator/fort-smith-ar-pharmacies/4001-phoenix-ave-fort-smith-ar-72903/storeid=17357?WT.mc_id=LS_GOOGLE_RX_17357",
    "phone": "(479) 709-8941",
    "phoneUnformatted": "+14797098941",
    "claimThisBusiness": false,
    "location": {
      "lat": 35.3414469,
      "lng": -94.3875127
    },
    "totalScore": 2.4,
    "permanentlyClosed": false,
    "temporarilyClosed": false,
    "placeId": "ChIJAUed0siyy4cRhcus4rT1gZk",
    "categories": [
      "Pharmacy"
    ],
    "fid": "0x87cbb2c8d29d4701:0x9981f5b4e2accb85",
    "cid": "11061392317044542341",
    "reviewsCount": 77,
    "imagesCount": 6,
    "imageCategories": [],
    "scrapedAt": "2025-06-22T07:15:27.041Z",
    "googleFoodUrl": null,
    "hotelAds": [],
    "openingHours": [
      {
        "day": "Monday",
        "hours": "9\u202fAM to 1:30\u202fPM, 2 to 7\u202fPM"
      },
      {
        "day": "Tuesday",
        "hours": "9\u202fAM to 1:30\u202fPM, 2 to 7\u202fPM"
      },
      {
        "day": "Wednesday",
        "hours": "9\u202fAM to 1:30\u202fPM, 2 to 7\u202fPM"
      },
      {
        "day": "Thursday",
        "hours": "9\u202fAM to 1:30\u202fPM, 2 to 7\u202fPM"
      },
      {
        "day": "Friday",
        "hours": "9\u202fAM to 1:30\u202fPM, 2 to 7\u202fPM"
      },
      {
        "day": "Saturday",
        "hours": "9\u202fAM to 1:30\u202fPM, 2 to 5\u202fPM"
      },
      {
        "day": "Sunday",
        "hours": "11\u202fAM to 1:30\u202fPM, 2 to 5\u202fPM"
      }
    ],
    "peopleAlsoSearch": [],
    "placesTags": [],
    "reviewsTags": [],
    "additionalInfo": {
      "Service options": [
        {
          "Delivery": true
        },
        {
          "In-store shopping": true
        },
        {
          "Onsite services": true
        }
      ],
      "Accessibility": [
        {
          "Wheelchair accessible entrance": true
        },
        {
          "Wheelchair accessible parking lot": true
        }
      ],
      "Offerings": [
        {
          "Naloxone": true
        }
      ],
      "Amenities": [
        {
          "Wi-Fi": true
        }
      ],
      "Crowd": [
        {
          "LGBTQ+ friendly": true
        },
        {
          "Transgender safespace": true
        }
      ],
      "Planning": [
        {
          "Quick visit": true
        }
      ],
      "Payments": [
        {
          "Credit cards": true
        },
        {
          "Debit cards": true
        },
        {
          "Credit cards": true
        }
      ]
    },
    "gasPrices": [],
    "url": "https://www.google.com/maps/search/?api=1&query=CVS%20Pharmacy&query_place_id=ChIJAUed0siyy4cRhcus4rT1gZk",
    "searchPageUrl": "https://www.google.com/maps/search/independent%20pharmacy%20Fort%20Smith%20AR/@62.99917890220563,-169.47971104960186,11z?hl=en",
    "searchString": "independent pharmacy Fort Smith AR",
    "language": "en",
    "rank": 10,
    "isAdvertisement": false,
    "imageUrl": "https://lh3.googleusercontent.com/p/AF1QipMHt9wveta2zLLVni_f6kNa7fBkd3b3uQF87y9D=w408-h272-k-no",
    "kgmid": "/g/1td0y_mn",
    "classification": "chain",
    "is_independent": false,
    "confidence": 1.0,
    "source": "rule-based"
  },
  {
    "title": "Joseph A. Korkames, PD",
    "price": null,
    "categoryName": "Pharmacy",
    "address": "6802 Rogers Ave #2, Fort Smith, AR 72903",
    "neighborhood": null,
    "street": "6802 Rogers Ave #2",
    "city": "Fort Smith",
    "postalCode": "72903",
    "state": "Arkansas",
    "countryCode": "US",
    "phone": "(479) 452-6116",
    "phoneUnformatted": "+14794526116",
    "claimThisBusiness": true,
    "location": {
      "lat": 35.3542791,
      "lng": -94.357918
    },
    "totalScore": 5,
    "permanentlyClosed": false,
    "temporarilyClosed": false,
    "placeId": null,
    "categories": [
      "Pharmacy"
    ],
    "fid": "0x87cbb2ffe727d26b:0xd2ef045f8cfd075d",
    "cid": "15199372075832510301",
    "reviewsCount": 1,
    "imagesCount": 1,
    "imageCategories": [],
    "scrapedAt": "2025-06-22T07:15:27.042Z",
    "googleFoodUrl": null,
    "hotelAds": [],
    "openingHours": [
      {
        "day": "Monday",
        "hours": "8:30\u202fAM to 6\u202fPM"
      },
      {
        "day": "Tuesday",
        "hours": "8:30\u202fAM to 6\u202fPM"
      },
      {
        "day": "Wednesday",
        "hours": "8:30\u202fAM to 6\u202fPM"
      },
      {
        "day": "Thursday",
        "hours": "8:30\u202fAM to 6\u202fPM"
      },
      {
        "day": "Friday",
        "hours": "8:30\u202fAM to 6\u202fPM"
      },
      {
        "day": "Saturday",
        "hours": "9\u202fAM to 1\u202fPM"
      },
      {
        "day": "Sunday",
        "hours": "Closed"
      }
    ],
    "peopleAlsoSearch": [],
    "placesTags": [],
    "reviewsTags": [],
    "additionalInfo": {
      "Accessibility": [
        {
          "Wheelchair accessible entrance": true
        },
        {
          "Wheelchair accessible parking lot": true
        }
      ],
      "Planning": [
        {
          "Quick visit": true
        }
      ],
      "Payments": [
        {
          "Credit cards": true
        }
      ]
    },
    "gasPrices": [],
    "url": "https://www.google.com/maps/search/?api=1&query=Joseph%20A.%20Korkames%2C%20PD&query_place_id=ChIJa9In5_-yy4cRXQf9jF8E79I",
    "searchPageUrl": "https://www.google.com/maps/search/independent%20pharmacy%20Fort%20Smith%20AR/@62.99917890220563,-169.47971104960186,11z?hl=en",
    "searchString": "independent pharmacy Fort Smith AR",
    "language": "en",
    "rank": 11,
    "isAdvertisement": false,
    "imageUrl": "https://streetviewpixels-pa.googleapis.com/v1/thumbnail?panoid=1qjlutRME1FECiSbTXL4og&cb_client=search.gws-prod.gps&w=408&h=240&yaw=96.95957&pitch=0&thumbfov=100",
    "kgmid": "/g/1tfrh92q",
    "classification": "independent",
    "is_independent": true,
    "is_compounding": false,
    "confidence": 0.85,
    "source": "perplexity",
    "method": "llm"
  },
  {
    "title": "Prince Drug Store",
    "price": null,
    "categoryName": "Pharmacy",
    "address": "1112 Towson Ave, Fort Smith, AR 72901, United States",
    "neighborhood": null,
    "street": "1112 Towson Ave",
    "city": "Fort Smith",
    "postalCode": "72901",
    "state": "Arkansas",
    "countryCode": "US",
    "website": "http://princedrug.com/",
    "phone": "+1 479-782-9210",
    "phoneUnformatted": "+14797829210",
    "claimThisBusiness": false,
    "location": {
      "lat": 35.373012,
      "lng": -94.4215588
    },
    "totalScore": 4.5,
    "permanentlyClosed": false,
    "temporarilyClosed": false,
    "placeId": null,
    "categories": [
      "Pharmacy"
    ],
    "fid": "0x87ca4ceb086c58d1:0x7323535c5e60fb3a",
    "cid": "8296566594732096314",
    "reviewsCount": 96,
    "imagesCount": 2,
    "imageCategories": [],
    "scrapedAt": "2025-06-22T07:15:46.667Z",
    "googleFoodUrl": null,
    "hotelAds": [],
    "openingHours": [
      {
        "day": "Monday",
        "hours": "8\u202fAM to 7\u202fPM"
      },
      {
        "day": "Tuesday",
        "hours": "8\u202fAM to 7\u202fPM"
      },
      {
        "day": "Wednesday",
        "hours": "8\u202fAM to 7\u202fPM"
      },
      {
        "day": "Thursday",
        "hours": "8\u202fAM to 7\u202fPM"
      },
      {
        "day": "Friday",
        "hours": "8\u202fAM to 7\u202fPM"
      },
      {
        "day": "Saturday",
        "hours": "8\u202fAM to 6\u202fPM"
      },
      {
        "day": "Sunday",
        "hours": "12 to 6\u202fPM"
      }
    ],
    "peopleAlsoSearch": [],
    "placesTags": [],
    "reviewsTags": [],
    "additionalInfo": {
      "From the business": [
        {
          "Small Business": true
        }
      ],
      "Service options": [
        {
          "Delivery": true
        }
      ],
      "Accessibility": [
        {
          "Wheelchair-accessible car park": true
        },
        {
          "Wheelchair-accessible entrance": true
        }
      ],
      "Planning": [
        {
          "Quick visit": true
        }
      ],
      "Payments": [
        {
          "Credit cards": true
        },
        {
          "Debit cards": true
        },
        {
          "Credit cards": true
        }
      ]
    },
    "gasPrices": [],
    "url": "https://www.google.com/maps/search/?api=1&query=Prince%20Drug%20Store&query_place_id=ChIJ0VhsCOtMyocROvtgXlxTI3M",
    "searchPageUrl": "https://www.google.com/maps/search/independent%20pharmacy%20Fort%20Smith%20AR/@36.81849750000001,-80.15361988608069,8z?hl=en",
    "searchString": "independent pharmacy Fort Smith AR",
    "language": "en",
    "rank": 6,
    "isAdvertisement": false,
    "imageUrl": "https://lh3.googleusercontent.com/gps-cs-s/AC9h4nrm-tRGSLgIT7qg21EoLWGPz_W9R20g-gb12psXBh55-W8AnhIe9-IV8UZB7RwFAcHRFujXH60Kjm_uF45coKM8H4xTEiUVfwJSAqJ1LQz_M9geFq6AH0QgEip2mhucncxFTJRO=w408-h306-k-no",
    "kgmid": "/g/1tctg42m",
    "classification": "independent",
    "is_independent": true,
    "is_compounding": false,
    "confidence": 0.85,
    "source": "perplexity",
    "method": "llm"
  },
  {
    "title": "Laws Drug Store",
    "price": null,
    "categoryName": "Pharmacy",
    "address": "6802 Rogers Ave #2, Fort Smith, AR 72903, United States",
    "neighborhood": null,
    "street": "6802 Rogers Ave #2",
    "city": "Fort Smith",
    "postalCode": "72903",
    "state": "Arkansas",
    "countryCode": "US",
    "website": "https://www.lawsdrugstore.com/",
    "phone": "+1 479-452-6116",
    "phoneUnformatted": "+14794526116",
    "claimThisBusiness": false,
    "location": {
      "lat": 35.3542982,
      "lng": -94.3579498
    },
    "totalScore": 4.4,
    "permanentlyClosed": false,
    "temporarilyClosed": false,
    "placeId": null,
    "categories": [
      "Pharmacy",
      "Gift shop",
      "Greeting card shop"
    ],
    "fid": "0x87cbb2ffe727d26b:0x7a37f5eba285b70",
    "cid": "550423624296192880",
    "reviewsCount": 37,
    "imagesCount": 7,
    "imageCategories": [],
    "scrapedAt": "2025-06-22T07:15:46.667Z",
    "googleFoodUrl": null,
    "hotelAds": [],
    "openingHours": [
      {
        "day": "Monday",
        "hours": "8\u202fAM to 6:30\u202fPM"
      },
      {
        "day": "Tuesday",
        "hours": "8\u202fAM to 6:30\u202fPM"
      },
      {
        "day": "Wednesday",
        "hours": "8\u202fAM to 6:30\u202fPM"
      },
      {
        "day": "Thursday",
        "hours": "8\u202fAM to 6:30\u202fPM"
      },
      {
        "day": "Friday",
        "hours": "8\u202fAM to 6:30\u202fPM"
      },
      {
        "day": "Saturday",
        "hours": "9\u202fAM to 2\u202fPM"
      },
      {
        "day": "Sunday",
        "hours": "Closed"
      }
    ],
    "peopleAlsoSearch": [],
    "placesTags": [],
    "reviewsTags": [],
    "additionalInfo": {
      "From the business": [
        {
          "Small Business": true
        }
      ],
      "Service options": [
        {
          "Delivery": true
        },
        {
          "Drive-through": true
        },
        {
          "In-store pick-up": true
        },
        {
          "On-site services": true
        },
        {
          "Same-day delivery": true
        }
      ],
      "Accessibility": [
        {
          "Wheelchair-accessible car park": true
        },
        {
          "Wheelchair-accessible entrance": true
        }
      ],
      "Planning": [
        {
          "Quick visit": true
        }
      ],
      "Payments": [
        {
          "Credit cards": true
        },
        {
          "Debit cards": true
        },
        {
          "NFC mobile payments": true
        },
        {
          "Credit cards": true
        }
      ]
    },
    "gasPrices": [],
    "url": "https://www.google.com/maps/search/?api=1&query=Laws%20Drug%20Store&query_place_id=ChIJa9In5_-yy4cRcFsoul5_owc",
    "searchPageUrl": "https://www.google.com/maps/search/independent%20pharmacy%20Fort%20Smith%20AR/@36.81849750000001,-80.15361988608069,8z?hl=en",
    "searchString": "independent pharmacy Fort Smith AR",
    "language": "en",
    "rank": 10,
    "isAdvertisement": false,
    "imageUrl": "https://lh3.googleusercontent.com/gps-cs-s/AC9h4npTSuwHW0RKAYuwSitZUp6w52sZ6OLrfWAyl24Jec-HkG3-7ZnWYjjHtM0KIy5VaKE51qXYi_hYAghE7ZZmL_WZfIxLqCrVjPPpa2hUaioTfTudDvA9VIFTPkP9__wjoCp9pu1y5w=w426-h240-k-no",
    "kgmid": "/g/1v8j0zjr",
    "classification": "independent",
    "is_independent": true,
    "is_compounding": false,
    "confidence": 0.93,
    "source": "perplexity",
    "method": "llm"
  },
  {
    "title": "Midland Drug Inc",
    "price": null,
    "categoryName": "Pharmacy",
    "address": "4900 Kelley Hwy, Fort Smith, AR 72904, United States",
    "neighborhood": null,
    "street": "4900 Kelley Hwy",
    "city": "Fort Smith",
    "postalCode": "72904",
    "state": "Arkansas",
    "countryCode": "US",
    "phone": "+1 479-783-0221",
    "phoneUnformatted": "+14797830221",
    "claimThisBusiness": false,
    "location": {
      "lat": 35.4032148,
      "lng": -94.3766323
    },
    "totalScore": 4.7,
    "permanentlyClosed": false,
    "temporarilyClosed": false,
    "placeId": null,
    "categories": [
      "Pharmacy"
    ],
    "fid": "0x87cbb4a1e272fba1:0xfbf367d9a1d39691",
    "cid": "18154968707281163921",
    "reviewsCount": 25,
    "imagesCount": 1,
    "imageCategories": [],
    "scrapedAt": "2025-06-22T07:15:46.667Z",
    "googleFoodUrl": null,
    "hotelAds": [],
    "openingHours": [
      {
        "day": "Monday",
        "hours": "9\u202fAM to 5\u202fPM"
      },
      {
        "day": "Tuesday",
        "hours": "9\u202fAM to 5\u202fPM"
      },
      {
        "day": "Wednesday",
        "hours": "9\u202fAM to 5\u202fPM"
      },
      {
        "day": "Thursday",
        "hours": "9\u202fAM to 5\u202fPM"
      },
      {
        "day": "Friday",
        "hours": "9\u202fAM to 5\u202fPM"
      },
      {
        "day": "Saturday",
        "hours": "9\u202fAM to 1\u202fPM"
      },
      {
        "day": "Sunday",
        "hours": "Closed"
      }
    ],
    "peopleAlsoSearch": [],
    "placesTags": [],
    "reviewsTags": [],
    "additionalInfo": {
      "From the business": [
        {
          "Small Business": true
        }
      ],
      "Service options": [
        {
          "Drive-through": true
        }
      ],
      "Accessibility": [
        {
          "Wheelchair-accessible car park": true
        },
        {
          "Wheelchair-accessible entrance": true
        }
      ],
      "Planning": [
        {
          "Quick visit": true
        }
      ],
      "Payments": [
        {
          "Credit cards": true
        },
        {
          "Debit cards": true
        },
        {
          "NFC mobile payments": true
        },
        {
          "Credit cards": true
        }
      ]
    },
    "gasPrices": [],
    "url": "https://www.google.com/maps/search/?api=1&query=Midland%20Drug%20Inc&query_place_id=ChIJofty4qG0y4cRkZbTodln8_s",
    "searchPageUrl": "https://www.google.com/maps/search/independent%20pharmacy%20Fort%20Smith%20AR/@36.81849750000001,-80.15361988608069,8z?hl=en",
    "searchString": "independent pharmacy Fort Smith AR",
    "language": "en",
    "rank": 11,
    "isAdvertisement": false,
    "imageUrl": "https://streetviewpixels-pa.googleapis.com/v1/thumbnail?panoid=3s-hIsgZTX4Ek_6N2Kn5PA&cb_client=search.gws-prod.gps&w=408&h=240&yaw=180.78613&pitch=0&thumbfov=100",
    "kgmid": "/g/1trtvvpn",
    "classification": "independent",
    "is_independent": true,
    "is_compounding": false,
    "confidence": 0.85,
    "source": "perplexity",
    "method": "llm"
  },
  {
    "title": "Walgreens Pharmacy",
    "description": "Department of the Walgreens chain providing prescription medications & other health-related items.",
    "price": "\u20b9\u20b9",
    "categoryName": "Pharmacy",
    "address": "2701 Rogers Ave, Fort Smith, AR 72901, United States",
    "neighborhood": null,
    "street": "2701 Rogers Ave",
    "city": "Fort Smith",
    "postalCode": "72901",
    "state": "Arkansas",
    "countryCode": "US",
    "website": "https://www.walgreens.com/locator/walgreens-2701+rogers+ave-fort+smith-ar-72901/id=5260",
    "phone": "+1 479-783-4782",
    "phoneUnformatted": "+14797834782",
    "claimThisBusiness": false,
    "location": {
      "lat": 35.3761281,
      "lng": -94.4029158
    },
    "totalScore": 3.5,
    "permanentlyClosed": false,
    "temporarilyClosed": false,
    "placeId": "ChIJlaKs_8lMyocRzeJhvJ2qF6g",
    "categories": [
      "Pharmacy"
    ],
    "fid": "0x87ca4cc9ffaca295:0xa817aa9dbc61e2cd",
    "cid": "12112337317283357389",
    "reviewsCount": 33,
    "imagesCount": 6,
    "imageCategories": [],
    "scrapedAt": "2025-06-22T07:15:46.668Z",
    "googleFoodUrl": null,
    "hotelAds": [],
    "openingHours": [
      {
        "day": "Monday",
        "hours": "9\u202fAM to 1:30\u202fPM, 2 to 7\u202fPM"
      },
      {
        "day": "Tuesday",
        "hours": "9\u202fAM to 1:30\u202fPM, 2 to 7\u202fPM"
      },
      {
        "day": "Wednesday",
        "hours": "9\u202fAM to 1:30\u202fPM, 2 to 7\u202fPM"
      },
      {
        "day": "Thursday",
        "hours": "9\u202fAM to 1:30\u202fPM, 2 to 7\u202fPM"
      },
      {
        "day": "Friday",
        "hours": "9\u202fAM to 1:30\u202fPM, 2 to 7\u202fPM"
      },
      {
        "day": "Saturday",
        "hours": "Closed"
      },
      {
        "day": "Sunday",
        "hours": "10\u202fAM to 1:30\u202fPM, 2 to 6\u202fPM"
      }
    ],
    "additionalOpeningHours": {
      "Drive-through": [
        {
          "day": "Monday",
          "hours": "9\u202fam\u20131:30\u202fpm"
        },
        {
          "day": "Tuesday",
          "hours": "9\u202fam\u20131:30\u202fpm"
        },
        {
          "day": "Wednesday",
          "hours": "9\u202fam\u20131:30\u202fpm"
        },
        {
          "day": "Thursday",
          "hours": "9\u202fam\u20131:30\u202fpm"
        },
        {
          "day": "Friday",
          "hours": "9\u202fam\u20131:30\u202fpm"
        },
        {
          "day": "Saturday",
          "hours": "Closed"
        },
        {
          "day": "Sunday",
          "hours": "10\u202fam\u20131:30\u202fpm"
        }
      ]
    },
    "peopleAlsoSearch": [],
    "placesTags": [],
    "reviewsTags": [],
    "additionalInfo": {
      "Service options": [
        {
          "Drive-through": true
        },
        {
          "In-store pick-up": true
        }
      ],
      "Accessibility": [
        {
          "Wheelchair-accessible car park": true
        },
        {
          "Wheelchair-accessible entrance": true
        }
      ],
      "Offerings": [
        {
          "Naloxone": true
        }
      ],
      "Planning": [
        {
          "Quick visit": true
        }
      ],
      "Payments": [
        {
          "Cheques": true
        },
        {
          "Credit cards": true
        },
        {
          "Debit cards": true
        }
      ]
    },
    "gasPrices": [],
    "url": "https://www.google.com/maps/search/?api=1&query=Walgreens%20Pharmacy&query_place_id=ChIJlaKs_8lMyocRzeJhvJ2qF6g",
    "searchPageUrl": "https://www.google.com/maps/search/independent%20pharmacy%20Fort%20Smith%20AR/@36.81849750000001,-80.15361988608069,8z?hl=en",
    "searchString": "independent pharmacy Fort Smith AR",
    "language": "en",
    "rank": 16,
    "isAdvertisement": false,
    "imageUrl": "https://lh3.googleusercontent.com/gps-cs-s/AC9h4np24bbMrnM3plNBiffC9JeqzkvgKO1Qo3gGq7k0Pu5waVhgxPqe61GP2CDqynFmKZo_2fazXFk4giFwBl4ZOsquD9yXUhMlyB-Crm-4qrwgjmvsGQwutwnSOH2_gh-zoXlrlaO5XQ=w408-h306-k-no",
    "kgmid": "/g/11cn95pt9t",
    "classification": "chain",
    "is_independent": false,
    "confidence": 1.0,
    "source": "rule-based"
  },
  {
    "title": "Carl's Pharmacy",
    "price": null,
    "categoryName": "Pharmacy",
    "address": "306 E Main St, Aspen, CO 81611",
    "neighborhood": null,
    "street": "306 E Main St",
    "city": "Aspen",
    "postalCode": "81611",
    "state": "Colorado",
    "countryCode": "US",
    "website": "http://www.carlspharmacy.com/",
    "phone": "(970) 925-3273",
    "phoneUnformatted": "+19709253273",
    "claimThisBusiness": false,
    "location": {
      "lat": 39.1911364,
      "lng": -106.8201276
    },
    "totalScore": 4.2,
    "permanentlyClosed": false,
    "temporarilyClosed": false,
    "placeId": null,
    "categories": [
      "Pharmacy"
    ],
    "fid": "0x8740397d0576e131:0xdb246b4fc63ba636",
    "cid": "15790864183840187958",
    "reviewsCount": 100,
    "reviewsDistribution": {
      "oneStar": 13,
      "twoStar": 2,
      "threeStar": 7,
      "fourStar": 13,
      "fiveStar": 65
    },
    "imagesCount": 54,
    "imageCategories": [],
    "scrapedAt": "2025-06-22T07:16:06.090Z",
    "googleFoodUrl": null,
    "hotelAds": [],
    "openingHours": [
      {
        "day": "Monday",
        "hours": "9\u202fAM to 9\u202fPM"
      },
      {
        "day": "Tuesday",
        "hours": "9\u202fAM to 9\u202fPM"
      },
      {
        "day": "Wednesday",
        "hours": "9\u202fAM to 9\u202fPM"
      },
      {
        "day": "Thursday",
        "hours": "9\u202fAM to 9\u202fPM"
      },
      {
        "day": "Friday",
        "hours": "9\u202fAM to 9\u202fPM"
      },
      {
        "day": "Saturday",
        "hours": "9\u202fAM to 6\u202fPM"
      },
      {
        "day": "Sunday",
        "hours": "9\u202fAM to 6\u202fPM"
      }
    ],
    "peopleAlsoSearch": [],
    "placesTags": [],
    "reviewsTags": [],
    "additionalInfo": {
      "From the business": [
        {
          "Small business": true
        }
      ],
      "Service options": [
        {
          "In-store shopping": true
        },
        {
          "Onsite services": true
        }
      ],
      "Accessibility": [
        {
          "Wheelchair accessible entrance": true
        },
        {
          "Wheelchair accessible parking lot": true
        }
      ],
      "Planning": [
        {
          "Quick visit": true
        }
      ],
      "Payments": [
        {
          "Credit cards": true
        },
        {
          "Debit cards": true
        },
        {
          "NFC mobile payments": true
        },
        {
          "Credit cards": true
        }
      ]
    },
    "gasPrices": [],
    "url": "https://www.google.com/maps/search/?api=1&query=Carl's%20Pharmacy&query_place_id=ChIJMeF2BX05QIcRNqY7xk9rJNs",
    "searchPageUrl": "https://www.google.com/maps/search/independent%20pharmacy%20Fort%20Smith%20AR/@39.68245004733214,-105.48342742835163,8z?hl=en",
    "searchString": "independent pharmacy Fort Smith AR",
    "language": "en",
    "rank": 21,
    "isAdvertisement": false,
    "imageUrl": "https://lh3.googleusercontent.com/gps-cs-s/AC9h4nqY1k3dX_iYyYtb4ocPrrZtTQoAy-WabHoX2bW4mIlA0GzBEWtqnzBgdFnkR6xVnLz9R-mCEZJfX2eDHHTRTIvTDJNagPQyAfSGsse0yOIr06fzXxObgt_k7n5mJQgU7TNsds1b=w408-h306-k-no",
    "kgmid": "/g/1tdg88dj",
    "classification": "independent",
    "is_independent": true,
    "is_compounding": false,
    "confidence": 0.9,
    "source": "perplexity",
    "method": "llm"
  }
]