[
  {
    "title": "Medmetrics Compounding Pharmacy",
    "price": null,
    "categoryName": "Pharmacy",
    "address": "1075 W Queen Creek Rd # 2, Chandler, AZ 85248",
    "neighborhood": "Ocotillo",
    "street": "1075 W Queen Creek Rd # 2",
    "city": "Chandler",
    "postalCode": "85248",
    "state": "Arizona",
    "countryCode": "US",
    "website": "http://medmetricsrx.com/",
    "phone": "(480) 883-3800",
    "phoneUnformatted": "+14808833800",
    "claimThisBusiness": false,
    "location": {
      "lat": 33.2608705,
      "lng": -111.8600649
    },
    "totalScore": 4.8,
    "permanentlyClosed": false,
    "temporarilyClosed": false,
    "placeId": null,
    "categories": [
      "Pharmacy",
      "Drug store",
      "Health food store",
      "Medical clinic",
      "Pet store",
      "Veterinary pharmacy",
      "Vitamin & supplements store"
    ],
    "fid": "0x872b0007495e7ced:0x3b57742691b28e57",
    "cid": "4276014080213552727",
    "reviewsCount": 63,
    "imagesCount": 38,
    "imageCategories": [],
    "scrapedAt": "2025-06-22T04:13:58.955Z",
    "googleFoodUrl": null,
    "hotelAds": [],
    "openingHours": [
      {
        "day": "Monday",
        "hours": "9\u202fAM to 6\u202fPM"
      },
      {
        "day": "Tuesday",
        "hours": "9\u202fAM to 6\u202fPM"
      },
      {
        "day": "Wednesday",
        "hours": "9\u202fAM to 6\u202fPM"
      },
      {
        "day": "Thursday",
        "hours": "9\u202fAM to 6\u202fPM"
      },
      {
        "day": "Friday",
        "hours": "9\u202fAM to 6\u202fPM"
      },
      {
        "day": "Saturday",
        "hours": "Closed"
      },
      {
        "day": "Sunday",
        "hours": "Closed"
      }
    ],
    "peopleAlsoSearch": [],
    "placesTags": [],
    "reviewsTags": [],
    "additionalInfo": {
      "From the business": [
        {
          "Small business": true
        }
      ],
      "Service options": [
        {
          "Delivery": true
        },
        {
          "In-store pickup": true
        },
        {
          "Same-day delivery": true
        }
      ],
      "Accessibility": [
        {
          "Wheelchair accessible entrance": true
        },
        {
          "Wheelchair accessible parking lot": true
        }
      ],
      "Payments": [
        {
          "Credit cards": true
        },
        {
          "Debit cards": true
        },
        {
          "NFC mobile payments": true
        }
      ]
    },
    "gasPrices": [],
    "url": "https://www.google.com/maps/search/?api=1&query=Medmetrics%20Compounding%20Pharmacy&query_place_id=ChIJ7XxeSQcAK4cRV46ykSZ0Vzs",
    "searchPageUrl": "https://www.google.com/maps/search/independent%20pharmacy%20Chandler%20AZ/@27.857685,-176.13093621205994,12z?hl=en",
    "searchString": "independent pharmacy Chandler AZ",
    "language": "en",
    "rank": 1,
    "isAdvertisement": false,
    "imageUrl": "https://lh3.googleusercontent.com/p/AF1QipPhLm-dqGJSlxmHMsVPj05n9DckeFH62l0Qk1yp=w408-h272-k-no",
    "kgmid": "/g/11bv_dnjwp",
    "classification": "independent",
    "is_independent": true,
    "is_compounding": true,
    "confidence": 0.95,
    "source": "perplexity",
    "method": "llm"
  },
  {
    "title": "Hand in Hand Pharmacy",
    "price": null,
    "categoryName": "Pharmacy",
    "address": "1940 W Chandler Blvd Ste 3, Chandler, AZ 85224",
    "neighborhood": null,
    "street": "1940 W Chandler Blvd Ste 3",
    "city": "Chandler",
    "postalCode": "85224",
    "state": "Arizona",
    "countryCode": "US",
    "website": "http://www.handinhandpharmacy.com/",
    "phone": "(480) 534-7537",
    "phoneUnformatted": "+14805347537",
    "claimThisBusiness": false,
    "location": {
      "lat": 33.3076265,
      "lng": -111.8756668
    },
    "totalScore": 5,
    "permanentlyClosed": false,
    "temporarilyClosed": false,
    "placeId": null,
    "categories": [
      "Pharmacy"
    ],
    "fid": "0x872b01cfc5b8b11b:0x7efb44fbb9ec8771",
    "cid": "9149982915880060785",
    "reviewsCount": 20,
    "imagesCount": 11,
    "imageCategories": [],
    "scrapedAt": "2025-06-22T04:13:58.957Z",
    "googleFoodUrl": null,
    "hotelAds": [],
    "openingHours": [
      {
        "day": "Monday",
        "hours": "9\u202fAM to 5\u202fPM"
      },
      {
        "day": "Tuesday",
        "hours": "9\u202fAM to 5\u202fPM"
      },
      {
        "day": "Wednesday",
        "hours": "9\u202fAM to 5\u202fPM"
      },
      {
        "day": "Thursday",
        "hours": "9\u202fAM to 5\u202fPM"
      },
      {
        "day": "Friday",
        "hours": "9\u202fAM to 5\u202fPM"
      },
      {
        "day": "Saturday",
        "hours": "Closed"
      },
      {
        "day": "Sunday",
        "hours": "Closed"
      }
    ],
    "peopleAlsoSearch": [],
    "placesTags": [],
    "reviewsTags": [],
    "additionalInfo": {
      "From the business": [
        {
          "Identifies as women-owned": true
        },
        {
          "Small business": true
        }
      ],
      "Service options": [
        {
          "Curbside pickup": true
        },
        {
          "Delivery": true
        },
        {
          "In-store pickup": true
        },
        {
          "In-store shopping": true
        },
        {
          "Same-day delivery": true
        },
        {
          "Korean": true
        }
      ],
      "Accessibility": [
        {
          "Wheelchair accessible entrance": true
        },
        {
          "Wheelchair accessible parking lot": true
        }
      ],
      "Planning": [
        {
          "Quick visit": true
        }
      ],
      "Payments": [
        {
          "Credit cards": true
        },
        {
          "Debit cards": true
        },
        {
          "NFC mobile payments": true
        },
        {
          "Credit cards": true
        }
      ]
    },
    "gasPrices": [],
    "url": "https://www.google.com/maps/search/?api=1&query=Hand%20in%20Hand%20Pharmacy&query_place_id=ChIJG7G4xc8BK4cRcYfsuftE-34",
    "searchPageUrl": "https://www.google.com/maps/search/independent%20pharmacy%20Chandler%20AZ/@27.857685,-176.13093621205994,12z?hl=en",
    "searchString": "independent pharmacy Chandler AZ",
    "language": "en",
    "rank": 2,
    "isAdvertisement": false,
    "imageUrl": "https://lh3.googleusercontent.com/p/AF1QipOwiLTehZVl5YAmnl1ig8P2NbhXwygcoh_5uFpS=w408-h328-k-no",
    "kgmid": "/g/11r0vp_54t",
    "classification": "independent",
    "is_independent": true,
    "is_compounding": false,
    "confidence": 0.9,
    "source": "perplexity",
    "method": "llm"
  },
  {
    "title": "Omnicare of Chandler",
    "price": null,
    "categoryName": "Pharmacy",
    "address": "6825 W Galveston St # 3, Chandler, AZ 85226",
    "neighborhood": null,
    "street": "6825 W Galveston St # 3",
    "city": "Chandler",
    "postalCode": "85226",
    "state": "Arizona",
    "countryCode": "US",
    "website": "http://www.omnicare.com/",
    "phone": "(480) 718-0774",
    "phoneUnformatted": "+14807180774",
    "claimThisBusiness": true,
    "location": {
      "lat": 33.3117413,
      "lng": -111.9603684
    },
    "totalScore": 3.1,
    "permanentlyClosed": false,
    "temporarilyClosed": false,
    "placeId": null,
    "categories": [
      "Pharmacy"
    ],
    "fid": "0x872b04191485a5f1:0x45a3a98fc589d37e",
    "cid": "5018040844780426110",
    "reviewsCount": 20,
    "imagesCount": 1,
    "imageCategories": [],
    "scrapedAt": "2025-06-22T04:13:58.957Z",
    "googleFoodUrl": null,
    "hotelAds": [],
    "openingHours": [
      {
        "day": "Monday",
        "hours": "Open 24 hours"
      },
      {
        "day": "Tuesday",
        "hours": "Open 24 hours"
      },
      {
        "day": "Wednesday",
        "hours": "Open 24 hours"
      },
      {
        "day": "Thursday",
        "hours": "Open 24 hours"
      },
      {
        "day": "Friday",
        "hours": "Open 24 hours"
      },
      {
        "day": "Saturday",
        "hours": "Open 24 hours"
      },
      {
        "day": "Sunday",
        "hours": "Open 24 hours"
      }
    ],
    "peopleAlsoSearch": [],
    "placesTags": [],
    "reviewsTags": [],
    "additionalInfo": {
      "Accessibility": [
        {
          "Wheelchair accessible entrance": true
        },
        {
          "Wheelchair accessible parking lot": true
        }
      ]
    },
    "gasPrices": [],
    "url": "https://www.google.com/maps/search/?api=1&query=Omnicare%20of%20Chandler&query_place_id=ChIJ8aWFFBkEK4cRftOJxY-po0U",
    "searchPageUrl": "https://www.google.com/maps/search/independent%20pharmacy%20Chandler%20AZ/@27.857685,-176.13093621205994,12z?hl=en",
    "searchString": "independent pharmacy Chandler AZ",
    "language": "en",
    "rank": 3,
    "isAdvertisement": false,
    "imageUrl": "https://streetviewpixels-pa.googleapis.com/v1/thumbnail?panoid=u1cZKM72z8Syn67TfIf1Og&cb_client=search.gws-prod.gps&w=408&h=240&yaw=83.3595&pitch=0&thumbfov=100",
    "kgmid": "/g/1tp2_vfq",
    "classification": "chain",
    "is_independent": false,
    "is_compounding": false,
    "confidence": 0.96,
    "source": "perplexity",
    "method": "llm"
  },
  {
    "title": "MedXpress Pharmacy",
    "price": null,
    "categoryName": "Pharmacy",
    "address": "2075 W Warner Rd Suite 3, Chandler, AZ 85224",
    "neighborhood": null,
    "street": "2075 W Warner Rd Suite 3",
    "city": "Chandler",
    "postalCode": "85224",
    "state": "Arizona",
    "countryCode": "US",
    "website": "http://www.medxpressrx.com/",
    "phone": "(480) 590-2040",
    "phoneUnformatted": "+14805902040",
    "claimThisBusiness": false,
    "location": {
      "lat": 33.3346928,
      "lng": -111.8778221
    },
    "totalScore": 5,
    "permanentlyClosed": false,
    "temporarilyClosed": false,
    "placeId": null,
    "categories": [
      "Pharmacy",
      "Faculty of pharmacy",
      "Medical supply store",
      "Weight loss service"
    ],
    "fid": "0x872b079a22947433:0xbc7eb825b7a0b3e7",
    "cid": "13582495998330057703",
    "reviewsCount": 51,
    "imagesCount": 13,
    "imageCategories": [],
    "scrapedAt": "2025-06-22T04:13:58.957Z",
    "googleFoodUrl": null,
    "hotelAds": [],
    "openingHours": [
      {
        "day": "Monday",
        "hours": "9\u202fAM to 6\u202fPM"
      },
      {
        "day": "Tuesday",
        "hours": "9\u202fAM to 6\u202fPM"
      },
      {
        "day": "Wednesday",
        "hours": "9\u202fAM to 6\u202fPM"
      },
      {
        "day": "Thursday",
        "hours": "9\u202fAM to 6\u202fPM"
      },
      {
        "day": "Friday",
        "hours": "9\u202fAM to 6\u202fPM"
      },
      {
        "day": "Saturday",
        "hours": "Closed"
      },
      {
        "day": "Sunday",
        "hours": "Closed"
      }
    ],
    "peopleAlsoSearch": [],
    "placesTags": [],
    "reviewsTags": [],
    "additionalInfo": {
      "From the business": [
        {
          "Identifies as veteran-owned": true
        },
        {
          "Identifies as women-owned": true
        },
        {
          "Small business": true
        }
      ],
      "Service options": [
        {
          "Curbside pickup": true
        },
        {
          "Delivery": true
        },
        {
          "In-store pickup": true
        },
        {
          "In-store shopping": true
        },
        {
          "Onsite services": true
        },
        {
          "Same-day delivery": true
        }
      ],
      "Accessibility": [
        {
          "Wheelchair accessible entrance": true
        },
        {
          "Wheelchair accessible parking lot": true
        },
        {
          "Wheelchair accessible seating": true
        }
      ],
      "Amenities": [
        {
          "Wi-Fi": true
        },
        {
          "Free Wi-Fi": true
        }
      ],
      "Planning": [
        {
          "Quick visit": true
        }
      ],
      "Payments": [
        {
          "Credit cards": true
        },
        {
          "Debit cards": true
        },
        {
          "NFC mobile payments": true
        },
        {
          "Credit cards": true
        }
      ]
    },
    "gasPrices": [],
    "url": "https://www.google.com/maps/search/?api=1&query=MedXpress%20Pharmacy&query_place_id=ChIJM3SUIpoHK4cR57OgtyW4frw",
    "searchPageUrl": "https://www.google.com/maps/search/independent%20pharmacy%20Chandler%20AZ/@27.857685,-176.13093621205994,12z?hl=en",
    "searchString": "independent pharmacy Chandler AZ",
    "language": "en",
    "rank": 4,
    "isAdvertisement": false,
    "imageUrl": "https://lh3.googleusercontent.com/p/AF1QipPh0NahSjgd0W306IO-xZq5EF6m0zw4QXzwt_EQ=w408-h566-k-no",
    "kgmid": "/g/11pkkwzbq3",
    "classification": "independent",
    "is_independent": true,
    "is_compounding": false,
    "confidence": 0.9,
    "source": "perplexity",
    "method": "llm"
  },
  {
    "title": "Chandler Drugs",
    "price": null,
    "categoryName": "Pharmacy",
    "address": "2055 W Frye Rd #3, Chandler, AZ 85224",
    "neighborhood": null,
    "street": "2055 W Frye Rd #3",
    "city": "Chandler",
    "postalCode": "85224",
    "state": "Arizona",
    "countryCode": "US",
    "website": "http://www.chandlerdrugs.com/",
    "phone": "(480) 855-7123",
    "phoneUnformatted": "+14808557123",
    "claimThisBusiness": false,
    "location": {
      "lat": 33.2979878,
      "lng": -111.8769497
    },
    "totalScore": 4.4,
    "permanentlyClosed": false,
    "temporarilyClosed": false,
    "placeId": null,
    "categories": [
      "Pharmacy"
    ],
    "fid": "0x872b00b9cdfb4347:0xef78f577ade076cd",
    "cid": "17255811866637137613",
    "reviewsCount": 200,
    "imagesCount": 5,
    "imageCategories": [],
    "scrapedAt": "2025-06-22T04:13:58.957Z",
    "googleFoodUrl": null,
    "hotelAds": [],
    "openingHours": [
      {
        "day": "Monday",
        "hours": "9\u202fAM to 5:30\u202fPM"
      },
      {
        "day": "Tuesday",
        "hours": "9\u202fAM to 5:30\u202fPM"
      },
      {
        "day": "Wednesday",
        "hours": "9\u202fAM to 5:30\u202fPM"
      },
      {
        "day": "Thursday",
        "hours": "9\u202fAM to 5:30\u202fPM"
      },
      {
        "day": "Friday",
        "hours": "9\u202fAM to 5:30\u202fPM"
      },
      {
        "day": "Saturday",
        "hours": "10\u202fAM to 1:30\u202fPM"
      },
      {
        "day": "Sunday",
        "hours": "Closed"
      }
    ],
    "peopleAlsoSearch": [],
    "placesTags": [],
    "reviewsTags": [],
    "additionalInfo": {
      "Service options": [
        {
          "Delivery": true
        },
        {
          "In-store pickup": true
        }
      ],
      "Accessibility": [
        {
          "Wheelchair accessible entrance": true
        },
        {
          "Wheelchair accessible parking lot": true
        }
      ],
      "Planning": [
        {
          "Quick visit": true
        }
      ],
      "Payments": [
        {
          "Credit cards": true
        },
        {
          "Debit cards": true
        },
        {
          "NFC mobile payments": true
        },
        {
          "Credit cards": true
        }
      ]
    },
    "gasPrices": [],
    "url": "https://www.google.com/maps/search/?api=1&query=Chandler%20Drugs&query_place_id=ChIJR0P7zbkAK4cRzXbgrXf1eO8",
    "searchPageUrl": "https://www.google.com/maps/search/independent%20pharmacy%20Chandler%20AZ/@27.857685,-176.13093621205994,12z?hl=en",
    "searchString": "independent pharmacy Chandler AZ",
    "language": "en",
    "rank": 5,
    "isAdvertisement": false,
    "imageUrl": "https://lh3.googleusercontent.com/gps-cs-s/AC9h4npNXqHA1ODSFQ-j9fK7436Mll81-DGaQQzQJbL8u9MgyuFmsGLpIMlZ756Toly9RV0GZsVmbJ9oiYrZ25oyUkcoMkCRygK3rF_Y9igSqbfFB3GDK1Qae2XkQe5VRBKd9bZKQB0=w408-h544-k-no",
    "kgmid": "/g/1q5bn5dmr",
    "classification": "independent",
    "is_independent": true,
    "is_compounding": false,
    "confidence": 0.9,
    "source": "perplexity",
    "method": "llm"
  },
  {
    "title": "Brisma Pharmacy PLLC",
    "price": null,
    "categoryName": "Pharmacy",
    "address": "590 N Alma School Rd # 3, Chandler, AZ 85224",
    "neighborhood": "Arrowhead Meadows Association",
    "street": "590 N Alma School Rd # 3",
    "city": "Chandler",
    "postalCode": "85224",
    "state": "Arizona",
    "countryCode": "US",
    "website": "http://www.brismapharmacy.com/",
    "phone": "(480) 719-8798",
    "phoneUnformatted": "+14807198798",
    "claimThisBusiness": false,
    "location": {
      "lat": 33.3128187,
      "lng": -111.8596998
    },
    "totalScore": 3.6,
    "permanentlyClosed": false,
    "temporarilyClosed": false,
    "placeId": null,
    "categories": [
      "Pharmacy"
    ],
    "fid": "0x872b00aad82a4c41:0x9d8694541380885a",
    "cid": "11350922999659268186",
    "reviewsCount": 17,
    "imagesCount": 2,
    "imageCategories": [],
    "scrapedAt": "2025-06-22T04:13:58.958Z",
    "googleFoodUrl": null,
    "hotelAds": [],
    "openingHours": [
      {
        "day": "Monday",
        "hours": "9\u202fAM to 6\u202fPM"
      },
      {
        "day": "Tuesday",
        "hours": "9\u202fAM to 6\u202fPM"
      },
      {
        "day": "Wednesday",
        "hours": "9\u202fAM to 6\u202fPM"
      },
      {
        "day": "Thursday",
        "hours": "9\u202fAM to 6\u202fPM"
      },
      {
        "day": "Friday",
        "hours": "9\u202fAM to 6\u202fPM"
      },
      {
        "day": "Saturday",
        "hours": "10\u202fAM to 2\u202fPM"
      },
      {
        "day": "Sunday",
        "hours": "Closed"
      }
    ],
    "peopleAlsoSearch": [],
    "placesTags": [],
    "reviewsTags": [],
    "additionalInfo": {
      "Service options": [
        {
          "Delivery": true
        },
        {
          "Same-day delivery": true
        }
      ],
      "Accessibility": [
        {
          "Wheelchair accessible entrance": true
        },
        {
          "Wheelchair accessible parking lot": true
        }
      ],
      "Payments": [
        {
          "Credit cards": true
        },
        {
          "Debit cards": true
        },
        {
          "Credit cards": true
        }
      ]
    },
    "gasPrices": [],
    "url": "https://www.google.com/maps/search/?api=1&query=Brisma%20Pharmacy%20PLLC&query_place_id=ChIJQUwq2KoAK4cRWoiAE1SUhp0",
    "searchPageUrl": "https://www.google.com/maps/search/independent%20pharmacy%20Chandler%20AZ/@27.857685,-176.13093621205994,12z?hl=en",
    "searchString": "independent pharmacy Chandler AZ",
    "language": "en",
    "rank": 6,
    "isAdvertisement": false,
    "imageUrl": "https://lh3.googleusercontent.com/gps-cs-s/AC9h4nqj_inxYGijvwLd84El0_6GVRRzgCsJyjYXXVdgw4paiwDXJ2OneicLdenvru56502xuSELRDK8cDp3UvXUqLAttMTZqzMK6HrlhQlSpnGvIqUQxujAWVGymttTullT981wV-Ep=w408-h544-k-no",
    "kgmid": "/g/11c319bhql",
    "classification": "independent",
    "is_independent": true,
    "is_compounding": false,
    "confidence": 0.9,
    "source": "perplexity",
    "method": "llm"
  },
  {
    "title": "Integrity Pharmacy Consultants",
    "price": null,
    "categoryName": "Pharmacy",
    "address": "13327 E Stoney Vista Dr, Chandler, AZ 85249",
    "neighborhood": "Circle G Riggs Homestead",
    "street": "13327 E Stoney Vista Dr",
    "city": "Chandler",
    "postalCode": "85249",
    "state": "Arizona",
    "countryCode": "US",
    "website": "http://www.integrity-rx.com/",
    "phone": "(833) 735-5797",
    "phoneUnformatted": "+18337355797",
    "claimThisBusiness": false,
    "location": {
      "lat": 33.2196696,
      "lng": -111.794384
    },
    "totalScore": 5,
    "permanentlyClosed": false,
    "temporarilyClosed": false,
    "placeId": null,
    "categories": [
      "Pharmacy",
      "Business to business service",
      "Consultant",
      "Business broker"
    ],
    "fid": "0x872a54c2f7033bcd:0x6bcd897c47a49c56",
    "cid": "7768016099154893910",
    "reviewsCount": 4,
    "imagesCount": 8,
    "imageCategories": [],
    "scrapedAt": "2025-06-22T04:13:58.958Z",
    "googleFoodUrl": null,
    "hotelAds": [],
    "openingHours": [
      {
        "day": "Monday",
        "hours": "7\u202fAM to 8\u202fPM"
      },
      {
        "day": "Tuesday",
        "hours": "7\u202fAM to 8\u202fPM"
      },
      {
        "day": "Wednesday",
        "hours": "7\u202fAM to 8\u202fPM"
      },
      {
        "day": "Thursday",
        "hours": "7\u202fAM to 8\u202fPM"
      },
      {
        "day": "Friday",
        "hours": "7\u202fAM to 8\u202fPM"
      },
      {
        "day": "Saturday",
        "hours": "10\u202fAM to 6\u202fPM"
      },
      {
        "day": "Sunday",
        "hours": "10\u202fAM to 4\u202fPM"
      }
    ],
    "peopleAlsoSearch": [],
    "placesTags": [],
    "reviewsTags": [],
    "additionalInfo": {
      "Accessibility": [
        {
          "Wheelchair accessible entrance": true
        },
        {
          "Wheelchair accessible parking lot": true
        }
      ]
    },
    "gasPrices": [],
    "url": "https://www.google.com/maps/search/?api=1&query=Integrity%20Pharmacy%20Consultants&query_place_id=ChIJzTsD98JUKocRVpykR3yJzWs",
    "searchPageUrl": "https://www.google.com/maps/search/independent%20pharmacy%20Chandler%20AZ/@27.857685,-176.13093621205994,12z?hl=en",
    "searchString": "independent pharmacy Chandler AZ",
    "language": "en",
    "rank": 7,
    "isAdvertisement": false,
    "imageUrl": "https://streetviewpixels-pa.googleapis.com/v1/thumbnail?panoid=nTT59k98gVWofzJOVFWycA&cb_client=search.gws-prod.gps&w=408&h=240&yaw=182.38138&pitch=0&thumbfov=100",
    "kgmid": "/g/11gf9ftzkd",
    "classification": "independent",
    "is_independent": true,
    "is_compounding": false,
    "confidence": 0.85,
    "source": "perplexity",
    "method": "llm"
  },
  {
    "title": "LitonRx",
    "price": null,
    "categoryName": "Pharmacy",
    "address": "2080 N Dobson Rd STE 3, Chandler, AZ 85224",
    "neighborhood": null,
    "street": "2080 N Dobson Rd STE 3",
    "city": "Chandler",
    "postalCode": "85224",
    "state": "Arizona",
    "countryCode": "US",
    "website": "https://litonrx.com/?y_source=1_MjM3MzU4NjgtNzE1LWxvY2F0aW9uLndlYnNpdGU%3D",
    "phone": "(480) 855-7706",
    "phoneUnformatted": "+14808557706",
    "claimThisBusiness": true,
    "location": {
      "lat": 33.3364152,
      "lng": -111.8770268
    },
    "totalScore": 4.5,
    "permanentlyClosed": false,
    "temporarilyClosed": true,
    "placeId": null,
    "categories": [
      "Pharmacy"
    ],
    "fid": "0x872b078e3cc3c9ff:0xd606d95d77989a19",
    "cid": "15422252969438517785",
    "reviewsCount": 41,
    "imagesCount": 1,
    "imageCategories": [],
    "scrapedAt": "2025-06-22T04:13:58.958Z",
    "googleFoodUrl": null,
    "hotelAds": [],
    "openingHours": [],
    "peopleAlsoSearch": [],
    "placesTags": [],
    "reviewsTags": [],
    "additionalInfo": {
      "From the business": [
        {
          "Small business": true
        }
      ],
      "Service options": [
        {
          "Curbside pickup": true
        },
        {
          "Delivery": true
        },
        {
          "In-store pickup": true
        },
        {
          "In-store shopping": true
        },
        {
          "Same-day delivery": true
        }
      ],
      "Accessibility": [
        {
          "Wheelchair accessible entrance": true
        },
        {
          "Wheelchair accessible parking lot": true
        }
      ],
      "Amenities": [
        {
          "Wi-Fi": true
        },
        {
          "Free Wi-Fi": true
        }
      ],
      "Payments": [
        {
          "Debit cards": true
        },
        {
          "NFC mobile payments": true
        },
        {
          "Credit cards": true
        }
      ]
    },
    "gasPrices": [],
    "url": "https://www.google.com/maps/search/?api=1&query=LitonRx&query_place_id=ChIJ_8nDPI4HK4cRGZqYd13ZBtY",
    "searchPageUrl": "https://www.google.com/maps/search/independent%20pharmacy%20Chandler%20AZ/@27.857685,-176.13093621205994,12z?hl=en",
    "searchString": "independent pharmacy Chandler AZ",
    "language": "en",
    "rank": 8,
    "isAdvertisement": false,
    "imageUrl": "https://streetviewpixels-pa.googleapis.com/v1/thumbnail?panoid=VvRVPy8N9TTHmYok4NfWHA&cb_client=search.gws-prod.gps&w=408&h=240&yaw=254.95746&pitch=0&thumbfov=100",
    "kgmid": "/g/11mvmzhx5z",
    "classification": "independent",
    "is_independent": true,
    "is_compounding": false,
    "confidence": 0.85,
    "source": "perplexity",
    "method": "llm"
  },
  {
    "title": "Fairview produce pharmacy",
    "price": null,
    "categoryName": "Pharmacy",
    "address": "2555 W Fairview St # 104, Chandler, AZ 85224",
    "neighborhood": null,
    "street": "2555 W Fairview St # 104",
    "city": "Chandler",
    "postalCode": "85224",
    "state": "Arizona",
    "countryCode": "US",
    "claimThisBusiness": true,
    "location": {
      "lat": 33.2957137,
      "lng": -111.8872996
    },
    "permanentlyClosed": false,
    "temporarilyClosed": false,
    "placeId": null,
    "categories": [
      "Pharmacy"
    ],
    "fid": "0x872b01002ff20059:0x3e7187f621ad7546",
    "cid": "4499526993916556614",
    "reviewsCount": 0,
    "imagesCount": 1,
    "imageCategories": [],
    "scrapedAt": "2025-06-22T04:13:58.979Z",
    "googleFoodUrl": null,
    "hotelAds": [],
    "openingHours": [],
    "peopleAlsoSearch": [],
    "placesTags": [],
    "reviewsTags": [],
    "additionalInfo": {
      "Accessibility": [
        {
          "Wheelchair accessible entrance": true
        },
        {
          "Wheelchair accessible parking lot": true
        }
      ],
      "Payments": [
        {
          "Credit cards": true
        }
      ]
    },
    "gasPrices": [],
    "url": "https://www.google.com/maps/search/?api=1&query=Fairview%20produce%20pharmacy&query_place_id=ChIJWQDyLwABK4cRRnWtIfaHcT4",
    "searchPageUrl": "https://www.google.com/maps/search/independent%20pharmacy%20Chandler%20AZ/@59.25289458975259,-146.73244095711368,12z?hl=en",
    "searchString": "independent pharmacy Chandler AZ",
    "language": "en",
    "rank": 7,
    "isAdvertisement": false,
    "imageUrl": "https://streetviewpixels-pa.googleapis.com/v1/thumbnail?panoid=9CQJH1bKkveBXdyuEh9fDw&cb_client=search.gws-prod.gps&w=408&h=240&yaw=182.76814&pitch=0&thumbfov=100",
    "kgmid": "/g/11y46wc031",
    "classification": "independent",
    "is_independent": true,
    "is_compounding": false,
    "confidence": 0.85,
    "source": "perplexity",
    "method": "llm"
  },
  {
    "title": "Integrity Pharmacy Consultants, LLC.",
    "price": null,
    "categoryName": "Pharmacy",
    "address": "2925 E Riggs Rd 8 PMB 116, Chandler, AZ 85249",
    "neighborhood": "Cooper Commons",
    "street": "2925 E Riggs Rd 8 PMB 116",
    "city": "Chandler",
    "postalCode": "85249",
    "state": "Arizona",
    "countryCode": "US",
    "phone": "(866) 469-0871",
    "phoneUnformatted": "+18664690871",
    "claimThisBusiness": false,
    "location": {
      "lat": 33.2186565,
      "lng": -111.7915614
    },
    "permanentlyClosed": false,
    "temporarilyClosed": false,
    "placeId": null,
    "categories": [
      "Pharmacy"
    ],
    "fid": "0x872a5553a2578835:0xc0c1728d2aa6a924",
    "cid": "13889508676418840868",
    "reviewsCount": 0,
    "imagesCount": 1,
    "imageCategories": [],
    "scrapedAt": "2025-06-22T04:13:58.979Z",
    "googleFoodUrl": null,
    "hotelAds": [],
    "openingHours": [],
    "peopleAlsoSearch": [],
    "placesTags": [],
    "reviewsTags": [],
    "additionalInfo": {
      "From the business": [
        {
          "Small business": true
        }
      ],
      "Accessibility": [
        {
          "Wheelchair accessible entrance": true
        },
        {
          "Wheelchair accessible parking lot": true
        }
      ]
    },
    "gasPrices": [],
    "url": "https://www.google.com/maps/search/?api=1&query=Integrity%20Pharmacy%20Consultants%2C%20LLC.&query_place_id=ChIJNYhXolNVKocRJKmmKo1ywcA",
    "searchPageUrl": "https://www.google.com/maps/search/independent%20pharmacy%20Chandler%20AZ/@59.25289458975259,-146.73244095711368,12z?hl=en",
    "searchString": "independent pharmacy Chandler AZ",
    "language": "en",
    "rank": 9,
    "isAdvertisement": false,
    "imageUrl": "https://streetviewpixels-pa.googleapis.com/v1/thumbnail?panoid=pP7vTHyRLKhb0bB6Put3cw&cb_client=search.gws-prod.gps&w=408&h=240&yaw=308.21658&pitch=0&thumbfov=100",
    "kgmid": "/g/11j8_jqvd1",
    "classification": "independent",
    "is_independent": true,
    "is_compounding": false,
    "confidence": 0.85,
    "source": "perplexity",
    "method": "llm"
  }
]