[
  {
    "title": "Reddish Pharmacy",
    "price": null,
    "categoryName": "Pharmacy",
    "address": "215 E Hawaii Ave #100, Nampa, ID 83686",
    "neighborhood": null,
    "street": "215 E Hawaii Ave #100",
    "city": "Nampa",
    "postalCode": "83686",
    "state": "Idaho",
    "countryCode": "US",
    "website": "https://www.reddishpharmacy.com/",
    "phone": "(208) 466-7823",
    "phoneUnformatted": "+12084667823",
    "claimThisBusiness": false,
    "location": {
      "lat": 43.554544,
      "lng": -116.570748
    },
    "totalScore": 4.9,
    "permanentlyClosed": false,
    "temporarilyClosed": false,
    "placeId": null,
    "categories": [
      "Pharmacy"
    ],
    "fid": "0x54ae4bfc31df129d:0xfe0d9df6c79230da",
    "cid": "18306461743566696666",
    "reviewsCount": 95,
    "imagesCount": 1,
    "imageCategories": [],
    "scrapedAt": "2025-06-22T07:48:16.882Z",
    "googleFoodUrl": null,
    "hotelAds": [],
    "openingHours": [
      {
        "day": "Monday",
        "hours": "9\u202fAM to 6\u202fPM"
      },
      {
        "day": "Tuesday",
        "hours": "9\u202fAM to 6\u202fPM"
      },
      {
        "day": "Wednesday",
        "hours": "9\u202fAM to 6\u202fPM"
      },
      {
        "day": "Thursday",
        "hours": "9\u202fAM to 6\u202fPM"
      },
      {
        "day": "Friday",
        "hours": "9\u202fAM to 6\u202fPM"
      },
      {
        "day": "Saturday",
        "hours": "9\u202fAM to 12\u202fPM"
      },
      {
        "day": "Sunday",
        "hours": "Closed"
      }
    ],
    "peopleAlsoSearch": [],
    "placesTags": [],
    "reviewsTags": [],
    "additionalInfo": {
      "From the business": [
        {
          "Small business": true
        }
      ],
      "Service options": [
        {
          "Curbside pickup": true
        },
        {
          "Delivery": true
        },
        {
          "In-store pickup": true
        }
      ],
      "Accessibility": [
        {
          "Wheelchair accessible entrance": true
        },
        {
          "Wheelchair accessible parking lot": true
        }
      ],
      "Payments": [
        {
          "Credit cards": true
        },
        {
          "Debit cards": true
        },
        {
          "NFC mobile payments": true
        },
        {
          "Credit cards": true
        }
      ]
    },
    "gasPrices": [],
    "url": "https://www.google.com/maps/search/?api=1&query=Reddish%20Pharmacy&query_place_id=ChIJnRLfMfxLrlQR2jCSx_adDf4",
    "searchPageUrl": "https://www.google.com/maps/search/independent%20pharmacy%20Nampa%20ID/@52.14797767021313,-178.90571689665146,11z?hl=en",
    "searchString": "independent pharmacy Nampa ID",
    "language": "en",
    "rank": 1,
    "isAdvertisement": false,
    "imageUrl": "https://streetviewpixels-pa.googleapis.com/v1/thumbnail?panoid=C8wK0cKzGbj9c5DTIPZaWQ&cb_client=search.gws-prod.gps&w=408&h=240&yaw=352.6699&pitch=0&thumbfov=100",
    "kgmid": "/g/1v3hzq3v",
    "classification": "independent",
    "is_independent": true,
    "is_compounding": false,
    "confidence": 0.9,
    "source": "perplexity",
    "method": "llm",
    "query_location": "nampa_id"
  },
  {
    "title": "St. Luke's Retail Pharmacy: Nampa",
    "price": null,
    "categoryName": "Pharmacy",
    "address": "9850 W St Lukes Dr, Nampa, ID 83687",
    "neighborhood": null,
    "street": "9850 W St Lukes Dr",
    "city": "Nampa",
    "postalCode": "83687",
    "state": "Idaho",
    "countryCode": "US",
    "website": "https://www.stlukesonline.org/communities-and-locations/facilities/pharmacies/st-lukes-retail-pharmacy-nampa",
    "phone": "(208) 205-7637",
    "phoneUnformatted": "+12082057637",
    "claimThisBusiness": false,
    "location": {
      "lat": 43.6173907,
      "lng": -116.5903087
    },
    "totalScore": 4.3,
    "permanentlyClosed": false,
    "temporarilyClosed": false,
    "placeId": null,
    "categories": [
      "Pharmacy"
    ],
    "fid": "0x54ae4dc471ec8e4b:0xbb92862f78c5d432",
    "cid": "13516012970140095538",
    "reviewsCount": 37,
    "imagesCount": 1,
    "imageCategories": [],
    "scrapedAt": "2025-06-22T07:48:16.884Z",
    "googleFoodUrl": null,
    "hotelAds": [],
    "openingHours": [
      {
        "day": "Monday",
        "hours": "8\u202fAM to 7\u202fPM"
      },
      {
        "day": "Tuesday",
        "hours": "8\u202fAM to 7\u202fPM"
      },
      {
        "day": "Wednesday",
        "hours": "8\u202fAM to 7\u202fPM"
      },
      {
        "day": "Thursday",
        "hours": "8\u202fAM to 7\u202fPM"
      },
      {
        "day": "Friday",
        "hours": "8\u202fAM to 7\u202fPM"
      },
      {
        "day": "Saturday",
        "hours": "8\u202fAM to 3\u202fPM"
      },
      {
        "day": "Sunday",
        "hours": "Closed"
      }
    ],
    "peopleAlsoSearch": [],
    "placesTags": [],
    "reviewsTags": [],
    "additionalInfo": {
      "Service options": [
        {
          "Delivery": true
        },
        {
          "In-store shopping": true
        }
      ],
      "Accessibility": [
        {
          "Wheelchair accessible entrance": true
        },
        {
          "Wheelchair accessible parking lot": true
        },
        {
          "Wheelchair accessible restroom": true
        },
        {
          "Wheelchair accessible seating": true
        }
      ],
      "Payments": [
        {
          "Credit cards": true
        }
      ]
    },
    "gasPrices": [],
    "url": "https://www.google.com/maps/search/?api=1&query=St.%20Luke's%20Retail%20Pharmacy%3A%20Nampa&query_place_id=ChIJS47sccRNrlQRMtTFeC-Gkrs",
    "searchPageUrl": "https://www.google.com/maps/search/independent%20pharmacy%20Nampa%20ID/@52.14797767021313,-178.90571689665146,11z?hl=en",
    "searchString": "independent pharmacy Nampa ID",
    "language": "en",
    "rank": 2,
    "isAdvertisement": false,
    "imageUrl": "https://lh3.googleusercontent.com/p/AF1QipMYQQYokHEYDC2zp9yl1BzkDvuBkrxpBY7MLP58=w408-h332-k-no",
    "kgmid": "/g/11gyf813f5",
    "classification": "hospital",
    "is_independent": false,
    "is_compounding": false,
    "confidence": 0.98,
    "source": "perplexity",
    "method": "llm",
    "query_location": "nampa_id"
  },
  {
    "title": "Vic's Family Pharmacy",
    "price": null,
    "categoryName": "Pharmacy",
    "address": "1513 12th Ave Rd, Nampa, ID 83686",
    "neighborhood": null,
    "street": "1513 12th Ave Rd",
    "city": "Nampa",
    "postalCode": "83686",
    "state": "Idaho",
    "countryCode": "US",
    "website": "https://www.mygnp.com/pharmacies/vics-family-pharmacy-nampa-id-83686-2/?utm_source=google&utm_medium=local&utm_campaign=localmaps&utm_content=1304790",
    "phone": "(208) 465-7000",
    "phoneUnformatted": "+12084657000",
    "claimThisBusiness": false,
    "location": {
      "lat": 43.5536818,
      "lng": -116.5735149
    },
    "totalScore": 4.3,
    "permanentlyClosed": false,
    "temporarilyClosed": false,
    "placeId": null,
    "categories": [
      "Pharmacy",
      "Drug store"
    ],
    "fid": "0x54ae4bfdaa270623:0xacf3a9d1a6f8657c",
    "cid": "12462491311778850172",
    "reviewsCount": 75,
    "imagesCount": 8,
    "imageCategories": [],
    "scrapedAt": "2025-06-22T07:48:16.884Z",
    "googleFoodUrl": null,
    "hotelAds": [],
    "openingHours": [
      {
        "day": "Monday",
        "hours": "9\u202fAM to 6\u202fPM"
      },
      {
        "day": "Tuesday",
        "hours": "9\u202fAM to 6\u202fPM"
      },
      {
        "day": "Wednesday",
        "hours": "9\u202fAM to 6\u202fPM"
      },
      {
        "day": "Thursday",
        "hours": "9\u202fAM to 6\u202fPM"
      },
      {
        "day": "Friday",
        "hours": "9\u202fAM to 6\u202fPM"
      },
      {
        "day": "Saturday",
        "hours": "9\u202fAM to 12\u202fPM"
      },
      {
        "day": "Sunday",
        "hours": "Closed"
      }
    ],
    "peopleAlsoSearch": [],
    "placesTags": [],
    "reviewsTags": [],
    "additionalInfo": {
      "Service options": [
        {
          "Curbside pickup": true
        },
        {
          "Delivery": true
        },
        {
          "Drive-through": true
        },
        {
          "In-store pickup": true
        },
        {
          "In-store shopping": true
        },
        {
          "Same-day delivery": true
        }
      ],
      "Accessibility": [
        {
          "Wheelchair accessible entrance": true
        },
        {
          "Wheelchair accessible parking lot": true
        }
      ],
      "Planning": [
        {
          "Quick visit": true
        }
      ],
      "Payments": [
        {
          "Credit cards": true
        },
        {
          "Debit cards": true
        },
        {
          "NFC mobile payments": true
        },
        {
          "Credit cards": true
        }
      ]
    },
    "gasPrices": [],
    "url": "https://www.google.com/maps/search/?api=1&query=Vic's%20Family%20Pharmacy&query_place_id=ChIJIwYnqv1LrlQRfGX4ptGp86w",
    "searchPageUrl": "https://www.google.com/maps/search/independent%20pharmacy%20Nampa%20ID/@52.14797767021313,-178.90571689665146,11z?hl=en",
    "searchString": "independent pharmacy Nampa ID",
    "language": "en",
    "rank": 3,
    "isAdvertisement": false,
    "imageUrl": "https://lh3.googleusercontent.com/p/AF1QipPqFQ4OVWT-k7_xnOE9E_okV0NgIEmDrUs2hHBp=w408-h316-k-no",
    "kgmid": "/g/1tknk4sk",
    "classification": "independent",
    "is_independent": true,
    "is_compounding": false,
    "confidence": 0.9,
    "source": "perplexity",
    "method": "llm",
    "query_location": "nampa_id"
  },
  {
    "title": "Vic's Family Pharmacy - Midland Blvd",
    "price": null,
    "categoryName": "Pharmacy",
    "address": "118 S Midland Blvd, Nampa, ID 83686",
    "neighborhood": null,
    "street": "118 S Midland Blvd",
    "city": "Nampa",
    "postalCode": "83686",
    "state": "Idaho",
    "countryCode": "US",
    "website": "http://www.vicsfamilyrx.com/",
    "phone": "(208) 442-1000",
    "phoneUnformatted": "+12084421000",
    "claimThisBusiness": false,
    "location": {
      "lat": 43.5684489,
      "lng": -116.5920934
    },
    "totalScore": 4.2,
    "permanentlyClosed": false,
    "temporarilyClosed": false,
    "placeId": null,
    "categories": [
      "Pharmacy"
    ],
    "fid": "0x54ae4b92773208d5:0x843e96a61aeb2d1",
    "cid": "595576218857681617",
    "reviewsCount": 35,
    "imagesCount": 14,
    "imageCategories": [],
    "scrapedAt": "2025-06-22T07:48:29.233Z",
    "googleFoodUrl": null,
    "hotelAds": [],
    "openingHours": [
      {
        "day": "Monday",
        "hours": "9\u202fAM to 6\u202fPM"
      },
      {
        "day": "Tuesday",
        "hours": "9\u202fAM to 6\u202fPM"
      },
      {
        "day": "Wednesday",
        "hours": "9\u202fAM to 6\u202fPM"
      },
      {
        "day": "Thursday",
        "hours": "9\u202fAM to 6\u202fPM"
      },
      {
        "day": "Friday",
        "hours": "9\u202fAM to 6\u202fPM"
      },
      {
        "day": "Saturday",
        "hours": "1 to 4\u202fPM"
      },
      {
        "day": "Sunday",
        "hours": "Closed"
      }
    ],
    "peopleAlsoSearch": [],
    "placesTags": [],
    "reviewsTags": [],
    "additionalInfo": {
      "From the business": [
        {
          "Small business": true
        }
      ],
      "Service options": [
        {
          "Curbside pickup": true
        },
        {
          "Delivery": true
        },
        {
          "In-store pickup": true
        },
        {
          "In-store shopping": true
        }
      ],
      "Accessibility": [
        {
          "Wheelchair accessible entrance": true
        },
        {
          "Wheelchair accessible parking lot": true
        }
      ],
      "Planning": [
        {
          "Quick visit": true
        }
      ],
      "Payments": [
        {
          "Credit cards": true
        },
        {
          "Debit cards": true
        },
        {
          "NFC mobile payments": true
        },
        {
          "Credit cards": true
        }
      ]
    },
    "gasPrices": [],
    "url": "https://www.google.com/maps/search/?api=1&query=Vic's%20Family%20Pharmacy%20-%20Midland%20Blvd&query_place_id=ChIJ1Qgyd5JLrlQR0bKuYWrpQwg",
    "searchPageUrl": "https://www.google.com/maps/search/independent%20pharmacy%20Nampa%20ID/@42.54640259466427,-99.1509755427839,8z?hl=en",
    "searchString": "independent pharmacy Nampa ID",
    "language": "en",
    "rank": 4,
    "isAdvertisement": false,
    "imageUrl": "https://lh3.googleusercontent.com/p/AF1QipNNJ6ZqgIZXnBbxssSmDUG9346-eMPuRM6nNo-7=w408-h259-k-no",
    "kgmid": "/g/1tdhljst",
    "classification": "independent",
    "is_independent": true,
    "is_compounding": false,
    "confidence": 0.9,
    "source": "perplexity",
    "method": "llm",
    "query_location": "nampa_id"
  },
  {
    "title": "Full Circle Health - Nampa Pharmacy",
    "price": null,
    "categoryName": "Pharmacy",
    "address": "215 E Hawaii Ave, Nampa, ID 83686",
    "neighborhood": null,
    "street": "215 E Hawaii Ave",
    "city": "Nampa",
    "postalCode": "83686",
    "state": "Idaho",
    "countryCode": "US",
    "website": "https://www.fullcircleidaho.org/patients/pharmacy/",
    "phone": "(208) 954-8731",
    "phoneUnformatted": "+12089548731",
    "claimThisBusiness": false,
    "location": {
      "lat": 43.5546194,
      "lng": -116.570825
    },
    "totalScore": 4.7,
    "permanentlyClosed": false,
    "temporarilyClosed": false,
    "placeId": "ChIJFcfVPqZLrlQR47QKdbTr6p8",
    "categories": [
      "Pharmacy"
    ],
    "fid": "0x54ae4ba63ed5c715:0x9feaebb4750ab4e3",
    "cid": "11523281756871111907",
    "reviewsCount": 6,
    "imagesCount": 2,
    "imageCategories": [],
    "scrapedAt": "2025-06-22T07:48:29.694Z",
    "googleFoodUrl": null,
    "hotelAds": [],
    "openingHours": [
      {
        "day": "Monday",
        "hours": "9\u202fAM to 6\u202fPM"
      },
      {
        "day": "Tuesday",
        "hours": "9\u202fAM to 6\u202fPM"
      },
      {
        "day": "Wednesday",
        "hours": "9\u202fAM to 6\u202fPM"
      },
      {
        "day": "Thursday",
        "hours": "9\u202fAM to 6\u202fPM"
      },
      {
        "day": "Friday",
        "hours": "9\u202fAM to 6\u202fPM"
      },
      {
        "day": "Saturday",
        "hours": "Closed"
      },
      {
        "day": "Sunday",
        "hours": "Closed"
      }
    ],
    "peopleAlsoSearch": [],
    "placesTags": [],
    "reviewsTags": [],
    "additionalInfo": {
      "Accessibility": [
        {
          "Wheelchair accessible entrance": true
        },
        {
          "Wheelchair accessible parking lot": true
        }
      ],
      "Payments": [
        {
          "Credit cards": true
        }
      ]
    },
    "gasPrices": [],
    "url": "https://www.google.com/maps/search/?api=1&query=Full%20Circle%20Health%20-%20Nampa%20Pharmacy&query_place_id=ChIJFcfVPqZLrlQR47QKdbTr6p8",
    "searchPageUrl": "https://www.google.com/maps/search/independent%20pharmacy%20Nampa%20ID/@36.81849750000001,-108.6496533711355,8z?hl=en",
    "searchString": "independent pharmacy Nampa ID",
    "language": "en",
    "rank": 5,
    "isAdvertisement": false,
    "imageUrl": "https://lh3.googleusercontent.com/p/AF1QipPWa4f9ag37c7U93CYN13MyfkDD1dpv97MqEydN=w408-h306-k-no",
    "kgmid": "/g/11tnlbb077",
    "classification": "hospital",
    "is_independent": false,
    "confidence": 1.0,
    "source": "rule-based"
  },
  {
    "title": "Sav-On Pharmacy",
    "price": null,
    "categoryName": "Pharmacy",
    "address": "2400 12th Ave Rd, Nampa, ID 83686",
    "neighborhood": null,
    "street": "2400 12th Ave Rd",
    "city": "Nampa",
    "postalCode": "83686",
    "state": "Idaho",
    "countryCode": "US",
    "phone": "(208) 463-2903",
    "phoneUnformatted": "+12084632903",
    "claimThisBusiness": true,
    "location": {
      "lat": 43.5457077,
      "lng": -116.571578
    },
    "totalScore": 3.3,
    "permanentlyClosed": false,
    "temporarilyClosed": false,
    "placeId": null,
    "categories": [
      "Pharmacy"
    ],
    "fid": "0x54ae495a33e94ea1:0x5b6653919cdc5662",
    "cid": "6586043389942978146",
    "reviewsCount": 26,
    "imagesCount": 2,
    "imageCategories": [],
    "scrapedAt": "2025-06-22T07:48:29.694Z",
    "googleFoodUrl": null,
    "hotelAds": [],
    "openingHours": [
      {
        "day": "Monday",
        "hours": "8\u202fAM to 8\u202fPM"
      },
      {
        "day": "Tuesday",
        "hours": "8\u202fAM to 8\u202fPM"
      },
      {
        "day": "Wednesday",
        "hours": "8\u202fAM to 8\u202fPM"
      },
      {
        "day": "Thursday",
        "hours": "8\u202fAM to 8\u202fPM"
      },
      {
        "day": "Friday",
        "hours": "8\u202fAM to 8\u202fPM"
      },
      {
        "day": "Saturday",
        "hours": "9\u202fAM to 6\u202fPM"
      },
      {
        "day": "Sunday",
        "hours": "10\u202fAM to 4\u202fPM"
      }
    ],
    "peopleAlsoSearch": [],
    "placesTags": [],
    "reviewsTags": [],
    "additionalInfo": {
      "Service options": [
        {
          "Delivery": true
        }
      ],
      "Accessibility": [
        {
          "Wheelchair accessible entrance": true
        },
        {
          "Wheelchair accessible parking lot": true
        }
      ],
      "Planning": [
        {
          "Quick visit": true
        }
      ],
      "Payments": [
        {
          "Credit cards": true
        },
        {
          "Debit cards": true
        },
        {
          "Credit cards": true
        }
      ]
    },
    "gasPrices": [],
    "url": "https://www.google.com/maps/search/?api=1&query=Sav-On%20Pharmacy&query_place_id=ChIJoU7pM1pJrlQRYlbcnJFTZls",
    "searchPageUrl": "https://www.google.com/maps/search/independent%20pharmacy%20Nampa%20ID/@36.81849750000001,-108.6496533711355,8z?hl=en",
    "searchString": "independent pharmacy Nampa ID",
    "language": "en",
    "rank": 6,
    "isAdvertisement": false,
    "imageUrl": "https://lh3.googleusercontent.com/gps-cs-s/AC9h4npnIO1i23iTTAVGJYjsMj2LepkRqZffaLhX2LSZuKWb6Hza0vai1tZmoN-S1E97KlCHIXZtSE6QTklpC2359ZgHiuP26-ptwfE3PWDw6le1TKfyP6pHfn3zIfYn_ouLagZpl9zn=w408-h308-k-no",
    "kgmid": "/g/1tp26_jg",
    "classification": "chain",
    "is_independent": false,
    "is_compounding": false,
    "confidence": 0.98,
    "source": "perplexity",
    "method": "llm",
    "query_location": "nampa_id"
  },
  {
    "title": "Terry Reilly Health Services Pharmacy - Nampa",
    "price": null,
    "categoryName": "Pharmacy",
    "address": "207 1st St S, Nampa, ID 83651",
    "neighborhood": null,
    "street": "207 1st St S",
    "city": "Nampa",
    "postalCode": "83651",
    "state": "Idaho",
    "countryCode": "US",
    "website": "http://trhs.org/",
    "phone": "(208) 466-7869",
    "phoneUnformatted": "+12084667869",
    "claimThisBusiness": false,
    "location": {
      "lat": 43.5854787,
      "lng": -116.5703192
    },
    "totalScore": 3.3,
    "permanentlyClosed": false,
    "temporarilyClosed": false,
    "placeId": "ChIJX4SiqGZMrlQRd5RpPIUUAaQ",
    "categories": [
      "Pharmacy"
    ],
    "fid": "0x54ae4c66a8a2845f:0xa40114853c699477",
    "cid": "11817749459673650295",
    "reviewsCount": 23,
    "imagesCount": 8,
    "imageCategories": [],
    "scrapedAt": "2025-06-22T07:48:29.694Z",
    "googleFoodUrl": null,
    "hotelAds": [],
    "openingHours": [
      {
        "day": "Monday",
        "hours": "8\u202fAM to 6\u202fPM"
      },
      {
        "day": "Tuesday",
        "hours": "8\u202fAM to 6\u202fPM"
      },
      {
        "day": "Wednesday",
        "hours": "8\u202fAM to 6\u202fPM"
      },
      {
        "day": "Thursday",
        "hours": "8\u202fAM to 6\u202fPM"
      },
      {
        "day": "Friday",
        "hours": "8\u202fAM to 6\u202fPM"
      },
      {
        "day": "Saturday",
        "hours": "9\u202fAM to 3\u202fPM"
      },
      {
        "day": "Sunday",
        "hours": "Closed"
      }
    ],
    "peopleAlsoSearch": [],
    "placesTags": [],
    "reviewsTags": [],
    "additionalInfo": {
      "Service options": [
        {
          "In-store pickup": true
        }
      ],
      "Accessibility": [
        {
          "Wheelchair accessible entrance": true
        },
        {
          "Wheelchair accessible parking lot": true
        }
      ],
      "Planning": [
        {
          "Quick visit": true
        }
      ],
      "Payments": [
        {
          "Credit cards": true
        }
      ]
    },
    "gasPrices": [],
    "url": "https://www.google.com/maps/search/?api=1&query=Terry%20Reilly%20Health%20Services%20Pharmacy%20-%20Nampa&query_place_id=ChIJX4SiqGZMrlQRd5RpPIUUAaQ",
    "searchPageUrl": "https://www.google.com/maps/search/independent%20pharmacy%20Nampa%20ID/@36.81849750000001,-108.6496533711355,8z?hl=en",
    "searchString": "independent pharmacy Nampa ID",
    "language": "en",
    "rank": 7,
    "isAdvertisement": false,
    "imageUrl": "https://lh3.googleusercontent.com/p/AF1QipPErpbJxG9ipbZajdI1TFhB-YQrYC2YEOFX2ggP=w408-h272-k-no",
    "kgmid": "/g/11f30dw0jt",
    "classification": "hospital",
    "is_independent": false,
    "confidence": 1.0,
    "source": "rule-based"
  },
  {
    "title": "Walgreens Pharmacy",
    "description": "Department of the Walgreens chain providing prescription medications & other health-related items.",
    "price": "$$",
    "categoryName": "Pharmacy",
    "address": "700 12th Ave S, Nampa, ID 83651",
    "neighborhood": null,
    "street": "700 12th Ave S",
    "city": "Nampa",
    "postalCode": "83651",
    "state": "Idaho",
    "countryCode": "US",
    "website": "https://www.walgreens.com/locator/walgreens-700+12th+ave+s-nampa-id-83651/id=5648",
    "phone": "(208) 467-1560",
    "phoneUnformatted": "+12084671560",
    "claimThisBusiness": false,
    "location": {
      "lat": 43.573519,
      "lng": -116.5654403
    },
    "totalScore": 2.3,
    "permanentlyClosed": false,
    "temporarilyClosed": false,
    "placeId": "ChIJVdfqXG1MrlQRRbgbxwwS-DA",
    "categories": [
      "Pharmacy"
    ],
    "fid": "0x54ae4c6d5cead755:0x30f8120cc71bb845",
    "cid": "3528590154134173765",
    "reviewsCount": 27,
    "imagesCount": 4,
    "imageCategories": [],
    "scrapedAt": "2025-06-22T07:48:29.694Z",
    "googleFoodUrl": null,
    "hotelAds": [],
    "openingHours": [
      {
        "day": "Monday",
        "hours": "9\u202fAM to 1:30\u202fPM, 2 to 8\u202fPM"
      },
      {
        "day": "Tuesday",
        "hours": "9\u202fAM to 1:30\u202fPM, 2 to 8\u202fPM"
      },
      {
        "day": "Wednesday",
        "hours": "9\u202fAM to 1:30\u202fPM, 2 to 8\u202fPM"
      },
      {
        "day": "Thursday",
        "hours": "9\u202fAM to 1:30\u202fPM, 2 to 8\u202fPM"
      },
      {
        "day": "Friday",
        "hours": "9\u202fAM to 1:30\u202fPM, 2 to 8\u202fPM"
      },
      {
        "day": "Saturday",
        "hours": "9\u202fAM to 1:30\u202fPM, 2 to 5\u202fPM"
      },
      {
        "day": "Sunday",
        "hours": "9\u202fAM to 1:30\u202fPM, 2 to 5\u202fPM"
      }
    ],
    "additionalOpeningHours": {
      "Drive through": [
        {
          "day": "Monday",
          "hours": "9\u202fAM\u20131:30\u202fPM"
        },
        {
          "day": "Tuesday",
          "hours": "9\u202fAM\u20131:30\u202fPM"
        },
        {
          "day": "Wednesday",
          "hours": "9\u202fAM\u20131:30\u202fPM"
        },
        {
          "day": "Thursday",
          "hours": "9\u202fAM\u20131:30\u202fPM"
        },
        {
          "day": "Friday",
          "hours": "9\u202fAM\u20131:30\u202fPM"
        },
        {
          "day": "Saturday",
          "hours": "9\u202fAM\u20131:30\u202fPM"
        },
        {
          "day": "Sunday",
          "hours": "9\u202fAM\u20131:30\u202fPM"
        }
      ]
    },
    "peopleAlsoSearch": [],
    "placesTags": [],
    "reviewsTags": [],
    "additionalInfo": {
      "Service options": [
        {
          "Curbside pickup": true
        },
        {
          "Drive-through": true
        },
        {
          "In-store pickup": true
        },
        {
          "Onsite services": true
        }
      ],
      "Accessibility": [
        {
          "Wheelchair accessible entrance": true
        },
        {
          "Wheelchair accessible parking lot": true
        }
      ],
      "Offerings": [
        {
          "Medication disposal": true
        },
        {
          "Naloxone": true
        }
      ],
      "Planning": [
        {
          "Quick visit": true
        }
      ],
      "Payments": [
        {
          "Checks": true
        },
        {
          "Credit cards": true
        },
        {
          "Debit cards": true
        }
      ]
    },
    "gasPrices": [],
    "url": "https://www.google.com/maps/search/?api=1&query=Walgreens%20Pharmacy&query_place_id=ChIJVdfqXG1MrlQRRbgbxwwS-DA",
    "searchPageUrl": "https://www.google.com/maps/search/independent%20pharmacy%20Nampa%20ID/@36.81849750000001,-108.6496533711355,8z?hl=en",
    "searchString": "independent pharmacy Nampa ID",
    "language": "en",
    "rank": 8,
    "isAdvertisement": false,
    "imageUrl": "https://lh3.googleusercontent.com/p/AF1QipOqufJTmhuTBLs8s94Th-ntMmODfnnBNuEtV2OU=w525-h240-k-no",
    "kgmid": "/g/11cn96r_d_",
    "classification": "chain",
    "is_independent": false,
    "confidence": 1.0,
    "source": "rule-based"
  },
  {
    "title": "Fred Meyer Pharmacy",
    "price": null,
    "categoryName": "Pharmacy",
    "address": "50 2nd St S, Nampa, ID 83651",
    "neighborhood": null,
    "street": "50 2nd St S",
    "city": "Nampa",
    "postalCode": "83651",
    "state": "Idaho",
    "countryCode": "US",
    "website": "https://www.fredmeyer.com/rx/pharmacy/details/701/00226?cid=loc_70100226P_gmb",
    "phone": "(208) 465-2836",
    "phoneUnformatted": "+12084652836",
    "claimThisBusiness": false,
    "location": {
      "lat": 43.5883845,
      "lng": -116.5743872
    },
    "totalScore": 3,
    "permanentlyClosed": false,
    "temporarilyClosed": false,
    "placeId": "ChIJg_voPWJMrlQREdoOb8prraw",
    "categories": [
      "Pharmacy",
      "Drug store",
      "Health counselor",
      "Home health care service"
    ],
    "fid": "0x54ae4c623de8fb83:0xacad6bca6f0eda11",
    "cid": "12442719862685358609",
    "reviewsCount": 65,
    "imagesCount": 10,
    "imageCategories": [],
    "scrapedAt": "2025-06-22T07:48:29.694Z",
    "googleFoodUrl": null,
    "hotelAds": [],
    "openingHours": [
      {
        "day": "Monday",
        "hours": "9\u202fAM to 1\u202fPM, 1:30 to 8\u202fPM"
      },
      {
        "day": "Tuesday",
        "hours": "9\u202fAM to 1\u202fPM, 1:30 to 8\u202fPM"
      },
      {
        "day": "Wednesday",
        "hours": "9\u202fAM to 1\u202fPM, 1:30 to 8\u202fPM"
      },
      {
        "day": "Thursday",
        "hours": "9\u202fAM to 1\u202fPM, 1:30 to 8\u202fPM"
      },
      {
        "day": "Friday",
        "hours": "9\u202fAM to 1\u202fPM, 1:30 to 8\u202fPM"
      },
      {
        "day": "Saturday",
        "hours": "9\u202fAM to 1\u202fPM, 1:30 to 6\u202fPM"
      },
      {
        "day": "Sunday",
        "hours": "10\u202fAM to 1\u202fPM, 1:30 to 5\u202fPM"
      }
    ],
    "peopleAlsoSearch": [],
    "placesTags": [],
    "reviewsTags": [],
    "additionalInfo": {
      "Service options": [
        {
          "Curbside pickup": true
        },
        {
          "Delivery": true
        },
        {
          "In-store pickup": true
        },
        {
          "In-store shopping": true
        },
        {
          "Same-day delivery": true
        }
      ],
      "Accessibility": [
        {
          "Wheelchair accessible entrance": true
        },
        {
          "Wheelchair accessible parking lot": true
        },
        {
          "Wheelchair accessible restroom": true
        },
        {
          "Wheelchair accessible seating": true
        }
      ],
      "Crowd": [
        {
          "LGBTQ+ friendly": true
        },
        {
          "Transgender safespace": true
        }
      ],
      "Planning": [
        {
          "Quick visit": true
        }
      ],
      "Payments": [
        {
          "Checks": true
        },
        {
          "Credit cards": true
        },
        {
          "Debit cards": true
        },
        {
          "NFC mobile payments": true
        },
        {
          "Credit cards": true
        }
      ]
    },
    "gasPrices": [],
    "url": "https://www.google.com/maps/search/?api=1&query=Fred%20Meyer%20Pharmacy&query_place_id=ChIJg_voPWJMrlQREdoOb8prraw",
    "searchPageUrl": "https://www.google.com/maps/search/independent%20pharmacy%20Nampa%20ID/@36.81849750000001,-108.6496533711355,8z?hl=en",
    "searchString": "independent pharmacy Nampa ID",
    "language": "en",
    "rank": 9,
    "isAdvertisement": false,
    "imageUrl": "https://lh3.googleusercontent.com/p/AF1QipPopCxQGNLzRCyDWCSLhP65VEdkuI-SmxMvjPht=w426-h240-k-no",
    "kgmid": "/g/1pv608pz_",
    "classification": "chain",
    "is_independent": false,
    "confidence": 1.0,
    "source": "rule-based"
  },
  {
    "title": "CVS Pharmacy",
    "description": "Drugstore chain selling a variety of beauty & health products, plus some grocery & household items.",
    "price": null,
    "categoryName": "Pharmacy",
    "address": "16300 N Marketplace Blvd, Nampa, ID 83687",
    "neighborhood": null,
    "street": "16300 N Marketplace Blvd",
    "city": "Nampa",
    "postalCode": "83687",
    "state": "Idaho",
    "countryCode": "US",
    "website": "https://www.cvs.com/store-locator/nampa-id-pharmacies/16300-n-market-place-blvd-nampa-id-83687/storeid=17284?WT.mc_id=LS_GOOGLE_RX_17284",
    "phone": "(208) 465-6801",
    "phoneUnformatted": "+12084656801",
    "claimThisBusiness": false,
    "location": {
      "lat": 43.6097946,
      "lng": -116.588899
    },
    "totalScore": 2.4,
    "permanentlyClosed": false,
    "temporarilyClosed": false,
    "placeId": "ChIJIco4ML9MrlQRMrUPm3n4Su0",
    "categories": [
      "Pharmacy"
    ],
    "fid": "0x54ae4cbf3038ca21:0xed4af8799b0fb532",
    "cid": "17098752136441738546",
    "reviewsCount": 96,
    "imagesCount": 7,
    "imageCategories": [],
    "scrapedAt": "2025-06-22T07:48:29.695Z",
    "googleFoodUrl": null,
    "hotelAds": [],
    "openingHours": [
      {
        "day": "Monday",
        "hours": "9\u202fAM to 1:30\u202fPM, 2 to 7\u202fPM"
      },
      {
        "day": "Tuesday",
        "hours": "9\u202fAM to 1:30\u202fPM, 2 to 7\u202fPM"
      },
      {
        "day": "Wednesday",
        "hours": "9\u202fAM to 1:30\u202fPM, 2 to 7\u202fPM"
      },
      {
        "day": "Thursday",
        "hours": "9\u202fAM to 1:30\u202fPM, 2 to 7\u202fPM"
      },
      {
        "day": "Friday",
        "hours": "9\u202fAM to 1:30\u202fPM, 2 to 7\u202fPM"
      },
      {
        "day": "Saturday",
        "hours": "Closed"
      },
      {
        "day": "Sunday",
        "hours": "Closed"
      }
    ],
    "peopleAlsoSearch": [],
    "placesTags": [],
    "reviewsTags": [],
    "additionalInfo": {
      "Service options": [
        {
          "Delivery": true
        },
        {
          "In-store shopping": true
        }
      ],
      "Accessibility": [
        {
          "Wheelchair accessible entrance": true
        },
        {
          "Wheelchair accessible parking lot": true
        }
      ],
      "Offerings": [
        {
          "Medication disposal": true
        },
        {
          "Naloxone": true
        }
      ],
      "Crowd": [
        {
          "LGBTQ+ friendly": true
        },
        {
          "Transgender safespace": true
        }
      ],
      "Planning": [
        {
          "Quick visit": true
        }
      ],
      "Payments": [
        {
          "Credit cards": true
        },
        {
          "Debit cards": true
        },
        {
          "Credit cards": true
        }
      ]
    },
    "gasPrices": [],
    "url": "https://www.google.com/maps/search/?api=1&query=CVS%20Pharmacy&query_place_id=ChIJIco4ML9MrlQRMrUPm3n4Su0",
    "searchPageUrl": "https://www.google.com/maps/search/independent%20pharmacy%20Nampa%20ID/@36.81849750000001,-108.6496533711355,8z?hl=en",
    "searchString": "independent pharmacy Nampa ID",
    "language": "en",
    "rank": 10,
    "isAdvertisement": false,
    "imageUrl": "https://lh3.googleusercontent.com/p/AF1QipPH59bTYAvydv7N9GbggwVm5Rce1QkcFwz-Jl4Q=w408-h272-k-no",
    "kgmid": "/g/1tf9y451",
    "classification": "chain",
    "is_independent": false,
    "confidence": 1.0,
    "source": "rule-based"
  },
  {
    "title": "Albertsons Pharmacy",
    "price": "$$",
    "categoryName": "Pharmacy",
    "address": "715 12th Ave S, Nampa, ID 83651",
    "neighborhood": null,
    "street": "715 12th Ave S",
    "city": "Nampa",
    "postalCode": "83651",
    "state": "Idaho",
    "countryCode": "US",
    "website": "https://local.pharmacy.albertsons.com/id/nampa/715-12th-ave-s.html",
    "phone": "(208) 466-3592",
    "phoneUnformatted": "+12084663592",
    "claimThisBusiness": false,
    "location": {
      "lat": 43.5743695,
      "lng": -116.5668745
    },
    "totalScore": 3,
    "permanentlyClosed": false,
    "temporarilyClosed": false,
    "placeId": "ChIJs6d6gnJMrlQRKPoGDBrV8xI",
    "categories": [
      "Pharmacy",
      "Drug store",
      "Vitamin & supplements store"
    ],
    "fid": "0x54ae4c72827aa7b3:0x12f3d51a0c06fa28",
    "cid": "1365669419871042088",
    "reviewsCount": 53,
    "imagesCount": 6,
    "imageCategories": [],
    "scrapedAt": "2025-06-22T07:48:29.695Z",
    "googleFoodUrl": null,
    "hotelAds": [],
    "openingHours": [
      {
        "day": "Monday",
        "hours": "8\u202fAM to 8\u202fPM"
      },
      {
        "day": "Tuesday",
        "hours": "8\u202fAM to 8\u202fPM"
      },
      {
        "day": "Wednesday",
        "hours": "8\u202fAM to 8\u202fPM"
      },
      {
        "day": "Thursday",
        "hours": "8\u202fAM to 8\u202fPM"
      },
      {
        "day": "Friday",
        "hours": "8\u202fAM to 8\u202fPM"
      },
      {
        "day": "Saturday",
        "hours": "9\u202fAM to 6\u202fPM"
      },
      {
        "day": "Sunday",
        "hours": "10\u202fAM to 4\u202fPM"
      }
    ],
    "peopleAlsoSearch": [],
    "placesTags": [],
    "reviewsTags": [],
    "additionalInfo": {
      "Service options": [
        {
          "Delivery": true
        },
        {
          "In-store pickup": true
        },
        {
          "In-store shopping": true
        },
        {
          "Onsite services": true
        },
        {
          "Same-day delivery": true
        }
      ],
      "Accessibility": [
        {
          "Wheelchair accessible entrance": true
        },
        {
          "Wheelchair accessible parking lot": true
        }
      ],
      "Crowd": [
        {
          "LGBTQ+ friendly": true
        }
      ],
      "Planning": [
        {
          "Appointment required": true
        },
        {
          "Quick visit": true
        }
      ],
      "Payments": [
        {
          "Checks": true
        },
        {
          "Debit cards": true
        },
        {
          "Credit cards": true
        }
      ]
    },
    "gasPrices": [],
    "url": "https://www.google.com/maps/search/?api=1&query=Albertsons%20Pharmacy&query_place_id=ChIJs6d6gnJMrlQRKPoGDBrV8xI",
    "searchPageUrl": "https://www.google.com/maps/search/independent%20pharmacy%20Nampa%20ID/@36.81849750000001,-108.6496533711355,8z?hl=en",
    "searchString": "independent pharmacy Nampa ID",
    "language": "en",
    "rank": 11,
    "isAdvertisement": false,
    "imageUrl": "https://lh3.googleusercontent.com/gps-cs-s/AC9h4nqpyxH0aWfW7p86sbvdFsXDlNfeROcDCOI-Fpoi8MkOC6MWQUxTwneSmEOa3RH4YxmZta-P0O24ldk6pxsY0RZl7KlxrjNK2u0XOdCUU29m8UV4RrfKGaQwgUiVwFciZF46rJI=w408-h306-k-no",
    "kgmid": "/g/1tsyjxxx",
    "classification": "chain",
    "is_independent": false,
    "confidence": 1.0,
    "source": "rule-based"
  },
  {
    "title": "TRHS Pharmacy",
    "price": null,
    "categoryName": "Pharmacy",
    "address": "223 16th Ave N, Nampa, ID 83687",
    "neighborhood": null,
    "street": "223 16th Ave N",
    "city": "Nampa",
    "postalCode": "83687",
    "state": "Idaho",
    "countryCode": "US",
    "website": "https://www.trhs.org/pharmacy",
    "phone": "(208) 318-1376",
    "phoneUnformatted": "+12083181376",
    "claimThisBusiness": true,
    "location": {
      "lat": 43.5792411,
      "lng": -116.5521226
    },
    "permanentlyClosed": false,
    "temporarilyClosed": false,
    "placeId": null,
    "categories": [
      "Pharmacy"
    ],
    "fid": "0x54ae4c410e99b85d:0x9e1b044e9686f1e0",
    "cid": "11392704417943187936",
    "reviewsCount": 0,
    "imagesCount": 1,
    "imageCategories": [],
    "scrapedAt": "2025-06-22T07:48:29.695Z",
    "googleFoodUrl": null,
    "hotelAds": [],
    "openingHours": [
      {
        "day": "Monday",
        "hours": "8\u202fAM to 6\u202fPM"
      },
      {
        "day": "Tuesday",
        "hours": "8\u202fAM to 6\u202fPM"
      },
      {
        "day": "Wednesday",
        "hours": "8\u202fAM to 6\u202fPM"
      },
      {
        "day": "Thursday",
        "hours": "8\u202fAM to 6\u202fPM"
      },
      {
        "day": "Friday",
        "hours": "8\u202fAM to 6\u202fPM"
      },
      {
        "day": "Saturday",
        "hours": "Closed"
      },
      {
        "day": "Sunday",
        "hours": "Closed"
      }
    ],
    "peopleAlsoSearch": [],
    "placesTags": [],
    "reviewsTags": [],
    "additionalInfo": {
      "Service options": [
        {
          "Drive-through": true
        }
      ],
      "Accessibility": [
        {
          "Wheelchair accessible entrance": true
        },
        {
          "Wheelchair accessible parking lot": true
        }
      ],
      "Payments": [
        {
          "Credit cards": true
        }
      ]
    },
    "gasPrices": [],
    "url": "https://www.google.com/maps/search/?api=1&query=TRHS%20Pharmacy&query_place_id=ChIJXbiZDkFMrlQR4PGGlk4EG54",
    "searchPageUrl": "https://www.google.com/maps/search/independent%20pharmacy%20Nampa%20ID/@36.81849750000001,-108.6496533711355,8z?hl=en",
    "searchString": "independent pharmacy Nampa ID",
    "language": "en",
    "rank": 12,
    "isAdvertisement": false,
    "imageUrl": "https://streetviewpixels-pa.googleapis.com/v1/thumbnail?panoid=Y50rZE1-6sXdD7ntYIYoaQ&cb_client=search.gws-prod.gps&w=408&h=240&yaw=354.24277&pitch=0&thumbfov=100",
    "kgmid": "/g/1v830v3n",
    "classification": "hospital",
    "is_independent": false,
    "is_compounding": false,
    "confidence": 0.95,
    "source": "perplexity",
    "method": "llm",
    "query_location": "nampa_id"
  },
  {
    "title": "Med Now Pharmacy",
    "price": null,
    "categoryName": "Pharmacy",
    "address": "4400 E Flamingo Ave, Nampa, ID 83687",
    "neighborhood": null,
    "street": "4400 E Flamingo Ave",
    "city": "Nampa",
    "postalCode": "83687",
    "state": "Idaho",
    "countryCode": "US",
    "website": "https://www.saintalphonsus.org/location/saint-alphonsus-nampa-mednow-pharmacy",
    "phone": "(208) 205-0660",
    "phoneUnformatted": "+12082050660",
    "claimThisBusiness": true,
    "location": {
      "lat": 43.5975126,
      "lng": -116.5172491
    },
    "totalScore": 4.4,
    "permanentlyClosed": false,
    "temporarilyClosed": false,
    "placeId": null,
    "categories": [
      "Pharmacy"
    ],
    "fid": "0x54ae4ddec652913d:0x5f710c74e95bdf6b",
    "cid": "6877291802242309995",
    "reviewsCount": 14,
    "imagesCount": 2,
    "imageCategories": [],
    "scrapedAt": "2025-06-22T07:48:29.695Z",
    "googleFoodUrl": null,
    "hotelAds": [],
    "openingHours": [
      {
        "day": "Monday",
        "hours": "8\u202fAM to 6\u202fPM"
      },
      {
        "day": "Tuesday",
        "hours": "8\u202fAM to 6\u202fPM"
      },
      {
        "day": "Wednesday",
        "hours": "8\u202fAM to 6\u202fPM"
      },
      {
        "day": "Thursday",
        "hours": "8\u202fAM to 6\u202fPM"
      },
      {
        "day": "Friday",
        "hours": "8\u202fAM to 6\u202fPM"
      },
      {
        "day": "Saturday",
        "hours": "9\u202fAM to 1\u202fPM"
      },
      {
        "day": "Sunday",
        "hours": "Closed"
      }
    ],
    "peopleAlsoSearch": [],
    "placesTags": [],
    "reviewsTags": [],
    "additionalInfo": {
      "Service options": [
        {
          "Delivery": true
        }
      ],
      "Accessibility": [
        {
          "Wheelchair accessible entrance": true
        },
        {
          "Wheelchair accessible parking lot": true
        }
      ],
      "Payments": [
        {
          "Credit cards": true
        }
      ]
    },
    "gasPrices": [],
    "url": "https://www.google.com/maps/search/?api=1&query=Med%20Now%20Pharmacy&query_place_id=ChIJPZFSxt5NrlQRa99b6XQMcV8",
    "searchPageUrl": "https://www.google.com/maps/search/independent%20pharmacy%20Nampa%20ID/@36.81849750000001,-108.6496533711355,8z?hl=en",
    "searchString": "independent pharmacy Nampa ID",
    "language": "en",
    "rank": 13,
    "isAdvertisement": false,
    "imageUrl": "https://lh3.googleusercontent.com/gps-cs-s/AC9h4nq7Hi7ggQM5TPsz1EDX3InxlaIQtUHu2ZYgTHIk3jni5T--ZdXblip6Br3eUnHLvZxXrF3EFbEsYZSOTsHamOR4KhzyzFQ4cJ1YS7cXJ5gT1PYu_nSDUbMVszxwo03m8cZO-7O9Wg=w408-h905-k-no",
    "kgmid": "/g/11h_cl97ry",
    "classification": "hospital",
    "is_independent": false,
    "is_compounding": false,
    "confidence": 0.98,
    "source": "perplexity",
    "method": "llm",
    "query_location": "nampa_id"
  },
  {
    "title": "Walgreens Pharmacy",
    "description": "Department of the Walgreens chain providing prescription medications & other health-related items.",
    "price": "$$",
    "categoryName": "Pharmacy",
    "address": "932 Caldwell Blvd, Nampa, ID 83651",
    "neighborhood": null,
    "street": "932 Caldwell Blvd",
    "city": "Nampa",
    "postalCode": "83651",
    "state": "Idaho",
    "countryCode": "US",
    "website": "https://www.walgreens.com/locator/walgreens-932+caldwell+blvd-nampa-id-83651/id=12483",
    "phone": "(208) 318-0018",
    "phoneUnformatted": "+12083180018",
    "claimThisBusiness": false,
    "location": {
      "lat": 43.5988372,
      "lng": -116.5921307
    },
    "totalScore": 2.9,
    "permanentlyClosed": false,
    "temporarilyClosed": false,
    "placeId": "ChIJC80YDJpMrlQRL_ZbhtBPFI8",
    "categories": [
      "Pharmacy"
    ],
    "fid": "0x54ae4c9a0c18cd0b:0x8f144fd0865bf62f",
    "cid": "10309953203983873583",
    "reviewsCount": 25,
    "imagesCount": 2,
    "imageCategories": [],
    "scrapedAt": "2025-06-22T07:48:29.695Z",
    "googleFoodUrl": null,
    "hotelAds": [],
    "openingHours": [
      {
        "day": "Monday",
        "hours": "9\u202fAM to 1:30\u202fPM, 2 to 8\u202fPM"
      },
      {
        "day": "Tuesday",
        "hours": "9\u202fAM to 1:30\u202fPM, 2 to 8\u202fPM"
      },
      {
        "day": "Wednesday",
        "hours": "9\u202fAM to 1:30\u202fPM, 2 to 8\u202fPM"
      },
      {
        "day": "Thursday",
        "hours": "9\u202fAM to 1:30\u202fPM, 2 to 8\u202fPM"
      },
      {
        "day": "Friday",
        "hours": "9\u202fAM to 1:30\u202fPM, 2 to 8\u202fPM"
      },
      {
        "day": "Saturday",
        "hours": "9\u202fAM to 1:30\u202fPM, 2 to 5\u202fPM"
      },
      {
        "day": "Sunday",
        "hours": "9\u202fAM to 1:30\u202fPM, 2 to 5\u202fPM"
      }
    ],
    "additionalOpeningHours": {
      "Drive through": [
        {
          "day": "Monday",
          "hours": "9\u202fAM\u20131:30\u202fPM"
        },
        {
          "day": "Tuesday",
          "hours": "9\u202fAM\u20131:30\u202fPM"
        },
        {
          "day": "Wednesday",
          "hours": "9\u202fAM\u20131:30\u202fPM"
        },
        {
          "day": "Thursday",
          "hours": "9\u202fAM\u20131:30\u202fPM"
        },
        {
          "day": "Friday",
          "hours": "9\u202fAM\u20131:30\u202fPM"
        },
        {
          "day": "Saturday",
          "hours": "9\u202fAM\u20131:30\u202fPM"
        },
        {
          "day": "Sunday",
          "hours": "9\u202fAM\u20131:30\u202fPM"
        }
      ]
    },
    "peopleAlsoSearch": [],
    "placesTags": [],
    "reviewsTags": [],
    "additionalInfo": {
      "Service options": [
        {
          "Drive-through": true
        },
        {
          "In-store pickup": true
        }
      ],
      "Accessibility": [
        {
          "Wheelchair accessible entrance": true
        },
        {
          "Wheelchair accessible parking lot": true
        }
      ],
      "Offerings": [
        {
          "Naloxone": true
        }
      ],
      "Planning": [
        {
          "Quick visit": true
        }
      ],
      "Payments": [
        {
          "Checks": true
        },
        {
          "Credit cards": true
        },
        {
          "Debit cards": true
        }
      ]
    },
    "gasPrices": [],
    "url": "https://www.google.com/maps/search/?api=1&query=Walgreens%20Pharmacy&query_place_id=ChIJC80YDJpMrlQRL_ZbhtBPFI8",
    "searchPageUrl": "https://www.google.com/maps/search/independent%20pharmacy%20Nampa%20ID/@36.81849750000001,-108.6496533711355,8z?hl=en",
    "searchString": "independent pharmacy Nampa ID",
    "language": "en",
    "rank": 14,
    "isAdvertisement": false,
    "imageUrl": "https://lh3.googleusercontent.com/p/AF1QipMqbY9QiPvKBDN_alnstOAQGKQh5fbIXlUGM-ss=w427-h240-k-no",
    "kgmid": "/g/11cn96myr6",
    "classification": "chain",
    "is_independent": false,
    "confidence": 1.0,
    "source": "rule-based"
  },
  {
    "title": "Genoa Healthcare",
    "price": null,
    "categoryName": "Pharmacy",
    "address": "217 W Georgia Ave Suite 120; Room P, Nampa, ID 83686",
    "neighborhood": null,
    "street": "217 W Georgia Ave Suite 120; Room P",
    "city": "Nampa",
    "postalCode": "83686",
    "state": "Idaho",
    "countryCode": "US",
    "website": "https://www.genoahealthcare.com/",
    "phone": "(208) 800-6030",
    "phoneUnformatted": "+12088006030",
    "claimThisBusiness": false,
    "location": {
      "lat": 43.5556802,
      "lng": -116.5751672
    },
    "totalScore": 5,
    "permanentlyClosed": false,
    "temporarilyClosed": false,
    "placeId": "ChIJ7-63OKJLrlQR94D9yxmSV_E",
    "categories": [
      "Pharmacy"
    ],
    "fid": "0x54ae4ba238b7eeef:0xf1579219cbfd80f7",
    "cid": "17390529125608685815",
    "reviewsCount": 1,
    "imagesCount": 1,
    "imageCategories": [],
    "scrapedAt": "2025-06-22T07:48:29.695Z",
    "googleFoodUrl": null,
    "hotelAds": [],
    "openingHours": [
      {
        "day": "Monday",
        "hours": "8:30\u202fAM to 12:30\u202fPM, 1 to 5\u202fPM"
      },
      {
        "day": "Tuesday",
        "hours": "8:30\u202fAM to 12:30\u202fPM, 1 to 5\u202fPM"
      },
      {
        "day": "Wednesday",
        "hours": "8:30\u202fAM to 12:30\u202fPM, 1 to 5\u202fPM"
      },
      {
        "day": "Thursday",
        "hours": "8:30\u202fAM to 12:30\u202fPM, 1 to 5\u202fPM"
      },
      {
        "day": "Friday",
        "hours": "8:30\u202fAM to 12:30\u202fPM, 1 to 5\u202fPM"
      },
      {
        "day": "Saturday",
        "hours": "Closed"
      },
      {
        "day": "Sunday",
        "hours": "Closed"
      }
    ],
    "peopleAlsoSearch": [],
    "placesTags": [],
    "reviewsTags": [],
    "additionalInfo": {
      "Accessibility": [
        {
          "Wheelchair accessible entrance": true
        },
        {
          "Wheelchair accessible parking lot": true
        }
      ]
    },
    "gasPrices": [],
    "url": "https://www.google.com/maps/search/?api=1&query=Genoa%20Healthcare&query_place_id=ChIJ7-63OKJLrlQR94D9yxmSV_E",
    "searchPageUrl": "https://www.google.com/maps/search/independent%20pharmacy%20Nampa%20ID/@36.81849750000001,-108.6496533711355,8z?hl=en",
    "searchString": "independent pharmacy Nampa ID",
    "language": "en",
    "rank": 15,
    "isAdvertisement": false,
    "imageUrl": "https://streetviewpixels-pa.googleapis.com/v1/thumbnail?panoid=fB5M-gGvJceEbGL9VXWKWg&cb_client=search.gws-prod.gps&w=408&h=240&yaw=269.6351&pitch=0&thumbfov=100",
    "kgmid": "/g/11vqhpr73p",
    "classification": "chain",
    "is_independent": false,
    "confidence": 1.0,
    "source": "rule-based"
  },
  {
    "title": "Walgreens Pharmacy",
    "description": "Department of the Walgreens chain providing prescription medications & other health-related items.",
    "price": null,
    "categoryName": "Pharmacy",
    "address": "2219 12th Ave Rd, Nampa, ID 83686",
    "neighborhood": null,
    "street": "2219 12th Ave Rd",
    "city": "Nampa",
    "postalCode": "83686",
    "state": "Idaho",
    "countryCode": "US",
    "website": "https://www.walgreens.com/locator/walgreens-2219+12th+ave+rd-nampa-id-83686/id=10672",
    "phone": "(208) 318-0536",
    "phoneUnformatted": "+12083180536",
    "claimThisBusiness": false,
    "location": {
      "lat": 43.5476125,
      "lng": -116.5734353
    },
    "totalScore": 3.2,
    "permanentlyClosed": false,
    "temporarilyClosed": false,
    "placeId": "ChIJl39svllJrlQRV61s5_jlsvo",
    "categories": [
      "Pharmacy"
    ],
    "fid": "0x54ae4959be6c7f97:0xfab2e5f8e76cad57",
    "cid": "18064753912533790039",
    "reviewsCount": 23,
    "imagesCount": 4,
    "imageCategories": [],
    "scrapedAt": "2025-06-22T07:48:29.695Z",
    "googleFoodUrl": null,
    "hotelAds": [],
    "openingHours": [
      {
        "day": "Monday",
        "hours": "9\u202fAM to 1:30\u202fPM, 2 to 9\u202fPM"
      },
      {
        "day": "Tuesday",
        "hours": "9\u202fAM to 1:30\u202fPM, 2 to 9\u202fPM"
      },
      {
        "day": "Wednesday",
        "hours": "9\u202fAM to 1:30\u202fPM, 2 to 9\u202fPM"
      },
      {
        "day": "Thursday",
        "hours": "9\u202fAM to 1:30\u202fPM, 2 to 9\u202fPM"
      },
      {
        "day": "Friday",
        "hours": "9\u202fAM to 1:30\u202fPM, 2 to 9\u202fPM"
      },
      {
        "day": "Saturday",
        "hours": "9\u202fAM to 1:30\u202fPM, 2 to 5\u202fPM"
      },
      {
        "day": "Sunday",
        "hours": "9\u202fAM to 1:30\u202fPM, 2 to 5\u202fPM"
      }
    ],
    "peopleAlsoSearch": [],
    "placesTags": [],
    "reviewsTags": [],
    "additionalInfo": {
      "Service options": [
        {
          "Delivery": false
        },
        {
          "In-store shopping": false
        },
        {
          "Onsite services": false
        },
        {
          "Same-day delivery": false
        }
      ],
      "Accessibility": [
        {
          "Wheelchair accessible entrance": true
        },
        {
          "Wheelchair accessible parking lot": true
        }
      ],
      "Planning": [
        {
          "Quick visit": true
        }
      ]
    },
    "gasPrices": [],
    "url": "https://www.google.com/maps/search/?api=1&query=Walgreens%20Pharmacy&query_place_id=ChIJl39svllJrlQRV61s5_jlsvo",
    "searchPageUrl": "https://www.google.com/maps/search/independent%20pharmacy%20Nampa%20ID/@36.81849750000001,-108.6496533711355,8z?hl=en",
    "searchString": "independent pharmacy Nampa ID",
    "language": "en",
    "rank": 16,
    "isAdvertisement": false,
    "imageUrl": "https://lh3.googleusercontent.com/gps-cs-s/AC9h4nrzKtMUnW2wXVSN_xZ4PrvnoIBsGy6LvRC2mLCCCX2mKPvvuTonCnPSV8uuLZrReGkR9_Y848FhPvmihgiO43JSACZXbgwds9Gr8RX9BepOXxJpqx3JxyULPsU0xJgmHt6XIWkR=w408-h306-k-no",
    "kgmid": "/g/11q3_qcnk3",
    "classification": "chain",
    "is_independent": false,
    "confidence": 1.0,
    "source": "rule-based"
  },
  {
    "title": "Albertsons Pharmacy",
    "price": "$$",
    "categoryName": "Pharmacy",
    "address": "2400 12th Ave Rd, Nampa, ID 83686",
    "neighborhood": null,
    "street": "2400 12th Ave Rd",
    "city": "Nampa",
    "postalCode": "83686",
    "state": "Idaho",
    "countryCode": "US",
    "website": "https://local.pharmacy.albertsons.com/id/nampa/2400-12th-ave-rd.html",
    "phone": "(208) 463-2903",
    "phoneUnformatted": "+12084632903",
    "claimThisBusiness": false,
    "location": {
      "lat": 43.5453948,
      "lng": -116.5713653
    },
    "totalScore": 2.9,
    "permanentlyClosed": false,
    "temporarilyClosed": false,
    "placeId": "ChIJ8e22RlpJrlQRzlkcm4N7Ro0",
    "categories": [
      "Pharmacy",
      "Drug store",
      "Vitamin & supplements store"
    ],
    "fid": "0x54ae495a46b6edf1:0x8d467b839b1c59ce",
    "cid": "10179959812890843598",
    "reviewsCount": 36,
    "imagesCount": 10,
    "imageCategories": [],
    "scrapedAt": "2025-06-22T07:48:29.695Z",
    "googleFoodUrl": null,
    "hotelAds": [],
    "openingHours": [
      {
        "day": "Monday",
        "hours": "8\u202fAM to 8\u202fPM"
      },
      {
        "day": "Tuesday",
        "hours": "8\u202fAM to 8\u202fPM"
      },
      {
        "day": "Wednesday",
        "hours": "8\u202fAM to 8\u202fPM"
      },
      {
        "day": "Thursday",
        "hours": "8\u202fAM to 8\u202fPM"
      },
      {
        "day": "Friday",
        "hours": "8\u202fAM to 8\u202fPM"
      },
      {
        "day": "Saturday",
        "hours": "9\u202fAM to 6\u202fPM"
      },
      {
        "day": "Sunday",
        "hours": "10\u202fAM to 4\u202fPM"
      }
    ],
    "peopleAlsoSearch": [],
    "placesTags": [],
    "reviewsTags": [],
    "additionalInfo": {
      "Service options": [
        {
          "Delivery": true
        },
        {
          "In-store pickup": true
        },
        {
          "In-store shopping": true
        },
        {
          "Same-day delivery": true
        }
      ],
      "Accessibility": [
        {
          "Wheelchair accessible entrance": true
        },
        {
          "Wheelchair accessible parking lot": true
        }
      ],
      "Crowd": [
        {
          "LGBTQ+ friendly": true
        }
      ],
      "Planning": [
        {
          "Appointment required": true
        },
        {
          "Quick visit": true
        }
      ],
      "Payments": [
        {
          "Checks": true
        },
        {
          "Debit cards": true
        },
        {
          "NFC mobile payments": true
        },
        {
          "Credit cards": true
        }
      ]
    },
    "gasPrices": [],
    "url": "https://www.google.com/maps/search/?api=1&query=Albertsons%20Pharmacy&query_place_id=ChIJ8e22RlpJrlQRzlkcm4N7Ro0",
    "searchPageUrl": "https://www.google.com/maps/search/independent%20pharmacy%20Nampa%20ID/@36.81849750000001,-108.6496533711355,8z?hl=en",
    "searchString": "independent pharmacy Nampa ID",
    "language": "en",
    "rank": 17,
    "isAdvertisement": false,
    "imageUrl": "https://lh3.googleusercontent.com/p/AF1QipP2XNIzX-jLgd6hXkNz7hcvmMTdwrrgMw1_1zKD=w427-h240-k-no",
    "kgmid": "/g/11cjkvx7k8",
    "classification": "chain",
    "is_independent": false,
    "confidence": 1.0,
    "source": "rule-based"
  },
  {
    "title": "Mountain Care Pharmacy",
    "price": null,
    "categoryName": "Pharmacy",
    "address": "286 N Maple Grove Rd, Boise, ID 83704",
    "neighborhood": "West Boise",
    "street": "286 N Maple Grove Rd",
    "city": "Boise",
    "postalCode": "83704",
    "state": "Idaho",
    "countryCode": "US",
    "website": "https://mtncarerx.com/?utm_source=google&utm_medium=website&utm_campaign=gmb",
    "phone": "(208) 287-4667",
    "phoneUnformatted": "+12082874667",
    "claimThisBusiness": false,
    "location": {
      "lat": 43.6073221,
      "lng": -116.2928982
    },
    "totalScore": 4.9,
    "permanentlyClosed": false,
    "temporarilyClosed": false,
    "placeId": null,
    "categories": [
      "Pharmacy"
    ],
    "fid": "0x54ae566590fe5423:0x3bee0722492d0772",
    "cid": "4318396936532854642",
    "reviewsCount": 413,
    "reviewsDistribution": {
      "oneStar": 5,
      "twoStar": 1,
      "threeStar": 4,
      "fourStar": 5,
      "fiveStar": 398
    },
    "imagesCount": 7,
    "imageCategories": [],
    "scrapedAt": "2025-06-22T07:48:51.476Z",
    "googleFoodUrl": null,
    "hotelAds": [],
    "openingHours": [
      {
        "day": "Monday",
        "hours": "9\u202fAM to 5\u202fPM"
      },
      {
        "day": "Tuesday",
        "hours": "9\u202fAM to 5\u202fPM"
      },
      {
        "day": "Wednesday",
        "hours": "9\u202fAM to 5\u202fPM"
      },
      {
        "day": "Thursday",
        "hours": "9\u202fAM to 5\u202fPM"
      },
      {
        "day": "Friday",
        "hours": "9\u202fAM to 5\u202fPM"
      },
      {
        "day": "Saturday",
        "hours": "1 to 4\u202fPM"
      },
      {
        "day": "Sunday",
        "hours": "1 to 4\u202fPM"
      }
    ],
    "peopleAlsoSearch": [],
    "placesTags": [],
    "reviewsTags": [],
    "additionalInfo": {
      "From the business": [
        {
          "Small business": true
        }
      ],
      "Service options": [
        {
          "Delivery": true
        },
        {
          "Onsite services": true
        },
        {
          "Same-day delivery": true
        },
        {
          "In-store shopping": false
        }
      ],
      "Accessibility": [
        {
          "Wheelchair accessible entrance": true
        },
        {
          "Wheelchair accessible parking lot": true
        }
      ],
      "Payments": [
        {
          "Checks": true
        },
        {
          "Credit cards": true
        },
        {
          "Debit cards": true
        },
        {
          "Credit cards": true
        }
      ]
    },
    "gasPrices": [],
    "url": "https://www.google.com/maps/search/?api=1&query=Mountain%20Care%20Pharmacy&query_place_id=ChIJI1T-kGVWrlQRcgctSSIH7js",
    "searchPageUrl": "https://www.google.com/maps/search/independent%20pharmacy%20Nampa%20ID/@42.54640259466427,-118.1483311994871,8z?hl=en",
    "searchString": "independent pharmacy Nampa ID",
    "language": "en",
    "rank": 39,
    "isAdvertisement": false,
    "imageUrl": "https://lh3.googleusercontent.com/gps-cs-s/AC9h4nqOkosyzu4i4gUVT7CLi1agaX4JcdmpyNEzkqI6EV9Wz10lQ-dtCjBMEAE2yLgdUgQjim8NHp8g9JK9Fyp6x4GPX4barjpR_6HAS2r-jshdXDkxaBzOMHNTVSI0s--i9Sh092w5AA=w408-h544-k-no",
    "kgmid": "/g/1tt1sdws",
    "classification": "independent",
    "is_independent": true,
    "is_compounding": false,
    "confidence": 0.9,
    "source": "perplexity",
    "method": "llm",
    "query_location": "nampa_id"
  },
  {
    "title": "Custom Rx Pharmacy",
    "price": null,
    "categoryName": "Pharmacy",
    "address": "173 W 4th St, Kuna, ID 83634",
    "neighborhood": null,
    "street": "173 W 4th St",
    "city": "Kuna",
    "postalCode": "83634",
    "state": "Idaho",
    "countryCode": "US",
    "website": "http://www.customrxidaho.com/",
    "phone": "(208) 922-4400",
    "phoneUnformatted": "+12089224400",
    "claimThisBusiness": false,
    "location": {
      "lat": 43.4913763,
      "lng": -116.4148595
    },
    "totalScore": 5,
    "permanentlyClosed": false,
    "temporarilyClosed": false,
    "placeId": null,
    "categories": [
      "Pharmacy",
      "Gift shop",
      "Medical supply store"
    ],
    "fid": "0x54ae45147e93f6bf:0x2d88d0337c2d1813",
    "cid": "3281101248084645907",
    "reviewsCount": 73,
    "reviewsDistribution": {
      "oneStar": 0,
      "twoStar": 0,
      "threeStar": 0,
      "fourStar": 3,
      "fiveStar": 70
    },
    "imagesCount": 4,
    "imageCategories": [],
    "scrapedAt": "2025-06-22T07:48:51.476Z",
    "googleFoodUrl": null,
    "hotelAds": [],
    "openingHours": [
      {
        "day": "Monday",
        "hours": "9\u202fAM to 7\u202fPM"
      },
      {
        "day": "Tuesday",
        "hours": "9\u202fAM to 6\u202fPM"
      },
      {
        "day": "Wednesday",
        "hours": "9\u202fAM to 6\u202fPM"
      },
      {
        "day": "Thursday",
        "hours": "9\u202fAM to 6\u202fPM"
      },
      {
        "day": "Friday",
        "hours": "9\u202fAM to 6\u202fPM"
      },
      {
        "day": "Saturday",
        "hours": "9\u202fAM to 1\u202fPM"
      },
      {
        "day": "Sunday",
        "hours": "Closed"
      }
    ],
    "peopleAlsoSearch": [],
    "placesTags": [],
    "reviewsTags": [],
    "additionalInfo": {
      "From the business": [
        {
          "Small business": true
        }
      ],
      "Service options": [
        {
          "Delivery": true
        },
        {
          "Drive-through": true
        },
        {
          "Same-day delivery": true
        }
      ],
      "Accessibility": [
        {
          "Wheelchair accessible entrance": true
        },
        {
          "Wheelchair accessible parking lot": true
        }
      ],
      "Planning": [
        {
          "Quick visit": true
        }
      ],
      "Payments": [
        {
          "Credit cards": true
        },
        {
          "Debit cards": true
        },
        {
          "NFC mobile payments": true
        },
        {
          "Credit cards": true
        }
      ]
    },
    "gasPrices": [],
    "url": "https://www.google.com/maps/search/?api=1&query=Custom%20Rx%20Pharmacy&query_place_id=ChIJv_aTfhRFrlQRExgtfDPQiC0",
    "searchPageUrl": "https://www.google.com/maps/search/independent%20pharmacy%20Nampa%20ID/@42.54640259466427,-118.1483311994871,8z?hl=en",
    "searchString": "independent pharmacy Nampa ID",
    "language": "en",
    "rank": 40,
    "isAdvertisement": false,
    "imageUrl": "https://lh3.googleusercontent.com/p/AF1QipPYTnCt8GqZ5JMLcHqLgMSPQScK-kv9LV1Cot1M=w408-h323-k-no",
    "kgmid": "/g/1td2z5kk",
    "classification": "independent",
    "is_independent": true,
    "is_compounding": false,
    "confidence": 0.9,
    "source": "perplexity",
    "method": "llm",
    "query_location": "nampa_id"
  }
]