[
  {
    "title": "High Touch Pharmacy",
    "price": null,
    "categoryName": "Pharmacy",
    "address": "344 W Grand St, Elizabeth, NJ 07202",
    "neighborhood": null,
    "street": "344 W Grand St",
    "city": "Elizabeth",
    "postalCode": "07202",
    "state": "New Jersey",
    "countryCode": "US",
    "website": "http://www.hightouchpharmacy.com/",
    "phone": "(908) 353-2000",
    "phoneUnformatted": "+19083532000",
    "claimThisBusiness": false,
    "location": {
      "lat": 40.6647084,
      "lng": -74.2286107
    },
    "totalScore": 4.8,
    "permanentlyClosed": false,
    "temporarilyClosed": false,
    "placeId": null,
    "categories": [
      "Pharmacy"
    ],
    "fid": "0x89c3b3038f56c7e9:0x163bd4310ef982d0",
    "cid": "1602107399630062288",
    "reviewsCount": 184,
    "imagesCount": 20,
    "imageCategories": [],
    "scrapedAt": "2025-06-22T06:07:23.465Z",
    "googleFoodUrl": null,
    "hotelAds": [],
    "openingHours": [
      {
        "day": "Monday",
        "hours": "9:30\u202fAM to 6\u202fPM"
      },
      {
        "day": "Tuesday",
        "hours": "9:30\u202fAM to 6\u202fPM"
      },
      {
        "day": "Wednesday",
        "hours": "9:30\u202fAM to 6\u202fPM"
      },
      {
        "day": "Thursday",
        "hours": "9:30\u202fAM to 6\u202fPM"
      },
      {
        "day": "Friday",
        "hours": "9:30\u202fAM to 6\u202fPM"
      },
      {
        "day": "Saturday",
        "hours": "10\u202fAM to 3\u202fPM"
      },
      {
        "day": "Sunday",
        "hours": "Closed"
      }
    ],
    "peopleAlsoSearch": [],
    "placesTags": [],
    "reviewsTags": [],
    "additionalInfo": {
      "From the business": [
        {
          "Small business": true
        }
      ],
      "Service options": [
        {
          "Curbside pickup": true
        },
        {
          "Delivery": true
        },
        {
          "In-store pickup": true
        },
        {
          "In-store shopping": true
        },
        {
          "Same-day delivery": true
        }
      ],
      "Planning": [
        {
          "Quick visit": true
        }
      ],
      "Payments": [
        {
          "Credit cards": true
        },
        {
          "Debit cards": true
        },
        {
          "NFC mobile payments": true
        },
        {
          "Credit cards": true
        }
      ],
      "Parking": [
        {
          "On-site parking": true
        }
      ]
    },
    "gasPrices": [],
    "url": "https://www.google.com/maps/search/?api=1&query=High%20Touch%20Pharmacy&query_place_id=ChIJ6cdWjwOzw4kR0IL5DjHUOxY",
    "searchPageUrl": "https://www.google.com/maps/search/independent%20pharmacy%20Elizabeth%20NJ/@60.874534795447715,-145.05491807162034,9z?hl=en",
    "searchString": "independent pharmacy Elizabeth NJ",
    "language": "en",
    "rank": 1,
    "isAdvertisement": false,
    "imageUrl": "https://lh3.googleusercontent.com/gps-cs-s/AC9h4nozB4ZvBtVRVMnFe5zs0T-5YWnyeWCBGVBnmp_dMyzGpKo9kEQuByeeT_pnaXVBvgVsQApxAYTPuEPrzBVoGjHo4_JY3pakHtChjD6UMYnLxITs0_0atiILq2nhf-l684xD9U5V=w408-h306-k-no",
    "kgmid": "/g/11fjz640cf",
    "classification": "independent",
    "is_independent": true,
    "is_compounding": false,
    "confidence": 0.9,
    "source": "perplexity",
    "method": "llm"
  },
  {
    "title": "Camacho Pharmacy",
    "price": null,
    "categoryName": "Pharmacy",
    "address": "509 Elizabeth Ave, Elizabeth, NJ 07206",
    "neighborhood": "Elizabethport",
    "street": "509 Elizabeth Ave",
    "city": "Elizabeth",
    "postalCode": "07206",
    "state": "New Jersey",
    "countryCode": "US",
    "website": "https://www.mygnp.com/pharmacies/camacho-pharmacy-elizabeth-nj-07206/?utm_source=google&utm_medium=local&utm_campaign=localmaps&utm_content=3108568",
    "phone": "(908) 355-1784",
    "phoneUnformatted": "+19083551784",
    "claimThisBusiness": false,
    "location": {
      "lat": 40.6544769,
      "lng": -74.1982331
    },
    "totalScore": 4.8,
    "permanentlyClosed": false,
    "temporarilyClosed": false,
    "placeId": null,
    "categories": [
      "Pharmacy",
      "Drug store"
    ],
    "fid": "0x89c24d43062b5941:0x8c8ae76ceb19c25e",
    "cid": "10127161167082799710",
    "reviewsCount": 66,
    "imagesCount": 2,
    "imageCategories": [],
    "scrapedAt": "2025-06-22T06:07:23.466Z",
    "googleFoodUrl": null,
    "hotelAds": [],
    "openingHours": [
      {
        "day": "Monday",
        "hours": "10\u202fAM to 6\u202fPM"
      },
      {
        "day": "Tuesday",
        "hours": "10\u202fAM to 6\u202fPM"
      },
      {
        "day": "Wednesday",
        "hours": "10\u202fAM to 6\u202fPM"
      },
      {
        "day": "Thursday",
        "hours": "10\u202fAM to 6\u202fPM"
      },
      {
        "day": "Friday",
        "hours": "10\u202fAM to 6\u202fPM"
      },
      {
        "day": "Saturday",
        "hours": "6\u202fAM to 11\u202fPM"
      },
      {
        "day": "Sunday",
        "hours": "6\u202fAM to 11\u202fPM"
      }
    ],
    "peopleAlsoSearch": [],
    "placesTags": [],
    "reviewsTags": [],
    "additionalInfo": {
      "Service options": [
        {
          "Delivery": true
        },
        {
          "In-store pickup": true
        },
        {
          "In-store shopping": true
        },
        {
          "Same-day delivery": true
        }
      ],
      "Accessibility": [
        {
          "Wheelchair accessible entrance": false
        },
        {
          "Wheelchair accessible parking lot": false
        }
      ],
      "Planning": [
        {
          "Quick visit": true
        }
      ],
      "Payments": [
        {
          "Credit cards": true
        },
        {
          "Debit cards": true
        },
        {
          "NFC mobile payments": true
        },
        {
          "Credit cards": true
        }
      ]
    },
    "gasPrices": [],
    "url": "https://www.google.com/maps/search/?api=1&query=Camacho%20Pharmacy&query_place_id=ChIJQVkrBkNNwokRXsIZ62zniow",
    "searchPageUrl": "https://www.google.com/maps/search/independent%20pharmacy%20Elizabeth%20NJ/@60.874534795447715,-145.05491807162034,9z?hl=en",
    "searchString": "independent pharmacy Elizabeth NJ",
    "language": "en",
    "rank": 2,
    "isAdvertisement": false,
    "imageUrl": "https://lh3.googleusercontent.com/gps-cs-s/AC9h4nobzYiIf62hiPN4jUoqoUlKJ4ll-TLFznlykuY7O8WVY5E0APnLCkCV3p1Fh47Lz-gqKv_A9b5nKJvYI1GLHPwNRM_oBQMFMi8_Oejk-RfsW1jbfgJRFp9h0IXFPyM864FHoCHx=w408-h544-k-no",
    "kgmid": "/g/1vnrly52",
    "classification": "independent",
    "is_independent": true,
    "is_compounding": false,
    "confidence": 0.9,
    "source": "perplexity",
    "method": "llm"
  },
  {
    "title": "Bert's Pharmacy",
    "price": null,
    "categoryName": "Pharmacy",
    "address": "601 Elizabeth Ave A, Elizabeth, NJ 07206",
    "neighborhood": "Elizabethport",
    "street": "601 Elizabeth Ave A",
    "city": "Elizabeth",
    "postalCode": "07206",
    "state": "New Jersey",
    "countryCode": "US",
    "phone": "(908) 351-0644",
    "phoneUnformatted": "+19083510644",
    "claimThisBusiness": false,
    "location": {
      "lat": 40.6562277,
      "lng": -74.1996702
    },
    "totalScore": 4.7,
    "permanentlyClosed": false,
    "temporarilyClosed": false,
    "placeId": null,
    "categories": [
      "Pharmacy",
      "Photo lab"
    ],
    "fid": "0x89c24d435bea4e83:0x1363c07c756f9f97",
    "cid": "1397171950193713047",
    "reviewsCount": 32,
    "imagesCount": 4,
    "imageCategories": [],
    "scrapedAt": "2025-06-22T06:07:23.466Z",
    "googleFoodUrl": null,
    "hotelAds": [],
    "openingHours": [
      {
        "day": "Monday",
        "hours": "9:30\u202fAM to 7\u202fPM"
      },
      {
        "day": "Tuesday",
        "hours": "9:30\u202fAM to 7\u202fPM"
      },
      {
        "day": "Wednesday",
        "hours": "9:30\u202fAM to 7\u202fPM"
      },
      {
        "day": "Thursday",
        "hours": "9:30\u202fAM to 7\u202fPM"
      },
      {
        "day": "Friday",
        "hours": "9:30\u202fAM to 7\u202fPM"
      },
      {
        "day": "Saturday",
        "hours": "9:30\u202fAM to 4\u202fPM"
      },
      {
        "day": "Sunday",
        "hours": "Closed"
      }
    ],
    "peopleAlsoSearch": [],
    "placesTags": [],
    "reviewsTags": [],
    "additionalInfo": {
      "From the business": [
        {
          "Small business": true
        }
      ],
      "Service options": [
        {
          "Delivery": true
        }
      ],
      "Planning": [
        {
          "Quick visit": true
        }
      ],
      "Payments": [
        {
          "Credit cards": true
        },
        {
          "Debit cards": true
        },
        {
          "NFC mobile payments": true
        },
        {
          "Credit cards": true
        }
      ]
    },
    "gasPrices": [],
    "url": "https://www.google.com/maps/search/?api=1&query=Bert's%20Pharmacy&query_place_id=ChIJg07qW0NNwokRl59vdXzAYxM",
    "searchPageUrl": "https://www.google.com/maps/search/independent%20pharmacy%20Elizabeth%20NJ/@60.874534795447715,-145.05491807162034,9z?hl=en",
    "searchString": "independent pharmacy Elizabeth NJ",
    "language": "en",
    "rank": 3,
    "isAdvertisement": false,
    "imageUrl": "https://lh3.googleusercontent.com/gps-cs-s/AC9h4nrVZNMUU2CwYwEdlLYGQmBDiA44tIk7-9v1swu5qtA7kxITcU9Kg6jWkgzda4pLp25P4oWTyZaop2aec-IRDol7veCLqA9eycfAXoVy2KQQlN32K8YJEWUUNq8l-62nMqyuCGS7=w440-h240-k-no",
    "kgmid": "/g/1td214y5",
    "classification": "independent",
    "is_independent": true,
    "is_compounding": false,
    "confidence": 0.85,
    "source": "perplexity",
    "method": "llm"
  },
  {
    "title": "Vencer Care",
    "price": null,
    "categoryName": "Pharmacy",
    "address": "570 N Broad St, Elizabeth, NJ 07208",
    "neighborhood": null,
    "street": "570 N Broad St",
    "city": "Elizabeth",
    "postalCode": "07208",
    "state": "New Jersey",
    "countryCode": "US",
    "website": "http://www.vencercare.com/pharmacy-our-location",
    "phone": "(908) 469-2221",
    "phoneUnformatted": "+19084692221",
    "claimThisBusiness": false,
    "location": {
      "lat": 40.6754233,
      "lng": -74.2137253
    },
    "totalScore": 5,
    "permanentlyClosed": false,
    "temporarilyClosed": false,
    "placeId": null,
    "categories": [
      "Pharmacy"
    ],
    "fid": "0x89c252ac36e1d96d:0xa2eef1e07a0a7c43",
    "cid": "11740587225023937603",
    "reviewsCount": 1,
    "imagesCount": 1,
    "imageCategories": [],
    "scrapedAt": "2025-06-22T06:07:23.466Z",
    "googleFoodUrl": null,
    "hotelAds": [],
    "openingHours": [],
    "peopleAlsoSearch": [],
    "placesTags": [],
    "reviewsTags": [],
    "additionalInfo": {
      "From the business": [
        {
          "Small business": true
        }
      ],
      "Accessibility": [
        {
          "Wheelchair accessible entrance": true
        }
      ],
      "Parking": [
        {
          "On-site parking": true
        }
      ]
    },
    "gasPrices": [],
    "url": "https://www.google.com/maps/search/?api=1&query=Vencer%20Care&query_place_id=ChIJbdnhNqxSwokRQ3wKeuDx7qI",
    "searchPageUrl": "https://www.google.com/maps/search/independent%20pharmacy%20Elizabeth%20NJ/@60.874534795447715,-145.05491807162034,9z?hl=en",
    "searchString": "independent pharmacy Elizabeth NJ",
    "language": "en",
    "rank": 4,
    "isAdvertisement": false,
    "imageUrl": "https://streetviewpixels-pa.googleapis.com/v1/thumbnail?panoid=hfRUKlnlPSHW4wrSVhCELw&cb_client=search.gws-prod.gps&w=408&h=240&yaw=147.96408&pitch=0&thumbfov=100",
    "kgmid": "/g/11b5_5xylm",
    "classification": "independent",
    "is_independent": true,
    "is_compounding": false,
    "confidence": 0.85,
    "source": "perplexity",
    "method": "llm"
  },
  {
    "title": "Westminster Pharmacy",
    "price": null,
    "categoryName": "Pharmacy",
    "address": "577 N Broad St, Elizabeth, NJ 07208",
    "neighborhood": null,
    "street": "577 N Broad St",
    "city": "Elizabeth",
    "postalCode": "07208",
    "state": "New Jersey",
    "countryCode": "US",
    "phone": "(908) 352-7111",
    "phoneUnformatted": "+19083527111",
    "claimThisBusiness": false,
    "location": {
      "lat": 40.6766581,
      "lng": -74.2131879
    },
    "totalScore": 4.7,
    "permanentlyClosed": false,
    "temporarilyClosed": false,
    "placeId": null,
    "categories": [
      "Pharmacy",
      "Fax service",
      "Surgical supply store"
    ],
    "fid": "0x89c252adcb2964d9:0x141ef347cb42e2af",
    "cid": "1449863619738264239",
    "reviewsCount": 17,
    "imagesCount": 8,
    "imageCategories": [],
    "scrapedAt": "2025-06-22T06:07:23.466Z",
    "googleFoodUrl": null,
    "hotelAds": [],
    "openingHours": [
      {
        "day": "Monday",
        "hours": "9:30\u202fAM to 7\u202fPM"
      },
      {
        "day": "Tuesday",
        "hours": "9:30\u202fAM to 7\u202fPM"
      },
      {
        "day": "Wednesday",
        "hours": "9:30\u202fAM to 7\u202fPM"
      },
      {
        "day": "Thursday",
        "hours": "9:30\u202fAM to 7\u202fPM"
      },
      {
        "day": "Friday",
        "hours": "9:30\u202fAM to 7\u202fPM"
      },
      {
        "day": "Saturday",
        "hours": "9:30\u202fAM to 4\u202fPM"
      },
      {
        "day": "Sunday",
        "hours": "Closed"
      }
    ],
    "peopleAlsoSearch": [],
    "placesTags": [],
    "reviewsTags": [],
    "additionalInfo": {
      "From the business": [
        {
          "Small business": true
        }
      ],
      "Service options": [
        {
          "Delivery": true
        },
        {
          "In-store pickup": true
        }
      ],
      "Accessibility": [
        {
          "Wheelchair accessible restroom": true
        }
      ],
      "Planning": [
        {
          "Quick visit": true
        }
      ],
      "Payments": [
        {
          "Credit cards": true
        },
        {
          "Debit cards": true
        },
        {
          "NFC mobile payments": true
        },
        {
          "Credit cards": true
        }
      ],
      "Parking": [
        {
          "On-site parking": true
        }
      ]
    },
    "gasPrices": [],
    "url": "https://www.google.com/maps/search/?api=1&query=Westminster%20Pharmacy&query_place_id=ChIJ2WQpy61SwokRr-JCy0fzHhQ",
    "searchPageUrl": "https://www.google.com/maps/search/independent%20pharmacy%20Elizabeth%20NJ/@60.874534795447715,-145.05491807162034,9z?hl=en",
    "searchString": "independent pharmacy Elizabeth NJ",
    "language": "en",
    "rank": 5,
    "isAdvertisement": false,
    "imageUrl": "https://lh3.googleusercontent.com/p/AF1QipPvsfl5_uVBYVTf-v9-oUAgbr7P6MeQAssJjzgG=w408-h306-k-no",
    "kgmid": "/g/1v5fstm3",
    "classification": "independent",
    "is_independent": true,
    "is_compounding": false,
    "confidence": 0.85,
    "source": "perplexity",
    "method": "llm"
  },
  {
    "title": "Alexandria Pharmacy",
    "price": null,
    "categoryName": "Pharmacy",
    "address": "327 N Broad St, Elizabeth, NJ 07208",
    "neighborhood": null,
    "street": "327 N Broad St",
    "city": "Elizabeth",
    "postalCode": "07208",
    "state": "New Jersey",
    "countryCode": "US",
    "phone": "(908) 469-9653",
    "phoneUnformatted": "+19084699653",
    "claimThisBusiness": false,
    "location": {
      "lat": 40.670678,
      "lng": -74.215178
    },
    "totalScore": 4.5,
    "permanentlyClosed": false,
    "temporarilyClosed": false,
    "placeId": null,
    "categories": [
      "Pharmacy"
    ],
    "fid": "0x89c252aaf67dee1d:0xa276091ca118717",
    "cid": "731659643747665687",
    "reviewsCount": 34,
    "imagesCount": 20,
    "imageCategories": [],
    "scrapedAt": "2025-06-22T06:07:23.466Z",
    "googleFoodUrl": null,
    "hotelAds": [],
    "openingHours": [
      {
        "day": "Monday",
        "hours": "10\u202fAM to 7\u202fPM"
      },
      {
        "day": "Tuesday",
        "hours": "10\u202fAM to 7\u202fPM"
      },
      {
        "day": "Wednesday",
        "hours": "10\u202fAM to 7\u202fPM"
      },
      {
        "day": "Thursday",
        "hours": "10\u202fAM to 7\u202fPM"
      },
      {
        "day": "Friday",
        "hours": "10\u202fAM to 7\u202fPM"
      },
      {
        "day": "Saturday",
        "hours": "10\u202fAM to 2:30\u202fPM"
      },
      {
        "day": "Sunday",
        "hours": "Closed"
      }
    ],
    "peopleAlsoSearch": [],
    "placesTags": [],
    "reviewsTags": [],
    "additionalInfo": {
      "From the business": [
        {
          "Small business": true
        }
      ],
      "Service options": [
        {
          "Delivery": true
        }
      ],
      "Planning": [
        {
          "Quick visit": true
        }
      ],
      "Payments": [
        {
          "Credit cards": true
        },
        {
          "Debit cards": true
        },
        {
          "NFC mobile payments": true
        },
        {
          "Credit cards": true
        }
      ]
    },
    "gasPrices": [],
    "url": "https://www.google.com/maps/search/?api=1&query=Alexandria%20Pharmacy&query_place_id=ChIJHe599qpSwokRF4cRypFgJwo",
    "searchPageUrl": "https://www.google.com/maps/search/independent%20pharmacy%20Elizabeth%20NJ/@60.874534795447715,-145.05491807162034,9z?hl=en",
    "searchString": "independent pharmacy Elizabeth NJ",
    "language": "en",
    "rank": 6,
    "isAdvertisement": false,
    "imageUrl": "https://lh3.googleusercontent.com/p/AF1QipPOZ-uS2BCisSjXJgEEgBMGPJkCi06lkTVPMI-H=w408-h544-k-no",
    "kgmid": "/g/11f3tx72rt",
    "classification": "independent",
    "is_independent": true,
    "is_compounding": false,
    "confidence": 0.85,
    "source": "perplexity",
    "method": "llm"
  },
  {
    "title": "Horowitz Supremo Pharmacy",
    "price": null,
    "categoryName": "Pharmacy",
    "address": "32 Grove St, Elizabeth, NJ 07202",
    "neighborhood": null,
    "street": "32 Grove St",
    "city": "Elizabeth",
    "postalCode": "07202",
    "state": "New Jersey",
    "countryCode": "US",
    "website": "http://www.horowitzsupremopharmacy.com/",
    "phone": "(908) 353-3282",
    "phoneUnformatted": "+19083533282",
    "claimThisBusiness": false,
    "location": {
      "lat": 40.6595024,
      "lng": -74.2269705
    },
    "totalScore": 4.6,
    "permanentlyClosed": false,
    "temporarilyClosed": false,
    "placeId": null,
    "categories": [
      "Pharmacy",
      "Medical supply store",
      "Oxygen equipment supplier"
    ],
    "fid": "0x89c3b2b04a48880b:0x64a7c1596bb392b1",
    "cid": "7252978314706653873",
    "reviewsCount": 29,
    "imagesCount": 2,
    "imageCategories": [],
    "scrapedAt": "2025-06-22T06:07:23.466Z",
    "googleFoodUrl": null,
    "hotelAds": [],
    "openingHours": [
      {
        "day": "Monday",
        "hours": "9\u202fAM to 7\u202fPM"
      },
      {
        "day": "Tuesday",
        "hours": "9\u202fAM to 7\u202fPM"
      },
      {
        "day": "Wednesday",
        "hours": "9\u202fAM to 7\u202fPM"
      },
      {
        "day": "Thursday",
        "hours": "9\u202fAM to 7\u202fPM"
      },
      {
        "day": "Friday",
        "hours": "9\u202fAM to 7\u202fPM"
      },
      {
        "day": "Saturday",
        "hours": "9\u202fAM to 5\u202fPM"
      },
      {
        "day": "Sunday",
        "hours": "Closed"
      }
    ],
    "peopleAlsoSearch": [],
    "placesTags": [],
    "reviewsTags": [],
    "additionalInfo": {
      "From the business": [
        {
          "Small business": true
        }
      ],
      "Service options": [
        {
          "Delivery": true
        },
        {
          "In-store pickup": true
        }
      ],
      "Accessibility": [
        {
          "Wheelchair accessible parking lot": true
        }
      ],
      "Planning": [
        {
          "Quick visit": true
        }
      ],
      "Payments": [
        {
          "Debit cards": true
        },
        {
          "Credit cards": true
        }
      ]
    },
    "gasPrices": [],
    "url": "https://www.google.com/maps/search/?api=1&query=Horowitz%20Supremo%20Pharmacy&query_place_id=ChIJC4hISrCyw4kRsZKza1nBp2Q",
    "searchPageUrl": "https://www.google.com/maps/search/independent%20pharmacy%20Elizabeth%20NJ/@60.874534795447715,-145.05491807162034,9z?hl=en",
    "searchString": "independent pharmacy Elizabeth NJ",
    "language": "en",
    "rank": 7,
    "isAdvertisement": false,
    "imageUrl": "https://lh3.googleusercontent.com/gps-cs-s/AC9h4nrvoxK0NlgsBHStZjzQB1v-N_DMJqi6BWHFjo7BzU9J05cjmcX5L_vM6N_GyWP6P8e2ukSr_fCM9Qq1KBfyr5oHX76JNIbpJgpqbue92H5bPu5lU3e6Apcy1o5B3ynPxjF2tWA=w408-h544-k-no",
    "kgmid": "/g/1tg5_k_q",
    "classification": "independent",
    "is_independent": true,
    "is_compounding": false,
    "confidence": 0.9,
    "source": "perplexity",
    "method": "llm"
  },
  {
    "title": "St. Peter PHARMACY",
    "price": null,
    "categoryName": "Pharmacy",
    "address": "105 Broad St, Elizabeth, NJ 07201",
    "neighborhood": null,
    "street": "105 Broad St",
    "city": "Elizabeth",
    "postalCode": "07201",
    "state": "New Jersey",
    "countryCode": "US",
    "phone": "(908) 355-0571",
    "phoneUnformatted": "+19083550571",
    "claimThisBusiness": false,
    "location": {
      "lat": 40.6655923,
      "lng": -74.2146142
    },
    "totalScore": 4.4,
    "permanentlyClosed": false,
    "temporarilyClosed": false,
    "placeId": null,
    "categories": [
      "Pharmacy"
    ],
    "fid": "0x89c24d2e6c1dfe11:0x42a56dd2a17ac53a",
    "cid": "4802365329080239418",
    "reviewsCount": 10,
    "imagesCount": 3,
    "imageCategories": [],
    "scrapedAt": "2025-06-22T06:07:23.466Z",
    "googleFoodUrl": null,
    "hotelAds": [],
    "openingHours": [
      {
        "day": "Monday",
        "hours": "10\u202fAM to 5\u202fPM"
      },
      {
        "day": "Tuesday",
        "hours": "10\u202fAM to 5\u202fPM"
      },
      {
        "day": "Wednesday",
        "hours": "10\u202fAM to 5\u202fPM"
      },
      {
        "day": "Thursday",
        "hours": "10\u202fAM to 5\u202fPM"
      },
      {
        "day": "Friday",
        "hours": "10\u202fAM to 5\u202fPM"
      },
      {
        "day": "Saturday",
        "hours": "10\u202fAM to 2\u202fPM"
      },
      {
        "day": "Sunday",
        "hours": "Closed"
      }
    ],
    "peopleAlsoSearch": [],
    "placesTags": [],
    "reviewsTags": [],
    "additionalInfo": {
      "From the business": [
        {
          "Small business": true
        }
      ],
      "Service options": [
        {
          "Delivery": true
        },
        {
          "In-store shopping": true
        }
      ],
      "Accessibility": [
        {
          "Wheelchair accessible entrance": true
        }
      ],
      "Planning": [
        {
          "Quick visit": true
        }
      ],
      "Payments": [
        {
          "Credit cards": true
        },
        {
          "Debit cards": true
        },
        {
          "NFC mobile payments": true
        },
        {
          "Credit cards": true
        }
      ]
    },
    "gasPrices": [],
    "url": "https://www.google.com/maps/search/?api=1&query=St.%20Peter%20PHARMACY&query_place_id=ChIJEf4dbC5NwokROsV6odJtpUI",
    "searchPageUrl": "https://www.google.com/maps/search/independent%20pharmacy%20Elizabeth%20NJ/@60.874534795447715,-145.05491807162034,9z?hl=en",
    "searchString": "independent pharmacy Elizabeth NJ",
    "language": "en",
    "rank": 8,
    "isAdvertisement": false,
    "imageUrl": "https://lh3.googleusercontent.com/p/AF1QipPObEtJqT72j66fpjop12t1fcEZJxZNIEsOxPR-=w408-h544-k-no",
    "kgmid": "/g/11fltxw9kg",
    "classification": "independent",
    "is_independent": true,
    "is_compounding": false,
    "confidence": 0.85,
    "source": "perplexity",
    "method": "llm"
  },
  {
    "title": "Community Pharmacy",
    "price": null,
    "categoryName": "Pharmacy",
    "address": "1089 Elizabeth Ave Store 5, Elizabeth, NJ 07201",
    "neighborhood": null,
    "street": "1089 Elizabeth Ave Store 5",
    "city": "Elizabeth",
    "postalCode": "07201",
    "state": "New Jersey",
    "countryCode": "US",
    "website": "https://www.mygnp.com/pharmacies/community-pharmacy-elizabeth-nj-07201-2/?utm_source=google&utm_medium=local&utm_campaign=localmaps&utm_content=3197440",
    "phone": "(908) 469-6363",
    "phoneUnformatted": "+19084696363",
    "claimThisBusiness": false,
    "location": {
      "lat": 40.6619625,
      "lng": -74.2108248
    },
    "totalScore": 4.4,
    "permanentlyClosed": false,
    "temporarilyClosed": false,
    "placeId": null,
    "categories": [
      "Pharmacy",
      "Drug store"
    ],
    "fid": "0x89c25335291fa55d:0x4a956440013c3318",
    "cid": "5374311956397962008",
    "reviewsCount": 19,
    "imagesCount": 2,
    "imageCategories": [],
    "scrapedAt": "2025-06-22T06:07:23.466Z",
    "googleFoodUrl": null,
    "hotelAds": [],
    "openingHours": [
      {
        "day": "Monday",
        "hours": "9\u202fAM to 6\u202fPM"
      },
      {
        "day": "Tuesday",
        "hours": "9\u202fAM to 6\u202fPM"
      },
      {
        "day": "Wednesday",
        "hours": "9\u202fAM to 6\u202fPM"
      },
      {
        "day": "Thursday",
        "hours": "9\u202fAM to 6\u202fPM"
      },
      {
        "day": "Friday",
        "hours": "9\u202fAM to 6\u202fPM"
      },
      {
        "day": "Saturday",
        "hours": "9\u202fAM to 4\u202fPM"
      },
      {
        "day": "Sunday",
        "hours": "Closed"
      }
    ],
    "peopleAlsoSearch": [],
    "placesTags": [],
    "reviewsTags": [],
    "additionalInfo": {
      "Service options": [
        {
          "Delivery": true
        },
        {
          "In-store pickup": true
        },
        {
          "In-store shopping": true
        }
      ],
      "Accessibility": [
        {
          "Wheelchair accessible entrance": true
        }
      ],
      "Planning": [
        {
          "Quick visit": true
        }
      ],
      "Payments": [
        {
          "Credit cards": true
        },
        {
          "Debit cards": true
        },
        {
          "NFC mobile payments": true
        },
        {
          "Credit cards": true
        }
      ]
    },
    "gasPrices": [],
    "url": "https://www.google.com/maps/search/?api=1&query=Community%20Pharmacy&query_place_id=ChIJXaUfKTVTwokRGDM8AUBklUo",
    "searchPageUrl": "https://www.google.com/maps/search/independent%20pharmacy%20Elizabeth%20NJ/@60.874534795447715,-145.05491807162034,9z?hl=en",
    "searchString": "independent pharmacy Elizabeth NJ",
    "language": "en",
    "rank": 9,
    "isAdvertisement": false,
    "imageUrl": "https://lh3.googleusercontent.com/gps-cs-s/AC9h4nrnADzvxLHJX5GwWVSRtr19rk8aFVvF_inaqAHbo4N5B8s6tRDJGlpyQK2xGBG11-_yRNDm-1ATmW_m0nagNOR0PCoVviXxk5TljFtZov-DIuI3rILEoH7w6lGse2vTVs26BpSv=w408-h544-k-no",
    "kgmid": "/g/11n01mpwdd",
    "classification": "independent",
    "is_independent": true,
    "is_compounding": false,
    "confidence": 0.85,
    "source": "perplexity",
    "method": "llm"
  },
  {
    "title": "Elizabeth Pharmacy",
    "price": null,
    "categoryName": "Pharmacy",
    "address": "1164 E Jersey St, Elizabeth, NJ 07201",
    "neighborhood": null,
    "street": "1164 E Jersey St",
    "city": "Elizabeth",
    "postalCode": "07201",
    "state": "New Jersey",
    "countryCode": "US",
    "website": "http://www.elizabethrx.com/",
    "phone": "(908) 994-1525",
    "phoneUnformatted": "+19089941525",
    "claimThisBusiness": false,
    "location": {
      "lat": 40.6648939,
      "lng": -74.2141493
    },
    "totalScore": 4.3,
    "permanentlyClosed": false,
    "temporarilyClosed": false,
    "placeId": null,
    "categories": [
      "Pharmacy"
    ],
    "fid": "0x89c24d541404dda9:0x316c3b0e3fabbd5c",
    "cid": "3561286337727020380",
    "reviewsCount": 51,
    "imagesCount": 5,
    "imageCategories": [],
    "scrapedAt": "2025-06-22T06:07:23.467Z",
    "googleFoodUrl": null,
    "hotelAds": [],
    "openingHours": [
      {
        "day": "Monday",
        "hours": "9\u202fAM to 7:30\u202fPM"
      },
      {
        "day": "Tuesday",
        "hours": "9\u202fAM to 7:30\u202fPM"
      },
      {
        "day": "Wednesday",
        "hours": "9\u202fAM to 7:30\u202fPM"
      },
      {
        "day": "Thursday",
        "hours": "9\u202fAM to 7:30\u202fPM"
      },
      {
        "day": "Friday",
        "hours": "9\u202fAM to 7:30\u202fPM"
      },
      {
        "day": "Saturday",
        "hours": "9\u202fAM to 5\u202fPM"
      },
      {
        "day": "Sunday",
        "hours": "Closed"
      }
    ],
    "peopleAlsoSearch": [],
    "placesTags": [],
    "reviewsTags": [],
    "additionalInfo": {
      "From the business": [
        {
          "Small business": true
        }
      ],
      "Service options": [
        {
          "Delivery": true
        },
        {
          "In-store pickup": true
        },
        {
          "Same-day delivery": true
        }
      ],
      "Accessibility": [
        {
          "Wheelchair accessible entrance": true
        }
      ],
      "Planning": [
        {
          "Quick visit": true
        }
      ],
      "Payments": [
        {
          "Credit cards": true
        },
        {
          "Debit cards": true
        },
        {
          "NFC mobile payments": true
        },
        {
          "Credit cards": true
        }
      ]
    },
    "gasPrices": [],
    "url": "https://www.google.com/maps/search/?api=1&query=Elizabeth%20Pharmacy&query_place_id=ChIJqd0EFFRNwokRXL2rPw47bDE",
    "searchPageUrl": "https://www.google.com/maps/search/independent%20pharmacy%20Elizabeth%20NJ/@60.874534795447715,-145.05491807162034,9z?hl=en",
    "searchString": "independent pharmacy Elizabeth NJ",
    "language": "en",
    "rank": 10,
    "isAdvertisement": false,
    "imageUrl": "https://lh3.googleusercontent.com/p/AF1QipMa-lScPFMhRIIF-zhFFGwd15xl5ENL7fq17T7K=w408-h585-k-no",
    "kgmid": "/g/1tcwgx9l",
    "classification": "independent",
    "is_independent": true,
    "is_compounding": false,
    "confidence": 0.9,
    "source": "perplexity",
    "method": "llm"
  },
  {
    "title": "Legacy Drugstore",
    "price": null,
    "categoryName": "Pharmacy",
    "address": "400 S Broad St, Elizabeth, NJ 07202",
    "neighborhood": null,
    "street": "400 S Broad St",
    "city": "Elizabeth",
    "postalCode": "07202",
    "state": "New Jersey",
    "countryCode": "US",
    "website": "https://legacydrugstore.com/",
    "phone": "(908) 352-0050",
    "phoneUnformatted": "+19083520050",
    "claimThisBusiness": false,
    "location": {
      "lat": 40.6550886,
      "lng": -74.2154793
    },
    "totalScore": 4.8,
    "permanentlyClosed": false,
    "temporarilyClosed": false,
    "placeId": null,
    "categories": [
      "Pharmacy",
      "Drug store"
    ],
    "fid": "0x89c24d0028764b45:0xfae067ae06c57504",
    "cid": "18077562901400745220",
    "reviewsCount": 15,
    "imagesCount": 9,
    "imageCategories": [],
    "scrapedAt": "2025-06-22T06:07:44.797Z",
    "googleFoodUrl": null,
    "hotelAds": [],
    "openingHours": [
      {
        "day": "Monday",
        "hours": "9:30\u202fAM to 7:30\u202fPM"
      },
      {
        "day": "Tuesday",
        "hours": "9:30\u202fAM to 7:30\u202fPM"
      },
      {
        "day": "Wednesday",
        "hours": "9:30\u202fAM to 7:30\u202fPM"
      },
      {
        "day": "Thursday",
        "hours": "9:30\u202fAM to 7:30\u202fPM"
      },
      {
        "day": "Friday",
        "hours": "9:30\u202fAM to 7:30\u202fPM"
      },
      {
        "day": "Saturday",
        "hours": "10\u202fAM to 4\u202fPM"
      },
      {
        "day": "Sunday",
        "hours": "Closed"
      }
    ],
    "peopleAlsoSearch": [],
    "placesTags": [],
    "reviewsTags": [],
    "additionalInfo": {
      "Service options": [
        {
          "Delivery": true
        }
      ],
      "Planning": [
        {
          "Quick visit": true
        }
      ],
      "Payments": [
        {
          "Credit cards": true
        },
        {
          "Debit cards": true
        },
        {
          "NFC mobile payments": true
        },
        {
          "Credit cards": true
        }
      ]
    },
    "gasPrices": [],
    "url": "https://www.google.com/maps/search/?api=1&query=Legacy%20Drugstore&query_place_id=ChIJRUt2KABNwokRBHXFBq5n4Po",
    "searchPageUrl": "https://www.google.com/maps/search/independent%20pharmacy%20Elizabeth%20NJ/@65.04310121365691,-145.05491807162034,9z?hl=en",
    "searchString": "independent pharmacy Elizabeth NJ",
    "language": "en",
    "rank": 7,
    "isAdvertisement": false,
    "imageUrl": "https://lh3.googleusercontent.com/gps-cs-s/AC9h4nrlRj9GwvlwKFtMiGsLRvNHfppBTOs9JzoVkuAg7SrzzuAoZUHHeTOi1C0RUNsqVa8yLkLxiOmuWxBWdfbP1tDJSHcwK75R3ggEsUoPJNWSdQaXBDXuDQWCvdYvzd0GkVTK4Og=w408-h306-k-no",
    "kgmid": "/g/11whnvgk8d",
    "classification": "independent",
    "is_independent": true,
    "is_compounding": false,
    "confidence": 0.9,
    "source": "perplexity",
    "method": "llm"
  },
  {
    "title": "South Broad Pharmacy",
    "price": null,
    "categoryName": "Pharmacy",
    "address": "530 Westfield Ave, Elizabeth, NJ 07208",
    "neighborhood": null,
    "street": "530 Westfield Ave",
    "city": "Elizabeth",
    "postalCode": "07208",
    "state": "New Jersey",
    "countryCode": "US",
    "website": "https://sites.google.com/scarletmail.rutgers.edu/southbroadpharmacy/home",
    "phone": "(908) 469-4061",
    "phoneUnformatted": "+19084694061",
    "claimThisBusiness": false,
    "location": {
      "lat": 40.6655357,
      "lng": -74.2332248
    },
    "totalScore": 4.5,
    "permanentlyClosed": false,
    "temporarilyClosed": false,
    "placeId": null,
    "categories": [
      "Pharmacy"
    ],
    "fid": "0x89c24d4a975c36f7:0x3c9d921709b1d934",
    "cid": "4367807841263802676",
    "reviewsCount": 40,
    "imagesCount": 6,
    "imageCategories": [],
    "scrapedAt": "2025-06-22T06:07:44.798Z",
    "googleFoodUrl": null,
    "hotelAds": [],
    "openingHours": [
      {
        "day": "Monday",
        "hours": "9:30\u202fAM to 6\u202fPM"
      },
      {
        "day": "Tuesday",
        "hours": "9:30\u202fAM to 6\u202fPM"
      },
      {
        "day": "Wednesday",
        "hours": "9:30\u202fAM to 6\u202fPM"
      },
      {
        "day": "Thursday",
        "hours": "9:30\u202fAM to 6\u202fPM"
      },
      {
        "day": "Friday",
        "hours": "9:30\u202fAM to 6\u202fPM"
      },
      {
        "day": "Saturday",
        "hours": "9:30\u202fAM to 2\u202fPM"
      },
      {
        "day": "Sunday",
        "hours": "Closed"
      }
    ],
    "peopleAlsoSearch": [],
    "placesTags": [],
    "reviewsTags": [],
    "additionalInfo": {
      "From the business": [
        {
          "Small business": true
        }
      ],
      "Service options": [
        {
          "Delivery": true
        },
        {
          "Same-day delivery": true
        }
      ],
      "Accessibility": [
        {
          "Wheelchair accessible entrance": true
        },
        {
          "Wheelchair accessible parking lot": true
        }
      ],
      "Amenities": [
        {
          "Wi-Fi": true
        },
        {
          "Free Wi-Fi": true
        }
      ],
      "Planning": [
        {
          "Quick visit": true
        }
      ],
      "Payments": [
        {
          "Credit cards": true
        },
        {
          "Debit cards": true
        },
        {
          "NFC mobile payments": true
        },
        {
          "Credit cards": true
        }
      ]
    },
    "gasPrices": [],
    "url": "https://www.google.com/maps/search/?api=1&query=South%20Broad%20Pharmacy&query_place_id=ChIJ9zZcl0pNwokRNNmxCReSnTw",
    "searchPageUrl": "https://www.google.com/maps/search/independent%20pharmacy%20Elizabeth%20NJ/@65.04310121365691,-145.05491807162034,9z?hl=en",
    "searchString": "independent pharmacy Elizabeth NJ",
    "language": "en",
    "rank": 12,
    "isAdvertisement": false,
    "imageUrl": "https://lh3.googleusercontent.com/p/AF1QipMoyS8XhXQo0wNSI-I4IDtL7140OE-CntC1bDYJ=w408-h440-k-no",
    "kgmid": "/g/1tczftk3",
    "classification": "independent",
    "is_independent": true,
    "is_compounding": false,
    "confidence": 0.9,
    "source": "perplexity",
    "method": "llm"
  },
  {
    "title": "Formula Rx",
    "price": null,
    "categoryName": "Pharmacy",
    "address": "505 N Broad St Suite 103, Elizabeth, NJ 07208",
    "neighborhood": null,
    "street": "505 N Broad St Suite 103",
    "city": "Elizabeth",
    "postalCode": "07208",
    "state": "New Jersey",
    "countryCode": "US",
    "website": "http://formularxpharmacy.com/",
    "phone": "(908) 576-6053",
    "phoneUnformatted": "+19085766053",
    "claimThisBusiness": false,
    "location": {
      "lat": 40.6739364,
      "lng": -74.212736
    },
    "totalScore": 5,
    "permanentlyClosed": false,
    "temporarilyClosed": false,
    "placeId": null,
    "categories": [
      "Pharmacy"
    ],
    "fid": "0x89c253be12ed9a2d:0xf1d4a456ea7b5237",
    "cid": "17425733551411384887",
    "reviewsCount": 21,
    "imagesCount": 5,
    "imageCategories": [],
    "scrapedAt": "2025-06-22T06:07:44.798Z",
    "googleFoodUrl": null,
    "hotelAds": [],
    "openingHours": [
      {
        "day": "Monday",
        "hours": "9\u202fAM to 7\u202fPM"
      },
      {
        "day": "Tuesday",
        "hours": "9\u202fAM to 7\u202fPM"
      },
      {
        "day": "Wednesday",
        "hours": "9\u202fAM to 7\u202fPM"
      },
      {
        "day": "Thursday",
        "hours": "9\u202fAM to 7\u202fPM"
      },
      {
        "day": "Friday",
        "hours": "9\u202fAM to 7\u202fPM"
      },
      {
        "day": "Saturday",
        "hours": "10\u202fAM to 3\u202fPM"
      },
      {
        "day": "Sunday",
        "hours": "Closed"
      }
    ],
    "peopleAlsoSearch": [],
    "placesTags": [],
    "reviewsTags": [],
    "additionalInfo": {
      "From the business": [
        {
          "Identifies as Latino-owned": true
        },
        {
          "Identifies as women-owned": true
        },
        {
          "Small business": true
        }
      ],
      "Service options": [
        {
          "Delivery": true
        },
        {
          "In-store shopping": true
        },
        {
          "French": true
        }
      ],
      "Accessibility": [
        {
          "Wheelchair accessible seating": true
        }
      ],
      "Payments": [
        {
          "Credit cards": true
        },
        {
          "Debit cards": true
        },
        {
          "Credit cards": true
        }
      ],
      "Parking": [
        {
          "Free parking lot": true
        },
        {
          "On-site parking": true
        }
      ]
    },
    "gasPrices": [],
    "url": "https://www.google.com/maps/search/?api=1&query=Formula%20Rx&query_place_id=ChIJLZrtEr5TwokRN1J76lak1PE",
    "searchPageUrl": "https://www.google.com/maps/search/independent%20pharmacy%20Elizabeth%20NJ/@65.04310121365691,-145.05491807162034,9z?hl=en",
    "searchString": "independent pharmacy Elizabeth NJ",
    "language": "en",
    "rank": 13,
    "isAdvertisement": false,
    "imageUrl": "https://lh3.googleusercontent.com/p/AF1QipMf36GxusEOGnhWYqCcepVVBYo0JzmfZ53mU1MB=w408-h544-k-no",
    "kgmid": "/g/11vxpqy5ts",
    "classification": "independent",
    "is_independent": true,
    "is_compounding": true,
    "confidence": 0.9,
    "source": "perplexity",
    "method": "llm"
  },
  {
    "title": "Union Care Pharmacy",
    "price": null,
    "categoryName": "Pharmacy",
    "address": "204 N Broad St, Elizabeth, NJ 07208",
    "neighborhood": null,
    "street": "204 N Broad St",
    "city": "Elizabeth",
    "postalCode": "07208",
    "state": "New Jersey",
    "countryCode": "US",
    "phone": "(908) 355-4480",
    "phoneUnformatted": "+19083554480",
    "claimThisBusiness": false,
    "location": {
      "lat": 40.6677664,
      "lng": -74.2154359
    },
    "totalScore": 4.6,
    "permanentlyClosed": false,
    "temporarilyClosed": false,
    "placeId": null,
    "categories": [
      "Pharmacy"
    ],
    "fid": "0x89c24da08bf6c23b:0x5abb93e890f1af43",
    "cid": "6537981911131860803",
    "reviewsCount": 12,
    "imagesCount": 4,
    "imageCategories": [],
    "scrapedAt": "2025-06-22T06:07:44.798Z",
    "googleFoodUrl": null,
    "hotelAds": [],
    "openingHours": [
      {
        "day": "Monday",
        "hours": "10\u202fAM to 6:30\u202fPM"
      },
      {
        "day": "Tuesday",
        "hours": "10\u202fAM to 6:30\u202fPM"
      },
      {
        "day": "Wednesday",
        "hours": "10\u202fAM to 6:30\u202fPM"
      },
      {
        "day": "Thursday",
        "hours": "10\u202fAM to 6:30\u202fPM"
      },
      {
        "day": "Friday",
        "hours": "10\u202fAM to 6:30\u202fPM"
      },
      {
        "day": "Saturday",
        "hours": "10\u202fAM to 3\u202fPM"
      },
      {
        "day": "Sunday",
        "hours": "Closed"
      }
    ],
    "peopleAlsoSearch": [],
    "placesTags": [],
    "reviewsTags": [],
    "additionalInfo": {
      "From the business": [
        {
          "Small business": true
        }
      ],
      "Service options": [
        {
          "Delivery": true
        }
      ],
      "Payments": [
        {
          "Credit cards": true
        },
        {
          "Debit cards": true
        },
        {
          "NFC mobile payments": true
        },
        {
          "Credit cards": true
        }
      ]
    },
    "gasPrices": [],
    "url": "https://www.google.com/maps/search/?api=1&query=Union%20Care%20Pharmacy&query_place_id=ChIJO8L2i6BNwokRQ6_xkOiTu1o",
    "searchPageUrl": "https://www.google.com/maps/search/independent%20pharmacy%20Elizabeth%20NJ/@65.04310121365691,-145.05491807162034,9z?hl=en",
    "searchString": "independent pharmacy Elizabeth NJ",
    "language": "en",
    "rank": 14,
    "isAdvertisement": false,
    "imageUrl": "https://lh3.googleusercontent.com/gps-cs-s/AC9h4nqbgabHNGsMFitMJKzlkRmVhnBTTAYEuBCJh_Z9daXp5eapJ01wAyp8vSeQKKf0UDlB1FPn7DSJWgTzMFCioIXHdHqE5V9ZS974HG1kYadZufkJcVyxwCuVdpuF0rayCjVxKuYsmw=w408-h306-k-no",
    "kgmid": "/g/11hz6clgb9",
    "classification": "independent",
    "is_independent": true,
    "is_compounding": false,
    "confidence": 0.85,
    "source": "perplexity",
    "method": "llm"
  },
  {
    "title": "Walgreens Pharmacy",
    "description": "Department of the Walgreens chain providing prescription medications & other health-related items.",
    "price": "$$",
    "categoryName": "Pharmacy",
    "address": "600 Newark Ave, Elizabeth, NJ 07208",
    "neighborhood": null,
    "street": "600 Newark Ave",
    "city": "Elizabeth",
    "postalCode": "07208",
    "state": "New Jersey",
    "countryCode": "US",
    "website": "https://www.walgreens.com/locator/walgreens-600+newark+ave-elizabeth-nj-07208/id=2884",
    "phone": "(908) 353-7443",
    "phoneUnformatted": "+19083537443",
    "claimThisBusiness": false,
    "location": {
      "lat": 40.6772817,
      "lng": -74.2126371
    },
    "totalScore": 4.3,
    "permanentlyClosed": false,
    "temporarilyClosed": false,
    "placeId": null,
    "categories": [
      "Pharmacy"
    ],
    "fid": "0x89c252addd072a27:0x14c895306b3712a7",
    "cid": "1497610911290430119",
    "reviewsCount": 71,
    "imagesCount": 4,
    "imageCategories": [],
    "scrapedAt": "2025-06-22T06:07:45.742Z",
    "googleFoodUrl": null,
    "hotelAds": [],
    "openingHours": [
      {
        "day": "Monday",
        "hours": "2\u202fAM to 1:30\u202fAM"
      },
      {
        "day": "Tuesday",
        "hours": "2\u202fAM to 1:30\u202fAM"
      },
      {
        "day": "Wednesday",
        "hours": "2\u202fAM to 1:30\u202fAM"
      },
      {
        "day": "Thursday",
        "hours": "2\u202fAM to 1:30\u202fAM"
      },
      {
        "day": "Friday",
        "hours": "2\u202fAM to 1:30\u202fAM"
      },
      {
        "day": "Saturday",
        "hours": "2\u202fAM to 1:30\u202fPM, 2\u202fPM to 1:30\u202fAM"
      },
      {
        "day": "Sunday",
        "hours": "2\u202fAM to 1:30\u202fPM, 2\u202fPM to 1:30\u202fAM"
      }
    ],
    "additionalOpeningHours": {
      "Drive through": [
        {
          "day": "Monday",
          "hours": "2\u202fAM\u20131:30\u202fAM"
        },
        {
          "day": "Tuesday",
          "hours": "2\u202fAM\u20131:30\u202fAM"
        },
        {
          "day": "Wednesday",
          "hours": "2\u202fAM\u20131:30\u202fAM"
        },
        {
          "day": "Thursday",
          "hours": "2\u202fAM\u20131:30\u202fAM"
        },
        {
          "day": "Friday",
          "hours": "2\u202fAM\u201312\u202fAM"
        },
        {
          "day": "Saturday",
          "hours": "12\u202fAM\u20131:30\u202fPM"
        },
        {
          "day": "Sunday",
          "hours": "12\u202fAM\u20131:30\u202fPM"
        }
      ]
    },
    "peopleAlsoSearch": [],
    "placesTags": [],
    "reviewsTags": [],
    "additionalInfo": {
      "Service options": [
        {
          "Delivery": true
        },
        {
          "Drive-through": true
        },
        {
          "In-store pickup": true
        }
      ],
      "Accessibility": [
        {
          "Wheelchair accessible entrance": true
        },
        {
          "Wheelchair accessible parking lot": true
        }
      ],
      "Offerings": [
        {
          "Medication disposal": true
        },
        {
          "Naloxone": true
        },
        {
          "Passport photos": true
        }
      ],
      "Planning": [
        {
          "Quick visit": true
        }
      ],
      "Payments": [
        {
          "Credit cards": true
        },
        {
          "Debit cards": true
        }
      ],
      "Parking": [
        {
          "On-site parking": true
        }
      ]
    },
    "gasPrices": [],
    "url": "https://www.google.com/maps/search/?api=1&query=Walgreens%20Pharmacy&query_place_id=ChIJJyoH3a1SwokRpxI3azCVyBQ",
    "searchPageUrl": "https://www.google.com/maps/search/independent%20pharmacy%20Elizabeth%20NJ/@39.68245004733214,-83.31984582886456,8z?hl=en",
    "searchString": "independent pharmacy Elizabeth NJ",
    "language": "en",
    "rank": 5,
    "isAdvertisement": false,
    "imageUrl": "https://lh3.googleusercontent.com/gps-cs-s/AC9h4noYwBrhX3VXmF1aEmX-X16KhbVzUMypoA2CUG--DFZOA0fKZENv6c_9Bm_fcoKUNgRnGUlVwa_4deWOTHg1pbXhXPKmN2C8pb7c4bXjRotiICCOlzf5Ly9GJG2S5LldWL0HNH4=w493-h240-k-no",
    "kgmid": "/g/11cn9647ns",
    "classification": "chain",
    "is_independent": false,
    "is_compounding": false,
    "confidence": 1.0,
    "source": "perplexity",
    "method": "llm"
  },
  {
    "title": "Morris Avenue Pharmacy",
    "price": null,
    "categoryName": "Pharmacy",
    "address": "333 Morris Ave, Elizabeth, NJ 07208",
    "neighborhood": null,
    "street": "333 Morris Ave",
    "city": "Elizabeth",
    "postalCode": "07208",
    "state": "New Jersey",
    "countryCode": "US",
    "website": "http://www.morrisavepharmacy.com/",
    "phone": "(908) 353-5200",
    "phoneUnformatted": "+19083535200",
    "claimThisBusiness": false,
    "location": {
      "lat": 40.6698714,
      "lng": -74.2184793
    },
    "totalScore": 4.6,
    "permanentlyClosed": false,
    "temporarilyClosed": false,
    "placeId": null,
    "categories": [
      "Pharmacy"
    ],
    "fid": "0x89c3ad5557dd3e39:0x638c796b7392665e",
    "cid": "7173241808901793374",
    "reviewsCount": 35,
    "imagesCount": 11,
    "imageCategories": [],
    "scrapedAt": "2025-06-22T06:07:45.743Z",
    "googleFoodUrl": null,
    "hotelAds": [],
    "openingHours": [
      {
        "day": "Monday",
        "hours": "9\u202fAM to 7\u202fPM"
      },
      {
        "day": "Tuesday",
        "hours": "9\u202fAM to 7\u202fPM"
      },
      {
        "day": "Wednesday",
        "hours": "9\u202fAM to 7\u202fPM"
      },
      {
        "day": "Thursday",
        "hours": "9\u202fAM to 7\u202fPM"
      },
      {
        "day": "Friday",
        "hours": "9\u202fAM to 7\u202fPM"
      },
      {
        "day": "Saturday",
        "hours": "9\u202fAM to 3\u202fPM"
      },
      {
        "day": "Sunday",
        "hours": "9\u202fAM to 1\u202fPM"
      }
    ],
    "peopleAlsoSearch": [],
    "placesTags": [],
    "reviewsTags": [],
    "additionalInfo": {
      "From the business": [
        {
          "Small business": true
        }
      ],
      "Service options": [
        {
          "Delivery": true
        },
        {
          "In-store pickup": true
        }
      ],
      "Accessibility": [
        {
          "Wheelchair accessible entrance": true
        },
        {
          "Wheelchair accessible parking lot": true
        }
      ],
      "Planning": [
        {
          "Quick visit": true
        }
      ],
      "Payments": [
        {
          "Credit cards": true
        },
        {
          "Debit cards": true
        },
        {
          "NFC mobile payments": true
        },
        {
          "Credit cards": true
        }
      ],
      "Parking": [
        {
          "Paid street parking": true
        }
      ]
    },
    "gasPrices": [],
    "url": "https://www.google.com/maps/search/?api=1&query=Morris%20Avenue%20Pharmacy&query_place_id=ChIJOT7dV1Wtw4kRXmaSc2t5jGM",
    "searchPageUrl": "https://www.google.com/maps/search/independent%20pharmacy%20Elizabeth%20NJ/@39.68245004733214,-83.31984582886456,8z?hl=en",
    "searchString": "independent pharmacy Elizabeth NJ",
    "language": "en",
    "rank": 13,
    "isAdvertisement": false,
    "imageUrl": "https://lh3.googleusercontent.com/p/AF1QipOQDZJvVfMmDBilFc-wUIfDEiyoFRc2FwFBjZXv=w408-h306-k-no",
    "kgmid": "/g/11c5wwwdvm",
    "classification": "independent",
    "is_independent": true,
    "is_compounding": false,
    "confidence": 0.9,
    "source": "perplexity",
    "method": "llm"
  },
  {
    "title": "Bergen Pharmacy",
    "price": null,
    "categoryName": "Pharmacy",
    "address": "240 Williamson St, Elizabeth, NJ 07202",
    "neighborhood": null,
    "street": "240 Williamson St",
    "city": "Elizabeth",
    "postalCode": "07202",
    "state": "New Jersey",
    "countryCode": "US",
    "website": "http://www.bergenrx.com/",
    "phone": "(908) 994-9700",
    "phoneUnformatted": "+19089949700",
    "claimThisBusiness": true,
    "location": {
      "lat": 40.6590603,
      "lng": -74.2147433
    },
    "totalScore": 5,
    "permanentlyClosed": false,
    "temporarilyClosed": false,
    "placeId": null,
    "categories": [
      "Pharmacy"
    ],
    "fid": "0x89c24d4d861f27e1:0xb1d3b82655aa2522",
    "cid": "12813787839584675106",
    "reviewsCount": 8,
    "imagesCount": 1,
    "imageCategories": [],
    "scrapedAt": "2025-06-22T06:07:45.743Z",
    "googleFoodUrl": null,
    "hotelAds": [],
    "openingHours": [
      {
        "day": "Monday",
        "hours": "8:30\u202fAM to 7\u202fPM"
      },
      {
        "day": "Tuesday",
        "hours": "8\u202fAM to 7\u202fPM"
      },
      {
        "day": "Wednesday",
        "hours": "8\u202fAM to 7\u202fPM"
      },
      {
        "day": "Thursday",
        "hours": "8\u202fAM to 7\u202fPM"
      },
      {
        "day": "Friday",
        "hours": "8\u202fAM to 7\u202fPM"
      },
      {
        "day": "Saturday",
        "hours": "8\u202fAM to 1\u202fPM"
      },
      {
        "day": "Sunday",
        "hours": "Closed"
      }
    ],
    "peopleAlsoSearch": [],
    "placesTags": [],
    "reviewsTags": [],
    "additionalInfo": {
      "Service options": [
        {
          "Delivery": true
        }
      ],
      "Payments": [
        {
          "Credit cards": true
        },
        {
          "Debit cards": true
        },
        {
          "NFC mobile payments": true
        },
        {
          "Credit cards": true
        }
      ]
    },
    "gasPrices": [],
    "url": "https://www.google.com/maps/search/?api=1&query=Bergen%20Pharmacy&query_place_id=ChIJ4Scfhk1NwokRIiWqVSa407E",
    "searchPageUrl": "https://www.google.com/maps/search/independent%20pharmacy%20Elizabeth%20NJ/@39.68245004733214,-83.31984582886456,8z?hl=en",
    "searchString": "independent pharmacy Elizabeth NJ",
    "language": "en",
    "rank": 15,
    "isAdvertisement": false,
    "imageUrl": "https://streetviewpixels-pa.googleapis.com/v1/thumbnail?panoid=F5olNhk_IHPA2PETswLO0A&cb_client=search.gws-prod.gps&w=408&h=240&yaw=245.90591&pitch=0&thumbfov=100",
    "kgmid": "/g/11b63cx1fd",
    "classification": "independent",
    "is_independent": true,
    "is_compounding": false,
    "confidence": 0.9,
    "source": "perplexity",
    "method": "llm"
  },
  {
    "title": "Downtown Pharmacy",
    "price": null,
    "categoryName": "Pharmacy",
    "address": "1120 Elizabeth Ave #5, Elizabeth, NJ 07201",
    "neighborhood": null,
    "street": "1120 Elizabeth Ave #5",
    "city": "Elizabeth",
    "postalCode": "07201",
    "state": "New Jersey",
    "countryCode": "US",
    "phone": "(908) 820-8646",
    "phoneUnformatted": "+19088208646",
    "claimThisBusiness": false,
    "location": {
      "lat": 40.6616119,
      "lng": -74.2125334
    },
    "permanentlyClosed": false,
    "temporarilyClosed": false,
    "placeId": null,
    "categories": [
      "Pharmacy"
    ],
    "fid": "0x89c24d53d3df005d:0x61c7c487e1d7d57a",
    "cid": "7045816229933077882",
    "reviewsCount": 0,
    "imagesCount": 5,
    "imageCategories": [],
    "scrapedAt": "2025-06-22T06:07:45.743Z",
    "googleFoodUrl": null,
    "hotelAds": [],
    "openingHours": [
      {
        "day": "Monday",
        "hours": "9\u202fAM to 5\u202fPM"
      },
      {
        "day": "Tuesday",
        "hours": "9\u202fAM to 5\u202fPM"
      },
      {
        "day": "Wednesday",
        "hours": "9\u202fAM to 5\u202fPM"
      },
      {
        "day": "Thursday",
        "hours": "9\u202fAM to 5\u202fPM"
      },
      {
        "day": "Friday",
        "hours": "9\u202fAM to 5\u202fPM"
      },
      {
        "day": "Saturday",
        "hours": "Closed"
      },
      {
        "day": "Sunday",
        "hours": "Closed"
      }
    ],
    "peopleAlsoSearch": [],
    "placesTags": [],
    "reviewsTags": [],
    "additionalInfo": {
      "From the business": [
        {
          "Small business": true
        }
      ],
      "Service options": [
        {
          "Delivery": true
        },
        {
          "Same-day delivery": true
        }
      ],
      "Accessibility": [
        {
          "Wheelchair accessible entrance": true
        }
      ],
      "Planning": [
        {
          "Quick visit": true
        }
      ],
      "Payments": [
        {
          "Credit cards": true
        },
        {
          "Debit cards": true
        },
        {
          "NFC mobile payments": true
        },
        {
          "Credit cards": true
        }
      ],
      "Parking": [
        {
          "On-site parking": true
        }
      ]
    },
    "gasPrices": [],
    "url": "https://www.google.com/maps/search/?api=1&query=Downtown%20Pharmacy&query_place_id=ChIJXQDf01NNwokRetXX4YfEx2E",
    "searchPageUrl": "https://www.google.com/maps/search/independent%20pharmacy%20Elizabeth%20NJ/@39.68245004733214,-83.31984582886456,8z?hl=en",
    "searchString": "independent pharmacy Elizabeth NJ",
    "language": "en",
    "rank": 17,
    "isAdvertisement": false,
    "imageUrl": "https://lh3.googleusercontent.com/p/AF1QipOA-JbUCbeem1F3gXyT6bQ8R1SGTdhiWgqnjswp=w829-h240-k-no",
    "kgmid": "/g/11gfb3nc7j",
    "classification": "independent",
    "is_independent": true,
    "is_compounding": false,
    "confidence": 0.85,
    "source": "perplexity",
    "method": "llm"
  },
  {
    "title": "iCareRx Pharmacy",
    "price": null,
    "categoryName": "Pharmacy",
    "address": "702 Jersey Ave, Elizabeth, NJ 07202",
    "neighborhood": null,
    "street": "702 Jersey Ave",
    "city": "Elizabeth",
    "postalCode": "07202",
    "state": "New Jersey",
    "countryCode": "US",
    "website": "https://icarerxnj.com/",
    "phone": "(908) 533-9700",
    "phoneUnformatted": "+19085339700",
    "claimThisBusiness": false,
    "location": {
      "lat": 40.6613706,
      "lng": -74.2336924
    },
    "totalScore": 4.5,
    "permanentlyClosed": false,
    "temporarilyClosed": false,
    "placeId": null,
    "categories": [
      "Pharmacy"
    ],
    "fid": "0x89c3b3a6322547bd:0x99bb2c9f1d438889",
    "cid": "11077496770350254217",
    "reviewsCount": 15,
    "imagesCount": 9,
    "imageCategories": [],
    "scrapedAt": "2025-06-22T06:07:45.743Z",
    "googleFoodUrl": null,
    "hotelAds": [],
    "openingHours": [
      {
        "day": "Monday",
        "hours": "10\u202fAM to 6\u202fPM"
      },
      {
        "day": "Tuesday",
        "hours": "10\u202fAM to 6\u202fPM"
      },
      {
        "day": "Wednesday",
        "hours": "10\u202fAM to 6\u202fPM"
      },
      {
        "day": "Thursday",
        "hours": "10\u202fAM to 6\u202fPM"
      },
      {
        "day": "Friday",
        "hours": "10\u202fAM to 6\u202fPM"
      },
      {
        "day": "Saturday",
        "hours": "Closed"
      },
      {
        "day": "Sunday",
        "hours": "Closed"
      }
    ],
    "peopleAlsoSearch": [],
    "placesTags": [],
    "reviewsTags": [],
    "additionalInfo": {
      "From the business": [
        {
          "Small business": true
        }
      ],
      "Service options": [
        {
          "Curbside pickup": true
        },
        {
          "Delivery": true
        },
        {
          "In-store pickup": true
        },
        {
          "In-store shopping": true
        },
        {
          "Same-day delivery": true
        },
        {
          "Onsite services": false
        },
        {
          "English": true
        }
      ],
      "Accessibility": [
        {
          "Wheelchair accessible entrance": true
        },
        {
          "Wheelchair accessible restroom": true
        },
        {
          "Wheelchair accessible seating": true
        }
      ],
      "Payments": [
        {
          "Checks": true
        },
        {
          "Credit cards": true
        },
        {
          "Debit cards": true
        },
        {
          "Credit cards": true
        }
      ],
      "Parking": [
        {
          "Free street parking": true
        },
        {
          "Paid street parking": true
        }
      ]
    },
    "gasPrices": [],
    "url": "https://www.google.com/maps/search/?api=1&query=iCareRx%20Pharmacy&query_place_id=ChIJvUclMqazw4kRiYhDHZ8su5k",
    "searchPageUrl": "https://www.google.com/maps/search/independent%20pharmacy%20Elizabeth%20NJ/@39.68245004733214,-83.31984582886456,8z?hl=en",
    "searchString": "independent pharmacy Elizabeth NJ",
    "language": "en",
    "rank": 18,
    "isAdvertisement": false,
    "imageUrl": "https://lh3.googleusercontent.com/p/AF1QipOzb5mpB6XylOxbR2L6fpocCKi1334bnmgYC3Di=w408-h407-k-no",
    "kgmid": "/g/11j1fx2hcx",
    "classification": "independent",
    "is_independent": true,
    "is_compounding": false,
    "confidence": 0.85,
    "source": "perplexity",
    "method": "llm"
  },
  {
    "title": "Crossroads Pharmacy",
    "price": null,
    "categoryName": "Pharmacy",
    "address": "700 E Jersey St, Elizabeth, NJ 07201",
    "neighborhood": "Elizabethport",
    "street": "700 E Jersey St",
    "city": "Elizabeth",
    "postalCode": "07201",
    "state": "New Jersey",
    "countryCode": "US",
    "phone": "(908) 354-2060",
    "phoneUnformatted": "+19083542060",
    "claimThisBusiness": true,
    "location": {
      "lat": 40.6596121,
      "lng": -74.1989501
    },
    "totalScore": 4.1,
    "permanentlyClosed": false,
    "temporarilyClosed": false,
    "placeId": null,
    "categories": [
      "Pharmacy"
    ],
    "fid": "0x89c24d5c5e61bf1f:0x539df17220cd145b",
    "cid": "6025237348970468443",
    "reviewsCount": 37,
    "imagesCount": 2,
    "imageCategories": [],
    "scrapedAt": "2025-06-22T06:07:45.743Z",
    "googleFoodUrl": null,
    "hotelAds": [],
    "openingHours": [
      {
        "day": "Monday",
        "hours": "9\u202fAM to 5\u202fPM"
      },
      {
        "day": "Tuesday",
        "hours": "9\u202fAM to 5\u202fPM"
      },
      {
        "day": "Wednesday",
        "hours": "9\u202fAM to 5\u202fPM"
      },
      {
        "day": "Thursday",
        "hours": "9\u202fAM to 5\u202fPM"
      },
      {
        "day": "Friday",
        "hours": "9\u202fAM to 5\u202fPM"
      },
      {
        "day": "Saturday",
        "hours": "Closed"
      },
      {
        "day": "Sunday",
        "hours": "Closed"
      }
    ],
    "peopleAlsoSearch": [],
    "placesTags": [],
    "reviewsTags": [],
    "additionalInfo": {
      "Service options": [
        {
          "Delivery": true
        },
        {
          "Same-day delivery": true
        }
      ],
      "Planning": [
        {
          "Quick visit": true
        }
      ],
      "Payments": [
        {
          "Credit cards": true
        },
        {
          "Debit cards": true
        },
        {
          "Credit cards": true
        }
      ]
    },
    "gasPrices": [],
    "url": "https://www.google.com/maps/search/?api=1&query=Crossroads%20Pharmacy&query_place_id=ChIJH79hXlxNwokRWxTNIHLxnVM",
    "searchPageUrl": "https://www.google.com/maps/search/independent%20pharmacy%20Elizabeth%20NJ/@39.68245004733214,-83.31984582886456,8z?hl=en",
    "searchString": "independent pharmacy Elizabeth NJ",
    "language": "en",
    "rank": 19,
    "isAdvertisement": false,
    "imageUrl": "https://lh3.googleusercontent.com/gps-cs-s/AC9h4nrmUYqPQvzk_kgf6nA4BCnkiGoLHko2bsrgziZ0LIxb025PIB3GTJddDncbo3IPrfmYBf7GXUOXt5XpxtfhUQJgfmDaTDK-Gl2u2gHPOP03HCK9SGOl5dmDV4X_yu2MqVczLcOLgQ=w426-h240-k-no",
    "kgmid": "/g/1tjfc4_4",
    "classification": "independent",
    "is_independent": true,
    "is_compounding": false,
    "confidence": 0.85,
    "source": "perplexity",
    "method": "llm"
  }
]