[
  {
    "title": "Lighthouse Pharmacy LLC",
    "price": null,
    "categoryName": "Pharmacy",
    "address": "2337 Pass Rd Suite D, Biloxi, MS 39531",
    "neighborhood": null,
    "street": "2337 Pass Rd Suite D",
    "city": "Biloxi",
    "postalCode": "39531",
    "state": "Mississippi",
    "countryCode": "US",
    "website": "https://www.lighthouserx.com/",
    "phone": "(228) 207-6730",
    "phoneUnformatted": "+12282076730",
    "claimThisBusiness": false,
    "location": {
      "lat": 30.4011259,
      "lng": -88.9720847
    },
    "totalScore": 5,
    "permanentlyClosed": false,
    "temporarilyClosed": false,
    "placeId": null,
    "categories": [
      "Pharmacy",
      "Drug store",
      "Gift shop",
      "Vitamin & supplements store"
    ],
    "fid": "0x889c11e7b91f77e9:0x232e8bbeaf261deb",
    "cid": "2535117291354725867",
    "reviewsCount": 21,
    "imagesCount": 65,
    "imageCategories": [],
    "scrapedAt": "2025-06-22T08:17:26.119Z",
    "googleFoodUrl": null,
    "hotelAds": [],
    "openingHours": [
      {
        "day": "Monday",
        "hours": "9\u202fAM to 6\u202fPM"
      },
      {
        "day": "Tuesday",
        "hours": "9\u202fAM to 6\u202fPM"
      },
      {
        "day": "Wednesday",
        "hours": "9\u202fAM to 6\u202fPM"
      },
      {
        "day": "Thursday",
        "hours": "9\u202fAM to 6\u202fPM"
      },
      {
        "day": "Friday",
        "hours": "9\u202fAM to 6\u202fPM"
      },
      {
        "day": "Saturday",
        "hours": "Closed"
      },
      {
        "day": "Sunday",
        "hours": "Closed"
      }
    ],
    "peopleAlsoSearch": [],
    "placesTags": [],
    "reviewsTags": [],
    "additionalInfo": {
      "From the business": [
        {
          "Identifies as women-owned": true
        },
        {
          "Small business": true
        }
      ],
      "Service options": [
        {
          "Curbside pickup": true
        },
        {
          "Delivery": true
        },
        {
          "In-store shopping": true
        },
        {
          "Onsite services": true
        }
      ],
      "Accessibility": [
        {
          "Wheelchair accessible entrance": true
        },
        {
          "Wheelchair accessible parking lot": true
        }
      ],
      "Planning": [
        {
          "Quick visit": true
        }
      ],
      "Payments": [
        {
          "Credit cards": true
        },
        {
          "NFC mobile payments": true
        },
        {
          "Credit cards": true
        }
      ]
    },
    "gasPrices": [],
    "url": "https://www.google.com/maps/search/?api=1&query=Lighthouse%20Pharmacy%20LLC&query_place_id=ChIJ6XcfuecRnIgR6x0mr76LLiM",
    "searchPageUrl": "https://www.google.com/maps/search/independent%20pharmacy%20Biloxi%20MS/@68.51690656216455,-141.6025211145925,9z?hl=en",
    "searchString": "independent pharmacy Biloxi MS",
    "language": "en",
    "rank": 1,
    "isAdvertisement": false,
    "imageUrl": "https://lh3.googleusercontent.com/p/AF1QipNqKHjllijxkI3c7R785Uv6OKG0fnqm9FZdZLFy=w493-h240-k-no",
    "kgmid": "/g/11h80kpqzl",
    "classification": "independent",
    "is_independent": true,
    "is_compounding": false,
    "confidence": 0.9,
    "source": "perplexity",
    "method": "llm"
  },
  {
    "title": "Ladner Drugs",
    "price": null,
    "categoryName": "Pharmacy",
    "address": "12435 Shriners Blvd, Biloxi, MS 39532",
    "neighborhood": null,
    "street": "12435 Shriners Blvd",
    "city": "Biloxi",
    "postalCode": "39532",
    "state": "Mississippi",
    "countryCode": "US",
    "website": "https://ladnerdrugs.com/",
    "phone": "(228) 354-9616",
    "phoneUnformatted": "+12283549616",
    "claimThisBusiness": false,
    "location": {
      "lat": 30.4693575,
      "lng": -88.9711399
    },
    "totalScore": 3.8,
    "permanentlyClosed": false,
    "temporarilyClosed": false,
    "placeId": null,
    "categories": [
      "Pharmacy"
    ],
    "fid": "0x889c125062be9bcf:0x1066e78568359afb",
    "cid": "1181886512396344059",
    "reviewsCount": 43,
    "imagesCount": 3,
    "imageCategories": [],
    "scrapedAt": "2025-06-22T08:17:26.120Z",
    "googleFoodUrl": null,
    "hotelAds": [],
    "openingHours": [
      {
        "day": "Monday",
        "hours": "9\u202fAM to 6\u202fPM"
      },
      {
        "day": "Tuesday",
        "hours": "9\u202fAM to 6\u202fPM"
      },
      {
        "day": "Wednesday",
        "hours": "9\u202fAM to 6\u202fPM"
      },
      {
        "day": "Thursday",
        "hours": "9\u202fAM to 6\u202fPM"
      },
      {
        "day": "Friday",
        "hours": "9\u202fAM to 6\u202fPM"
      },
      {
        "day": "Saturday",
        "hours": "9\u202fAM to 1\u202fPM"
      },
      {
        "day": "Sunday",
        "hours": "Closed"
      }
    ],
    "peopleAlsoSearch": [],
    "placesTags": [],
    "reviewsTags": [],
    "additionalInfo": {
      "From the business": [
        {
          "Small business": true
        }
      ],
      "Service options": [
        {
          "Curbside pickup": true
        },
        {
          "Delivery": true
        },
        {
          "Drive-through": true
        },
        {
          "In-store pickup": true
        },
        {
          "In-store shopping": true
        },
        {
          "Same-day delivery": true
        }
      ],
      "Accessibility": [
        {
          "Wheelchair accessible entrance": true
        },
        {
          "Wheelchair accessible parking lot": true
        }
      ],
      "Planning": [
        {
          "Quick visit": true
        }
      ],
      "Payments": [
        {
          "Credit cards": true
        },
        {
          "Debit cards": true
        },
        {
          "NFC mobile payments": true
        },
        {
          "Credit cards": true
        }
      ]
    },
    "gasPrices": [],
    "url": "https://www.google.com/maps/search/?api=1&query=Ladner%20Drugs&query_place_id=ChIJz5u-YlASnIgR-5o1aIXnZhA",
    "searchPageUrl": "https://www.google.com/maps/search/independent%20pharmacy%20Biloxi%20MS/@68.51690656216455,-141.6025211145925,9z?hl=en",
    "searchString": "independent pharmacy Biloxi MS",
    "language": "en",
    "rank": 2,
    "isAdvertisement": false,
    "imageUrl": "https://lh3.googleusercontent.com/gps-cs-s/AC9h4nqELvmydMgAO8S2Jge-Cv44orYu6ZrQN4GoOvgbIVyIahEU-23LpYc-PWNefrulIuNLFbcJklUS8WRYxCJtu_r0OyyaexG4_ObM4STm4dimVTnkbl5cz36a60GkpxkB0l9JymJ0=w426-h240-k-no",
    "kgmid": "/g/11bz09kh2x",
    "classification": "independent",
    "is_independent": true,
    "is_compounding": false,
    "confidence": 0.9,
    "source": "perplexity",
    "method": "llm"
  },
  {
    "title": "Cedar Lake Pharmacy",
    "price": null,
    "categoryName": "Pharmacy",
    "address": "921 Cedar Lake Rd, Biloxi, MS 39532",
    "neighborhood": null,
    "street": "921 Cedar Lake Rd",
    "city": "Biloxi",
    "postalCode": "39532",
    "state": "Mississippi",
    "countryCode": "US",
    "phone": "(228) 396-4412",
    "phoneUnformatted": "+12283964412",
    "claimThisBusiness": false,
    "location": {
      "lat": 30.4431078,
      "lng": -88.9356078
    },
    "totalScore": 4.9,
    "permanentlyClosed": false,
    "temporarilyClosed": false,
    "placeId": null,
    "categories": [
      "Pharmacy"
    ],
    "fid": "0x889c0df0a1e5fa0d:0xa058a89482df4e57",
    "cid": "11554170199823306327",
    "reviewsCount": 53,
    "imagesCount": 10,
    "imageCategories": [],
    "scrapedAt": "2025-06-22T08:17:26.121Z",
    "googleFoodUrl": null,
    "hotelAds": [],
    "openingHours": [
      {
        "day": "Monday",
        "hours": "9\u202fAM to 6\u202fPM"
      },
      {
        "day": "Tuesday",
        "hours": "9\u202fAM to 6\u202fPM"
      },
      {
        "day": "Wednesday",
        "hours": "9\u202fAM to 6\u202fPM"
      },
      {
        "day": "Thursday",
        "hours": "9\u202fAM to 6\u202fPM"
      },
      {
        "day": "Friday",
        "hours": "9\u202fAM to 6\u202fPM"
      },
      {
        "day": "Saturday",
        "hours": "10\u202fAM to 2\u202fPM"
      },
      {
        "day": "Sunday",
        "hours": "Closed"
      }
    ],
    "peopleAlsoSearch": [],
    "placesTags": [],
    "reviewsTags": [],
    "additionalInfo": {
      "From the business": [
        {
          "Small business": true
        }
      ],
      "Accessibility": [
        {
          "Wheelchair accessible entrance": true
        },
        {
          "Wheelchair accessible parking lot": true
        }
      ],
      "Planning": [
        {
          "Quick visit": true
        }
      ],
      "Payments": [
        {
          "Credit cards": true
        },
        {
          "Debit cards": true
        },
        {
          "NFC mobile payments": true
        },
        {
          "Credit cards": true
        }
      ]
    },
    "gasPrices": [],
    "url": "https://www.google.com/maps/search/?api=1&query=Cedar%20Lake%20Pharmacy&query_place_id=ChIJDfrlofANnIgRV07fgpSoWKA",
    "searchPageUrl": "https://www.google.com/maps/search/independent%20pharmacy%20Biloxi%20MS/@68.51690656216455,-141.6025211145925,9z?hl=en",
    "searchString": "independent pharmacy Biloxi MS",
    "language": "en",
    "rank": 3,
    "isAdvertisement": false,
    "imageUrl": "https://lh3.googleusercontent.com/gps-cs-s/AC9h4noqTK-DjjVAwjgoJNaVvyicNQabN4-HsBdNNd5FD5g_BbL4pip8FfSv4evmgiFu4NlLi4YMMCc9AWxgLikeKVnkNFhmgK6KWFSQWkJorzmAn7vOlHKFty8aHTleZ9NhuTD0j2-__g=w408-h306-k-no",
    "kgmid": "/g/1tddbmp8",
    "classification": "independent",
    "is_independent": true,
    "is_compounding": false,
    "confidence": 0.85,
    "source": "perplexity",
    "method": "llm"
  },
  {
    "title": "Medical Analysis Pharmacy",
    "price": null,
    "categoryName": "Pharmacy",
    "address": "1025 Division St Suite E, Biloxi, MS 39530, United States",
    "neighborhood": null,
    "street": "1025 Division St Suite E",
    "city": "Biloxi",
    "postalCode": "39530",
    "state": "Mississippi",
    "countryCode": "US",
    "phone": "+1 228-385-2550",
    "phoneUnformatted": "+12283852550",
    "claimThisBusiness": true,
    "location": {
      "lat": 30.4032857,
      "lng": -88.8997455
    },
    "totalScore": 3,
    "permanentlyClosed": false,
    "temporarilyClosed": false,
    "placeId": null,
    "categories": [
      "Pharmacy"
    ],
    "fid": "0x889c0f1d1a9fa557:0x47a8e77bcc875421",
    "cid": "5163631491678688289",
    "reviewsCount": 2,
    "imagesCount": 1,
    "imageCategories": [],
    "scrapedAt": "2025-06-22T08:17:34.706Z",
    "googleFoodUrl": null,
    "hotelAds": [],
    "openingHours": [],
    "peopleAlsoSearch": [],
    "placesTags": [],
    "reviewsTags": [],
    "additionalInfo": {
      "Accessibility": [
        {
          "Wheelchair-accessible car park": true
        },
        {
          "Wheelchair-accessible entrance": true
        }
      ]
    },
    "gasPrices": [],
    "url": "https://www.google.com/maps/search/?api=1&query=Medical%20Analysis%20Pharmacy&query_place_id=ChIJV6WfGh0PnIgRIVSHzHvnqEc",
    "searchPageUrl": "https://www.google.com/maps/search/independent%20pharmacy%20Biloxi%20MS/@59.485012656044645,-141.6025211145925,9z?hl=en",
    "searchString": "independent pharmacy Biloxi MS",
    "language": "en",
    "rank": 1,
    "isAdvertisement": false,
    "imageUrl": "https://streetviewpixels-pa.googleapis.com/v1/thumbnail?panoid=W8jdCwQKvmFO5a-ny6bSBA&cb_client=search.gws-prod.gps&w=408&h=240&yaw=166.35321&pitch=0&thumbfov=100",
    "kgmid": "/g/11j2g2gfjh",
    "classification": "independent",
    "is_independent": true,
    "is_compounding": false,
    "confidence": 0.85,
    "source": "perplexity",
    "method": "llm"
  },
  {
    "title": "Lee Pharmacy",
    "price": null,
    "categoryName": "Pharmacy",
    "address": "917 Division St Suite B, Biloxi, MS 39530, United States",
    "neighborhood": null,
    "street": "917 Division St Suite B",
    "city": "Biloxi",
    "postalCode": "39530",
    "state": "Mississippi",
    "countryCode": "US",
    "phone": "+1 228-280-8931",
    "phoneUnformatted": "+12282808931",
    "claimThisBusiness": false,
    "location": {
      "lat": 30.4029694,
      "lng": -88.8936957
    },
    "totalScore": 4.9,
    "permanentlyClosed": false,
    "temporarilyClosed": false,
    "placeId": null,
    "categories": [
      "Pharmacy"
    ],
    "fid": "0x889c0ef207dd4d8d:0x5480ce87b901f3d0",
    "cid": "6089093778524730320",
    "reviewsCount": 19,
    "imagesCount": 12,
    "imageCategories": [],
    "scrapedAt": "2025-06-22T08:17:34.707Z",
    "googleFoodUrl": null,
    "hotelAds": [],
    "openingHours": [
      {
        "day": "Monday",
        "hours": "9\u202fAM to 5\u202fPM"
      },
      {
        "day": "Tuesday",
        "hours": "9\u202fAM to 5\u202fPM"
      },
      {
        "day": "Wednesday",
        "hours": "9\u202fAM to 5\u202fPM"
      },
      {
        "day": "Thursday",
        "hours": "9\u202fAM to 5\u202fPM"
      },
      {
        "day": "Friday",
        "hours": "9\u202fAM to 5\u202fPM"
      },
      {
        "day": "Saturday",
        "hours": "9\u202fAM to 2\u202fPM"
      },
      {
        "day": "Sunday",
        "hours": "Closed"
      }
    ],
    "peopleAlsoSearch": [],
    "placesTags": [],
    "reviewsTags": [],
    "additionalInfo": {
      "From the business": [
        {
          "Small Business": true
        }
      ],
      "Service options": [
        {
          "In-store shopping": true
        }
      ],
      "Accessibility": [
        {
          "Wheelchair-accessible car park": true
        },
        {
          "Wheelchair-accessible entrance": true
        }
      ],
      "Planning": [
        {
          "Quick visit": true
        }
      ],
      "Payments": [
        {
          "Credit cards": true
        },
        {
          "Debit cards": true
        },
        {
          "NFC mobile payments": true
        }
      ]
    },
    "gasPrices": [],
    "url": "https://www.google.com/maps/search/?api=1&query=Lee%20Pharmacy&query_place_id=ChIJjU3dB_IOnIgR0PMBuYfOgFQ",
    "searchPageUrl": "https://www.google.com/maps/search/independent%20pharmacy%20Biloxi%20MS/@59.485012656044645,-141.6025211145925,9z?hl=en",
    "searchString": "independent pharmacy Biloxi MS",
    "language": "en",
    "rank": 5,
    "isAdvertisement": false,
    "imageUrl": "https://lh3.googleusercontent.com/p/AF1QipNInlSgCu-amJmRqJEppjNFZZyTrYMEmQvNjocB=w426-h240-k-no",
    "kgmid": "/g/11fxzrn0mw",
    "classification": "independent",
    "is_independent": true,
    "is_compounding": false,
    "confidence": 0.85,
    "source": "perplexity",
    "method": "llm"
  },
  {
    "title": "St Vincent De Paul",
    "price": null,
    "categoryName": "Pharmacy",
    "address": "715 Division St, Biloxi, MS 39530, United States",
    "neighborhood": null,
    "street": "715 Division St",
    "city": "Biloxi",
    "postalCode": "39530",
    "state": "Mississippi",
    "countryCode": "US",
    "website": "http://www.svdprx.org/",
    "phone": "+1 228-374-9097",
    "phoneUnformatted": "+12283749097",
    "claimThisBusiness": true,
    "location": {
      "lat": 30.4029187,
      "lng": -88.8860675
    },
    "totalScore": 4.8,
    "permanentlyClosed": false,
    "temporarilyClosed": false,
    "placeId": null,
    "categories": [
      "Pharmacy"
    ],
    "fid": "0x889c0eebce8df121:0x2184d5a146ae9cf9",
    "cid": "2415290188829727993",
    "reviewsCount": 18,
    "imagesCount": 2,
    "imageCategories": [],
    "scrapedAt": "2025-06-22T08:17:34.707Z",
    "googleFoodUrl": null,
    "hotelAds": [],
    "openingHours": [
      {
        "day": "Monday",
        "hours": "7\u202fAM to 5\u202fPM"
      },
      {
        "day": "Tuesday",
        "hours": "7\u202fAM to 5\u202fPM"
      },
      {
        "day": "Wednesday",
        "hours": "7\u202fAM to 5\u202fPM"
      },
      {
        "day": "Thursday",
        "hours": "7\u202fAM to 5\u202fPM"
      },
      {
        "day": "Friday",
        "hours": "7\u202fAM to 5\u202fPM"
      },
      {
        "day": "Saturday",
        "hours": "Closed"
      },
      {
        "day": "Sunday",
        "hours": "Closed"
      }
    ],
    "peopleAlsoSearch": [],
    "placesTags": [],
    "reviewsTags": [],
    "additionalInfo": {
      "Accessibility": [
        {
          "Wheelchair-accessible car park": true
        },
        {
          "Wheelchair-accessible entrance": true
        }
      ]
    },
    "gasPrices": [],
    "url": "https://www.google.com/maps/search/?api=1&query=St%20Vincent%20De%20Paul&query_place_id=ChIJIfGNzusOnIgR-ZyuRqHVhCE",
    "searchPageUrl": "https://www.google.com/maps/search/independent%20pharmacy%20Biloxi%20MS/@59.485012656044645,-141.6025211145925,9z?hl=en",
    "searchString": "independent pharmacy Biloxi MS",
    "language": "en",
    "rank": 6,
    "isAdvertisement": false,
    "imageUrl": "https://lh3.googleusercontent.com/gps-cs-s/AC9h4npe2mU467nYSXUq1dy40wizWT_vqkwPPaIPNEBlBFEOdbc54Vr-Uuicn1ZPrc5PJsbcyKd1PbMDkIvKgAYYrE_Z01Q8xVfP3nLxzsiVV9H0e_0jBBsD38dvTEmCgUIWIojNcVOv1A=w408-h544-k-no",
    "kgmid": "/g/1tj2p7bc",
    "classification": "independent",
    "is_independent": true,
    "is_compounding": false,
    "confidence": 0.9,
    "source": "perplexity",
    "method": "llm"
  },
  {
    "title": "Coastal Family Health Center Biloxi Pharmacy",
    "price": null,
    "categoryName": "Pharmacy",
    "address": "1029 Division St, Biloxi, MS 39530, United States",
    "neighborhood": null,
    "street": "1029 Division St",
    "city": "Biloxi",
    "postalCode": "39530",
    "state": "Mississippi",
    "countryCode": "US",
    "website": "https://coastalfamilyhealth.org/",
    "phone": "+1 228-374-2476",
    "phoneUnformatted": "+12283742476",
    "claimThisBusiness": false,
    "location": {
      "lat": 30.4029148,
      "lng": -88.8997259
    },
    "totalScore": 3.9,
    "permanentlyClosed": false,
    "temporarilyClosed": false,
    "placeId": null,
    "categories": [
      "Pharmacy"
    ],
    "fid": "0x889c0f07427ebdc5:0x57ddb990222ff028",
    "cid": "6331420679852781608",
    "reviewsCount": 17,
    "imagesCount": 1,
    "imageCategories": [],
    "scrapedAt": "2025-06-22T08:17:34.707Z",
    "googleFoodUrl": null,
    "hotelAds": [],
    "openingHours": [
      {
        "day": "Monday",
        "hours": "8\u202fAM to 4:30\u202fPM"
      },
      {
        "day": "Tuesday",
        "hours": "8\u202fAM to 4:30\u202fPM"
      },
      {
        "day": "Wednesday",
        "hours": "8\u202fAM to 4:30\u202fPM"
      },
      {
        "day": "Thursday",
        "hours": "8\u202fAM to 4:30\u202fPM"
      },
      {
        "day": "Friday",
        "hours": "8\u202fAM to 4:30\u202fPM"
      },
      {
        "day": "Saturday",
        "hours": "Closed"
      },
      {
        "day": "Sunday",
        "hours": "Closed"
      }
    ],
    "peopleAlsoSearch": [],
    "placesTags": [],
    "reviewsTags": [],
    "additionalInfo": {
      "Accessibility": [
        {
          "Wheelchair-accessible car park": true
        },
        {
          "Wheelchair-accessible entrance": true
        }
      ],
      "Payments": [
        {
          "Credit cards": true
        }
      ]
    },
    "gasPrices": [],
    "url": "https://www.google.com/maps/search/?api=1&query=Coastal%20Family%20Health%20Center%20Biloxi%20Pharmacy&query_place_id=ChIJxb1-QgcPnIgRKPAvIpC53Vc",
    "searchPageUrl": "https://www.google.com/maps/search/independent%20pharmacy%20Biloxi%20MS/@59.485012656044645,-141.6025211145925,9z?hl=en",
    "searchString": "independent pharmacy Biloxi MS",
    "language": "en",
    "rank": 7,
    "isAdvertisement": false,
    "imageUrl": "https://streetviewpixels-pa.googleapis.com/v1/thumbnail?panoid=NTksQRixNAUB887Krv_UwQ&cb_client=search.gws-prod.gps&w=408&h=240&yaw=263.48676&pitch=0&thumbfov=100",
    "kgmid": "/g/11mn1k8znn",
    "classification": "independent",
    "is_independent": true,
    "is_compounding": false,
    "confidence": 0.85,
    "source": "perplexity",
    "method": "llm"
  },
  {
    "title": "Economy Drugs",
    "price": null,
    "categoryName": "Pharmacy",
    "address": "1053 Howard Ave, Biloxi, MS 39530, United States",
    "neighborhood": null,
    "street": "1053 Howard Ave",
    "city": "Biloxi",
    "postalCode": "39530",
    "state": "Mississippi",
    "countryCode": "US",
    "website": "https://www.mygnp.com/pharmacies/economy-drugs-biloxi-ms-39530/?utm_source=google&utm_medium=local&utm_campaign=localmaps&utm_content=2502234",
    "phone": "+1 228-432-5581",
    "phoneUnformatted": "+12284325581",
    "claimThisBusiness": false,
    "location": {
      "lat": 30.3982374,
      "lng": -88.901136
    },
    "totalScore": 4.4,
    "permanentlyClosed": false,
    "temporarilyClosed": false,
    "placeId": null,
    "categories": [
      "Pharmacy",
      "Drug store"
    ],
    "fid": "0x889c0ef0103e99e3:0xd42ccec35b238581",
    "cid": "15288822173458990465",
    "reviewsCount": 14,
    "imagesCount": 1,
    "imageCategories": [],
    "scrapedAt": "2025-06-22T08:17:34.707Z",
    "googleFoodUrl": null,
    "hotelAds": [],
    "openingHours": [
      {
        "day": "Monday",
        "hours": "9\u202fAM to 5\u202fPM"
      },
      {
        "day": "Tuesday",
        "hours": "9\u202fAM to 5\u202fPM"
      },
      {
        "day": "Wednesday",
        "hours": "9\u202fAM to 5\u202fPM"
      },
      {
        "day": "Thursday",
        "hours": "9\u202fAM to 5\u202fPM"
      },
      {
        "day": "Friday",
        "hours": "9\u202fAM to 5\u202fPM"
      },
      {
        "day": "Saturday",
        "hours": "Closed"
      },
      {
        "day": "Sunday",
        "hours": "Closed"
      }
    ],
    "peopleAlsoSearch": [],
    "placesTags": [],
    "reviewsTags": [],
    "additionalInfo": {
      "Service options": [
        {
          "In-store shopping": true
        }
      ],
      "Accessibility": [
        {
          "Wheelchair-accessible car park": true
        },
        {
          "Wheelchair-accessible entrance": true
        }
      ],
      "Planning": [
        {
          "Quick visit": true
        }
      ],
      "Payments": [
        {
          "Cheques": true
        },
        {
          "Credit cards": true
        },
        {
          "Debit cards": true
        },
        {
          "NFC mobile payments": true
        },
        {
          "Credit cards": true
        }
      ]
    },
    "gasPrices": [],
    "url": "https://www.google.com/maps/search/?api=1&query=Economy%20Drugs&query_place_id=ChIJ45k-EPAOnIgRgYUjW8POLNQ",
    "searchPageUrl": "https://www.google.com/maps/search/independent%20pharmacy%20Biloxi%20MS/@59.485012656044645,-141.6025211145925,9z?hl=en",
    "searchString": "independent pharmacy Biloxi MS",
    "language": "en",
    "rank": 8,
    "isAdvertisement": false,
    "imageUrl": "https://streetviewpixels-pa.googleapis.com/v1/thumbnail?panoid=KjL4tztkvVOqjy5A9pKHyg&cb_client=search.gws-prod.gps&w=408&h=240&yaw=193.1362&pitch=0&thumbfov=100",
    "kgmid": "/g/1vc_r44m",
    "classification": "independent",
    "is_independent": true,
    "is_compounding": false,
    "confidence": 0.9,
    "source": "perplexity",
    "method": "llm"
  },
  {
    "title": "Polks Drugs",
    "price": null,
    "categoryName": "Pharmacy",
    "address": "1845 Popp's Ferry Rd, Biloxi, MS 39532, United States",
    "neighborhood": null,
    "street": "1845 Popp's Ferry Rd",
    "city": "Biloxi",
    "postalCode": "39532",
    "state": "Mississippi",
    "countryCode": "US",
    "phone": "+1 228-207-0505",
    "phoneUnformatted": "+12282070505",
    "claimThisBusiness": false,
    "location": {
      "lat": 30.441965,
      "lng": -88.946055
    },
    "totalScore": 4.4,
    "permanentlyClosed": false,
    "temporarilyClosed": false,
    "placeId": null,
    "categories": [
      "Pharmacy"
    ],
    "fid": "0x889c1206244c1f17:0x4ea19d9007be209e",
    "cid": "5665983048139546782",
    "reviewsCount": 72,
    "imagesCount": null,
    "imageCategories": [],
    "scrapedAt": "2025-06-22T08:17:34.707Z",
    "googleFoodUrl": null,
    "hotelAds": [],
    "openingHours": [
      {
        "day": "Monday",
        "hours": "8:30\u202fAM to 6:30\u202fPM"
      },
      {
        "day": "Tuesday",
        "hours": "8:30\u202fAM to 6:30\u202fPM"
      },
      {
        "day": "Wednesday",
        "hours": "8:30\u202fAM to 6:30\u202fPM"
      },
      {
        "day": "Thursday",
        "hours": "8:30\u202fAM to 6:30\u202fPM"
      },
      {
        "day": "Friday",
        "hours": "8:30\u202fAM to 6:30\u202fPM"
      },
      {
        "day": "Saturday",
        "hours": "9\u202fAM to 4\u202fPM"
      },
      {
        "day": "Sunday",
        "hours": "Closed"
      }
    ],
    "peopleAlsoSearch": [],
    "placesTags": [],
    "reviewsTags": [],
    "additionalInfo": {
      "From the business": [
        {
          "Small Business": true
        }
      ],
      "Service options": [
        {
          "Delivery": true
        },
        {
          "Drive-through": true
        },
        {
          "In-store pick-up": true
        },
        {
          "In-store shopping": true
        },
        {
          "Same-day delivery": true
        }
      ],
      "Accessibility": [
        {
          "Wheelchair-accessible car park": true
        },
        {
          "Wheelchair-accessible entrance": true
        },
        {
          "Wheelchair-accessible toilet": true
        }
      ],
      "Amenities": [
        {
          "Gender-neutral toilets": true
        }
      ],
      "Crowd": [
        {
          "LGBTQ+ friendly": true
        },
        {
          "Transgender safe space": true
        }
      ],
      "Planning": [
        {
          "Quick visit": true
        }
      ],
      "Payments": [
        {
          "Credit cards": true
        },
        {
          "Debit cards": true
        },
        {
          "NFC mobile payments": true
        },
        {
          "Credit cards": true
        }
      ]
    },
    "gasPrices": [],
    "url": "https://www.google.com/maps/search/?api=1&query=Polks%20Drugs&query_place_id=ChIJFx9MJAYSnIgRniC-B5CdoU4",
    "searchPageUrl": "https://www.google.com/maps/search/independent%20pharmacy%20Biloxi%20MS/@59.485012656044645,-141.6025211145925,9z?hl=en",
    "searchString": "independent pharmacy Biloxi MS",
    "language": "en",
    "rank": 9,
    "isAdvertisement": false,
    "kgmid": "/g/113hxxtcr",
    "classification": "independent",
    "is_independent": true,
    "is_compounding": false,
    "confidence": 0.85,
    "source": "perplexity",
    "method": "llm"
  },
  {
    "title": "Woolmarket Pharmacy",
    "price": null,
    "categoryName": "Pharmacy",
    "address": "13034 Shriners Blvd Ste A, Biloxi, MS 39532, United States",
    "neighborhood": null,
    "street": "13034 Shriners Blvd Ste A",
    "city": "Biloxi",
    "postalCode": "39532",
    "state": "Mississippi",
    "countryCode": "US",
    "website": "https://www.woolmarketpharmacy.com/",
    "phone": "+1 228-392-5355",
    "phoneUnformatted": "+12283925355",
    "claimThisBusiness": false,
    "location": {
      "lat": 30.4724018,
      "lng": -88.970177
    },
    "totalScore": 4.2,
    "permanentlyClosed": false,
    "temporarilyClosed": false,
    "placeId": null,
    "categories": [
      "Pharmacy"
    ],
    "fid": "0x889c1257560a9bd1:0x8a1130eea23e3366",
    "cid": "9948786853320471398",
    "reviewsCount": 18,
    "imagesCount": 1,
    "imageCategories": [],
    "scrapedAt": "2025-06-22T08:17:34.707Z",
    "googleFoodUrl": null,
    "hotelAds": [],
    "openingHours": [
      {
        "day": "Monday",
        "hours": "9\u202fAM to 6\u202fPM"
      },
      {
        "day": "Tuesday",
        "hours": "9\u202fAM to 6\u202fPM"
      },
      {
        "day": "Wednesday",
        "hours": "9\u202fAM to 6\u202fPM"
      },
      {
        "day": "Thursday",
        "hours": "9\u202fAM to 6\u202fPM"
      },
      {
        "day": "Friday",
        "hours": "9\u202fAM to 6\u202fPM"
      },
      {
        "day": "Saturday",
        "hours": "9\u202fAM to 1\u202fPM"
      },
      {
        "day": "Sunday",
        "hours": "Closed"
      }
    ],
    "peopleAlsoSearch": [],
    "placesTags": [],
    "reviewsTags": [],
    "additionalInfo": {
      "Service options": [
        {
          "Delivery": true
        },
        {
          "Drive-through": true
        },
        {
          "In-store pick-up": true
        }
      ],
      "Accessibility": [
        {
          "Wheelchair-accessible car park": true
        },
        {
          "Wheelchair-accessible entrance": true
        }
      ],
      "Planning": [
        {
          "Quick visit": true
        }
      ],
      "Payments": [
        {
          "Credit cards": true
        },
        {
          "Debit cards": true
        },
        {
          "NFC mobile payments": true
        },
        {
          "Credit cards": true
        }
      ]
    },
    "gasPrices": [],
    "url": "https://www.google.com/maps/search/?api=1&query=Woolmarket%20Pharmacy&query_place_id=ChIJ0ZsKVlcSnIgRZjM-ou4wEYo",
    "searchPageUrl": "https://www.google.com/maps/search/independent%20pharmacy%20Biloxi%20MS/@59.485012656044645,-141.6025211145925,9z?hl=en",
    "searchString": "independent pharmacy Biloxi MS",
    "language": "en",
    "rank": 10,
    "isAdvertisement": false,
    "imageUrl": "https://streetviewpixels-pa.googleapis.com/v1/thumbnail?panoid=hF3saWHYInkL_8lW-Qz9fg&cb_client=search.gws-prod.gps&w=408&h=240&yaw=94.78123&pitch=0&thumbfov=100",
    "kgmid": "/g/11pyzwydfr",
    "classification": "independent",
    "is_independent": true,
    "is_compounding": false,
    "confidence": 0.9,
    "source": "perplexity",
    "method": "llm"
  },
  {
    "title": "Back Bay Drugs",
    "price": null,
    "categoryName": "Pharmacy",
    "address": "10437 Lamey Brg Rd A, D'Iberville, MS 39540, United States",
    "neighborhood": null,
    "street": "10437 Lamey Brg Rd A",
    "city": "D'Iberville",
    "postalCode": "39540",
    "state": "Mississippi",
    "countryCode": "US",
    "website": "http://www.mygnp.com/store?id=0013000000ioAVeAAM&account=gnp-pharmacy-address-10437-Lamey-Bridge,-Suite-A-DIberville-MS-39540&utm_source=google&utm_medium=local&utm_campaign=localmaps&utm_content=2520852",
    "phone": "+1 228-396-2228",
    "phoneUnformatted": "+12283962228",
    "claimThisBusiness": false,
    "location": {
      "lat": 30.4391947,
      "lng": -88.8917019
    },
    "totalScore": 4.6,
    "permanentlyClosed": false,
    "temporarilyClosed": false,
    "placeId": null,
    "categories": [
      "Pharmacy",
      "Drug store"
    ],
    "fid": "0x889c0c25a83cd447:0xe99b32641a1e11eb",
    "cid": "16833103437743657451",
    "reviewsCount": 30,
    "imagesCount": 7,
    "imageCategories": [],
    "scrapedAt": "2025-06-22T08:17:34.707Z",
    "googleFoodUrl": null,
    "hotelAds": [],
    "openingHours": [
      {
        "day": "Monday",
        "hours": "8:30\u202fAM to 6\u202fPM"
      },
      {
        "day": "Tuesday",
        "hours": "8:30\u202fAM to 6\u202fPM"
      },
      {
        "day": "Wednesday",
        "hours": "8:30\u202fAM to 6\u202fPM"
      },
      {
        "day": "Thursday",
        "hours": "8:30\u202fAM to 6\u202fPM"
      },
      {
        "day": "Friday",
        "hours": "8:30\u202fAM to 6\u202fPM"
      },
      {
        "day": "Saturday",
        "hours": "8:30\u202fAM to 1\u202fPM"
      },
      {
        "day": "Sunday",
        "hours": "Closed"
      }
    ],
    "peopleAlsoSearch": [],
    "placesTags": [],
    "reviewsTags": [],
    "additionalInfo": {
      "Service options": [
        {
          "In-store pick-up": true
        },
        {
          "In-store shopping": true
        }
      ],
      "Accessibility": [
        {
          "Wheelchair-accessible car park": true
        },
        {
          "Wheelchair-accessible entrance": true
        }
      ],
      "Planning": [
        {
          "Quick visit": true
        }
      ],
      "Payments": [
        {
          "Cheques": true
        },
        {
          "Credit cards": true
        },
        {
          "Debit cards": true
        },
        {
          "NFC mobile payments": true
        },
        {
          "Credit cards": true
        }
      ]
    },
    "gasPrices": [],
    "url": "https://www.google.com/maps/search/?api=1&query=Back%20Bay%20Drugs&query_place_id=ChIJR9Q8qCUMnIgR6xEeGmQym-k",
    "searchPageUrl": "https://www.google.com/maps/search/independent%20pharmacy%20Biloxi%20MS/@59.485012656044645,-141.6025211145925,9z?hl=en",
    "searchString": "independent pharmacy Biloxi MS",
    "language": "en",
    "rank": 11,
    "isAdvertisement": false,
    "imageUrl": "https://lh3.googleusercontent.com/p/AF1QipNaTMREImiiT4oUaDcfJU-Y8xLK07dlfeqNS7y3=w408-h306-k-no",
    "kgmid": "/g/113g40gfx",
    "classification": "independent",
    "is_independent": true,
    "is_compounding": false,
    "confidence": 0.9,
    "source": "perplexity",
    "method": "llm"
  },
  {
    "title": "Walgreens Pharmacy",
    "description": "Department of the Walgreens chain providing prescription medications & other health-related items.",
    "price": null,
    "categoryName": "Pharmacy",
    "address": "2405 Pass Rd, Biloxi, MS 39531, United States",
    "neighborhood": null,
    "street": "2405 Pass Rd",
    "city": "Biloxi",
    "postalCode": "39531",
    "state": "Mississippi",
    "countryCode": "US",
    "website": "https://www.walgreens.com/locator/walgreens-2405+pass+rd-biloxi-ms-39531/id=4172",
    "phone": "+1 228-388-3458",
    "phoneUnformatted": "+12283883458",
    "claimThisBusiness": false,
    "location": {
      "lat": 30.4011873,
      "lng": -88.9767515
    },
    "totalScore": 4.4,
    "permanentlyClosed": false,
    "temporarilyClosed": false,
    "placeId": null,
    "categories": [
      "Pharmacy"
    ],
    "fid": "0x889c11a6e66aaaab:0xa7dad3687f557289",
    "cid": "12095212195023254153",
    "reviewsCount": 20,
    "imagesCount": 3,
    "imageCategories": [],
    "scrapedAt": "2025-06-22T08:17:34.708Z",
    "googleFoodUrl": null,
    "hotelAds": [],
    "openingHours": [
      {
        "day": "Monday",
        "hours": "8\u202fAM to 1:30\u202fPM, 2 to 8\u202fPM"
      },
      {
        "day": "Tuesday",
        "hours": "8\u202fAM to 1:30\u202fPM, 2 to 8\u202fPM"
      },
      {
        "day": "Wednesday",
        "hours": "8\u202fAM to 1:30\u202fPM, 2 to 8\u202fPM"
      },
      {
        "day": "Thursday",
        "hours": "8\u202fAM to 1:30\u202fPM, 2 to 8\u202fPM"
      },
      {
        "day": "Friday",
        "hours": "8\u202fAM to 1:30\u202fPM, 2 to 8\u202fPM"
      },
      {
        "day": "Saturday",
        "hours": "9\u202fAM to 1:30\u202fPM, 2 to 6\u202fPM"
      },
      {
        "day": "Sunday",
        "hours": "10\u202fAM to 1:30\u202fPM, 2 to 6\u202fPM"
      }
    ],
    "additionalOpeningHours": {
      "Drive through": [
        {
          "day": "Monday",
          "hours": "8\u202fam\u20131:30\u202fpm"
        },
        {
          "day": "Tuesday",
          "hours": "8\u202fam\u20131:30\u202fpm"
        },
        {
          "day": "Wednesday",
          "hours": "8\u202fam\u20131:30\u202fpm"
        },
        {
          "day": "Thursday",
          "hours": "8\u202fam\u20131:30\u202fpm"
        },
        {
          "day": "Friday",
          "hours": "8\u202fam\u20131:30\u202fpm"
        },
        {
          "day": "Saturday",
          "hours": "9\u202fam\u20131:30\u202fpm"
        },
        {
          "day": "Sunday",
          "hours": "10\u202fam\u20131:30\u202fpm"
        }
      ]
    },
    "peopleAlsoSearch": [],
    "placesTags": [],
    "reviewsTags": [],
    "additionalInfo": {
      "Service options": [
        {
          "Kerbside pickup": true
        },
        {
          "Drive-through": true
        },
        {
          "In-store pick-up": true
        },
        {
          "On-site services": true
        }
      ],
      "Accessibility": [
        {
          "Wheelchair-accessible car park": true
        },
        {
          "Wheelchair-accessible entrance": true
        }
      ],
      "Offerings": [
        {
          "Passport photos": true
        }
      ],
      "Planning": [
        {
          "Quick visit": true
        }
      ],
      "Payments": [
        {
          "Credit cards": true
        },
        {
          "Debit cards": true
        }
      ]
    },
    "gasPrices": [],
    "url": "https://www.google.com/maps/search/?api=1&query=Walgreens%20Pharmacy&query_place_id=ChIJq6pq5qYRnIgRiXJVf2jT2qc",
    "searchPageUrl": "https://www.google.com/maps/search/independent%20pharmacy%20Biloxi%20MS/@59.485012656044645,-141.6025211145925,9z?hl=en",
    "searchString": "independent pharmacy Biloxi MS",
    "language": "en",
    "rank": 12,
    "isAdvertisement": false,
    "imageUrl": "https://lh3.googleusercontent.com/p/AF1QipPy1qnpDiEzpwLzmqTL5DWGRoJ2dBKuUCuqXwB0=w525-h240-k-no",
    "kgmid": "/g/11r8ydywg_",
    "classification": "chain",
    "is_independent": false,
    "is_compounding": false,
    "confidence": 1.0,
    "source": "perplexity",
    "method": "llm"
  },
  {
    "title": "Doctor's Specialty Pharmacy, LLC",
    "price": null,
    "categoryName": "Pharmacy",
    "address": "1720 Medical Park Dr, Biloxi, MS 39532",
    "neighborhood": null,
    "street": "1720 Medical Park Dr",
    "city": "Biloxi",
    "postalCode": "39532",
    "state": "Mississippi",
    "countryCode": "US",
    "phone": "(228) 207-7716",
    "phoneUnformatted": "+12282077716",
    "claimThisBusiness": false,
    "location": {
      "lat": 30.4477075,
      "lng": -88.935624
    },
    "totalScore": 3.2,
    "permanentlyClosed": false,
    "temporarilyClosed": false,
    "placeId": null,
    "categories": [
      "Pharmacy"
    ],
    "fid": "0x889c0df4144ba147:0x5b7faf53f9d6c967",
    "cid": "6593181154702444903",
    "reviewsCount": 9,
    "imagesCount": 3,
    "imageCategories": [],
    "scrapedAt": "2025-06-22T08:17:58.346Z",
    "googleFoodUrl": null,
    "hotelAds": [],
    "openingHours": [
      {
        "day": "Monday",
        "hours": "9\u202fAM to 6\u202fPM"
      },
      {
        "day": "Tuesday",
        "hours": "9\u202fAM to 6\u202fPM"
      },
      {
        "day": "Wednesday",
        "hours": "9\u202fAM to 6\u202fPM"
      },
      {
        "day": "Thursday",
        "hours": "9\u202fAM to 6\u202fPM"
      },
      {
        "day": "Friday",
        "hours": "9\u202fAM to 6\u202fPM"
      },
      {
        "day": "Saturday",
        "hours": "Closed"
      },
      {
        "day": "Sunday",
        "hours": "Closed"
      }
    ],
    "peopleAlsoSearch": [],
    "placesTags": [],
    "reviewsTags": [],
    "additionalInfo": {
      "From the business": [
        {
          "Small business": true
        }
      ],
      "Accessibility": [
        {
          "Wheelchair accessible entrance": true
        },
        {
          "Wheelchair accessible parking lot": true
        }
      ],
      "Payments": [
        {
          "Credit cards": true
        }
      ]
    },
    "gasPrices": [],
    "url": "https://www.google.com/maps/search/?api=1&query=Doctor's%20Specialty%20Pharmacy%2C%20LLC&query_place_id=ChIJR6FLFPQNnIgRZ8nW-VOvf1s",
    "searchPageUrl": "https://www.google.com/maps/search/independent%20pharmacy%20Biloxi%20MS/@24.505556248210443,-82.60002624785565,12z?hl=en",
    "searchString": "independent pharmacy Biloxi MS",
    "language": "en",
    "rank": 13,
    "isAdvertisement": false,
    "imageUrl": "https://lh3.googleusercontent.com/p/AF1QipOZJ5vV4dh7Q6iBlYbE83AuD5xHxyQlgTw5kr3F=w408-h272-k-no",
    "kgmid": "/g/11b7lc9wgk",
    "classification": "independent",
    "is_independent": true,
    "is_compounding": false,
    "confidence": 0.85,
    "source": "perplexity",
    "method": "llm"
  },
  {
    "title": "Medical Arts Pharmacy & Hearing Aid Center",
    "price": null,
    "categoryName": "Pharmacy",
    "address": "120 Caillavet St, Biloxi, MS 39530, United States",
    "neighborhood": null,
    "street": "120 Caillavet St",
    "city": "Biloxi",
    "postalCode": "39530",
    "state": "Mississippi",
    "countryCode": "US",
    "website": "http://medicalartsbiloxi.com/",
    "phone": "+1 228-432-7071",
    "phoneUnformatted": "+12284327071",
    "claimThisBusiness": false,
    "location": {
      "lat": 30.3950187,
      "lng": -88.8922677
    },
    "totalScore": 4.6,
    "permanentlyClosed": false,
    "temporarilyClosed": false,
    "placeId": null,
    "categories": [
      "Pharmacy",
      "Audiologist",
      "Hearing aid repair service",
      "Hearing aid store"
    ],
    "fid": "0x889c0ee51558fa11:0x41ae7530fe3455cf",
    "cid": "4732849111696692687",
    "reviewsCount": 41,
    "imagesCount": 7,
    "imageCategories": [],
    "scrapedAt": "2025-06-22T08:18:36.743Z",
    "googleFoodUrl": null,
    "hotelAds": [],
    "openingHours": [
      {
        "day": "Monday",
        "hours": "9\u202fAM to 5\u202fPM"
      },
      {
        "day": "Tuesday",
        "hours": "9\u202fAM to 5\u202fPM"
      },
      {
        "day": "Wednesday",
        "hours": "9\u202fAM to 5\u202fPM"
      },
      {
        "day": "Thursday",
        "hours": "9\u202fAM to 5\u202fPM"
      },
      {
        "day": "Friday",
        "hours": "9\u202fAM to 5\u202fPM"
      },
      {
        "day": "Saturday",
        "hours": "Closed"
      },
      {
        "day": "Sunday",
        "hours": "Closed"
      }
    ],
    "peopleAlsoSearch": [],
    "placesTags": [],
    "reviewsTags": [],
    "additionalInfo": {
      "From the business": [
        {
          "Small Business": true
        }
      ],
      "Accessibility": [
        {
          "Wheelchair-accessible car park": true
        },
        {
          "Wheelchair-accessible entrance": true
        }
      ],
      "Planning": [
        {
          "Quick visit": true
        }
      ],
      "Payments": [
        {
          "Credit cards": true
        },
        {
          "Debit cards": true
        },
        {
          "NFC mobile payments": true
        },
        {
          "Credit cards": true
        }
      ]
    },
    "gasPrices": [],
    "url": "https://www.google.com/maps/search/?api=1&query=Medical%20Arts%20Pharmacy%20%26%20Hearing%20Aid%20Center&query_place_id=ChIJEfpYFeUOnIgRz1U0_jB1rkE",
    "searchPageUrl": "https://www.google.com/maps/search/independent%20pharmacy%20Biloxi%20MS/@31.09059240533574,-83.31984582886456,8z?hl=en",
    "searchString": "independent pharmacy Biloxi MS",
    "language": "en",
    "rank": 13,
    "isAdvertisement": false,
    "imageUrl": "https://lh3.googleusercontent.com/gps-cs-s/AC9h4np-K6OIbLMBIXcxJtsOxJLwFlBpe_VurF6dZYOETiXhoTi8c8QG8rnfn9tRq4W4QJrtVNu8F1-kvm4cX9Hexamiwa2bOwhGq0g1PYcZqw3eAncfyV95YjvPSodNDmSJY3JtogGqqw=w408-h306-k-no",
    "kgmid": "/g/1tyyxx99",
    "classification": "independent",
    "is_independent": true,
    "is_compounding": false,
    "confidence": 0.9,
    "source": "perplexity",
    "method": "llm"
  },
  {
    "title": "Ocean Springs Discount Pharmacy",
    "price": null,
    "categoryName": "Pharmacy",
    "address": "2120 Bienville Blvd, Ocean Springs, MS 39564, United States",
    "neighborhood": null,
    "street": "2120 Bienville Blvd",
    "city": "Ocean Springs",
    "postalCode": "39564",
    "state": "Mississippi",
    "countryCode": "US",
    "website": "https://www.facebook.com/profile.php?id=100063484694555",
    "phone": "+1 228-875-8330",
    "phoneUnformatted": "+12288758330",
    "claimThisBusiness": false,
    "location": {
      "lat": 30.4158519,
      "lng": -88.8060337
    },
    "totalScore": 4.5,
    "permanentlyClosed": false,
    "temporarilyClosed": false,
    "placeId": null,
    "categories": [
      "Pharmacy",
      "Medical supply store"
    ],
    "fid": "0x889c09ecdfad32c9:0xae230852fddc520",
    "cid": "784242633707734304",
    "reviewsCount": 53,
    "imagesCount": 5,
    "imageCategories": [],
    "scrapedAt": "2025-06-22T08:18:36.743Z",
    "googleFoodUrl": null,
    "hotelAds": [],
    "openingHours": [
      {
        "day": "Monday",
        "hours": "9\u202fAM to 7\u202fPM"
      },
      {
        "day": "Tuesday",
        "hours": "9\u202fAM to 7\u202fPM"
      },
      {
        "day": "Wednesday",
        "hours": "9\u202fAM to 7\u202fPM"
      },
      {
        "day": "Thursday",
        "hours": "9\u202fAM to 7\u202fPM"
      },
      {
        "day": "Friday",
        "hours": "9\u202fAM to 7\u202fPM"
      },
      {
        "day": "Saturday",
        "hours": "9\u202fAM to 2\u202fPM"
      },
      {
        "day": "Sunday",
        "hours": "Closed"
      }
    ],
    "peopleAlsoSearch": [],
    "placesTags": [],
    "reviewsTags": [],
    "additionalInfo": {
      "From the business": [
        {
          "Identifies as women-owned": true
        },
        {
          "Small Business": true
        }
      ],
      "Service options": [
        {
          "In-store shopping": true
        },
        {
          "Delivery": false
        },
        {
          "English": true
        }
      ],
      "Accessibility": [
        {
          "Wheelchair-accessible car park": true
        },
        {
          "Wheelchair-accessible entrance": true
        },
        {
          "Wheelchair-accessible seating": true
        },
        {
          "Wheelchair-accessible toilet": true
        }
      ],
      "Amenities": [
        {
          "Gender-neutral toilets": true
        },
        {
          "Wi-Fi": true
        },
        {
          "Free Wi-Fi": true
        }
      ],
      "Crowd": [
        {
          "LGBTQ+ friendly": true
        },
        {
          "Transgender safe space": true
        }
      ],
      "Planning": [
        {
          "Quick visit": true
        }
      ],
      "Payments": [
        {
          "Cheques": true
        },
        {
          "Credit cards": true
        },
        {
          "Debit cards": true
        },
        {
          "Credit cards": true
        }
      ]
    },
    "gasPrices": [],
    "url": "https://www.google.com/maps/search/?api=1&query=Ocean%20Springs%20Discount%20Pharmacy&query_place_id=ChIJyTKt3-wJnIgRIMXdL4Uw4go",
    "searchPageUrl": "https://www.google.com/maps/search/independent%20pharmacy%20Biloxi%20MS/@31.09059240533574,-83.31984582886456,8z?hl=en",
    "searchString": "independent pharmacy Biloxi MS",
    "language": "en",
    "rank": 14,
    "isAdvertisement": false,
    "imageUrl": "https://lh3.googleusercontent.com/p/AF1QipPIc-xfslhU_8Eli9S-xUXfWKYTKDE9A2yo3NTd=w426-h240-k-no",
    "kgmid": "/g/1tm8lcd8",
    "classification": "independent",
    "is_independent": true,
    "is_compounding": false,
    "confidence": 0.85,
    "source": "perplexity",
    "method": "llm"
  },
  {
    "title": "605 Pharmacy",
    "price": null,
    "categoryName": "Pharmacy",
    "address": "8950 Lorraine Rd Suite F, Gulfport, MS 39503, United States",
    "neighborhood": null,
    "street": "8950 Lorraine Rd Suite F",
    "city": "Gulfport",
    "postalCode": "39503",
    "state": "Mississippi",
    "countryCode": "US",
    "website": "http://www.facebook.com/605pharmacy",
    "phone": "+1 228-206-0742",
    "phoneUnformatted": "+12282060742",
    "claimThisBusiness": false,
    "location": {
      "lat": 30.4112977,
      "lng": -89.02741
    },
    "totalScore": 4.8,
    "permanentlyClosed": false,
    "temporarilyClosed": false,
    "placeId": null,
    "categories": [
      "Pharmacy"
    ],
    "fid": "0x889c17e0fda70dbf:0xdad94e0fd929a790",
    "cid": "15769721400189364112",
    "reviewsCount": 69,
    "imagesCount": 18,
    "imageCategories": [],
    "scrapedAt": "2025-06-22T08:18:36.743Z",
    "googleFoodUrl": null,
    "hotelAds": [],
    "openingHours": [
      {
        "day": "Monday",
        "hours": "8\u202fAM to 5\u202fPM"
      },
      {
        "day": "Tuesday",
        "hours": "8\u202fAM to 5\u202fPM"
      },
      {
        "day": "Wednesday",
        "hours": "8\u202fAM to 5\u202fPM"
      },
      {
        "day": "Thursday",
        "hours": "8\u202fAM to 5\u202fPM"
      },
      {
        "day": "Friday",
        "hours": "8\u202fAM to 5\u202fPM"
      },
      {
        "day": "Saturday",
        "hours": "Closed"
      },
      {
        "day": "Sunday",
        "hours": "Closed"
      }
    ],
    "peopleAlsoSearch": [],
    "placesTags": [],
    "reviewsTags": [],
    "additionalInfo": {
      "From the business": [
        {
          "Identifies as women-owned": true
        },
        {
          "Small Business": true
        }
      ],
      "Service options": [
        {
          "Delivery": true
        },
        {
          "In-store pick-up": true
        },
        {
          "In-store shopping": true
        },
        {
          "On-site services": true
        },
        {
          "Same-day delivery": true
        }
      ],
      "Accessibility": [
        {
          "Wheelchair-accessible car park": true
        },
        {
          "Wheelchair-accessible entrance": true
        },
        {
          "Wheelchair-accessible seating": true
        },
        {
          "Wheelchair-accessible toilet": true
        }
      ],
      "Planning": [
        {
          "Quick visit": true
        }
      ],
      "Payments": [
        {
          "Credit cards": true
        },
        {
          "Debit cards": true
        },
        {
          "NFC mobile payments": true
        },
        {
          "Credit cards": true
        }
      ]
    },
    "gasPrices": [],
    "url": "https://www.google.com/maps/search/?api=1&query=605%20Pharmacy&query_place_id=ChIJvw2n_eAXnIgRkKcp2Q9O2do",
    "searchPageUrl": "https://www.google.com/maps/search/independent%20pharmacy%20Biloxi%20MS/@31.09059240533574,-83.31984582886456,8z?hl=en",
    "searchString": "independent pharmacy Biloxi MS",
    "language": "en",
    "rank": 15,
    "isAdvertisement": false,
    "imageUrl": "https://lh3.googleusercontent.com/gps-cs-s/AC9h4nqSAmwucZBK_L6lq_APpDyKImLNBf1oDFfKYGybAUKQN_SADmQ2SIEtWkWzOs4RsMJH6thskt-gD0Z1thNk7A0jnwpPeeDwFocZpZyFZVP9TsZwbigkCLcTmOwmA8YVmEFYJFU=w408-h544-k-no",
    "kgmid": "/g/11qb554qcg",
    "classification": "independent",
    "is_independent": true,
    "is_compounding": false,
    "confidence": 0.85,
    "source": "perplexity",
    "method": "llm"
  },
  {
    "title": "The Corner Drugstore",
    "price": null,
    "categoryName": "Pharmacy",
    "address": "5101 Beatline Rd, Long Beach, MS 39560, United States",
    "neighborhood": null,
    "street": "5101 Beatline Rd",
    "city": "Long Beach",
    "postalCode": "39560",
    "state": "Mississippi",
    "countryCode": "US",
    "website": "https://www.thecornerdrugstore1.com/",
    "phone": "+1 228-687-3040",
    "phoneUnformatted": "+12286873040",
    "claimThisBusiness": false,
    "location": {
      "lat": 30.3612359,
      "lng": -89.1873941
    },
    "totalScore": 5,
    "permanentlyClosed": false,
    "temporarilyClosed": false,
    "placeId": null,
    "categories": [
      "Pharmacy"
    ],
    "fid": "0x889c3b9af34d5d2f:0xbb52e61c6398025b",
    "cid": "13498104042787177051",
    "reviewsCount": 23,
    "imagesCount": 2,
    "imageCategories": [],
    "scrapedAt": "2025-06-22T08:18:36.743Z",
    "googleFoodUrl": null,
    "hotelAds": [],
    "openingHours": [
      {
        "day": "Monday",
        "hours": "9\u202fAM to 6\u202fPM"
      },
      {
        "day": "Tuesday",
        "hours": "9\u202fAM to 6\u202fPM"
      },
      {
        "day": "Wednesday",
        "hours": "9\u202fAM to 6\u202fPM"
      },
      {
        "day": "Thursday",
        "hours": "9\u202fAM to 6\u202fPM"
      },
      {
        "day": "Friday",
        "hours": "9\u202fAM to 6\u202fPM"
      },
      {
        "day": "Saturday",
        "hours": "9\u202fAM to 3\u202fPM"
      },
      {
        "day": "Sunday",
        "hours": "Closed"
      }
    ],
    "additionalOpeningHours": {
      "Drive through": [
        {
          "day": "Monday",
          "hours": "9\u202fam\u20136\u202fpm"
        },
        {
          "day": "Tuesday",
          "hours": "9\u202fam\u20136\u202fpm"
        },
        {
          "day": "Wednesday",
          "hours": "9\u202fam\u20136\u202fpm"
        },
        {
          "day": "Thursday",
          "hours": "9\u202fam\u20136\u202fpm"
        },
        {
          "day": "Friday",
          "hours": "9\u202fam\u20136\u202fpm"
        },
        {
          "day": "Saturday",
          "hours": "9\u202fam\u20133\u202fpm"
        },
        {
          "day": "Sunday",
          "hours": "Closed"
        }
      ]
    },
    "peopleAlsoSearch": [],
    "placesTags": [],
    "reviewsTags": [],
    "additionalInfo": {
      "Service options": [
        {
          "Delivery": true
        },
        {
          "Drive-through": true
        },
        {
          "In-store pick-up": true
        }
      ],
      "Accessibility": [
        {
          "Wheelchair-accessible car park": true
        },
        {
          "Wheelchair-accessible entrance": true
        }
      ],
      "Planning": [
        {
          "Quick visit": true
        }
      ],
      "Payments": [
        {
          "Credit cards": true
        }
      ]
    },
    "gasPrices": [],
    "url": "https://www.google.com/maps/search/?api=1&query=The%20Corner%20Drugstore&query_place_id=ChIJL11N85o7nIgRWwKYYxzmUrs",
    "searchPageUrl": "https://www.google.com/maps/search/independent%20pharmacy%20Biloxi%20MS/@31.09059240533574,-83.31984582886456,8z?hl=en",
    "searchString": "independent pharmacy Biloxi MS",
    "language": "en",
    "rank": 16,
    "isAdvertisement": false,
    "imageUrl": "https://lh3.googleusercontent.com/gps-cs-s/AC9h4nqVW07GaLQkn2sYe-SZdUEyRR3umjoM8UnxgalG4p6YsaMkg-b1Aev-7mxtDA-5ef6LuYnvWW8S7XKqLAupCTVdUnRDSzEQ2pTN8qhLSWOomJvnEX-Rox8gaJDsXlZKN_1JVoaGkg=w408-h725-k-no",
    "kgmid": "/g/11vzdv9w4j",
    "classification": "independent",
    "is_independent": true,
    "is_compounding": false,
    "confidence": 0.9,
    "source": "perplexity",
    "method": "llm"
  },
  {
    "title": "Beach Pharmacy",
    "price": null,
    "categoryName": "Pharmacy",
    "address": "1110 Cowan Rd, Gulfport, MS 39507, United States",
    "neighborhood": null,
    "street": "1110 Cowan Rd",
    "city": "Gulfport",
    "postalCode": "39507",
    "state": "Mississippi",
    "countryCode": "US",
    "website": "http://beachpharmacyinc.com/",
    "phone": "+1 228-896-7070",
    "phoneUnformatted": "+12288967070",
    "claimThisBusiness": false,
    "location": {
      "lat": 30.401411,
      "lng": -89.026055
    },
    "totalScore": 4.3,
    "permanentlyClosed": false,
    "temporarilyClosed": false,
    "placeId": null,
    "categories": [
      "Pharmacy"
    ],
    "fid": "0x889c16cf0c4f076d:0x4a4d2c1b291ca035",
    "cid": "5353984027178868789",
    "reviewsCount": 62,
    "imagesCount": 1,
    "imageCategories": [],
    "scrapedAt": "2025-06-22T08:18:36.743Z",
    "googleFoodUrl": null,
    "hotelAds": [],
    "openingHours": [
      {
        "day": "Monday",
        "hours": "8\u202fAM to 7\u202fPM"
      },
      {
        "day": "Tuesday",
        "hours": "8\u202fAM to 7\u202fPM"
      },
      {
        "day": "Wednesday",
        "hours": "8\u202fAM to 7\u202fPM"
      },
      {
        "day": "Thursday",
        "hours": "8\u202fAM to 7\u202fPM"
      },
      {
        "day": "Friday",
        "hours": "8\u202fAM to 7\u202fPM"
      },
      {
        "day": "Saturday",
        "hours": "9\u202fAM to 4\u202fPM"
      },
      {
        "day": "Sunday",
        "hours": "Closed"
      }
    ],
    "peopleAlsoSearch": [],
    "placesTags": [],
    "reviewsTags": [],
    "additionalInfo": {
      "From the business": [
        {
          "Small Business": true
        }
      ],
      "Service options": [
        {
          "Delivery": true
        },
        {
          "Drive-through": true
        },
        {
          "In-store pick-up": true
        },
        {
          "Same-day delivery": true
        }
      ],
      "Accessibility": [
        {
          "Wheelchair-accessible car park": true
        },
        {
          "Wheelchair-accessible entrance": true
        }
      ],
      "Planning": [
        {
          "Quick visit": true
        }
      ],
      "Payments": [
        {
          "Credit cards": true
        },
        {
          "Debit cards": true
        },
        {
          "NFC mobile payments": true
        },
        {
          "Credit cards": true
        }
      ]
    },
    "gasPrices": [],
    "url": "https://www.google.com/maps/search/?api=1&query=Beach%20Pharmacy&query_place_id=ChIJbQdPDM8WnIgRNaAcKRssTUo",
    "searchPageUrl": "https://www.google.com/maps/search/independent%20pharmacy%20Biloxi%20MS/@31.09059240533574,-83.31984582886456,8z?hl=en",
    "searchString": "independent pharmacy Biloxi MS",
    "language": "en",
    "rank": 17,
    "isAdvertisement": false,
    "imageUrl": "https://streetviewpixels-pa.googleapis.com/v1/thumbnail?panoid=AiXGBqCsxY-UG9AIkKr2wQ&cb_client=search.gws-prod.gps&w=408&h=240&yaw=45.559597&pitch=0&thumbfov=100",
    "kgmid": "/g/1pp2vlp8s",
    "classification": "independent",
    "is_independent": true,
    "is_compounding": false,
    "confidence": 0.9,
    "source": "perplexity",
    "method": "llm"
  },
  {
    "title": "VA WNY Healthcare System - Veteran\u2019s Hospital",
    "price": null,
    "categoryName": "Pharmacy",
    "address": "3495 Bailey Ave, Buffalo, NY 14215",
    "neighborhood": "University Heights",
    "street": "3495 Bailey Ave",
    "city": "Buffalo",
    "postalCode": "14215",
    "state": "New York",
    "countryCode": "US",
    "website": "https://www.va.gov/western-new-york-health-care/",
    "phone": "(716) 834-9200",
    "phoneUnformatted": "+17168349200",
    "claimThisBusiness": false,
    "location": {
      "lat": 42.9511559,
      "lng": -78.812287
    },
    "totalScore": 4,
    "permanentlyClosed": false,
    "temporarilyClosed": false,
    "placeId": null,
    "categories": [
      "Pharmacy",
      "Doctor",
      "Military hospital",
      "Veterans hospital"
    ],
    "fid": "0x89d372c0c2cb1593:0xf576d96127bd779c",
    "cid": "17687563597845985180",
    "reviewsCount": 275,
    "reviewsDistribution": {
      "oneStar": 43,
      "twoStar": 12,
      "threeStar": 22,
      "fourStar": 34,
      "fiveStar": 164
    },
    "imagesCount": 170,
    "imageCategories": [],
    "scrapedAt": "2025-06-22T08:18:47.021Z",
    "googleFoodUrl": null,
    "hotelAds": [],
    "openingHours": [
      {
        "day": "Monday",
        "hours": "Open 24 hours"
      },
      {
        "day": "Tuesday",
        "hours": "Open 24 hours"
      },
      {
        "day": "Wednesday",
        "hours": "Open 24 hours"
      },
      {
        "day": "Thursday",
        "hours": "Open 24 hours"
      },
      {
        "day": "Friday",
        "hours": "Open 24 hours"
      },
      {
        "day": "Saturday",
        "hours": "Open 24 hours"
      },
      {
        "day": "Sunday",
        "hours": "Open 24 hours"
      }
    ],
    "peopleAlsoSearch": [],
    "placesTags": [],
    "reviewsTags": [],
    "additionalInfo": {
      "Accessibility": [
        {
          "Wheelchair accessible entrance": true
        },
        {
          "Wheelchair accessible parking lot": true
        }
      ],
      "Payments": [
        {
          "Credit cards": true
        }
      ]
    },
    "gasPrices": [],
    "url": "https://www.google.com/maps/search/?api=1&query=VA%20WNY%20Healthcare%20System%20-%20Veteran%E2%80%99s%20Hospital&query_place_id=ChIJkxXLwsBy04kRnHe9J2HZdvU",
    "searchPageUrl": "https://www.google.com/maps/search/independent%20pharmacy%20Biloxi%20MS/@42.54640259466427,-80.15361988608069,8z?hl=en",
    "searchString": "independent pharmacy Biloxi MS",
    "language": "en",
    "rank": 21,
    "isAdvertisement": false,
    "imageUrl": "https://lh3.googleusercontent.com/gps-cs-s/AC9h4npHBhcXkal9rcdQNA5r3Xowp5jZ5GdKYjc_IHr7CtZGxc5eS6ebWzLLneYcTOWpeI2hXZAngJIYxfwHML6P8Fex32Megn-zFfpn3oBPpTI468yAC_c1Lw2WUx0XTNedZvmt88I=w521-h240-k-no",
    "kgmid": "/g/1tlvqj0d",
    "classification": "not_a_pharmacy",
    "is_independent": false,
    "is_compounding": false,
    "confidence": 0.95,
    "source": "perplexity",
    "method": "llm"
  }
]