[
  {
    "title": "Innovative Rx Compounding Pharmacy",
    "price": null,
    "categoryName": "Pharmacy",
    "address": "416 W 48th St Suite 20, Kearney, NE 68845",
    "neighborhood": null,
    "street": "416 W 48th St Suite 20",
    "city": "Kearney",
    "postalCode": "68845",
    "state": "Nebraska",
    "countryCode": "US",
    "website": "http://www.innovativerx.com/",
    "phone": "(308) 708-5070",
    "phoneUnformatted": "+13087085070",
    "claimThisBusiness": false,
    "location": {
      "lat": 40.7208019,
      "lng": -99.0877792
    },
    "totalScore": 4.8,
    "permanentlyClosed": false,
    "temporarilyClosed": false,
    "placeId": null,
    "categories": [
      "Pharmacy"
    ],
    "fid": "0x87994f8188806ccb:0x953635aa00b9c286",
    "cid": "10751840164666524294",
    "reviewsCount": 13,
    "imagesCount": 9,
    "imageCategories": [],
    "scrapedAt": "2025-06-22T08:40:21.631Z",
    "googleFoodUrl": null,
    "hotelAds": [],
    "openingHours": [
      {
        "day": "Monday",
        "hours": "8:30\u202fAM to 1\u202fPM, 2 to 5:30\u202fPM"
      },
      {
        "day": "Tuesday",
        "hours": "8:30\u202fAM to 1\u202fPM, 2 to 5:30\u202fPM"
      },
      {
        "day": "Wednesday",
        "hours": "8:30\u202fAM to 1\u202fPM, 2 to 5:30\u202fPM"
      },
      {
        "day": "Thursday",
        "hours": "8:30\u202fAM to 1\u202fPM, 2 to 5:30\u202fPM"
      },
      {
        "day": "Friday",
        "hours": "8:30\u202fAM to 1\u202fPM, 2 to 5:30\u202fPM"
      },
      {
        "day": "Saturday",
        "hours": "Closed"
      },
      {
        "day": "Sunday",
        "hours": "Closed"
      }
    ],
    "peopleAlsoSearch": [],
    "placesTags": [],
    "reviewsTags": [],
    "additionalInfo": {
      "From the business": [
        {
          "Small business": true
        }
      ],
      "Service options": [
        {
          "Delivery": true
        },
        {
          "In-store shopping": true
        }
      ],
      "Accessibility": [
        {
          "Wheelchair accessible entrance": true
        },
        {
          "Wheelchair accessible parking lot": true
        }
      ],
      "Payments": [
        {
          "Credit cards": true
        },
        {
          "Debit cards": true
        },
        {
          "NFC mobile payments": true
        },
        {
          "Credit cards": true
        }
      ]
    },
    "gasPrices": [],
    "url": "https://www.google.com/maps/search/?api=1&query=Innovative%20Rx%20Compounding%20Pharmacy&query_place_id=ChIJy2yAiIFPmYcRhsK5AKo1NpU",
    "searchPageUrl": "https://www.google.com/maps/search/independent%20pharmacy%20Kearney%20NE/@56.705968377238506,-134.6977272005368,9z?hl=en",
    "searchString": "independent pharmacy Kearney NE",
    "language": "en",
    "rank": 1,
    "isAdvertisement": false,
    "imageUrl": "https://lh3.googleusercontent.com/p/AF1QipP4xVBQBEgseXFEjtC6tOt9vNGymnkFjxaleyDv=w408-h544-k-no",
    "kgmid": "/g/11h_31kv5k",
    "classification": "independent",
    "is_independent": true,
    "is_compounding": true,
    "confidence": 0.95,
    "source": "perplexity",
    "method": "llm"
  },
  {
    "title": "Grand Central Pharmacy",
    "price": null,
    "categoryName": "Pharmacy",
    "address": "7 W 25th St, Kearney, NE 68847",
    "neighborhood": null,
    "street": "7 W 25th St",
    "city": "Kearney",
    "postalCode": "68847",
    "state": "Nebraska",
    "countryCode": "US",
    "website": "https://www.grandcentralkearney.com/",
    "phone": "(308) 237-2545",
    "phoneUnformatted": "+13082372545",
    "claimThisBusiness": false,
    "location": {
      "lat": 40.7011526,
      "lng": -99.0822506
    },
    "totalScore": 5,
    "permanentlyClosed": false,
    "temporarilyClosed": false,
    "placeId": null,
    "categories": [
      "Pharmacy"
    ],
    "fid": "0x87994ebfb5afd779:0xd35f85fccd5e570f",
    "cid": "15231039785614071567",
    "reviewsCount": 4,
    "imagesCount": 2,
    "imageCategories": [],
    "scrapedAt": "2025-06-22T08:40:21.632Z",
    "googleFoodUrl": null,
    "hotelAds": [],
    "openingHours": [
      {
        "day": "Monday",
        "hours": "8\u202fAM to 6\u202fPM"
      },
      {
        "day": "Tuesday",
        "hours": "8\u202fAM to 6\u202fPM"
      },
      {
        "day": "Wednesday",
        "hours": "8\u202fAM to 6\u202fPM"
      },
      {
        "day": "Thursday",
        "hours": "8\u202fAM to 6\u202fPM"
      },
      {
        "day": "Friday",
        "hours": "8\u202fAM to 6\u202fPM"
      },
      {
        "day": "Saturday",
        "hours": "9\u202fAM to 4\u202fPM"
      },
      {
        "day": "Sunday",
        "hours": "Closed"
      }
    ],
    "peopleAlsoSearch": [],
    "placesTags": [],
    "reviewsTags": [],
    "additionalInfo": {
      "Service options": [
        {
          "Drive-through": true
        },
        {
          "In-store pickup": true
        },
        {
          "In-store shopping": true
        },
        {
          "Onsite services": true
        }
      ],
      "Accessibility": [
        {
          "Wheelchair accessible entrance": true
        },
        {
          "Wheelchair accessible parking lot": true
        }
      ],
      "Offerings": [
        {
          "Medication disposal": true
        }
      ],
      "Planning": [
        {
          "Quick visit": true
        }
      ],
      "Payments": [
        {
          "Credit cards": true
        }
      ]
    },
    "gasPrices": [],
    "url": "https://www.google.com/maps/search/?api=1&query=Grand%20Central%20Pharmacy&query_place_id=ChIJedevtb9OmYcRD1dezfyFX9M",
    "searchPageUrl": "https://www.google.com/maps/search/independent%20pharmacy%20Kearney%20NE/@56.705968377238506,-134.6977272005368,9z?hl=en",
    "searchString": "independent pharmacy Kearney NE",
    "language": "en",
    "rank": 2,
    "isAdvertisement": false,
    "imageUrl": "https://lh3.googleusercontent.com/p/AF1QipP1rWVP7h8ZGXQJ8MuOI90qlbvQs4SlpWAaEnU8=w408-h272-k-no",
    "kgmid": "/g/1ptwkz7yy",
    "classification": "independent",
    "is_independent": true,
    "is_compounding": false,
    "confidence": 0.9,
    "source": "perplexity",
    "method": "llm"
  },
  {
    "title": "Valley Pharmacy Inc",
    "price": null,
    "categoryName": "Pharmacy",
    "address": "211 W 33rd St, Kearney, NE 68845",
    "neighborhood": null,
    "street": "211 W 33rd St",
    "city": "Kearney",
    "postalCode": "68845",
    "state": "Nebraska",
    "countryCode": "US",
    "website": "http://www.valleypharmacykearney.com/",
    "phone": "(308) 234-3300",
    "phoneUnformatted": "+13082343300",
    "claimThisBusiness": false,
    "location": {
      "lat": 40.708795,
      "lng": -99.084993
    },
    "totalScore": 4.9,
    "permanentlyClosed": false,
    "temporarilyClosed": false,
    "placeId": null,
    "categories": [
      "Pharmacy"
    ],
    "fid": "0x87994e93da3904df:0xe62f85a8ac596a1a",
    "cid": "16586622912121367066",
    "reviewsCount": 24,
    "imagesCount": 6,
    "imageCategories": [],
    "scrapedAt": "2025-06-22T08:40:21.632Z",
    "googleFoodUrl": null,
    "hotelAds": [],
    "openingHours": [
      {
        "day": "Monday",
        "hours": "8\u202fAM to 5:30\u202fPM"
      },
      {
        "day": "Tuesday",
        "hours": "8\u202fAM to 5:30\u202fPM"
      },
      {
        "day": "Wednesday",
        "hours": "8\u202fAM to 5:30\u202fPM"
      },
      {
        "day": "Thursday",
        "hours": "8\u202fAM to 5:30\u202fPM"
      },
      {
        "day": "Friday",
        "hours": "8\u202fAM to 5:30\u202fPM"
      },
      {
        "day": "Saturday",
        "hours": "8\u202fAM to 12\u202fPM"
      },
      {
        "day": "Sunday",
        "hours": "Closed"
      }
    ],
    "peopleAlsoSearch": [],
    "placesTags": [],
    "reviewsTags": [],
    "additionalInfo": {
      "From the business": [
        {
          "Small business": true
        }
      ],
      "Service options": [
        {
          "Delivery": true
        },
        {
          "In-store shopping": true
        },
        {
          "Same-day delivery": true
        }
      ],
      "Accessibility": [
        {
          "Wheelchair accessible entrance": true
        },
        {
          "Wheelchair accessible parking lot": true
        }
      ],
      "Offerings": [
        {
          "Medication disposal": true
        }
      ],
      "Planning": [
        {
          "Quick visit": true
        }
      ],
      "Payments": [
        {
          "Checks": true
        },
        {
          "Debit cards": true
        },
        {
          "Credit cards": true
        }
      ]
    },
    "gasPrices": [],
    "url": "https://www.google.com/maps/search/?api=1&query=Valley%20Pharmacy%20Inc&query_place_id=ChIJ3wQ52pNOmYcRGmpZrKiFL-Y",
    "searchPageUrl": "https://www.google.com/maps/search/independent%20pharmacy%20Kearney%20NE/@56.705968377238506,-134.6977272005368,9z?hl=en",
    "searchString": "independent pharmacy Kearney NE",
    "language": "en",
    "rank": 3,
    "isAdvertisement": false,
    "imageUrl": "https://lh3.googleusercontent.com/p/AF1QipMM596dDq3r44bHGa_0JM7nc9ulJnQ4tEA04iIk=w408-h408-k-no",
    "kgmid": "/g/1td0yzs7",
    "classification": "independent",
    "is_independent": true,
    "is_compounding": false,
    "confidence": 0.85,
    "source": "perplexity",
    "method": "llm"
  },
  {
    "title": "Family Fresh Market Pharmacy",
    "price": null,
    "categoryName": "Pharmacy",
    "address": "3920 2nd Ave, Kearney, NE 68847",
    "neighborhood": null,
    "street": "3920 2nd Ave",
    "city": "Kearney",
    "postalCode": "68847",
    "state": "Nebraska",
    "countryCode": "US",
    "website": "https://www.familyfreshmarket.com/pharmacies",
    "phone": "(308) 234-6086",
    "phoneUnformatted": "+13082346086",
    "claimThisBusiness": false,
    "location": {
      "lat": 40.7149803,
      "lng": -99.0847149
    },
    "totalScore": 4.8,
    "permanentlyClosed": false,
    "temporarilyClosed": false,
    "placeId": null,
    "categories": [
      "Pharmacy"
    ],
    "fid": "0x87994e8e9daaaaab:0xea0b4da2177fd687",
    "cid": "16864658588193248903",
    "reviewsCount": 8,
    "imagesCount": 1,
    "imageCategories": [],
    "scrapedAt": "2025-06-22T08:40:21.632Z",
    "googleFoodUrl": null,
    "hotelAds": [],
    "openingHours": [
      {
        "day": "Monday",
        "hours": "9\u202fAM to 6\u202fPM"
      },
      {
        "day": "Tuesday",
        "hours": "9\u202fAM to 6\u202fPM"
      },
      {
        "day": "Wednesday",
        "hours": "9\u202fAM to 6\u202fPM"
      },
      {
        "day": "Thursday",
        "hours": "9\u202fAM to 6\u202fPM"
      },
      {
        "day": "Friday",
        "hours": "9\u202fAM to 6\u202fPM"
      },
      {
        "day": "Saturday",
        "hours": "Closed"
      },
      {
        "day": "Sunday",
        "hours": "Closed"
      }
    ],
    "peopleAlsoSearch": [],
    "placesTags": [],
    "reviewsTags": [],
    "additionalInfo": {
      "Service options": [
        {
          "Curbside pickup": true
        },
        {
          "In-store pickup": true
        },
        {
          "In-store shopping": true
        }
      ],
      "Accessibility": [
        {
          "Wheelchair accessible entrance": true
        },
        {
          "Wheelchair accessible parking lot": true
        }
      ],
      "Offerings": [
        {
          "Medication disposal": true
        }
      ],
      "Amenities": [
        {
          "Wi-Fi": true
        },
        {
          "Free Wi-Fi": true
        }
      ],
      "Crowd": [
        {
          "LGBTQ+ friendly": true
        },
        {
          "Transgender safespace": true
        }
      ],
      "Planning": [
        {
          "Quick visit": true
        }
      ],
      "Payments": [
        {
          "Checks": true
        },
        {
          "Credit cards": true
        },
        {
          "Debit cards": true
        },
        {
          "NFC mobile payments": true
        },
        {
          "Credit cards": true
        }
      ]
    },
    "gasPrices": [],
    "url": "https://www.google.com/maps/search/?api=1&query=Family%20Fresh%20Market%20Pharmacy&query_place_id=ChIJq6qqnY5OmYcRh9Z_F6JNC-o",
    "searchPageUrl": "https://www.google.com/maps/search/independent%20pharmacy%20Kearney%20NE/@56.705968377238506,-134.6977272005368,9z?hl=en",
    "searchString": "independent pharmacy Kearney NE",
    "language": "en",
    "rank": 4,
    "isAdvertisement": false,
    "imageUrl": "https://streetviewpixels-pa.googleapis.com/v1/thumbnail?panoid=B0IwjxDMnd6UGNpuG1plaA&cb_client=search.gws-prod.gps&w=408&h=240&yaw=248.47893&pitch=0&thumbfov=100",
    "kgmid": "/g/11ggsl1k1g",
    "classification": "independent",
    "is_independent": true,
    "is_compounding": false,
    "confidence": 0.9,
    "source": "perplexity",
    "method": "llm"
  },
  {
    "title": "Medicap Pharmacy",
    "price": null,
    "categoryName": "Pharmacy",
    "address": "2706 2nd Ave Ste. A, Kearney, NE 68847",
    "neighborhood": null,
    "street": "2706 2nd Ave Ste. A",
    "city": "Kearney",
    "postalCode": "68847",
    "state": "Nebraska",
    "countryCode": "US",
    "website": "https://kearney.medicap.com/",
    "phone": "(308) 234-8056",
    "phoneUnformatted": "+13082348056",
    "claimThisBusiness": false,
    "location": {
      "lat": 40.7028767,
      "lng": -99.0847998
    },
    "totalScore": 4.5,
    "permanentlyClosed": false,
    "temporarilyClosed": false,
    "placeId": null,
    "categories": [
      "Pharmacy"
    ],
    "fid": "0x87994e95d0a40541:0xc9a2f82fec9d4403",
    "cid": "14529448232567522307",
    "reviewsCount": 15,
    "imagesCount": 2,
    "imageCategories": [],
    "scrapedAt": "2025-06-22T08:40:21.633Z",
    "googleFoodUrl": null,
    "hotelAds": [],
    "openingHours": [
      {
        "day": "Monday",
        "hours": "9\u202fAM to 6\u202fPM"
      },
      {
        "day": "Tuesday",
        "hours": "9\u202fAM to 6\u202fPM"
      },
      {
        "day": "Wednesday",
        "hours": "9\u202fAM to 6\u202fPM"
      },
      {
        "day": "Thursday",
        "hours": "9\u202fAM to 6\u202fPM"
      },
      {
        "day": "Friday",
        "hours": "9\u202fAM to 6\u202fPM"
      },
      {
        "day": "Saturday",
        "hours": "9\u202fAM to 1:30\u202fPM"
      },
      {
        "day": "Sunday",
        "hours": "Closed"
      }
    ],
    "peopleAlsoSearch": [],
    "placesTags": [],
    "reviewsTags": [],
    "additionalInfo": {
      "Service options": [
        {
          "Delivery": true
        },
        {
          "In-store pickup": true
        },
        {
          "Onsite services": true
        },
        {
          "Same-day delivery": false
        }
      ],
      "Accessibility": [
        {
          "Wheelchair accessible parking lot": true
        }
      ],
      "Offerings": [
        {
          "Medication disposal": true
        }
      ],
      "Planning": [
        {
          "Quick visit": true
        }
      ],
      "Payments": [
        {
          "Debit cards": true
        },
        {
          "NFC mobile payments": true
        },
        {
          "Credit cards": true
        }
      ]
    },
    "gasPrices": [],
    "url": "https://www.google.com/maps/search/?api=1&query=Medicap%20Pharmacy&query_place_id=ChIJQQWk0JVOmYcRA0Sd7C_4osk",
    "searchPageUrl": "https://www.google.com/maps/search/independent%20pharmacy%20Kearney%20NE/@56.705968377238506,-134.6977272005368,9z?hl=en",
    "searchString": "independent pharmacy Kearney NE",
    "language": "en",
    "rank": 5,
    "isAdvertisement": false,
    "imageUrl": "https://lh3.googleusercontent.com/p/AF1QipPK2esmBmjhYNMcKd1F7J3T-P_103Z7RkJtfHQg=w412-h240-k-no",
    "kgmid": "/g/1tgx2jcx",
    "classification": "independent",
    "is_independent": true,
    "is_compounding": false,
    "confidence": 0.85,
    "source": "perplexity",
    "method": "llm"
  },
  {
    "title": "ABC Drug & Gift",
    "price": null,
    "categoryName": "Pharmacy",
    "address": "2123 Central Ave, Kearney, NE 68847",
    "neighborhood": null,
    "street": "2123 Central Ave",
    "city": "Kearney",
    "postalCode": "68847",
    "state": "Nebraska",
    "countryCode": "US",
    "website": "https://stores.healthmart.com/abcdrug/stores.aspx",
    "phone": "(308) 237-2178",
    "phoneUnformatted": "+13082372178",
    "claimThisBusiness": false,
    "location": {
      "lat": 40.697482,
      "lng": -99.0814984
    },
    "totalScore": 4.5,
    "permanentlyClosed": false,
    "temporarilyClosed": false,
    "placeId": null,
    "categories": [
      "Pharmacy",
      "Gift shop"
    ],
    "fid": "0x87994eb8d4b21a6d:0xe576af8613c154f4",
    "cid": "16534596072329270516",
    "reviewsCount": 11,
    "imagesCount": 2,
    "imageCategories": [],
    "scrapedAt": "2025-06-22T08:40:21.633Z",
    "googleFoodUrl": null,
    "hotelAds": [],
    "openingHours": [
      {
        "day": "Monday",
        "hours": "9\u202fAM to 6\u202fPM"
      },
      {
        "day": "Tuesday",
        "hours": "9\u202fAM to 6\u202fPM"
      },
      {
        "day": "Wednesday",
        "hours": "9\u202fAM to 6\u202fPM"
      },
      {
        "day": "Thursday",
        "hours": "9\u202fAM to 6\u202fPM"
      },
      {
        "day": "Friday",
        "hours": "9\u202fAM to 6\u202fPM"
      },
      {
        "day": "Saturday",
        "hours": "9\u202fAM to 2\u202fPM"
      },
      {
        "day": "Sunday",
        "hours": "Closed"
      }
    ],
    "peopleAlsoSearch": [],
    "placesTags": [],
    "reviewsTags": [],
    "additionalInfo": {
      "From the business": [
        {
          "Small business": true
        }
      ],
      "Service options": [
        {
          "In-store pickup": true
        }
      ],
      "Accessibility": [
        {
          "Wheelchair accessible entrance": true
        },
        {
          "Wheelchair accessible parking lot": true
        }
      ],
      "Offerings": [
        {
          "Medication disposal": true
        }
      ],
      "Planning": [
        {
          "Quick visit": true
        }
      ],
      "Payments": [
        {
          "Credit cards": true
        },
        {
          "Debit cards": true
        },
        {
          "NFC mobile payments": true
        },
        {
          "Credit cards": true
        }
      ]
    },
    "gasPrices": [],
    "url": "https://www.google.com/maps/search/?api=1&query=ABC%20Drug%20%26%20Gift&query_place_id=ChIJbRqy1LhOmYcR9FTBE4avduU",
    "searchPageUrl": "https://www.google.com/maps/search/independent%20pharmacy%20Kearney%20NE/@56.705968377238506,-134.6977272005368,9z?hl=en",
    "searchString": "independent pharmacy Kearney NE",
    "language": "en",
    "rank": 6,
    "isAdvertisement": false,
    "imageUrl": "https://lh3.googleusercontent.com/gps-cs-s/AC9h4nqfofMcHNxTUi5g9Xmhy92d0tH4spEaaC1cL5SCRpbdwTtCiFHtxf3JLD6jvfTo2eqw3YRS4bawsYWaXPz6GtaudyMCwskuo7CdhU9gVtfaKyaY1DbTJk0hrr-ZZajzluUCZ1-W=w426-h240-k-no",
    "kgmid": "/g/1tksj949",
    "classification": "independent",
    "is_independent": true,
    "is_compounding": false,
    "confidence": 0.9,
    "source": "perplexity",
    "method": "llm"
  },
  {
    "title": "U Save Pharmacy",
    "price": null,
    "categoryName": "Pharmacy",
    "address": "3611 2nd Ave, Kearney, NE 68847",
    "neighborhood": null,
    "street": "3611 2nd Ave",
    "city": "Kearney",
    "postalCode": "68847",
    "state": "Nebraska",
    "countryCode": "US",
    "website": "https://www.usavepharmacy.com/",
    "phone": "(308) 455-1555",
    "phoneUnformatted": "+13084551555",
    "claimThisBusiness": false,
    "location": {
      "lat": 40.7116557,
      "lng": -99.0836713
    },
    "totalScore": 4.3,
    "permanentlyClosed": false,
    "temporarilyClosed": false,
    "placeId": null,
    "categories": [
      "Pharmacy"
    ],
    "fid": "0x87994e920f02178f:0xeb01966ff0e7919a",
    "cid": "16933981481417019802",
    "reviewsCount": 30,
    "imagesCount": 10,
    "imageCategories": [],
    "scrapedAt": "2025-06-22T08:40:21.633Z",
    "googleFoodUrl": null,
    "hotelAds": [],
    "openingHours": [
      {
        "day": "Monday",
        "hours": "8:30\u202fAM to 6\u202fPM"
      },
      {
        "day": "Tuesday",
        "hours": "8:30\u202fAM to 6\u202fPM"
      },
      {
        "day": "Wednesday",
        "hours": "8:30\u202fAM to 6\u202fPM"
      },
      {
        "day": "Thursday",
        "hours": "8:30\u202fAM to 6\u202fPM"
      },
      {
        "day": "Friday",
        "hours": "8:30\u202fAM to 6\u202fPM"
      },
      {
        "day": "Saturday",
        "hours": "9\u202fAM to 1\u202fPM"
      },
      {
        "day": "Sunday",
        "hours": "Closed"
      }
    ],
    "peopleAlsoSearch": [],
    "placesTags": [],
    "reviewsTags": [],
    "additionalInfo": {
      "Service options": [
        {
          "Delivery": true
        },
        {
          "Drive-through": true
        },
        {
          "In-store pickup": true
        },
        {
          "Same-day delivery": true
        }
      ],
      "Accessibility": [
        {
          "Wheelchair accessible entrance": true
        },
        {
          "Wheelchair accessible parking lot": true
        }
      ],
      "Offerings": [
        {
          "Medication disposal": true
        }
      ],
      "Planning": [
        {
          "Quick visit": true
        }
      ],
      "Payments": [
        {
          "Checks": true
        },
        {
          "Credit cards": true
        },
        {
          "Debit cards": true
        },
        {
          "NFC mobile payments": true
        },
        {
          "Credit cards": true
        }
      ]
    },
    "gasPrices": [],
    "url": "https://www.google.com/maps/search/?api=1&query=U%20Save%20Pharmacy&query_place_id=ChIJjxcCD5JOmYcRmpHn8G-WAes",
    "searchPageUrl": "https://www.google.com/maps/search/independent%20pharmacy%20Kearney%20NE/@56.705968377238506,-134.6977272005368,9z?hl=en",
    "searchString": "independent pharmacy Kearney NE",
    "language": "en",
    "rank": 7,
    "isAdvertisement": false,
    "imageUrl": "https://lh3.googleusercontent.com/p/AF1QipPjR1_dkXdJzmWmDHKE4pNea4ZWEZVADz0ssaoG=w544-h240-k-no",
    "kgmid": "/g/1w112pmh",
    "classification": "independent",
    "is_independent": true,
    "is_compounding": false,
    "confidence": 0.9,
    "source": "perplexity",
    "method": "llm"
  },
  {
    "title": "CVS Pharmacy",
    "description": "Drugstore chain selling a variety of beauty & health products, plus some grocery & household items.",
    "price": null,
    "categoryName": "Pharmacy",
    "address": "4800 3rd Ave, Kearney, NE 68845",
    "neighborhood": null,
    "street": "4800 3rd Ave",
    "city": "Kearney",
    "postalCode": "68845",
    "state": "Nebraska",
    "countryCode": "US",
    "website": "https://www.cvs.com/store-locator/kearney-ne-pharmacies/4800-3rd-ave-kearney-ne-68845/storeid=16297?WT.mc_id=LS_GOOGLE_RX_16297",
    "phone": "(308) 237-2002",
    "phoneUnformatted": "+13082372002",
    "claimThisBusiness": false,
    "location": {
      "lat": 40.7218399,
      "lng": -99.0857666
    },
    "totalScore": 5,
    "permanentlyClosed": false,
    "temporarilyClosed": false,
    "placeId": null,
    "categories": [
      "Pharmacy"
    ],
    "fid": "0x87994e89f8875af9:0x8428abaa4bb5917",
    "cid": "595190634998618391",
    "reviewsCount": 13,
    "imagesCount": 5,
    "imageCategories": [],
    "scrapedAt": "2025-06-22T08:40:21.633Z",
    "googleFoodUrl": null,
    "hotelAds": [],
    "openingHours": [
      {
        "day": "Monday",
        "hours": "9\u202fAM to 1:30\u202fPM, 2 to 7\u202fPM"
      },
      {
        "day": "Tuesday",
        "hours": "9\u202fAM to 1:30\u202fPM, 2 to 7\u202fPM"
      },
      {
        "day": "Wednesday",
        "hours": "9\u202fAM to 1:30\u202fPM, 2 to 7\u202fPM"
      },
      {
        "day": "Thursday",
        "hours": "9\u202fAM to 1:30\u202fPM, 2 to 7\u202fPM"
      },
      {
        "day": "Friday",
        "hours": "9\u202fAM to 1:30\u202fPM, 2 to 7\u202fPM"
      },
      {
        "day": "Saturday",
        "hours": "9\u202fAM to 1:30\u202fPM, 2 to 5\u202fPM"
      },
      {
        "day": "Sunday",
        "hours": "11\u202fAM to 1:30\u202fPM, 2 to 5\u202fPM"
      }
    ],
    "peopleAlsoSearch": [],
    "placesTags": [],
    "reviewsTags": [],
    "additionalInfo": {
      "Service options": [
        {
          "Delivery": true
        },
        {
          "In-store shopping": true
        },
        {
          "Onsite services": true
        }
      ],
      "Accessibility": [
        {
          "Wheelchair accessible entrance": true
        },
        {
          "Wheelchair accessible parking lot": true
        }
      ],
      "Offerings": [
        {
          "Medication disposal": true
        },
        {
          "Naloxone": true
        }
      ],
      "Amenities": [
        {
          "Wi-Fi": true
        }
      ],
      "Crowd": [
        {
          "LGBTQ+ friendly": true
        },
        {
          "Transgender safespace": true
        }
      ],
      "Planning": [
        {
          "Quick visit": true
        }
      ],
      "Payments": [
        {
          "Credit cards": true
        },
        {
          "Debit cards": true
        },
        {
          "Credit cards": true
        }
      ]
    },
    "gasPrices": [],
    "url": "https://www.google.com/maps/search/?api=1&query=CVS%20Pharmacy&query_place_id=ChIJ-VqH-IlOmYcRF1m7pLqKQgg",
    "searchPageUrl": "https://www.google.com/maps/search/independent%20pharmacy%20Kearney%20NE/@56.705968377238506,-134.6977272005368,9z?hl=en",
    "searchString": "independent pharmacy Kearney NE",
    "language": "en",
    "rank": 8,
    "isAdvertisement": false,
    "imageUrl": "https://lh3.googleusercontent.com/p/AF1QipOUb46qtTFMs_4UGqj_3o2XtyeX5PiPEuP5cSqm=w408-h272-k-no",
    "kgmid": "/g/1tddsprm",
    "classification": "chain",
    "is_independent": false,
    "is_compounding": false,
    "confidence": 1.0,
    "source": "perplexity",
    "method": "llm"
  },
  {
    "title": "Hy-Vee Pharmacy",
    "price": null,
    "categoryName": "Pharmacy",
    "address": "5212 3rd Ave, Kearney, NE 68845",
    "neighborhood": null,
    "street": "5212 3rd Ave",
    "city": "Kearney",
    "postalCode": "68845",
    "state": "Nebraska",
    "countryCode": "US",
    "website": "https://www.hy-vee.com/my-pharmacy/pharmacy-finder/kearney-5212-3rd-ave-kearney-ne/1323?utm_source=google&utm_medium=organic&utm_campaign=gmb-listing",
    "phone": "(308) 236-0022",
    "phoneUnformatted": "+13082360022",
    "claimThisBusiness": false,
    "location": {
      "lat": 40.7259954,
      "lng": -99.0870624
    },
    "totalScore": 3.4,
    "permanentlyClosed": false,
    "temporarilyClosed": false,
    "placeId": null,
    "categories": [
      "Pharmacy",
      "Drug store",
      "Herbal medicine store",
      "Homeopathic pharmacy",
      "Local medical services",
      "Medical Center",
      "Organic drug store",
      "Pharmaceutical company",
      "Pharmaceutical lab",
      "Toiletries store"
    ],
    "fid": "0x87994f624484932b:0xd8857b2eae7c54a9",
    "cid": "15602011924521047209",
    "reviewsCount": 20,
    "imagesCount": 9,
    "imageCategories": [],
    "scrapedAt": "2025-06-22T08:40:21.633Z",
    "googleFoodUrl": null,
    "hotelAds": [],
    "openingHours": [
      {
        "day": "Monday",
        "hours": "8\u202fAM to 7\u202fPM"
      },
      {
        "day": "Tuesday",
        "hours": "8\u202fAM to 7\u202fPM"
      },
      {
        "day": "Wednesday",
        "hours": "8\u202fAM to 7\u202fPM"
      },
      {
        "day": "Thursday",
        "hours": "8\u202fAM to 7\u202fPM"
      },
      {
        "day": "Friday",
        "hours": "8\u202fAM to 7\u202fPM"
      },
      {
        "day": "Saturday",
        "hours": "9\u202fAM to 4\u202fPM"
      },
      {
        "day": "Sunday",
        "hours": "10\u202fAM to 4\u202fPM"
      }
    ],
    "peopleAlsoSearch": [],
    "placesTags": [],
    "reviewsTags": [],
    "additionalInfo": {
      "Service options": [
        {
          "Drive-through": true
        }
      ],
      "Accessibility": [
        {
          "Wheelchair accessible entrance": true
        },
        {
          "Wheelchair accessible parking lot": true
        },
        {
          "Wheelchair accessible restroom": true
        },
        {
          "Wheelchair accessible seating": true
        }
      ],
      "Planning": [
        {
          "Quick visit": true
        }
      ],
      "Payments": [
        {
          "Credit cards": true
        },
        {
          "Debit cards": true
        },
        {
          "Credit cards": true
        }
      ]
    },
    "gasPrices": [],
    "url": "https://www.google.com/maps/search/?api=1&query=Hy-Vee%20Pharmacy&query_place_id=ChIJK5OERGJPmYcRqVR8ri57hdg",
    "searchPageUrl": "https://www.google.com/maps/search/independent%20pharmacy%20Kearney%20NE/@56.705968377238506,-134.6977272005368,9z?hl=en",
    "searchString": "independent pharmacy Kearney NE",
    "language": "en",
    "rank": 9,
    "isAdvertisement": false,
    "imageUrl": "https://lh3.googleusercontent.com/p/AF1QipOobCkfSAkrvnHQyefKKKo-3W_FgEKNKKIbTd2J=w408-h408-k-no",
    "kgmid": "/g/11j7ylx7tq",
    "classification": "chain",
    "is_independent": false,
    "is_compounding": false,
    "confidence": 0.95,
    "source": "perplexity",
    "method": "llm"
  },
  {
    "title": "Walgreens Pharmacy",
    "description": "Department of the Walgreens chain providing prescription medications & other health-related items.",
    "price": "$$",
    "categoryName": "Pharmacy",
    "address": "2516 2nd Ave, Kearney, NE 68847",
    "neighborhood": null,
    "street": "2516 2nd Ave",
    "city": "Kearney",
    "postalCode": "68847",
    "state": "Nebraska",
    "countryCode": "US",
    "website": "https://www.walgreens.com/locator/walgreens-2516+2nd+ave-kearney-ne-68847/id=3716",
    "phone": "(308) 236-8547",
    "phoneUnformatted": "+13082368547",
    "claimThisBusiness": false,
    "location": {
      "lat": 40.7010914,
      "lng": -99.0846987
    },
    "totalScore": 3.2,
    "permanentlyClosed": false,
    "temporarilyClosed": false,
    "placeId": null,
    "categories": [
      "Pharmacy"
    ],
    "fid": "0x87994ebdfc4d49cf:0x726ae22077c4f172",
    "cid": "8244650696931340658",
    "reviewsCount": 33,
    "imagesCount": 3,
    "imageCategories": [],
    "scrapedAt": "2025-06-22T08:40:21.633Z",
    "googleFoodUrl": null,
    "hotelAds": [],
    "openingHours": [
      {
        "day": "Monday",
        "hours": "9\u202fAM to 1:30\u202fPM, 2 to 7\u202fPM"
      },
      {
        "day": "Tuesday",
        "hours": "9\u202fAM to 1:30\u202fPM, 2 to 7\u202fPM"
      },
      {
        "day": "Wednesday",
        "hours": "9\u202fAM to 1:30\u202fPM, 2 to 7\u202fPM"
      },
      {
        "day": "Thursday",
        "hours": "9\u202fAM to 1:30\u202fPM, 2 to 7\u202fPM"
      },
      {
        "day": "Friday",
        "hours": "9\u202fAM to 1:30\u202fPM, 2 to 7\u202fPM"
      },
      {
        "day": "Saturday",
        "hours": "9\u202fAM to 1:30\u202fPM, 2 to 6\u202fPM"
      },
      {
        "day": "Sunday",
        "hours": "Closed"
      }
    ],
    "additionalOpeningHours": {
      "Drive through": [
        {
          "day": "Monday",
          "hours": "9\u202fAM\u20131:30\u202fPM"
        },
        {
          "day": "Tuesday",
          "hours": "9\u202fAM\u20131:30\u202fPM"
        },
        {
          "day": "Wednesday",
          "hours": "9\u202fAM\u20131:30\u202fPM"
        },
        {
          "day": "Thursday",
          "hours": "9\u202fAM\u20131:30\u202fPM"
        },
        {
          "day": "Friday",
          "hours": "9\u202fAM\u20131:30\u202fPM"
        },
        {
          "day": "Saturday",
          "hours": "9\u202fAM\u20131:30\u202fPM"
        },
        {
          "day": "Sunday",
          "hours": "Closed"
        }
      ]
    },
    "peopleAlsoSearch": [],
    "placesTags": [],
    "reviewsTags": [],
    "additionalInfo": {
      "Service options": [
        {
          "Curbside pickup": true
        },
        {
          "Drive-through": true
        },
        {
          "In-store pickup": true
        }
      ],
      "Accessibility": [
        {
          "Wheelchair accessible entrance": true
        },
        {
          "Wheelchair accessible parking lot": true
        }
      ],
      "Offerings": [
        {
          "Medication disposal": true
        },
        {
          "Naloxone": true
        },
        {
          "Passport photos": true
        }
      ],
      "Planning": [
        {
          "Quick visit": true
        }
      ],
      "Payments": [
        {
          "Checks": true
        },
        {
          "Credit cards": true
        },
        {
          "Debit cards": true
        }
      ]
    },
    "gasPrices": [],
    "url": "https://www.google.com/maps/search/?api=1&query=Walgreens%20Pharmacy&query_place_id=ChIJz0lN_L1OmYcRcvHEdyDianI",
    "searchPageUrl": "https://www.google.com/maps/search/independent%20pharmacy%20Kearney%20NE/@56.705968377238506,-134.6977272005368,9z?hl=en",
    "searchString": "independent pharmacy Kearney NE",
    "language": "en",
    "rank": 10,
    "isAdvertisement": false,
    "imageUrl": "https://lh3.googleusercontent.com/p/AF1QipNP0HpNW5J8SiAzVcqN1VG8WPjo6b6afpsyac2P=w525-h240-k-no",
    "kgmid": "/g/11cn93v788",
    "classification": "chain",
    "is_independent": false,
    "is_compounding": false,
    "confidence": 1.0,
    "source": "perplexity",
    "method": "llm"
  },
  {
    "title": "Walgreens",
    "description": "Drugstore chain with health & beauty aids, prescriptions & photo services, plus mini-mart basics.",
    "price": "$$",
    "categoryName": "Drug store",
    "address": "2516 2nd Ave, Kearney, NE 68847",
    "neighborhood": null,
    "street": "2516 2nd Ave",
    "city": "Kearney",
    "postalCode": "68847",
    "state": "Nebraska",
    "countryCode": "US",
    "website": "https://www.walgreens.com/locator/walgreens-2516+2nd+ave-kearney-ne-68847/id=3716",
    "phone": "(308) 236-8547",
    "phoneUnformatted": "+13082368547",
    "claimThisBusiness": false,
    "location": {
      "lat": 40.7011968,
      "lng": -99.0849428
    },
    "locatedIn": "Walgreens Pharmacy",
    "totalScore": 2.6,
    "permanentlyClosed": false,
    "temporarilyClosed": false,
    "placeId": null,
    "categories": [
      "Drug store",
      "Beauty supply store",
      "Convenience store",
      "Cosmetics store",
      "Greeting card shop",
      "Perfume store",
      "Stationery store"
    ],
    "fid": "0x87994ebe0c9b5e7f:0xbfad0eab06a2e415",
    "cid": "13811711759928714261",
    "reviewsCount": 95,
    "imagesCount": 6,
    "imageCategories": [],
    "scrapedAt": "2025-06-22T08:40:21.633Z",
    "googleFoodUrl": null,
    "hotelAds": [],
    "openingHours": [
      {
        "day": "Monday",
        "hours": "6\u202fAM to 12\u202fAM"
      },
      {
        "day": "Tuesday",
        "hours": "6\u202fAM to 12\u202fAM"
      },
      {
        "day": "Wednesday",
        "hours": "6\u202fAM to 12\u202fAM"
      },
      {
        "day": "Thursday",
        "hours": "6\u202fAM to 12\u202fAM"
      },
      {
        "day": "Friday",
        "hours": "6\u202fAM to 12\u202fAM"
      },
      {
        "day": "Saturday",
        "hours": "6\u202fAM to 12\u202fAM"
      },
      {
        "day": "Sunday",
        "hours": "6\u202fAM to 12\u202fAM"
      }
    ],
    "additionalOpeningHours": {
      "Walgreens Pharmacy": [
        {
          "day": "Monday",
          "hours": "9\u202fAM\u20131:30\u202fPM"
        },
        {
          "day": "Tuesday",
          "hours": "9\u202fAM\u20131:30\u202fPM"
        },
        {
          "day": "Wednesday",
          "hours": "9\u202fAM\u20131:30\u202fPM"
        },
        {
          "day": "Thursday",
          "hours": "9\u202fAM\u20131:30\u202fPM"
        },
        {
          "day": "Friday",
          "hours": "9\u202fAM\u20131:30\u202fPM"
        },
        {
          "day": "Saturday",
          "hours": "9\u202fAM\u20131:30\u202fPM"
        },
        {
          "day": "Sunday",
          "hours": "Closed"
        }
      ],
      "Walgreens Photo": [
        {
          "day": "Monday",
          "hours": "6\u202fAM\u201312\u202fAM"
        },
        {
          "day": "Tuesday",
          "hours": "6\u202fAM\u201312\u202fAM"
        },
        {
          "day": "Wednesday",
          "hours": "6\u202fAM\u201312\u202fAM"
        },
        {
          "day": "Thursday",
          "hours": "6\u202fAM\u201312\u202fAM"
        },
        {
          "day": "Friday",
          "hours": "6\u202fAM\u201312\u202fAM"
        },
        {
          "day": "Saturday",
          "hours": "6\u202fAM\u201312\u202fAM"
        },
        {
          "day": "Sunday",
          "hours": "6\u202fAM\u201312\u202fAM"
        }
      ],
      "Pickup": [
        {
          "day": "Monday",
          "hours": "6\u202fAM\u201312\u202fAM"
        },
        {
          "day": "Tuesday",
          "hours": "6\u202fAM\u201312\u202fAM"
        },
        {
          "day": "Wednesday",
          "hours": "6\u202fAM\u201312\u202fAM"
        },
        {
          "day": "Thursday",
          "hours": "6\u202fAM\u201312\u202fAM"
        },
        {
          "day": "Friday",
          "hours": "6\u202fAM\u201312\u202fAM"
        },
        {
          "day": "Saturday",
          "hours": "6\u202fAM\u201312\u202fAM"
        },
        {
          "day": "Sunday",
          "hours": "6\u202fAM\u201312\u202fAM"
        }
      ]
    },
    "peopleAlsoSearch": [],
    "placesTags": [],
    "reviewsTags": [],
    "additionalInfo": {
      "Service options": [
        {
          "Curbside pickup": true
        },
        {
          "Delivery": true
        },
        {
          "Drive-through": true
        },
        {
          "In-store pickup": true
        },
        {
          "Onsite services": true
        }
      ],
      "Accessibility": [
        {
          "Wheelchair accessible entrance": true
        },
        {
          "Wheelchair accessible parking lot": true
        }
      ],
      "Planning": [
        {
          "Quick visit": true
        }
      ],
      "Payments": [
        {
          "Checks": true
        },
        {
          "Credit cards": true
        },
        {
          "Debit cards": true
        },
        {
          "NFC mobile payments": true
        },
        {
          "SNAP/EBT": true
        },
        {
          "Credit cards": true
        }
      ]
    },
    "gasPrices": [],
    "url": "https://www.google.com/maps/search/?api=1&query=Walgreens&query_place_id=ChIJf16bDL5OmYcRFeSiBqsOrb8",
    "searchPageUrl": "https://www.google.com/maps/search/independent%20pharmacy%20Kearney%20NE/@56.705968377238506,-134.6977272005368,9z?hl=en",
    "searchString": "independent pharmacy Kearney NE",
    "language": "en",
    "rank": 13,
    "isAdvertisement": false,
    "imageUrl": "https://lh3.googleusercontent.com/gps-cs-s/AC9h4npT-5x464eM2k64NCIb3-W_u3CAM6l0SujhRhcWD7gYy-N7biHne1OIfXuNOiyZnsJsuu9W0_cHGMpf14rdFYsrePxG-6qRrHWcgN-f8WlW3BnFBIIRa6nmvyo8cYy1nweXAp-EIg=w408-h306-k-no",
    "kgmid": "/g/1w4f8lzc",
    "classification": "chain",
    "is_independent": false,
    "is_compounding": false,
    "confidence": 1.0,
    "source": "perplexity",
    "method": "llm"
  },
  {
    "title": "Walmart Pharmacy",
    "price": "$",
    "categoryName": "Pharmacy",
    "address": "5411 2nd Ave, Kearney, NE 68847",
    "neighborhood": null,
    "street": "5411 2nd Ave",
    "city": "Kearney",
    "postalCode": "68847",
    "state": "Nebraska",
    "countryCode": "US",
    "website": "https://www.walmart.com/store/598-kearney-ne/pharmacy/?veh=seo_loc",
    "phone": "(308) 234-6681",
    "phoneUnformatted": "+13082346681",
    "claimThisBusiness": false,
    "location": {
      "lat": 40.7261651,
      "lng": -99.0809545
    },
    "totalScore": 3.5,
    "permanentlyClosed": false,
    "temporarilyClosed": false,
    "placeId": null,
    "categories": [
      "Pharmacy",
      "Herbal medicine store",
      "Medical supply store",
      "Parapharmacy",
      "Vitamin & supplements store"
    ],
    "fid": "0x87994e614b8b0565:0x63251fdb1df9095d",
    "cid": "7144151409854318941",
    "reviewsCount": 12,
    "imagesCount": 7,
    "imageCategories": [],
    "scrapedAt": "2025-06-22T08:40:21.634Z",
    "googleFoodUrl": null,
    "hotelAds": [],
    "openingHours": [
      {
        "day": "Monday",
        "hours": "9\u202fAM to 7\u202fPM"
      },
      {
        "day": "Tuesday",
        "hours": "9\u202fAM to 7\u202fPM"
      },
      {
        "day": "Wednesday",
        "hours": "9\u202fAM to 7\u202fPM"
      },
      {
        "day": "Thursday",
        "hours": "9\u202fAM to 7\u202fPM"
      },
      {
        "day": "Friday",
        "hours": "9\u202fAM to 7\u202fPM"
      },
      {
        "day": "Saturday",
        "hours": "9\u202fAM to 7\u202fPM"
      },
      {
        "day": "Sunday",
        "hours": "10\u202fAM to 6\u202fPM"
      }
    ],
    "peopleAlsoSearch": [],
    "placesTags": [],
    "reviewsTags": [],
    "additionalInfo": {
      "Service options": [
        {
          "Delivery": true
        },
        {
          "In-store pickup": true
        },
        {
          "In-store shopping": true
        },
        {
          "Onsite services": true
        }
      ],
      "Accessibility": [
        {
          "Wheelchair accessible entrance": true
        },
        {
          "Wheelchair accessible parking lot": true
        },
        {
          "Wheelchair accessible restroom": true
        }
      ],
      "Offerings": [
        {
          "Passport photos": true
        }
      ],
      "Amenities": [
        {
          "Wi-Fi": true
        },
        {
          "Free Wi-Fi": true
        }
      ],
      "Planning": [
        {
          "Quick visit": true
        }
      ],
      "Payments": [
        {
          "Credit cards": true
        },
        {
          "Debit cards": true
        },
        {
          "Credit cards": true
        }
      ]
    },
    "gasPrices": [],
    "url": "https://www.google.com/maps/search/?api=1&query=Walmart%20Pharmacy&query_place_id=ChIJZQWLS2FOmYcRXQn5HdsfJWM",
    "searchPageUrl": "https://www.google.com/maps/search/independent%20pharmacy%20Kearney%20NE/@56.705968377238506,-134.6977272005368,9z?hl=en",
    "searchString": "independent pharmacy Kearney NE",
    "language": "en",
    "rank": 14,
    "isAdvertisement": false,
    "imageUrl": "https://lh3.googleusercontent.com/p/AF1QipPbZKK4eAiywMi0jctYbN4JGu3MmL43APEn75ye=w408-h306-k-no",
    "kgmid": "/g/1hc2jyjm7",
    "classification": "chain",
    "is_independent": false,
    "is_compounding": false,
    "confidence": 1.0,
    "source": "perplexity",
    "method": "llm"
  },
  {
    "title": "Bemis Drug",
    "price": null,
    "categoryName": "Pharmacy",
    "address": "129 S Chestnut St, Kimball, NE 69145",
    "neighborhood": null,
    "street": "129 S Chestnut St",
    "city": "Kimball",
    "postalCode": "69145",
    "state": "Nebraska",
    "countryCode": "US",
    "website": "http://www.bemispharmacy.com/",
    "phone": "(308) 235-3936",
    "phoneUnformatted": "+13082353936",
    "claimThisBusiness": false,
    "location": {
      "lat": 41.2372741,
      "lng": -103.6627927
    },
    "locatedIn": "Pharmacy",
    "totalScore": 4.7,
    "permanentlyClosed": false,
    "temporarilyClosed": false,
    "placeId": null,
    "categories": [
      "Pharmacy"
    ],
    "fid": "0x876fd0ebb7e014ef:0xdd97d66ddc749bba",
    "cid": "15967466771203791802",
    "reviewsCount": 21,
    "imagesCount": 1,
    "imageCategories": [],
    "scrapedAt": "2025-06-22T08:41:16.705Z",
    "googleFoodUrl": null,
    "hotelAds": [],
    "openingHours": [
      {
        "day": "Monday",
        "hours": "8:30\u202fAM to 5:30\u202fPM"
      },
      {
        "day": "Tuesday",
        "hours": "8:30\u202fAM to 5:30\u202fPM"
      },
      {
        "day": "Wednesday",
        "hours": "8:30\u202fAM to 5:30\u202fPM"
      },
      {
        "day": "Thursday",
        "hours": "8:30\u202fAM to 5:30\u202fPM"
      },
      {
        "day": "Friday",
        "hours": "8:30\u202fAM to 5:30\u202fPM"
      },
      {
        "day": "Saturday",
        "hours": "8:30\u202fAM to 2\u202fPM"
      },
      {
        "day": "Sunday",
        "hours": "Closed"
      }
    ],
    "peopleAlsoSearch": [],
    "placesTags": [],
    "reviewsTags": [],
    "additionalInfo": {
      "From the business": [
        {
          "Small business": true
        }
      ],
      "Service options": [
        {
          "In-store pickup": true
        }
      ],
      "Accessibility": [
        {
          "Wheelchair accessible entrance": true
        },
        {
          "Wheelchair accessible parking lot": true
        }
      ],
      "Offerings": [
        {
          "Medication disposal": true
        }
      ],
      "Planning": [
        {
          "Quick visit": true
        }
      ],
      "Payments": [
        {
          "Credit cards": true
        },
        {
          "Debit cards": true
        },
        {
          "NFC mobile payments": true
        },
        {
          "Credit cards": true
        }
      ]
    },
    "gasPrices": [],
    "url": "https://www.google.com/maps/search/?api=1&query=Bemis%20Drug&query_place_id=ChIJ7xTgt-vQb4cRupt03G3Wl90",
    "searchPageUrl": "https://www.google.com/maps/search/independent%20pharmacy%20Kearney%20NE/@42.54640259466427,-105.48342742835163,8z?hl=en",
    "searchString": "independent pharmacy Kearney NE",
    "language": "en",
    "rank": 2,
    "isAdvertisement": false,
    "imageUrl": "https://streetviewpixels-pa.googleapis.com/v1/thumbnail?panoid=_rp6jC1AwFfzSw_xEBLNVw&cb_client=search.gws-prod.gps&w=408&h=240&yaw=87.77761&pitch=0&thumbfov=100",
    "kgmid": "/g/1hc7jz_9r",
    "classification": "independent",
    "is_independent": true,
    "is_compounding": false,
    "confidence": 0.9,
    "source": "perplexity",
    "method": "llm"
  },
  {
    "title": "Independence Drug",
    "price": null,
    "categoryName": "Pharmacy",
    "address": "1074 Idaho St Ste 150, Elko, NV 89801",
    "neighborhood": null,
    "street": "1074 Idaho St Ste 150",
    "city": "Elko",
    "postalCode": "89801",
    "state": "Nevada",
    "countryCode": "US",
    "website": "https://independencedrug.com/",
    "phone": "(775) 264-4747",
    "phoneUnformatted": "+17752644747",
    "claimThisBusiness": false,
    "location": {
      "lat": 40.8369344,
      "lng": -115.7577507
    },
    "totalScore": 5,
    "permanentlyClosed": false,
    "temporarilyClosed": false,
    "placeId": null,
    "categories": [
      "Pharmacy"
    ],
    "fid": "0x80a6072c196133e3:0x9bebb2143819111",
    "cid": "702204343457255697",
    "reviewsCount": 13,
    "imagesCount": 2,
    "imageCategories": [],
    "scrapedAt": "2025-06-22T08:41:17.862Z",
    "googleFoodUrl": null,
    "hotelAds": [],
    "openingHours": [
      {
        "day": "Monday",
        "hours": "9\u202fAM to 6\u202fPM"
      },
      {
        "day": "Tuesday",
        "hours": "9\u202fAM to 6\u202fPM"
      },
      {
        "day": "Wednesday",
        "hours": "9\u202fAM to 6\u202fPM"
      },
      {
        "day": "Thursday",
        "hours": "9\u202fAM to 6\u202fPM"
      },
      {
        "day": "Friday",
        "hours": "9\u202fAM to 6\u202fPM"
      },
      {
        "day": "Saturday",
        "hours": "Closed"
      },
      {
        "day": "Sunday",
        "hours": "Closed"
      }
    ],
    "peopleAlsoSearch": [],
    "placesTags": [],
    "reviewsTags": [],
    "additionalInfo": {
      "Accessibility": [
        {
          "Wheelchair accessible entrance": true
        },
        {
          "Wheelchair accessible parking lot": true
        }
      ],
      "Planning": [
        {
          "Quick visit": true
        }
      ],
      "Payments": [
        {
          "Credit cards": true
        }
      ]
    },
    "gasPrices": [],
    "url": "https://www.google.com/maps/search/?api=1&query=Independence%20Drug&query_place_id=ChIJ4zNhGSwHpoAREZGBQyG7vgk",
    "searchPageUrl": "https://www.google.com/maps/search/independent%20pharmacy%20Kearney%20NE/@42.54640259466427,-118.1483311994871,8z?hl=en",
    "searchString": "independent pharmacy Kearney NE",
    "language": "en",
    "rank": 9,
    "isAdvertisement": false,
    "imageUrl": "https://lh3.googleusercontent.com/gps-cs-s/AC9h4nqYudXVV1AFoFJWR1ozAWoGNaUWh2uwlZF7DdTZMHA4Eb3F20SFre6YKIs-FCwfjx-xxgYQtzdrg4wZZO1sHVgHh-N76w_Yp1aJL93VLkoOBJOza9840XyWFs0oDIBHJpNxlmx6=w408-h661-k-no",
    "kgmid": "/g/11whm7y6hk",
    "classification": "independent",
    "is_independent": true,
    "is_compounding": false,
    "confidence": 0.9,
    "source": "perplexity",
    "method": "llm"
  },
  {
    "title": "Ryan Pharmacy",
    "price": null,
    "categoryName": "Pharmacy",
    "address": "1600 1st St E, Independence, IA 50644",
    "neighborhood": null,
    "street": "1600 1st St E",
    "city": "Independence",
    "postalCode": "50644",
    "state": "Iowa",
    "countryCode": "US",
    "website": "http://ryanrxindee.com/",
    "phone": "(319) 334-7171",
    "phoneUnformatted": "+13193347171",
    "claimThisBusiness": true,
    "location": {
      "lat": 42.4702918,
      "lng": -91.8746914
    },
    "totalScore": 4.3,
    "permanentlyClosed": false,
    "temporarilyClosed": false,
    "placeId": null,
    "categories": [
      "Pharmacy"
    ],
    "fid": "0x87e52bcf853011fb:0x2852a9d450dd948",
    "cid": "181598214935140680",
    "reviewsCount": 12,
    "imagesCount": 1,
    "imageCategories": [],
    "scrapedAt": "2025-06-22T08:42:01.737Z",
    "googleFoodUrl": null,
    "hotelAds": [],
    "openingHours": [
      {
        "day": "Monday",
        "hours": "8:30\u202fAM to 5:30\u202fPM"
      },
      {
        "day": "Tuesday",
        "hours": "8:30\u202fAM to 5:30\u202fPM"
      },
      {
        "day": "Wednesday",
        "hours": "8:30\u202fAM to 5:30\u202fPM"
      },
      {
        "day": "Thursday",
        "hours": "8:30\u202fAM to 5:30\u202fPM"
      },
      {
        "day": "Friday",
        "hours": "8:30\u202fAM to 5:30\u202fPM"
      },
      {
        "day": "Saturday",
        "hours": "8:30\u202fAM to 1\u202fPM"
      },
      {
        "day": "Sunday",
        "hours": "Closed"
      }
    ],
    "peopleAlsoSearch": [],
    "placesTags": [],
    "reviewsTags": [],
    "additionalInfo": {
      "Service options": [
        {
          "Delivery": true
        }
      ],
      "Accessibility": [
        {
          "Wheelchair accessible entrance": true
        },
        {
          "Wheelchair accessible parking lot": true
        }
      ],
      "Offerings": [
        {
          "Medication disposal": true
        }
      ],
      "Planning": [
        {
          "Quick visit": true
        }
      ],
      "Payments": [
        {
          "Credit cards": true
        },
        {
          "Debit cards": true
        },
        {
          "NFC mobile payments": true
        },
        {
          "Credit cards": true
        }
      ]
    },
    "gasPrices": [],
    "url": "https://www.google.com/maps/search/?api=1&query=Ryan%20Pharmacy&query_place_id=ChIJ-xEwhc8r5YcRSNkNRZ0qhQI",
    "searchPageUrl": "https://www.google.com/maps/search/independent%20pharmacy%20Kearney%20NE/@42.54640259466427,-89.6522977144323,8z?hl=en",
    "searchString": "independent pharmacy Kearney NE",
    "language": "en",
    "rank": 4,
    "isAdvertisement": false,
    "imageUrl": "https://streetviewpixels-pa.googleapis.com/v1/thumbnail?panoid=f_CwXwkpkidb6sJ9P9CsnA&cb_client=search.gws-prod.gps&w=408&h=240&yaw=347.32928&pitch=0&thumbfov=100",
    "kgmid": "/g/1v2kx_1w",
    "classification": "independent",
    "is_independent": true,
    "is_compounding": false,
    "confidence": 0.95,
    "source": "perplexity",
    "method": "llm"
  },
  {
    "title": "Good Life Pharmacy- Ord",
    "price": null,
    "categoryName": "Pharmacy",
    "address": "125 S 16th St, Ord, NE 68862",
    "neighborhood": null,
    "street": "125 S 16th St",
    "city": "Ord",
    "postalCode": "68862",
    "state": "Nebraska",
    "countryCode": "US",
    "website": "http://www.goodliferx.com/",
    "phone": "(308) 728-3295",
    "phoneUnformatted": "+13087283295",
    "claimThisBusiness": false,
    "location": {
      "lat": 41.6026235,
      "lng": -98.929512
    },
    "totalScore": 4.7,
    "permanentlyClosed": false,
    "temporarilyClosed": false,
    "placeId": null,
    "categories": [
      "Pharmacy",
      "Photo lab"
    ],
    "fid": "0x879b7679e53a913d:0x791bf9821a32cfb1",
    "cid": "8726843040141070257",
    "reviewsCount": 11,
    "reviewsDistribution": {
      "oneStar": 0,
      "twoStar": 0,
      "threeStar": 0,
      "fourStar": 3,
      "fiveStar": 8
    },
    "imagesCount": 1,
    "imageCategories": [],
    "scrapedAt": "2025-06-22T08:42:08.884Z",
    "googleFoodUrl": null,
    "hotelAds": [],
    "openingHours": [
      {
        "day": "Monday",
        "hours": "8:30\u202fAM to 5:30\u202fPM"
      },
      {
        "day": "Tuesday",
        "hours": "8:30\u202fAM to 5:30\u202fPM"
      },
      {
        "day": "Wednesday",
        "hours": "8:30\u202fAM to 5:30\u202fPM"
      },
      {
        "day": "Thursday",
        "hours": "8:30\u202fAM to 5:30\u202fPM"
      },
      {
        "day": "Friday",
        "hours": "8:30\u202fAM to 5:30\u202fPM"
      },
      {
        "day": "Saturday",
        "hours": "Closed"
      },
      {
        "day": "Sunday",
        "hours": "Closed"
      }
    ],
    "peopleAlsoSearch": [],
    "placesTags": [],
    "reviewsTags": [],
    "additionalInfo": {
      "Service options": [
        {
          "In-store pickup": true
        }
      ],
      "Accessibility": [
        {
          "Wheelchair accessible entrance": true
        },
        {
          "Wheelchair accessible parking lot": true
        }
      ],
      "Offerings": [
        {
          "Medication disposal": true
        },
        {
          "Passport photos": true
        }
      ],
      "Payments": [
        {
          "Credit cards": true
        },
        {
          "Debit cards": true
        },
        {
          "NFC mobile payments": true
        },
        {
          "Credit cards": true
        }
      ]
    },
    "gasPrices": [],
    "url": "https://www.google.com/maps/search/?api=1&query=Good%20Life%20Pharmacy-%20Ord&query_place_id=ChIJPZE65Xl2m4cRsc8yGoL5G3k",
    "searchPageUrl": "https://www.google.com/maps/search/independent%20pharmacy%20Kearney%20NE/@42.54640259466427,-102.31720148556776,8z?hl=en",
    "searchString": "independent pharmacy Kearney NE",
    "language": "en",
    "rank": 22,
    "isAdvertisement": false,
    "imageUrl": "https://streetviewpixels-pa.googleapis.com/v1/thumbnail?panoid=uITvAINTIFHY6NbRFQqnCQ&cb_client=search.gws-prod.gps&w=408&h=240&yaw=282.88406&pitch=0&thumbfov=100",
    "kgmid": "/g/1tcvzy3n",
    "classification": "independent",
    "is_independent": true,
    "is_compounding": false,
    "confidence": 0.9,
    "source": "perplexity",
    "method": "llm"
  }
]