[
  {
    "title": "Apotheco Pharmacy Carmel",
    "price": null,
    "categoryName": "Pharmacy",
    "address": "12955 Old Meridian St Suite 102, Carmel, IN 46032",
    "neighborhood": null,
    "street": "12955 Old Meridian St Suite 102",
    "city": "Carmel",
    "postalCode": "46032",
    "state": "Indiana",
    "countryCode": "US",
    "website": "https://www.apothecopharmacy.com/location/apotheco-pharmacy-carmel/?utm_source=GMBlisting&utm_medium=organic",
    "phone": "(463) 333-8855",
    "phoneUnformatted": "+14633338855",
    "claimThisBusiness": false,
    "location": {
      "lat": 39.9769754,
      "lng": -86.1460778
    },
    "totalScore": 4.9,
    "permanentlyClosed": false,
    "temporarilyClosed": false,
    "placeId": null,
    "categories": [
      "Pharmacy",
      "Dermatologist"
    ],
    "fid": "0x8814adb6dc5de84b:0xcad7f4a0acba4c20",
    "cid": "14616420086584069152",
    "reviewsCount": 672,
    "imagesCount": 4,
    "imageCategories": [],
    "scrapedAt": "2025-06-22T05:17:16.139Z",
    "googleFoodUrl": null,
    "hotelAds": [],
    "openingHours": [
      {
        "day": "Monday",
        "hours": "9\u202fAM to 6\u202fPM"
      },
      {
        "day": "Tuesday",
        "hours": "9\u202fAM to 6\u202fPM"
      },
      {
        "day": "Wednesday",
        "hours": "9\u202fAM to 6\u202fPM"
      },
      {
        "day": "Thursday",
        "hours": "9\u202fAM to 6\u202fPM"
      },
      {
        "day": "Friday",
        "hours": "9\u202fAM to 6\u202fPM"
      },
      {
        "day": "Saturday",
        "hours": "Closed"
      },
      {
        "day": "Sunday",
        "hours": "Closed"
      }
    ],
    "peopleAlsoSearch": [],
    "placesTags": [],
    "reviewsTags": [],
    "additionalInfo": {
      "Service options": [
        {
          "Delivery": true
        },
        {
          "In-store pickup": true
        },
        {
          "In-store shopping": true
        },
        {
          "Same-day delivery": true
        }
      ],
      "Accessibility": [
        {
          "Wheelchair accessible entrance": true
        },
        {
          "Wheelchair accessible parking lot": true
        }
      ],
      "Payments": [
        {
          "Credit cards": true
        },
        {
          "Debit cards": true
        },
        {
          "NFC mobile payments": true
        },
        {
          "Credit cards": true
        }
      ]
    },
    "gasPrices": [],
    "url": "https://www.google.com/maps/search/?api=1&query=Apotheco%20Pharmacy%20Carmel&query_place_id=ChIJS-hd3LatFIgRIEy6rKD018o",
    "searchPageUrl": "https://www.google.com/maps/search/independent%20pharmacy%20Carmel%20IN/@25.871866812462326,-173.91676505273216,13z?hl=en",
    "searchString": "independent pharmacy Carmel IN",
    "language": "en",
    "rank": 1,
    "isAdvertisement": false,
    "imageUrl": "https://lh3.googleusercontent.com/p/AF1QipMAne1NWHZqh34g4hCS0gxHAUP_Vm5Sttx7txQj=w408-h514-k-no",
    "kgmid": "/g/11jrb6t5m0",
    "classification": "independent",
    "is_independent": true,
    "is_compounding": false,
    "confidence": 0.9,
    "source": "perplexity",
    "method": "llm"
  },
  {
    "title": "Market District Pharmacy",
    "price": "$$",
    "categoryName": "Pharmacy",
    "address": "11505 Illinois St, Carmel, IN 46032",
    "neighborhood": null,
    "street": "11505 Illinois St",
    "city": "Carmel",
    "postalCode": "46032",
    "state": "Indiana",
    "countryCode": "US",
    "website": "https://www.marketdistrict.com/stores/6550?utm_source=google&utm_medium=organic&utm_campaign=rx_ll",
    "phone": "(317) 689-6325",
    "phoneUnformatted": "+13176896325",
    "claimThisBusiness": false,
    "location": {
      "lat": 39.9524633,
      "lng": -86.1644194
    },
    "totalScore": 4.8,
    "permanentlyClosed": false,
    "temporarilyClosed": false,
    "placeId": null,
    "categories": [
      "Pharmacy"
    ],
    "fid": "0x8814ac8f12d393b5:0xa3ff370c3b048ad8",
    "cid": "11817224472912759512",
    "reviewsCount": 28,
    "imagesCount": 5,
    "imageCategories": [],
    "scrapedAt": "2025-06-22T05:17:16.140Z",
    "googleFoodUrl": null,
    "hotelAds": [],
    "openingHours": [
      {
        "day": "Monday",
        "hours": "9\u202fAM to 8\u202fPM"
      },
      {
        "day": "Tuesday",
        "hours": "9\u202fAM to 8\u202fPM"
      },
      {
        "day": "Wednesday",
        "hours": "9\u202fAM to 8\u202fPM"
      },
      {
        "day": "Thursday",
        "hours": "9\u202fAM to 8\u202fPM"
      },
      {
        "day": "Friday",
        "hours": "9\u202fAM to 8\u202fPM"
      },
      {
        "day": "Saturday",
        "hours": "9\u202fAM to 5\u202fPM"
      },
      {
        "day": "Sunday",
        "hours": "9\u202fAM to 5\u202fPM"
      }
    ],
    "peopleAlsoSearch": [],
    "placesTags": [],
    "reviewsTags": [],
    "additionalInfo": {
      "Service options": [
        {
          "Curbside pickup": true
        },
        {
          "Delivery": true
        },
        {
          "Drive-through": true
        },
        {
          "In-store pickup": true
        },
        {
          "In-store shopping": true
        }
      ],
      "Accessibility": [
        {
          "Wheelchair accessible entrance": true
        },
        {
          "Wheelchair accessible parking lot": true
        }
      ],
      "Planning": [
        {
          "Quick visit": true
        }
      ],
      "Payments": [
        {
          "Credit cards": true
        },
        {
          "Debit cards": true
        },
        {
          "NFC mobile payments": true
        },
        {
          "Credit cards": true
        }
      ]
    },
    "gasPrices": [],
    "url": "https://www.google.com/maps/search/?api=1&query=Market%20District%20Pharmacy&query_place_id=ChIJtZPTEo-sFIgR2IoEOww3_6M",
    "searchPageUrl": "https://www.google.com/maps/search/independent%20pharmacy%20Carmel%20IN/@25.871866812462326,-173.91676505273216,13z?hl=en",
    "searchString": "independent pharmacy Carmel IN",
    "language": "en",
    "rank": 2,
    "isAdvertisement": false,
    "imageUrl": "https://lh3.googleusercontent.com/gps-cs-s/AC9h4nr3NzojIB7YohpodaQJw-eyamwbU6o2iVGMI2lQ4Z9MREKi64dNPUQVSKFpLkiWUUtqKzthGIcyj-TgkAQ07P5I_tY27onB0jbIOe8kF8xCAHoND8CGCAiheQPwTdEG3zb-JMy76g=w426-h240-k-no",
    "kgmid": "/g/11clydxfd3",
    "classification": "chain",
    "is_independent": false,
    "is_compounding": false,
    "confidence": 0.95,
    "source": "perplexity",
    "method": "llm"
  },
  {
    "title": "HomeMed Pharmacy",
    "price": null,
    "categoryName": "Pharmacy",
    "address": "534 W Carmel Dr, Carmel, IN 46032",
    "neighborhood": null,
    "street": "534 W Carmel Dr",
    "city": "Carmel",
    "postalCode": "46032",
    "state": "Indiana",
    "countryCode": "US",
    "website": "http://homemed.com/",
    "phone": "(317) 616-4500",
    "phoneUnformatted": "+13176164500",
    "claimThisBusiness": false,
    "location": {
      "lat": 39.9631841,
      "lng": -86.1366493
    },
    "permanentlyClosed": false,
    "temporarilyClosed": false,
    "placeId": null,
    "categories": [
      "Pharmacy",
      "Mailing service"
    ],
    "fid": "0x88135552387e0555:0x427fdccf4dff5ac9",
    "cid": "4791791311470418633",
    "reviewsCount": 0,
    "imagesCount": 1,
    "imageCategories": [],
    "scrapedAt": "2025-06-22T05:17:16.140Z",
    "googleFoodUrl": null,
    "hotelAds": [],
    "openingHours": [],
    "peopleAlsoSearch": [],
    "placesTags": [],
    "reviewsTags": [],
    "additionalInfo": {
      "From the business": [
        {
          "Small business": true
        }
      ],
      "Service options": [
        {
          "Delivery": true
        },
        {
          "Onsite services": true
        },
        {
          "Same-day delivery": true
        }
      ],
      "Accessibility": [
        {
          "Wheelchair accessible entrance": true
        },
        {
          "Wheelchair accessible parking lot": true
        }
      ],
      "Payments": [
        {
          "Credit cards": true
        }
      ]
    },
    "gasPrices": [],
    "url": "https://www.google.com/maps/search/?api=1&query=HomeMed%20Pharmacy&query_place_id=ChIJVQV-OFJVE4gRyVr_Tc_cf0I",
    "searchPageUrl": "https://www.google.com/maps/search/independent%20pharmacy%20Carmel%20IN/@25.871866812462326,-173.91676505273216,13z?hl=en",
    "searchString": "independent pharmacy Carmel IN",
    "language": "en",
    "rank": 3,
    "isAdvertisement": false,
    "imageUrl": "https://streetviewpixels-pa.googleapis.com/v1/thumbnail?panoid=ap4LverC7avDp8t6e_LVmQ&cb_client=search.gws-prod.gps&w=408&h=240&yaw=103.58157&pitch=0&thumbfov=100",
    "kgmid": "/g/1tfpq8_s",
    "classification": "independent",
    "is_independent": true,
    "is_compounding": false,
    "confidence": 0.85,
    "source": "perplexity",
    "method": "llm"
  },
  {
    "title": "Leader Drug Store",
    "price": null,
    "categoryName": "Pharmacy",
    "address": "11700 N Meridian St, Carmel, IN 46032",
    "neighborhood": null,
    "street": "11700 N Meridian St",
    "city": "Carmel",
    "postalCode": "46032",
    "state": "Indiana",
    "countryCode": "US",
    "phone": "(317) 688-3035",
    "phoneUnformatted": "+13176883035",
    "claimThisBusiness": true,
    "location": {
      "lat": 39.9593734,
      "lng": -86.1600846
    },
    "totalScore": 1,
    "permanentlyClosed": false,
    "temporarilyClosed": false,
    "placeId": null,
    "categories": [
      "Pharmacy"
    ],
    "fid": "0x8814ac620395b54f:0x708edcd55725097b",
    "cid": "8110662787789031803",
    "reviewsCount": 1,
    "imagesCount": 1,
    "imageCategories": [],
    "scrapedAt": "2025-06-22T05:17:16.140Z",
    "googleFoodUrl": null,
    "hotelAds": [],
    "openingHours": [
      {
        "day": "Monday",
        "hours": "Open 24 hours"
      },
      {
        "day": "Tuesday",
        "hours": "Open 24 hours"
      },
      {
        "day": "Wednesday",
        "hours": "9\u202fAM to 5\u202fPM"
      },
      {
        "day": "Thursday",
        "hours": "Open 24 hours"
      },
      {
        "day": "Friday",
        "hours": "Open 24 hours"
      },
      {
        "day": "Saturday",
        "hours": "Open 24 hours"
      },
      {
        "day": "Sunday",
        "hours": "Open 24 hours"
      }
    ],
    "peopleAlsoSearch": [],
    "placesTags": [],
    "reviewsTags": [],
    "additionalInfo": {
      "Accessibility": [
        {
          "Wheelchair accessible entrance": true
        },
        {
          "Wheelchair accessible parking lot": true
        }
      ],
      "Payments": [
        {
          "Credit cards": true
        }
      ]
    },
    "gasPrices": [],
    "url": "https://www.google.com/maps/search/?api=1&query=Leader%20Drug%20Store&query_place_id=ChIJT7WVA2KsFIgRewklV9XcjnA",
    "searchPageUrl": "https://www.google.com/maps/search/independent%20pharmacy%20Carmel%20IN/@25.871866812462326,-173.91676505273216,13z?hl=en",
    "searchString": "independent pharmacy Carmel IN",
    "language": "en",
    "rank": 4,
    "isAdvertisement": false,
    "imageUrl": "https://streetviewpixels-pa.googleapis.com/v1/thumbnail?panoid=CM-trkMJW2Ykqm-Qb_Gs2A&cb_client=search.gws-prod.gps&w=408&h=240&yaw=95.91405&pitch=0&thumbfov=100",
    "kgmid": "/g/1260z2z7p",
    "classification": "independent",
    "is_independent": true,
    "is_compounding": false,
    "confidence": 0.85,
    "source": "perplexity",
    "method": "llm"
  },
  {
    "title": "Meijer Pharmacy",
    "price": "$$",
    "categoryName": "Pharmacy",
    "address": "1424 W Carmel Dr, Carmel, IN 46032",
    "neighborhood": null,
    "street": "1424 W Carmel Dr",
    "city": "Carmel",
    "postalCode": "46032",
    "state": "Indiana",
    "countryCode": "US",
    "website": "https://www.meijer.com/shopping/store-locator/130.html?cmpid=LM:Web::::05112021::GooglePharmacy",
    "phone": "(317) 573-8310",
    "phoneUnformatted": "+13175738310",
    "claimThisBusiness": false,
    "location": {
      "lat": 39.973046,
      "lng": -86.1534501
    },
    "totalScore": 3,
    "permanentlyClosed": false,
    "temporarilyClosed": false,
    "placeId": null,
    "categories": [
      "Pharmacy",
      "Medical supply store",
      "Drug store"
    ],
    "fid": "0x8814ac4248315a33:0xc0d9c085a35f05b0",
    "cid": "13896349805432473008",
    "reviewsCount": 48,
    "imagesCount": 31,
    "imageCategories": [],
    "scrapedAt": "2025-06-22T05:17:16.140Z",
    "googleFoodUrl": null,
    "hotelAds": [],
    "openingHours": [
      {
        "day": "Monday",
        "hours": "9\u202fAM to 8\u202fPM"
      },
      {
        "day": "Tuesday",
        "hours": "9\u202fAM to 8\u202fPM"
      },
      {
        "day": "Wednesday",
        "hours": "9\u202fAM to 8\u202fPM"
      },
      {
        "day": "Thursday",
        "hours": "9\u202fAM to 8\u202fPM"
      },
      {
        "day": "Friday",
        "hours": "9\u202fAM to 8\u202fPM"
      },
      {
        "day": "Saturday",
        "hours": "10\u202fAM to 6\u202fPM"
      },
      {
        "day": "Sunday",
        "hours": "10\u202fAM to 6\u202fPM"
      }
    ],
    "additionalOpeningHours": {
      "Drive through": [
        {
          "day": "Monday",
          "hours": "9\u202fAM\u20138\u202fPM"
        },
        {
          "day": "Tuesday",
          "hours": "9\u202fAM\u20138\u202fPM"
        },
        {
          "day": "Wednesday",
          "hours": "9\u202fAM\u20138\u202fPM"
        },
        {
          "day": "Thursday",
          "hours": "9\u202fAM\u20138\u202fPM"
        },
        {
          "day": "Friday",
          "hours": "9\u202fAM\u20138\u202fPM"
        },
        {
          "day": "Saturday",
          "hours": "10\u202fAM\u20136\u202fPM"
        },
        {
          "day": "Sunday",
          "hours": "10\u202fAM\u20136\u202fPM"
        }
      ],
      "Pickup": [
        {
          "day": "Monday",
          "hours": "9\u202fAM\u20138\u202fPM"
        },
        {
          "day": "Tuesday",
          "hours": "9\u202fAM\u20138\u202fPM"
        },
        {
          "day": "Wednesday",
          "hours": "9\u202fAM\u20138\u202fPM"
        },
        {
          "day": "Thursday",
          "hours": "9\u202fAM\u20138\u202fPM"
        },
        {
          "day": "Friday",
          "hours": "9\u202fAM\u20138\u202fPM"
        },
        {
          "day": "Saturday",
          "hours": "10\u202fAM\u20136\u202fPM"
        },
        {
          "day": "Sunday",
          "hours": "10\u202fAM\u20136\u202fPM"
        }
      ]
    },
    "peopleAlsoSearch": [],
    "placesTags": [],
    "reviewsTags": [],
    "additionalInfo": {
      "Service options": [
        {
          "Curbside pickup": true
        },
        {
          "Delivery": true
        },
        {
          "Drive-through": true
        },
        {
          "In-store pickup": true
        },
        {
          "In-store shopping": true
        }
      ],
      "Accessibility": [
        {
          "Wheelchair accessible entrance": true
        },
        {
          "Wheelchair accessible parking lot": true
        }
      ],
      "Offerings": [
        {
          "Medication disposal": true
        }
      ],
      "Amenities": [
        {
          "Wi-Fi": true
        }
      ],
      "Planning": [
        {
          "Quick visit": true
        }
      ],
      "Payments": [
        {
          "Checks": true
        },
        {
          "Credit cards": true
        },
        {
          "Debit cards": true
        }
      ]
    },
    "gasPrices": [],
    "url": "https://www.google.com/maps/search/?api=1&query=Meijer%20Pharmacy&query_place_id=ChIJM1oxSEKsFIgRsAVfo4XA2cA",
    "searchPageUrl": "https://www.google.com/maps/search/independent%20pharmacy%20Carmel%20IN/@25.871866812462326,-173.91676505273216,13z?hl=en",
    "searchString": "independent pharmacy Carmel IN",
    "language": "en",
    "rank": 5,
    "isAdvertisement": false,
    "imageUrl": "https://lh3.googleusercontent.com/p/AF1QipPn0n7fbPQ4KnaoIVFYMEypN2-TzoLmBoq44xbz=w408-h272-k-no",
    "kgmid": "/g/1vvr6tjx",
    "classification": "chain",
    "is_independent": false,
    "is_compounding": false,
    "confidence": 0.98,
    "source": "perplexity",
    "method": "llm"
  },
  {
    "title": "Willowbrook Pharmacy",
    "price": null,
    "categoryName": "Pharmacy",
    "address": "720 Adams St SUITE 100, Carmel, IN 46032",
    "neighborhood": null,
    "street": "720 Adams St SUITE 100",
    "city": "Carmel",
    "postalCode": "46032",
    "state": "Indiana",
    "countryCode": "US",
    "website": "https://www.willowbrookpharmacyrx.com/",
    "phone": "(463) 333-7100",
    "phoneUnformatted": "+14633337100",
    "claimThisBusiness": true,
    "location": {
      "lat": 39.9685208,
      "lng": -86.1450867
    },
    "totalScore": 3.6,
    "permanentlyClosed": false,
    "temporarilyClosed": false,
    "placeId": null,
    "categories": [
      "Pharmacy"
    ],
    "fid": "0x8814ad26a7841f51:0xf0dcb4fd1d6dc6fa",
    "cid": "17355946063192508154",
    "reviewsCount": 35,
    "imagesCount": 2,
    "imageCategories": [],
    "scrapedAt": "2025-06-22T05:17:16.140Z",
    "googleFoodUrl": null,
    "hotelAds": [],
    "openingHours": [
      {
        "day": "Monday",
        "hours": "8\u202fAM to 6\u202fPM"
      },
      {
        "day": "Tuesday",
        "hours": "8\u202fAM to 6\u202fPM"
      },
      {
        "day": "Wednesday",
        "hours": "8\u202fAM to 6\u202fPM"
      },
      {
        "day": "Thursday",
        "hours": "8\u202fAM to 6\u202fPM"
      },
      {
        "day": "Friday",
        "hours": "8\u202fAM to 6\u202fPM"
      },
      {
        "day": "Saturday",
        "hours": "Closed"
      },
      {
        "day": "Sunday",
        "hours": "Closed"
      }
    ],
    "peopleAlsoSearch": [],
    "placesTags": [],
    "reviewsTags": [],
    "additionalInfo": {
      "From the business": [
        {
          "Small business": true
        }
      ],
      "Service options": [
        {
          "Delivery": true
        },
        {
          "In-store pickup": true
        }
      ],
      "Accessibility": [
        {
          "Wheelchair accessible entrance": true
        },
        {
          "Wheelchair accessible parking lot": true
        }
      ],
      "Payments": [
        {
          "Credit cards": true
        },
        {
          "Debit cards": true
        },
        {
          "NFC mobile payments": true
        },
        {
          "Credit cards": true
        }
      ]
    },
    "gasPrices": [],
    "url": "https://www.google.com/maps/search/?api=1&query=Willowbrook%20Pharmacy&query_place_id=ChIJUR-EpyatFIgR-sZtHf203PA",
    "searchPageUrl": "https://www.google.com/maps/search/independent%20pharmacy%20Carmel%20IN/@25.871866812462326,-173.91676505273216,13z?hl=en",
    "searchString": "independent pharmacy Carmel IN",
    "language": "en",
    "rank": 6,
    "isAdvertisement": false,
    "imageUrl": "https://lh3.googleusercontent.com/gps-cs-s/AC9h4nrK8lb_PKEs3IwjhXcXdYPwrbGXLIclGa_cAQRzCebFrtTK--DcjxT_n8ztMYWGjgGRf4yo8i73liU9AQAgZJH48uqHyGifoC4CXFxc9CRs2UXCcpMWZx5lqr8daTVsoE_jl-DF=w408-h305-k-no",
    "kgmid": "/g/11rgs0fch9",
    "classification": "independent",
    "is_independent": true,
    "is_compounding": false,
    "confidence": 0.9,
    "source": "perplexity",
    "method": "llm"
  },
  {
    "title": "Peak Performance Pharmacy Services",
    "price": null,
    "categoryName": "Pharmacy",
    "address": "13295 Illinois St # 120, Carmel, IN 46032",
    "neighborhood": null,
    "street": "13295 Illinois St # 120",
    "city": "Carmel",
    "postalCode": "46032",
    "state": "Indiana",
    "countryCode": "US",
    "phone": "(317) 564-4863",
    "phoneUnformatted": "+13175644863",
    "claimThisBusiness": true,
    "location": {
      "lat": 39.9788466,
      "lng": -86.1579394
    },
    "permanentlyClosed": false,
    "temporarilyClosed": false,
    "placeId": null,
    "categories": [
      "Pharmacy"
    ],
    "fid": "0x8814ac14a613aaf7:0xce504db418e5a6f7",
    "cid": "14866467805857162999",
    "reviewsCount": 0,
    "imagesCount": 1,
    "imageCategories": [],
    "scrapedAt": "2025-06-22T05:17:16.141Z",
    "googleFoodUrl": null,
    "hotelAds": [],
    "openingHours": [],
    "peopleAlsoSearch": [],
    "placesTags": [],
    "reviewsTags": [],
    "additionalInfo": {
      "Accessibility": [
        {
          "Wheelchair accessible entrance": true
        },
        {
          "Wheelchair accessible parking lot": true
        }
      ],
      "Payments": [
        {
          "Credit cards": true
        }
      ]
    },
    "gasPrices": [],
    "url": "https://www.google.com/maps/search/?api=1&query=Peak%20Performance%20Pharmacy%20Services&query_place_id=ChIJ96oTphSsFIgR96blGLRNUM4",
    "searchPageUrl": "https://www.google.com/maps/search/independent%20pharmacy%20Carmel%20IN/@25.871866812462326,-173.91676505273216,13z?hl=en",
    "searchString": "independent pharmacy Carmel IN",
    "language": "en",
    "rank": 7,
    "isAdvertisement": false,
    "imageUrl": "https://streetviewpixels-pa.googleapis.com/v1/thumbnail?panoid=qlCDlCxRjxEvLze6mTSSTg&cb_client=search.gws-prod.gps&w=408&h=240&yaw=123.91335&pitch=0&thumbfov=100",
    "kgmid": "/g/1tdxr1ss",
    "classification": "independent",
    "is_independent": true,
    "is_compounding": false,
    "confidence": 0.85,
    "source": "perplexity",
    "method": "llm"
  },
  {
    "title": "Genoa Healthcare",
    "price": null,
    "categoryName": "Pharmacy",
    "address": "703 Pro-Med Ln # 200, Carmel, IN 46032",
    "neighborhood": null,
    "street": "703 Pro-Med Ln # 200",
    "city": "Carmel",
    "postalCode": "46032",
    "state": "Indiana",
    "countryCode": "US",
    "website": "http://www.genoahealthcare.com/",
    "phone": "(317) 218-7709",
    "phoneUnformatted": "+13172187709",
    "claimThisBusiness": false,
    "location": {
      "lat": 39.9825518,
      "lng": -86.1369965
    },
    "totalScore": 4.6,
    "permanentlyClosed": false,
    "temporarilyClosed": false,
    "placeId": null,
    "categories": [
      "Pharmacy"
    ],
    "fid": "0x8814ac348abcd3cb:0x63138b27a54ea583",
    "cid": "7139202836705748355",
    "reviewsCount": 23,
    "imagesCount": 1,
    "imageCategories": [],
    "scrapedAt": "2025-06-22T05:17:16.141Z",
    "googleFoodUrl": null,
    "hotelAds": [],
    "openingHours": [
      {
        "day": "Monday",
        "hours": "8\u202fAM to 5\u202fPM"
      },
      {
        "day": "Tuesday",
        "hours": "8\u202fAM to 5\u202fPM"
      },
      {
        "day": "Wednesday",
        "hours": "8\u202fAM to 5\u202fPM"
      },
      {
        "day": "Thursday",
        "hours": "8\u202fAM to 5\u202fPM"
      },
      {
        "day": "Friday",
        "hours": "8\u202fAM to 2:30\u202fPM"
      },
      {
        "day": "Saturday",
        "hours": "Closed"
      },
      {
        "day": "Sunday",
        "hours": "Closed"
      }
    ],
    "peopleAlsoSearch": [],
    "placesTags": [],
    "reviewsTags": [],
    "additionalInfo": {
      "Accessibility": [
        {
          "Wheelchair accessible entrance": true
        },
        {
          "Wheelchair accessible parking lot": true
        }
      ],
      "Payments": [
        {
          "Credit cards": true
        }
      ]
    },
    "gasPrices": [],
    "url": "https://www.google.com/maps/search/?api=1&query=Genoa%20Healthcare&query_place_id=ChIJy9O8ijSsFIgRg6VOpSeLE2M",
    "searchPageUrl": "https://www.google.com/maps/search/independent%20pharmacy%20Carmel%20IN/@25.871866812462326,-173.91676505273216,13z?hl=en",
    "searchString": "independent pharmacy Carmel IN",
    "language": "en",
    "rank": 8,
    "isAdvertisement": false,
    "imageUrl": "https://streetviewpixels-pa.googleapis.com/v1/thumbnail?panoid=P3j8LA37jK8up1l4dyP2dA&cb_client=search.gws-prod.gps&w=408&h=240&yaw=114.89878&pitch=0&thumbfov=100",
    "kgmid": "/g/11b81tj2nj",
    "classification": "chain",
    "is_independent": false,
    "is_compounding": false,
    "confidence": 0.95,
    "source": "perplexity",
    "method": "llm"
  },
  {
    "title": "CVS Pharmacy",
    "price": null,
    "categoryName": "Pharmacy",
    "address": "1421 S Rangeline Rd, Carmel, IN 46032",
    "neighborhood": null,
    "street": "1421 S Rangeline Rd",
    "city": "Carmel",
    "postalCode": "46032",
    "state": "Indiana",
    "countryCode": "US",
    "website": "https://www.cvs.com/store-locator/carmel-in-pharmacies/1421-s-range-line-rd-carmel-in-46032/storeid=8674?WT.mc_id=LS_GOOGLE_RX_8674",
    "phone": "(317) 844-2775",
    "phoneUnformatted": "+13178442775",
    "claimThisBusiness": false,
    "location": {
      "lat": 39.9586981,
      "lng": -86.1263962
    },
    "totalScore": 2.1,
    "permanentlyClosed": false,
    "temporarilyClosed": false,
    "placeId": null,
    "categories": [
      "Pharmacy"
    ],
    "fid": "0x8814ada830d81d4f:0x7b6379a6abf5bd47",
    "cid": "8891083846116031815",
    "reviewsCount": 34,
    "imagesCount": 35,
    "imageCategories": [],
    "scrapedAt": "2025-06-22T05:17:16.141Z",
    "googleFoodUrl": null,
    "hotelAds": [],
    "openingHours": [
      {
        "day": "Monday",
        "hours": "12\u202fAM to 1:30\u202fPM, 2\u202fPM to 12\u202fAM"
      },
      {
        "day": "Tuesday",
        "hours": "12\u202fAM to 1:30\u202fPM, 2\u202fPM to 12\u202fAM"
      },
      {
        "day": "Wednesday",
        "hours": "12\u202fAM to 1:30\u202fPM, 2\u202fPM to 12\u202fAM"
      },
      {
        "day": "Thursday",
        "hours": "12\u202fAM to 1:30\u202fPM, 2\u202fPM to 12\u202fAM"
      },
      {
        "day": "Friday",
        "hours": "12\u202fAM to 1:30\u202fPM, 2\u202fPM to 12\u202fAM"
      },
      {
        "day": "Saturday",
        "hours": "12\u202fAM to 1:30\u202fPM, 2\u202fPM to 12\u202fAM"
      },
      {
        "day": "Sunday",
        "hours": "12\u202fAM to 1:30\u202fPM, 2\u202fPM to 12\u202fAM"
      }
    ],
    "peopleAlsoSearch": [],
    "placesTags": [],
    "reviewsTags": [],
    "additionalInfo": {
      "Service options": [
        {
          "Delivery": true
        },
        {
          "Drive-through": true
        },
        {
          "In-store shopping": true
        },
        {
          "Onsite services": true
        }
      ],
      "Accessibility": [
        {
          "Wheelchair accessible entrance": true
        },
        {
          "Wheelchair accessible parking lot": true
        }
      ],
      "Offerings": [
        {
          "Medication disposal": true
        },
        {
          "Naloxone": true
        },
        {
          "Passport photos": true
        }
      ],
      "Crowd": [
        {
          "LGBTQ+ friendly": true
        },
        {
          "Transgender safespace": true
        }
      ],
      "Planning": [
        {
          "Quick visit": true
        }
      ],
      "Payments": [
        {
          "Credit cards": true
        },
        {
          "Debit cards": true
        },
        {
          "NFC mobile payments": true
        },
        {
          "SNAP/EBT": true
        },
        {
          "Credit cards": true
        }
      ]
    },
    "gasPrices": [],
    "url": "https://www.google.com/maps/search/?api=1&query=CVS%20Pharmacy&query_place_id=ChIJTx3YMKitFIgRR731q6Z5Y3s",
    "searchPageUrl": "https://www.google.com/maps/search/independent%20pharmacy%20Carmel%20IN/@25.871866812462326,-173.91676505273216,13z?hl=en",
    "searchString": "independent pharmacy Carmel IN",
    "language": "en",
    "rank": 9,
    "isAdvertisement": false,
    "imageUrl": "https://lh3.googleusercontent.com/p/AF1QipOGFWH7GAxpVXarB3ThdwZKcCGpGBghekBuobNj=w408-h272-k-no",
    "kgmid": "/g/11c45_qhj7",
    "classification": "chain",
    "is_independent": false,
    "is_compounding": false,
    "confidence": 1.0,
    "source": "perplexity",
    "method": "llm"
  },
  {
    "title": "Carmel Valley Pharmacy",
    "price": null,
    "categoryName": "Pharmacy",
    "address": "12750 Carmel Country Rd Ste A201, San Diego, CA 92130",
    "neighborhood": "Carmel Valley",
    "street": "12750 Carmel Country Rd Ste A201",
    "city": "San Diego",
    "postalCode": "92130",
    "state": "California",
    "countryCode": "US",
    "website": "http://www.carmelvalleypharmacy.com/",
    "phone": "(858) 481-4990",
    "phoneUnformatted": "+18584814990",
    "claimThisBusiness": false,
    "location": {
      "lat": 32.9539705,
      "lng": -117.2300778
    },
    "totalScore": 4.4,
    "permanentlyClosed": false,
    "temporarilyClosed": false,
    "placeId": null,
    "categories": [
      "Pharmacy"
    ],
    "fid": "0x80dc08836350d135:0xa53cfdf6b5ada035",
    "cid": "11906670750912585781",
    "reviewsCount": 28,
    "imagesCount": 6,
    "imageCategories": [],
    "scrapedAt": "2025-06-22T05:17:16.141Z",
    "googleFoodUrl": null,
    "hotelAds": [],
    "openingHours": [
      {
        "day": "Monday",
        "hours": "9\u202fAM to 6\u202fPM"
      },
      {
        "day": "Tuesday",
        "hours": "9\u202fAM to 6\u202fPM"
      },
      {
        "day": "Wednesday",
        "hours": "9\u202fAM to 6\u202fPM"
      },
      {
        "day": "Thursday",
        "hours": "9\u202fAM to 6\u202fPM"
      },
      {
        "day": "Friday",
        "hours": "9\u202fAM to 6\u202fPM"
      },
      {
        "day": "Saturday",
        "hours": "10\u202fAM to 2\u202fPM"
      },
      {
        "day": "Sunday",
        "hours": "Closed"
      }
    ],
    "peopleAlsoSearch": [],
    "placesTags": [],
    "reviewsTags": [],
    "additionalInfo": {
      "From the business": [
        {
          "Small business": true
        }
      ],
      "Service options": [
        {
          "Delivery": true
        },
        {
          "In-store pickup": true
        },
        {
          "Same-day delivery": true
        }
      ],
      "Accessibility": [
        {
          "Wheelchair accessible entrance": true
        },
        {
          "Wheelchair accessible parking lot": true
        }
      ],
      "Planning": [
        {
          "Quick visit": true
        }
      ],
      "Payments": [
        {
          "Credit cards": true
        },
        {
          "Debit cards": true
        },
        {
          "NFC mobile payments": true
        },
        {
          "Credit cards": true
        }
      ]
    },
    "gasPrices": [],
    "url": "https://www.google.com/maps/search/?api=1&query=Carmel%20Valley%20Pharmacy&query_place_id=ChIJNdFQY4MI3IARNaCttfb9PKU",
    "searchPageUrl": "https://www.google.com/maps/search/independent%20pharmacy%20Carmel%20IN/@25.871866812462326,-173.91676505273216,13z?hl=en",
    "searchString": "independent pharmacy Carmel IN",
    "language": "en",
    "rank": 10,
    "isAdvertisement": false,
    "imageUrl": "https://lh3.googleusercontent.com/p/AF1QipNmyXnCjYZJPSsQnq7T-pHW1BjAaWgf0JOgUy6o=w408-h306-k-no",
    "kgmid": "/g/1ptxsth_2",
    "classification": "independent",
    "is_independent": true,
    "is_compounding": false,
    "confidence": 0.9,
    "source": "perplexity",
    "method": "llm"
  },
  {
    "title": "Lake Carmel Pharmacy",
    "price": null,
    "categoryName": "Pharmacy",
    "address": "511 NY-52, Carmel Hamlet, NY 10512",
    "neighborhood": null,
    "street": "511 NY-52",
    "city": "Carmel Hamlet",
    "postalCode": "10512",
    "state": "New York",
    "countryCode": "US",
    "website": "https://www.mygnp.com/pharmacies/lake-carmel-pharmacy-lake-carmel-ny-10512/?utm_source=google&utm_medium=local&utm_campaign=localmaps&utm_content=5800861",
    "phone": "(845) 225-4242",
    "phoneUnformatted": "+18452254242",
    "claimThisBusiness": false,
    "location": {
      "lat": 41.4555915,
      "lng": -73.6709087
    },
    "totalScore": 4.5,
    "permanentlyClosed": false,
    "temporarilyClosed": false,
    "placeId": null,
    "categories": [
      "Pharmacy",
      "Drug store"
    ],
    "fid": "0x89dd4e09e56b015d:0x3353130f6b5341f8",
    "cid": "3698320675947364856",
    "reviewsCount": 19,
    "imagesCount": 1,
    "imageCategories": [],
    "scrapedAt": "2025-06-22T05:17:16.141Z",
    "googleFoodUrl": null,
    "hotelAds": [],
    "openingHours": [
      {
        "day": "Monday",
        "hours": "10\u202fAM to 7\u202fPM"
      },
      {
        "day": "Tuesday",
        "hours": "10\u202fAM to 7\u202fPM"
      },
      {
        "day": "Wednesday",
        "hours": "10\u202fAM to 7\u202fPM"
      },
      {
        "day": "Thursday",
        "hours": "10\u202fAM to 7\u202fPM"
      },
      {
        "day": "Friday",
        "hours": "10\u202fAM to 7\u202fPM"
      },
      {
        "day": "Saturday",
        "hours": "10\u202fAM to 3\u202fPM"
      },
      {
        "day": "Sunday",
        "hours": "Closed"
      }
    ],
    "peopleAlsoSearch": [],
    "placesTags": [],
    "reviewsTags": [],
    "additionalInfo": {
      "From the business": [
        {
          "Small business": true
        }
      ],
      "Service options": [
        {
          "Delivery": true
        },
        {
          "In-store pickup": true
        },
        {
          "Same-day delivery": true
        }
      ],
      "Accessibility": [
        {
          "Wheelchair accessible entrance": true
        },
        {
          "Wheelchair accessible parking lot": true
        }
      ],
      "Planning": [
        {
          "Quick visit": true
        }
      ],
      "Payments": [
        {
          "Credit cards": true
        },
        {
          "Debit cards": true
        },
        {
          "NFC mobile payments": true
        },
        {
          "Credit cards": true
        }
      ]
    },
    "gasPrices": [],
    "url": "https://www.google.com/maps/search/?api=1&query=Lake%20Carmel%20Pharmacy&query_place_id=ChIJXQFr5QlO3YkR-EFTaw8TUzM",
    "searchPageUrl": "https://www.google.com/maps/search/independent%20pharmacy%20Carmel%20IN/@25.871866812462326,-173.91676505273216,13z?hl=en",
    "searchString": "independent pharmacy Carmel IN",
    "language": "en",
    "rank": 11,
    "isAdvertisement": false,
    "imageUrl": "https://streetviewpixels-pa.googleapis.com/v1/thumbnail?panoid=dtVSRQXR3t-0wDJj3Uu3vg&cb_client=search.gws-prod.gps&w=408&h=240&yaw=281.70792&pitch=0&thumbfov=100",
    "kgmid": "/g/11cs3zl2d8",
    "classification": "independent",
    "is_independent": true,
    "is_compounding": false,
    "confidence": 0.9,
    "source": "perplexity",
    "method": "llm"
  },
  {
    "title": "CVS Pharmacy",
    "price": null,
    "categoryName": "Pharmacy",
    "address": "367 W 116th St, Carmel, IN 46032",
    "neighborhood": null,
    "street": "367 W 116th St",
    "city": "Carmel",
    "postalCode": "46032",
    "state": "Indiana",
    "countryCode": "US",
    "website": "https://www.cvs.com/store-locator/carmel-in-pharmacies/367-w-116th-street-carmel-in-46032/storeid=10173?WT.mc_id=LS_GOOGLE_RX_10173",
    "phone": "(317) 574-0145",
    "phoneUnformatted": "+13175740145",
    "claimThisBusiness": false,
    "location": {
      "lat": 39.9555129,
      "lng": -86.1641676
    },
    "totalScore": 4.4,
    "permanentlyClosed": false,
    "temporarilyClosed": false,
    "placeId": null,
    "categories": [
      "Pharmacy"
    ],
    "fid": "0x8814ac8891325861:0x3a76780795122b91",
    "cid": "4212686475412777873",
    "reviewsCount": 8,
    "imagesCount": 20,
    "imageCategories": [],
    "scrapedAt": "2025-06-22T05:17:16.141Z",
    "googleFoodUrl": null,
    "hotelAds": [],
    "openingHours": [
      {
        "day": "Monday",
        "hours": "9\u202fAM to 1:30\u202fPM, 2 to 7\u202fPM"
      },
      {
        "day": "Tuesday",
        "hours": "9\u202fAM to 1:30\u202fPM, 2 to 7\u202fPM"
      },
      {
        "day": "Wednesday",
        "hours": "9\u202fAM to 1:30\u202fPM, 2 to 7\u202fPM"
      },
      {
        "day": "Thursday",
        "hours": "9\u202fAM to 1:30\u202fPM, 2 to 7\u202fPM"
      },
      {
        "day": "Friday",
        "hours": "9\u202fAM to 1:30\u202fPM, 2 to 7\u202fPM"
      },
      {
        "day": "Saturday",
        "hours": "10\u202fAM to 1:30\u202fPM, 2 to 6\u202fPM"
      },
      {
        "day": "Sunday",
        "hours": "11\u202fAM to 1:30\u202fPM, 2 to 5\u202fPM"
      }
    ],
    "peopleAlsoSearch": [],
    "placesTags": [],
    "reviewsTags": [],
    "additionalInfo": {
      "Service options": [
        {
          "Delivery": true
        },
        {
          "Drive-through": true
        },
        {
          "In-store pickup": true
        },
        {
          "In-store shopping": true
        }
      ],
      "Accessibility": [
        {
          "Wheelchair accessible entrance": true
        },
        {
          "Wheelchair accessible parking lot": true
        }
      ],
      "Offerings": [
        {
          "Naloxone": true
        },
        {
          "Passport photos": true
        }
      ],
      "Crowd": [
        {
          "LGBTQ+ friendly": true
        },
        {
          "Transgender safespace": true
        }
      ],
      "Planning": [
        {
          "Quick visit": true
        }
      ],
      "Payments": [
        {
          "Credit cards": true
        },
        {
          "Debit cards": true
        },
        {
          "NFC mobile payments": true
        },
        {
          "SNAP/EBT": true
        },
        {
          "Credit cards": true
        }
      ]
    },
    "gasPrices": [],
    "url": "https://www.google.com/maps/search/?api=1&query=CVS%20Pharmacy&query_place_id=ChIJYVgykYisFIgRkSsSlQd4djo",
    "searchPageUrl": "https://www.google.com/maps/search/independent%20pharmacy%20Carmel%20IN/@25.871866812462326,-173.91676505273216,13z?hl=en",
    "searchString": "independent pharmacy Carmel IN",
    "language": "en",
    "rank": 12,
    "isAdvertisement": false,
    "imageUrl": "https://lh3.googleusercontent.com/p/AF1QipOH0tqgv1Fwzdf0R7koMWvdKUWKaN52fl13uhN8=w408-h272-k-no",
    "kgmid": "/g/11c45_qhjh",
    "classification": "chain",
    "is_independent": false,
    "is_compounding": false,
    "confidence": 1.0,
    "source": "perplexity",
    "method": "llm"
  },
  {
    "title": "Option Care Health",
    "price": null,
    "categoryName": "Pharmacy",
    "address": "867 W Carmel Dr, Carmel, IN 46032",
    "neighborhood": null,
    "street": "867 W Carmel Dr",
    "city": "Carmel",
    "postalCode": "46032",
    "state": "Indiana",
    "countryCode": "US",
    "website": "https://optioncarehealth.com/",
    "phone": "(317) 575-7777",
    "phoneUnformatted": "+13175757777",
    "claimThisBusiness": false,
    "location": {
      "lat": 39.9693817,
      "lng": -86.1493634
    },
    "totalScore": 4.4,
    "permanentlyClosed": false,
    "temporarilyClosed": false,
    "placeId": null,
    "categories": [
      "Pharmacy"
    ],
    "fid": "0x8814ac53d85a2b1d:0x8abe613e0a4b1e1b",
    "cid": "9997535141897641499",
    "reviewsCount": 21,
    "imagesCount": 1,
    "imageCategories": [],
    "scrapedAt": "2025-06-22T05:17:16.141Z",
    "googleFoodUrl": null,
    "hotelAds": [],
    "openingHours": [
      {
        "day": "Monday",
        "hours": "Open 24 hours"
      },
      {
        "day": "Tuesday",
        "hours": "Open 24 hours"
      },
      {
        "day": "Wednesday",
        "hours": "Open 24 hours"
      },
      {
        "day": "Thursday",
        "hours": "Open 24 hours"
      },
      {
        "day": "Friday",
        "hours": "Open 24 hours"
      },
      {
        "day": "Saturday",
        "hours": "Open 24 hours"
      },
      {
        "day": "Sunday",
        "hours": "Open 24 hours"
      }
    ],
    "peopleAlsoSearch": [],
    "placesTags": [],
    "reviewsTags": [],
    "additionalInfo": {
      "Accessibility": [
        {
          "Wheelchair accessible entrance": true
        },
        {
          "Wheelchair accessible parking lot": true
        }
      ]
    },
    "gasPrices": [],
    "url": "https://www.google.com/maps/search/?api=1&query=Option%20Care%20Health&query_place_id=ChIJHSta2FOsFIgRGx5LCj5hvoo",
    "searchPageUrl": "https://www.google.com/maps/search/independent%20pharmacy%20Carmel%20IN/@25.871866812462326,-173.91676505273216,13z?hl=en",
    "searchString": "independent pharmacy Carmel IN",
    "language": "en",
    "rank": 13,
    "isAdvertisement": false,
    "imageUrl": "https://streetviewpixels-pa.googleapis.com/v1/thumbnail?panoid=2FRxjR07lYaxR8sWLnF8VA&cb_client=search.gws-prod.gps&w=408&h=240&yaw=184.02606&pitch=0&thumbfov=100",
    "kgmid": "/g/11c5rq6cyd",
    "classification": "independent",
    "is_independent": true,
    "is_compounding": false,
    "confidence": 0.85,
    "source": "perplexity",
    "method": "llm"
  },
  {
    "title": "CVS Pharmacy",
    "price": null,
    "categoryName": "Pharmacy",
    "address": "13090 Pettigru Dr, Carmel, IN 46032",
    "neighborhood": "The Village of West Clay",
    "street": "13090 Pettigru Dr",
    "city": "Carmel",
    "postalCode": "46032",
    "state": "Indiana",
    "countryCode": "US",
    "website": "https://www.cvs.com/store-locator/carmel-in-pharmacies/13090-petigru-dr-carmel-in-46032/storeid=1367?WT.mc_id=LS_GOOGLE_RX_1367",
    "phone": "(317) 733-8608",
    "phoneUnformatted": "+13177338608",
    "claimThisBusiness": false,
    "location": {
      "lat": 39.9768056,
      "lng": -86.2056161
    },
    "locatedIn": "MinuteClinic at CVS",
    "totalScore": 4.6,
    "permanentlyClosed": false,
    "temporarilyClosed": false,
    "placeId": null,
    "categories": [
      "Pharmacy"
    ],
    "fid": "0x8814abb9e1bde419:0x60b9231907ae8057",
    "cid": "6969640488742584407",
    "reviewsCount": 28,
    "imagesCount": 38,
    "imageCategories": [],
    "scrapedAt": "2025-06-22T05:17:16.141Z",
    "googleFoodUrl": null,
    "hotelAds": [],
    "openingHours": [
      {
        "day": "Monday",
        "hours": "8\u202fAM to 1:30\u202fPM, 2 to 9\u202fPM"
      },
      {
        "day": "Tuesday",
        "hours": "8\u202fAM to 1:30\u202fPM, 2 to 9\u202fPM"
      },
      {
        "day": "Wednesday",
        "hours": "8\u202fAM to 1:30\u202fPM, 2 to 9\u202fPM"
      },
      {
        "day": "Thursday",
        "hours": "8\u202fAM to 1:30\u202fPM, 2 to 9\u202fPM"
      },
      {
        "day": "Friday",
        "hours": "8\u202fAM to 1:30\u202fPM, 2 to 9\u202fPM"
      },
      {
        "day": "Saturday",
        "hours": "9\u202fAM to 1:30\u202fPM, 2 to 6\u202fPM"
      },
      {
        "day": "Sunday",
        "hours": "10\u202fAM to 1:30\u202fPM, 2 to 6\u202fPM"
      }
    ],
    "additionalOpeningHours": {
      "MinuteClinic at CVS": [
        {
          "day": "Monday",
          "hours": "8\u202fAM\u20137\u202fPM"
        },
        {
          "day": "Tuesday",
          "hours": "8\u202fAM\u20137\u202fPM"
        },
        {
          "day": "Wednesday",
          "hours": "8\u202fAM\u20137\u202fPM"
        },
        {
          "day": "Thursday",
          "hours": "8\u202fAM\u20137\u202fPM"
        },
        {
          "day": "Friday",
          "hours": "8\u202fAM\u20137\u202fPM"
        },
        {
          "day": "Saturday",
          "hours": "9\u202fAM\u20135:30\u202fPM"
        },
        {
          "day": "Sunday",
          "hours": "9\u202fAM\u20134:30\u202fPM"
        }
      ]
    },
    "peopleAlsoSearch": [],
    "placesTags": [],
    "reviewsTags": [],
    "additionalInfo": {
      "Service options": [
        {
          "Delivery": true
        },
        {
          "Drive-through": true
        },
        {
          "In-store pickup": true
        },
        {
          "In-store shopping": true
        },
        {
          "Onsite services": true
        }
      ],
      "Accessibility": [
        {
          "Wheelchair accessible entrance": true
        },
        {
          "Wheelchair accessible parking lot": true
        }
      ],
      "Offerings": [
        {
          "Medication disposal": true
        },
        {
          "Naloxone": true
        },
        {
          "Passport photos": true
        }
      ],
      "Crowd": [
        {
          "LGBTQ+ friendly": true
        },
        {
          "Transgender safespace": true
        }
      ],
      "Planning": [
        {
          "Quick visit": true
        }
      ],
      "Payments": [
        {
          "Credit cards": true
        },
        {
          "Debit cards": true
        },
        {
          "NFC mobile payments": true
        },
        {
          "Credit cards": true
        }
      ]
    },
    "gasPrices": [],
    "url": "https://www.google.com/maps/search/?api=1&query=CVS%20Pharmacy&query_place_id=ChIJGeS94bmrFIgRV4CuBxkjuWA",
    "searchPageUrl": "https://www.google.com/maps/search/independent%20pharmacy%20Carmel%20IN/@25.871866812462326,-173.91676505273216,13z?hl=en",
    "searchString": "independent pharmacy Carmel IN",
    "language": "en",
    "rank": 14,
    "isAdvertisement": false,
    "imageUrl": "https://lh3.googleusercontent.com/p/AF1QipOoQT8jnYShe1MBqT9sovgJQYSJ-6cJCwm3Nhq_=w408-h272-k-no",
    "kgmid": "/g/1tj2jhj3",
    "classification": "chain",
    "is_independent": false,
    "is_compounding": false,
    "confidence": 1.0,
    "source": "perplexity",
    "method": "llm"
  },
  {
    "title": "PureCare Pharmacy",
    "price": null,
    "categoryName": "Pharmacy",
    "address": "5550 Carmel Mountain Rd UNIT 111, San Diego, CA 92130",
    "neighborhood": "Carmel Valley",
    "street": "5550 Carmel Mountain Rd UNIT 111",
    "city": "San Diego",
    "postalCode": "92130",
    "state": "California",
    "countryCode": "US",
    "website": "https://www.purecarepharmacy.com/wellevaite",
    "phone": "(858) 925-6149",
    "phoneUnformatted": "+18589256149",
    "claimThisBusiness": false,
    "location": {
      "lat": 32.9288774,
      "lng": -117.1975863
    },
    "totalScore": 4.8,
    "permanentlyClosed": false,
    "temporarilyClosed": false,
    "placeId": null,
    "categories": [
      "Pharmacy"
    ],
    "fid": "0x80dc07bd8fafffff:0xc8911ca82af6a3cc",
    "cid": "14452364187809522636",
    "reviewsCount": 106,
    "imagesCount": 40,
    "imageCategories": [],
    "scrapedAt": "2025-06-22T05:17:16.141Z",
    "googleFoodUrl": null,
    "hotelAds": [],
    "openingHours": [
      {
        "day": "Monday",
        "hours": "9\u202fAM to 6\u202fPM"
      },
      {
        "day": "Tuesday",
        "hours": "9\u202fAM to 6\u202fPM"
      },
      {
        "day": "Wednesday",
        "hours": "9\u202fAM to 6\u202fPM"
      },
      {
        "day": "Thursday",
        "hours": "9\u202fAM to 6\u202fPM"
      },
      {
        "day": "Friday",
        "hours": "9\u202fAM to 6\u202fPM"
      },
      {
        "day": "Saturday",
        "hours": "10\u202fAM to 2\u202fPM"
      },
      {
        "day": "Sunday",
        "hours": "Closed"
      }
    ],
    "peopleAlsoSearch": [],
    "placesTags": [],
    "reviewsTags": [],
    "additionalInfo": {
      "From the business": [
        {
          "Small business": true
        }
      ],
      "Service options": [
        {
          "Delivery": true
        },
        {
          "In-store pickup": true
        },
        {
          "Onsite services": true
        },
        {
          "Same-day delivery": true
        }
      ],
      "Accessibility": [
        {
          "Wheelchair accessible entrance": true
        },
        {
          "Wheelchair accessible parking lot": true
        }
      ],
      "Amenities": [
        {
          "Wi-Fi": true
        },
        {
          "Free Wi-Fi": true
        }
      ],
      "Planning": [
        {
          "Quick visit": true
        }
      ],
      "Payments": [
        {
          "Checks": true
        },
        {
          "Credit cards": true
        },
        {
          "Debit cards": true
        },
        {
          "NFC mobile payments": true
        },
        {
          "Credit cards": true
        }
      ]
    },
    "gasPrices": [],
    "url": "https://www.google.com/maps/search/?api=1&query=PureCare%20Pharmacy&query_place_id=ChIJ__-vj70H3IARzKP2Kqgckcg",
    "searchPageUrl": "https://www.google.com/maps/search/independent%20pharmacy%20Carmel%20IN/@25.871866812462326,-173.91676505273216,13z?hl=en",
    "searchString": "independent pharmacy Carmel IN",
    "language": "en",
    "rank": 15,
    "isAdvertisement": false,
    "imageUrl": "https://lh3.googleusercontent.com/p/AF1QipPcClQ2sb3bPLe0rKdrdgN6c_--AYelmpDuTDLc=w426-h240-k-no",
    "kgmid": "/g/11ggw4_4ry",
    "classification": "independent",
    "is_independent": true,
    "is_compounding": false,
    "confidence": 0.9,
    "source": "perplexity",
    "method": "llm"
  },
  {
    "title": "Walgreens Pharmacy",
    "description": "Department of the Walgreens chain providing prescription medications & other health-related items.",
    "price": "$$",
    "categoryName": "Pharmacy",
    "address": "1424 S Rangeline Rd, Carmel, IN 46032",
    "neighborhood": null,
    "street": "1424 S Rangeline Rd",
    "city": "Carmel",
    "postalCode": "46032",
    "state": "Indiana",
    "countryCode": "US",
    "website": "https://www.walgreens.com/locator/walgreens-1424+s+rangeline+rd-carmel-in-46032/id=15334",
    "phone": "(317) 571-1176",
    "phoneUnformatted": "+13175711176",
    "claimThisBusiness": false,
    "location": {
      "lat": 39.9568123,
      "lng": -86.1271536
    },
    "totalScore": 3.4,
    "permanentlyClosed": false,
    "temporarilyClosed": false,
    "placeId": null,
    "categories": [
      "Pharmacy"
    ],
    "fid": "0x8814ad0777302671:0xb3dc6c1bfc8a8a21",
    "cid": "12960352695122299425",
    "reviewsCount": 10,
    "imagesCount": 3,
    "imageCategories": [],
    "scrapedAt": "2025-06-22T05:17:16.142Z",
    "googleFoodUrl": null,
    "hotelAds": [],
    "openingHours": [
      {
        "day": "Monday",
        "hours": "7\u202fAM to 1:30\u202fPM, 2 to 10\u202fPM"
      },
      {
        "day": "Tuesday",
        "hours": "7\u202fAM to 1:30\u202fPM, 2 to 10\u202fPM"
      },
      {
        "day": "Wednesday",
        "hours": "7\u202fAM to 1:30\u202fPM, 2 to 10\u202fPM"
      },
      {
        "day": "Thursday",
        "hours": "7\u202fAM to 1:30\u202fPM, 2 to 10\u202fPM"
      },
      {
        "day": "Friday",
        "hours": "7\u202fAM to 1:30\u202fPM, 2 to 10\u202fPM"
      },
      {
        "day": "Saturday",
        "hours": "9\u202fAM to 1:30\u202fPM, 2 to 9\u202fPM"
      },
      {
        "day": "Sunday",
        "hours": "9\u202fAM to 1:30\u202fPM, 2 to 9\u202fPM"
      }
    ],
    "additionalOpeningHours": {
      "Drive through": [
        {
          "day": "Monday",
          "hours": "7\u202fAM\u20131:30\u202fPM"
        },
        {
          "day": "Tuesday",
          "hours": "7\u202fAM\u20131:30\u202fPM"
        },
        {
          "day": "Wednesday",
          "hours": "7\u202fAM\u20131:30\u202fPM"
        },
        {
          "day": "Thursday",
          "hours": "7\u202fAM\u20131:30\u202fPM"
        },
        {
          "day": "Friday",
          "hours": "7\u202fAM\u20131:30\u202fPM"
        },
        {
          "day": "Saturday",
          "hours": "9\u202fAM\u20131:30\u202fPM"
        },
        {
          "day": "Sunday",
          "hours": "9\u202fAM\u20131:30\u202fPM"
        }
      ]
    },
    "peopleAlsoSearch": [],
    "placesTags": [],
    "reviewsTags": [],
    "additionalInfo": {
      "Service options": [
        {
          "Drive-through": true
        },
        {
          "In-store pickup": true
        }
      ],
      "Accessibility": [
        {
          "Wheelchair accessible entrance": true
        },
        {
          "Wheelchair accessible parking lot": true
        }
      ],
      "Offerings": [
        {
          "Medication disposal": true
        }
      ],
      "Planning": [
        {
          "Quick visit": true
        }
      ],
      "Payments": [
        {
          "Checks": true
        },
        {
          "Credit cards": true
        },
        {
          "Debit cards": true
        }
      ]
    },
    "gasPrices": [],
    "url": "https://www.google.com/maps/search/?api=1&query=Walgreens%20Pharmacy&query_place_id=ChIJcSYwdwetFIgRIYqK_Bts3LM",
    "searchPageUrl": "https://www.google.com/maps/search/independent%20pharmacy%20Carmel%20IN/@25.871866812462326,-173.91676505273216,13z?hl=en",
    "searchString": "independent pharmacy Carmel IN",
    "language": "en",
    "rank": 16,
    "isAdvertisement": false,
    "imageUrl": "https://lh3.googleusercontent.com/p/AF1QipN_5feYyhsZ4IR645hd8_0i9rO7P6KYm5OGF-N5=w525-h240-k-no",
    "kgmid": "/g/11cn94wdbh",
    "classification": "chain",
    "is_independent": false,
    "is_compounding": false,
    "confidence": 1.0,
    "source": "perplexity",
    "method": "llm"
  },
  {
    "title": "CVS Pharmacy",
    "price": null,
    "categoryName": "Pharmacy",
    "address": "4721 126th St, Carmel, IN 46033",
    "neighborhood": null,
    "street": "4721 126th St",
    "city": "Carmel",
    "postalCode": "46033",
    "state": "Indiana",
    "countryCode": "US",
    "website": "https://www.cvs.com/store-locator/carmel-in-pharmacies/4721-e-126th-st-carmel-in-46033/storeid=4635?WT.mc_id=LS_GOOGLE_RX_4635",
    "phone": "(317) 848-2824",
    "phoneUnformatted": "+13178482824",
    "claimThisBusiness": false,
    "location": {
      "lat": 39.9699177,
      "lng": -86.090985
    },
    "totalScore": 2.8,
    "permanentlyClosed": false,
    "temporarilyClosed": false,
    "placeId": null,
    "categories": [
      "Pharmacy"
    ],
    "fid": "0x8814b276f9bad27f:0x26969a9bfc9b5ab7",
    "cid": "2780579814696508087",
    "reviewsCount": 12,
    "imagesCount": 5,
    "imageCategories": [],
    "scrapedAt": "2025-06-22T05:17:16.142Z",
    "googleFoodUrl": null,
    "hotelAds": [],
    "openingHours": [
      {
        "day": "Monday",
        "hours": "9\u202fAM to 1:30\u202fPM, 2 to 7\u202fPM"
      },
      {
        "day": "Tuesday",
        "hours": "9\u202fAM to 1:30\u202fPM, 2 to 7\u202fPM"
      },
      {
        "day": "Wednesday",
        "hours": "9\u202fAM to 1:30\u202fPM, 2 to 7\u202fPM"
      },
      {
        "day": "Thursday",
        "hours": "9\u202fAM to 1:30\u202fPM, 2 to 7\u202fPM"
      },
      {
        "day": "Friday",
        "hours": "9\u202fAM to 1:30\u202fPM, 2 to 7\u202fPM"
      },
      {
        "day": "Saturday",
        "hours": "10\u202fAM to 1:30\u202fPM, 2 to 6\u202fPM"
      },
      {
        "day": "Sunday",
        "hours": "11\u202fAM to 1:30\u202fPM, 2 to 5\u202fPM"
      }
    ],
    "peopleAlsoSearch": [],
    "placesTags": [],
    "reviewsTags": [],
    "additionalInfo": {
      "Service options": [
        {
          "Delivery": true
        },
        {
          "In-store pickup": true
        },
        {
          "In-store shopping": true
        }
      ],
      "Accessibility": [
        {
          "Wheelchair accessible entrance": true
        },
        {
          "Wheelchair accessible parking lot": true
        }
      ],
      "Offerings": [
        {
          "Naloxone": true
        },
        {
          "Passport photos": true
        }
      ],
      "Crowd": [
        {
          "LGBTQ+ friendly": true
        },
        {
          "Transgender safespace": true
        }
      ],
      "Planning": [
        {
          "Quick visit": true
        }
      ],
      "Payments": [
        {
          "Credit cards": true
        },
        {
          "Debit cards": true
        },
        {
          "NFC mobile payments": true
        },
        {
          "SNAP/EBT": true
        },
        {
          "Credit cards": true
        }
      ]
    },
    "gasPrices": [],
    "url": "https://www.google.com/maps/search/?api=1&query=CVS%20Pharmacy&query_place_id=ChIJf9K6-XayFIgRt1qb_JualiY",
    "searchPageUrl": "https://www.google.com/maps/search/independent%20pharmacy%20Carmel%20IN/@25.871866812462326,-173.91676505273216,13z?hl=en",
    "searchString": "independent pharmacy Carmel IN",
    "language": "en",
    "rank": 17,
    "isAdvertisement": false,
    "imageUrl": "https://lh3.googleusercontent.com/p/AF1QipMoB5gl3yt4O76HNdpcuKRMni4lxFURddjWU7Ue=w408-h272-k-no",
    "kgmid": "/g/11c469nwzc",
    "classification": "chain",
    "is_independent": false,
    "is_compounding": false,
    "confidence": 1.0,
    "source": "perplexity",
    "method": "llm"
  },
  {
    "title": "Ella Community Pharmacy",
    "price": null,
    "categoryName": "Pharmacy",
    "address": "211 Jersey St, Westfield, IN 46074",
    "neighborhood": null,
    "street": "211 Jersey St",
    "city": "Westfield",
    "postalCode": "46074",
    "state": "Indiana",
    "countryCode": "US",
    "website": "https://ellapharmacy.com/",
    "phone": "(317) 896-9378",
    "phoneUnformatted": "+13178969378",
    "claimThisBusiness": false,
    "location": {
      "lat": 40.0414841,
      "lng": -86.1307395
    },
    "totalScore": 4.8,
    "permanentlyClosed": false,
    "temporarilyClosed": false,
    "placeId": null,
    "categories": [
      "Pharmacy",
      "Medical supply store",
      "Vitamin & supplements store",
      "Wine club",
      "Wine store"
    ],
    "fid": "0x8814afac5fa6eea1:0xd83d722be341d726",
    "cid": "15581735818593687334",
    "reviewsCount": 48,
    "imagesCount": 9,
    "imageCategories": [],
    "scrapedAt": "2025-06-22T05:17:16.142Z",
    "googleFoodUrl": null,
    "hotelAds": [],
    "openingHours": [
      {
        "day": "Monday",
        "hours": "9\u202fAM to 1\u202fPM, 1:30 to 6\u202fPM"
      },
      {
        "day": "Tuesday",
        "hours": "9\u202fAM to 1\u202fPM, 1:30 to 6\u202fPM"
      },
      {
        "day": "Wednesday",
        "hours": "9\u202fAM to 1\u202fPM, 1:30 to 6\u202fPM"
      },
      {
        "day": "Thursday",
        "hours": "9\u202fAM to 1\u202fPM, 1:30 to 6\u202fPM"
      },
      {
        "day": "Friday",
        "hours": "9\u202fAM to 1\u202fPM, 1:30 to 6\u202fPM"
      },
      {
        "day": "Saturday",
        "hours": "Closed"
      },
      {
        "day": "Sunday",
        "hours": "Closed"
      }
    ],
    "peopleAlsoSearch": [],
    "placesTags": [],
    "reviewsTags": [],
    "additionalInfo": {
      "From the business": [
        {
          "Identifies as women-owned": true
        },
        {
          "Small business": true
        }
      ],
      "Service options": [
        {
          "Curbside pickup": true
        },
        {
          "Delivery": true
        },
        {
          "In-store pickup": true
        },
        {
          "In-store shopping": true
        },
        {
          "Onsite services": true
        },
        {
          "Same-day delivery": true
        }
      ],
      "Accessibility": [
        {
          "Wheelchair accessible entrance": true
        },
        {
          "Wheelchair accessible parking lot": true
        }
      ],
      "Planning": [
        {
          "Quick visit": true
        }
      ],
      "Payments": [
        {
          "Credit cards": true
        },
        {
          "Debit cards": true
        },
        {
          "NFC mobile payments": true
        },
        {
          "Credit cards": true
        }
      ],
      "Parking": [
        {
          "On-site parking": true
        }
      ]
    },
    "gasPrices": [],
    "url": "https://www.google.com/maps/search/?api=1&query=Ella%20Community%20Pharmacy&query_place_id=ChIJoe6mX6yvFIgRJtdB4ytyPdg",
    "searchPageUrl": "https://www.google.com/maps/search/independent%20pharmacy%20Carmel%20IN/@25.871866812462326,-173.91676505273216,13z?hl=en",
    "searchString": "independent pharmacy Carmel IN",
    "language": "en",
    "rank": 18,
    "isAdvertisement": false,
    "imageUrl": "https://lh3.googleusercontent.com/p/AF1QipOReoRkHt82KaPLgDYWpnQhz0JfMXuw7r5yNj4=w408-h544-k-no",
    "kgmid": "/g/1tdxwmmm",
    "classification": "independent",
    "is_independent": true,
    "is_compounding": false,
    "confidence": 0.9,
    "source": "perplexity",
    "method": "llm"
  },
  {
    "title": "Meridian North Pharmacy",
    "price": null,
    "categoryName": "Pharmacy",
    "address": "8801 N Meridian St Suite 108, Indianapolis, IN 46260",
    "neighborhood": "Nora / Far Northside",
    "street": "8801 N Meridian St Suite 108",
    "city": "Indianapolis",
    "postalCode": "46260",
    "state": "Indiana",
    "countryCode": "US",
    "website": "http://www.meridiannorthpharmacy.com/",
    "phone": "(317) 846-6654",
    "phoneUnformatted": "+13178466654",
    "claimThisBusiness": true,
    "location": {
      "lat": 39.9165688,
      "lng": -86.1572729
    },
    "totalScore": 4.4,
    "permanentlyClosed": false,
    "temporarilyClosed": false,
    "placeId": null,
    "categories": [
      "Pharmacy"
    ],
    "fid": "0x8814acb4b00799c9:0x34a29bdc597015c8",
    "cid": "3792765206895007176",
    "reviewsCount": 15,
    "imagesCount": 1,
    "imageCategories": [],
    "scrapedAt": "2025-06-22T05:17:16.142Z",
    "googleFoodUrl": null,
    "hotelAds": [],
    "openingHours": [
      {
        "day": "Monday",
        "hours": "10\u202fAM to 6\u202fPM"
      },
      {
        "day": "Tuesday",
        "hours": "10\u202fAM to 6\u202fPM"
      },
      {
        "day": "Wednesday",
        "hours": "10\u202fAM to 6\u202fPM"
      },
      {
        "day": "Thursday",
        "hours": "10\u202fAM to 6\u202fPM"
      },
      {
        "day": "Friday",
        "hours": "10\u202fAM to 6\u202fPM"
      },
      {
        "day": "Saturday",
        "hours": "Closed"
      },
      {
        "day": "Sunday",
        "hours": "Closed"
      }
    ],
    "peopleAlsoSearch": [],
    "placesTags": [],
    "reviewsTags": [],
    "additionalInfo": {
      "Service options": [
        {
          "Delivery": true
        },
        {
          "Same-day delivery": true
        }
      ],
      "Accessibility": [
        {
          "Wheelchair accessible entrance": true
        },
        {
          "Wheelchair accessible parking lot": true
        }
      ],
      "Payments": [
        {
          "Credit cards": true
        }
      ]
    },
    "gasPrices": [],
    "url": "https://www.google.com/maps/search/?api=1&query=Meridian%20North%20Pharmacy&query_place_id=ChIJyZkHsLSsFIgRyBVwWdybojQ",
    "searchPageUrl": "https://www.google.com/maps/search/independent%20pharmacy%20Carmel%20IN/@25.871866812462326,-173.91676505273216,13z?hl=en",
    "searchString": "independent pharmacy Carmel IN",
    "language": "en",
    "rank": 19,
    "isAdvertisement": false,
    "imageUrl": "https://streetviewpixels-pa.googleapis.com/v1/thumbnail?panoid=256Qm0eShqMeHXrgnwqYLQ&cb_client=search.gws-prod.gps&w=408&h=240&yaw=125.18529&pitch=0&thumbfov=100",
    "kgmid": "/g/1td3gmn2",
    "classification": "independent",
    "is_independent": true,
    "is_compounding": false,
    "confidence": 0.9,
    "source": "perplexity",
    "method": "llm"
  },
  {
    "title": "JNR PHARMACY",
    "price": null,
    "categoryName": "Pharmacy",
    "address": "2505 Carmel Ave STE 110-111, Brewster, NY 10509",
    "neighborhood": null,
    "street": "2505 Carmel Ave STE 110-111",
    "city": "Brewster",
    "postalCode": "10509",
    "state": "New York",
    "countryCode": "US",
    "phone": "(845) 278-8200",
    "phoneUnformatted": "+18452788200",
    "claimThisBusiness": false,
    "location": {
      "lat": 41.3985755,
      "lng": -73.6327406
    },
    "totalScore": 4.9,
    "permanentlyClosed": false,
    "temporarilyClosed": false,
    "placeId": null,
    "categories": [
      "Pharmacy",
      "Drug store"
    ],
    "fid": "0x89dd529304909563:0x7313b000c84c98cb",
    "cid": "8292164856326166731",
    "reviewsCount": 15,
    "imagesCount": 1,
    "imageCategories": [],
    "scrapedAt": "2025-06-22T05:17:16.142Z",
    "googleFoodUrl": null,
    "hotelAds": [],
    "openingHours": [
      {
        "day": "Monday",
        "hours": "10\u202fAM to 6\u202fPM"
      },
      {
        "day": "Tuesday",
        "hours": "10\u202fAM to 6\u202fPM"
      },
      {
        "day": "Wednesday",
        "hours": "10\u202fAM to 6\u202fPM"
      },
      {
        "day": "Thursday",
        "hours": "10\u202fAM to 6\u202fPM"
      },
      {
        "day": "Friday",
        "hours": "10\u202fAM to 6\u202fPM"
      },
      {
        "day": "Saturday",
        "hours": "10\u202fAM to 2\u202fPM"
      },
      {
        "day": "Sunday",
        "hours": "Closed"
      }
    ],
    "peopleAlsoSearch": [],
    "placesTags": [],
    "reviewsTags": [],
    "additionalInfo": {
      "Service options": [
        {
          "Delivery": true
        },
        {
          "In-store pickup": true
        }
      ],
      "Accessibility": [
        {
          "Wheelchair accessible entrance": true
        },
        {
          "Wheelchair accessible parking lot": true
        }
      ],
      "Planning": [
        {
          "Quick visit": true
        }
      ],
      "Payments": [
        {
          "Credit cards": true
        },
        {
          "Debit cards": true
        },
        {
          "NFC mobile payments": true
        },
        {
          "Credit cards": true
        }
      ],
      "Parking": [
        {
          "On-site parking": true
        }
      ]
    },
    "gasPrices": [],
    "url": "https://www.google.com/maps/search/?api=1&query=JNR%20PHARMACY&query_place_id=ChIJY5WQBJNS3YkRy5hMyACwE3M",
    "searchPageUrl": "https://www.google.com/maps/search/independent%20pharmacy%20Carmel%20IN/@25.871866812462326,-173.91676505273216,13z?hl=en",
    "searchString": "independent pharmacy Carmel IN",
    "language": "en",
    "rank": 20,
    "isAdvertisement": false,
    "imageUrl": "https://streetviewpixels-pa.googleapis.com/v1/thumbnail?panoid=FDnj7DEVcxYnd9LcGiZWsw&cb_client=search.gws-prod.gps&w=408&h=240&yaw=202.35028&pitch=0&thumbfov=100",
    "kgmid": "/g/1tcx7_vv",
    "classification": "independent",
    "is_independent": true,
    "is_compounding": false,
    "confidence": 0.85,
    "source": "perplexity",
    "method": "llm"
  }
]