[
  {
    "title": "Acacia Apothecary and Wellness Compounding Pharmacy-Orange Grove",
    "price": null,
    "categoryName": "Pharmacy",
    "address": "1845 W Orange Grove Rd #115, Tucson, AZ 85704",
    "neighborhood": "Orange Grove Medical Plaza",
    "street": "1845 W Orange Grove Rd #115",
    "city": "Tucson",
    "postalCode": "85704",
    "state": "Arizona",
    "countryCode": "US",
    "website": "http://acaciarx.com/",
    "phone": "(520) 670-0777",
    "phoneUnformatted": "+15206700777",
    "claimThisBusiness": false,
    "location": {
      "lat": 32.3220398,
      "lng": -111.0050436
    },
    "totalScore": 4.7,
    "permanentlyClosed": false,
    "temporarilyClosed": false,
    "placeId": null,
    "categories": [
      "Pharmacy",
      "Vitamin & supplements store"
    ],
    "fid": "0x86d67499250e88ab:0x67f9867869d04cc",
    "cid": "468260456677311692",
    "reviewsCount": 58,
    "imagesCount": 17,
    "imageCategories": [],
    "scrapedAt": "2025-06-22T04:12:43.358Z",
    "googleFoodUrl": null,
    "hotelAds": [],
    "openingHours": [
      {
        "day": "Monday",
        "hours": "9:30\u202fAM to 5:30\u202fPM"
      },
      {
        "day": "Tuesday",
        "hours": "9:30\u202fAM to 5:30\u202fPM"
      },
      {
        "day": "Wednesday",
        "hours": "9:30\u202fAM to 5:30\u202fPM"
      },
      {
        "day": "Thursday",
        "hours": "9:30\u202fAM to 5:30\u202fPM"
      },
      {
        "day": "Friday",
        "hours": "9:30\u202fAM to 5:30\u202fPM"
      },
      {
        "day": "Saturday",
        "hours": "9:30\u202fAM to 12:30\u202fPM"
      },
      {
        "day": "Sunday",
        "hours": "Closed"
      }
    ],
    "peopleAlsoSearch": [],
    "placesTags": [],
    "reviewsTags": [],
    "additionalInfo": {
      "From the business": [
        {
          "Small business": true
        }
      ],
      "Service options": [
        {
          "Delivery": true
        },
        {
          "In-store pickup": true
        },
        {
          "In-store shopping": true
        },
        {
          "Same-day delivery": true
        }
      ],
      "Accessibility": [
        {
          "Wheelchair accessible entrance": true
        },
        {
          "Wheelchair accessible parking lot": true
        }
      ],
      "Payments": [
        {
          "Credit cards": true
        },
        {
          "Debit cards": true
        },
        {
          "NFC mobile payments": true
        },
        {
          "Credit cards": true
        }
      ],
      "Parking": [
        {
          "Free parking lot": true
        }
      ]
    },
    "gasPrices": [],
    "url": "https://www.google.com/maps/search/?api=1&query=Acacia%20Apothecary%20and%20Wellness%20Compounding%20Pharmacy-Orange%20Grove&query_place_id=ChIJq4gOJZl01oYRzASdhmeYfwY",
    "searchPageUrl": "https://www.google.com/maps/search/independent%20pharmacy%20Tucson%20AZ/@56.64892519166337,-169.4900814092578,12z?hl=en",
    "searchString": "independent pharmacy Tucson AZ",
    "language": "en",
    "rank": 1,
    "isAdvertisement": false,
    "imageUrl": "https://lh3.googleusercontent.com/p/AF1QipOzi9WFcLBt6lTL5jY0TB_Q7qY-pHylkUp1eyek=w408-h271-k-no",
    "kgmid": "/g/1q5by43yn",
    "classification": "independent",
    "is_independent": true,
    "is_compounding": true,
    "confidence": 0.95,
    "source": "perplexity",
    "method": "llm"
  },
  {
    "title": "Reed's Compounding Pharmacy",
    "price": null,
    "categoryName": "Pharmacy",
    "address": "2729 E Speedway Blvd, Tucson, AZ 85716",
    "neighborhood": "Blenman-Elm Historic District",
    "street": "2729 E Speedway Blvd",
    "city": "Tucson",
    "postalCode": "85716",
    "state": "Arizona",
    "countryCode": "US",
    "website": "http://www.reedsrx.com/",
    "phone": "(520) 318-4421",
    "phoneUnformatted": "+15203184421",
    "claimThisBusiness": false,
    "location": {
      "lat": 32.2364083,
      "lng": -110.9314773
    },
    "totalScore": 4.3,
    "permanentlyClosed": false,
    "temporarilyClosed": false,
    "placeId": null,
    "categories": [
      "Pharmacy",
      "Veterinary pharmacy"
    ],
    "fid": "0x86d671b6bc48bf1d:0x474307874a948148",
    "cid": "5134956277785723208",
    "reviewsCount": 91,
    "imagesCount": 10,
    "imageCategories": [],
    "scrapedAt": "2025-06-22T04:12:43.361Z",
    "googleFoodUrl": null,
    "hotelAds": [],
    "openingHours": [
      {
        "day": "Monday",
        "hours": "9\u202fAM to 6\u202fPM"
      },
      {
        "day": "Tuesday",
        "hours": "9\u202fAM to 6\u202fPM"
      },
      {
        "day": "Wednesday",
        "hours": "9\u202fAM to 6\u202fPM"
      },
      {
        "day": "Thursday",
        "hours": "9\u202fAM to 6\u202fPM"
      },
      {
        "day": "Friday",
        "hours": "9\u202fAM to 6\u202fPM"
      },
      {
        "day": "Saturday",
        "hours": "9\u202fAM to 1\u202fPM"
      },
      {
        "day": "Sunday",
        "hours": "Closed"
      }
    ],
    "peopleAlsoSearch": [],
    "placesTags": [],
    "reviewsTags": [],
    "additionalInfo": {
      "From the business": [
        {
          "Identifies as women-owned": true
        },
        {
          "Small business": true
        }
      ],
      "Service options": [
        {
          "Curbside pickup": true
        },
        {
          "Delivery": true
        },
        {
          "In-store pickup": true
        },
        {
          "In-store shopping": true
        },
        {
          "Same-day delivery": true
        },
        {
          "Spanish": true
        }
      ],
      "Accessibility": [
        {
          "Wheelchair accessible entrance": true
        },
        {
          "Wheelchair accessible parking lot": true
        }
      ],
      "Payments": [
        {
          "Credit cards": true
        },
        {
          "Debit cards": true
        },
        {
          "NFC mobile payments": true
        },
        {
          "Credit cards": true
        }
      ]
    },
    "gasPrices": [],
    "url": "https://www.google.com/maps/search/?api=1&query=Reed's%20Compounding%20Pharmacy&query_place_id=ChIJHb9IvLZx1oYRSIGUSocHQ0c",
    "searchPageUrl": "https://www.google.com/maps/search/independent%20pharmacy%20Tucson%20AZ/@56.64892519166337,-169.4900814092578,12z?hl=en",
    "searchString": "independent pharmacy Tucson AZ",
    "language": "en",
    "rank": 2,
    "isAdvertisement": false,
    "imageUrl": "https://lh3.googleusercontent.com/p/AF1QipMmZxt7XVmgaSIGDWwLJQccrEiDgqPKqLdV-Jms=w408-h306-k-no",
    "kgmid": "/g/1vg_7r41",
    "classification": "independent",
    "is_independent": true,
    "is_compounding": true,
    "confidence": 0.95,
    "source": "perplexity",
    "method": "llm"
  },
  {
    "title": "Prescription Lab Compounding Pharmacy",
    "price": null,
    "categoryName": "Pharmacy",
    "address": "6380 E Grant Rd Suite 150, Tucson, AZ 85715",
    "neighborhood": "La Paloma Academy",
    "street": "6380 E Grant Rd Suite 150",
    "city": "Tucson",
    "postalCode": "85715",
    "state": "Arizona",
    "countryCode": "US",
    "website": "http://www.rxlab.com/",
    "phone": "(520) 886-1035",
    "phoneUnformatted": "+15208861035",
    "claimThisBusiness": false,
    "location": {
      "lat": 32.2501147,
      "lng": -110.8558042
    },
    "totalScore": 4.3,
    "permanentlyClosed": false,
    "temporarilyClosed": false,
    "placeId": null,
    "categories": [
      "Pharmacy"
    ],
    "fid": "0x86d66f802c3683e3:0x5492dddb84bc13f9",
    "cid": "6094177180680197113",
    "reviewsCount": 31,
    "imagesCount": 15,
    "imageCategories": [],
    "scrapedAt": "2025-06-22T04:12:43.361Z",
    "googleFoodUrl": null,
    "hotelAds": [],
    "openingHours": [
      {
        "day": "Monday",
        "hours": "10\u202fAM to 6\u202fPM"
      },
      {
        "day": "Tuesday",
        "hours": "10\u202fAM to 6\u202fPM"
      },
      {
        "day": "Wednesday",
        "hours": "10\u202fAM to 6\u202fPM"
      },
      {
        "day": "Thursday",
        "hours": "10\u202fAM to 6\u202fPM"
      },
      {
        "day": "Friday",
        "hours": "10\u202fAM to 6\u202fPM"
      },
      {
        "day": "Saturday",
        "hours": "9\u202fAM to 1\u202fPM"
      },
      {
        "day": "Sunday",
        "hours": "Closed"
      }
    ],
    "peopleAlsoSearch": [],
    "placesTags": [],
    "reviewsTags": [],
    "additionalInfo": {
      "From the business": [
        {
          "Small business": true
        }
      ],
      "Service options": [
        {
          "Delivery": true
        },
        {
          "In-store pickup": true
        },
        {
          "In-store shopping": true
        },
        {
          "Same-day delivery": true
        }
      ],
      "Accessibility": [
        {
          "Wheelchair accessible entrance": true
        },
        {
          "Wheelchair accessible parking lot": true
        }
      ],
      "Payments": [
        {
          "Credit cards": true
        },
        {
          "Debit cards": true
        },
        {
          "Credit cards": true
        }
      ]
    },
    "gasPrices": [],
    "url": "https://www.google.com/maps/search/?api=1&query=Prescription%20Lab%20Compounding%20Pharmacy&query_place_id=ChIJ44M2LIBv1oYR-RO8hNvdklQ",
    "searchPageUrl": "https://www.google.com/maps/search/independent%20pharmacy%20Tucson%20AZ/@56.64892519166337,-169.4900814092578,12z?hl=en",
    "searchString": "independent pharmacy Tucson AZ",
    "language": "en",
    "rank": 3,
    "isAdvertisement": false,
    "imageUrl": "https://lh3.googleusercontent.com/p/AF1QipPSXsEuhiHm0yEC94ZWLeLBKB5o2ArqZcZWtXZk=w408-h408-k-no",
    "kgmid": "/g/11smms25xk",
    "classification": "independent",
    "is_independent": true,
    "is_compounding": true,
    "confidence": 0.95,
    "source": "perplexity",
    "method": "llm"
  },
  {
    "title": "Spectrum Pharmacy of Arizona",
    "price": null,
    "categoryName": "Pharmacy",
    "address": "6250 E Grant Rd # 388, Tucson, AZ 85712",
    "neighborhood": "Rose Hill",
    "street": "6250 E Grant Rd # 388",
    "city": "Tucson",
    "postalCode": "85712",
    "state": "Arizona",
    "countryCode": "US",
    "website": "http://spectrumpharmacyaz.com/",
    "phone": "(520) 296-0317",
    "phoneUnformatted": "+15202960317",
    "claimThisBusiness": true,
    "location": {
      "lat": 32.249679,
      "lng": -110.859674
    },
    "totalScore": 4,
    "permanentlyClosed": false,
    "temporarilyClosed": false,
    "placeId": null,
    "categories": [
      "Pharmacy"
    ],
    "fid": "0x86d66e56e7e0b9a3:0xf29babccd850b1af",
    "cid": "17481755274859557295",
    "reviewsCount": 5,
    "imagesCount": 1,
    "imageCategories": [],
    "scrapedAt": "2025-06-22T04:12:43.361Z",
    "googleFoodUrl": null,
    "hotelAds": [],
    "openingHours": [
      {
        "day": "Monday",
        "hours": "9\u202fAM to 8:30\u202fPM"
      },
      {
        "day": "Tuesday",
        "hours": "9\u202fAM to 8:30\u202fPM"
      },
      {
        "day": "Wednesday",
        "hours": "9\u202fAM to 8:30\u202fPM"
      },
      {
        "day": "Thursday",
        "hours": "9\u202fAM to 8:30\u202fPM"
      },
      {
        "day": "Friday",
        "hours": "9\u202fAM to 8:30\u202fPM"
      },
      {
        "day": "Saturday",
        "hours": "9\u202fAM to 5:30\u202fPM"
      },
      {
        "day": "Sunday",
        "hours": "9\u202fAM to 5:30\u202fPM"
      }
    ],
    "peopleAlsoSearch": [],
    "placesTags": [],
    "reviewsTags": [],
    "additionalInfo": {
      "Accessibility": [
        {
          "Wheelchair accessible entrance": true
        },
        {
          "Wheelchair accessible parking lot": true
        }
      ]
    },
    "gasPrices": [],
    "url": "https://www.google.com/maps/search/?api=1&query=Spectrum%20Pharmacy%20of%20Arizona&query_place_id=ChIJo7ng51Zu1oYRr7FQ2Myrm_I",
    "searchPageUrl": "https://www.google.com/maps/search/independent%20pharmacy%20Tucson%20AZ/@56.64892519166337,-169.4900814092578,12z?hl=en",
    "searchString": "independent pharmacy Tucson AZ",
    "language": "en",
    "rank": 4,
    "isAdvertisement": false,
    "imageUrl": "https://streetviewpixels-pa.googleapis.com/v1/thumbnail?panoid=-OgJ9VeYa5UWnqjlOdNY5Q&cb_client=search.gws-prod.gps&w=408&h=240&yaw=271.05408&pitch=0&thumbfov=100",
    "kgmid": "/g/1tdzrlb4",
    "classification": "independent",
    "is_independent": true,
    "is_compounding": false,
    "confidence": 0.85,
    "source": "perplexity",
    "method": "llm"
  },
  {
    "title": "PharMerica \u2013 Tucson, AZ",
    "price": null,
    "categoryName": "Pharmacy",
    "address": "3700 E Columbia St 100 # 100, Tucson, AZ 85714",
    "neighborhood": "Butterfield Business Center",
    "street": "3700 E Columbia St 100 # 100",
    "city": "Tucson",
    "postalCode": "85714",
    "state": "Arizona",
    "countryCode": "US",
    "website": "https://pharmerica.com/location/pharmerica-tucson-az/",
    "phone": "(800) 252-6721",
    "phoneUnformatted": "+18002526721",
    "claimThisBusiness": false,
    "location": {
      "lat": 32.1721005,
      "lng": -110.9136017
    },
    "totalScore": 1,
    "permanentlyClosed": false,
    "temporarilyClosed": false,
    "placeId": null,
    "categories": [
      "Pharmacy"
    ],
    "fid": "0x86d67ab7485c456b:0xf56acb6e294ab3fa",
    "cid": "17684170560823276538",
    "reviewsCount": 2,
    "imagesCount": 1,
    "imageCategories": [],
    "scrapedAt": "2025-06-22T04:12:43.361Z",
    "googleFoodUrl": null,
    "hotelAds": [],
    "openingHours": [
      {
        "day": "Monday",
        "hours": "Open 24 hours"
      },
      {
        "day": "Tuesday",
        "hours": "Open 24 hours"
      },
      {
        "day": "Wednesday",
        "hours": "Open 24 hours"
      },
      {
        "day": "Thursday",
        "hours": "Open 24 hours"
      },
      {
        "day": "Friday",
        "hours": "Open 24 hours"
      },
      {
        "day": "Saturday",
        "hours": "Open 24 hours"
      },
      {
        "day": "Sunday",
        "hours": "Open 24 hours"
      }
    ],
    "peopleAlsoSearch": [],
    "placesTags": [],
    "reviewsTags": [],
    "additionalInfo": {
      "Accessibility": [
        {
          "Wheelchair accessible entrance": true
        },
        {
          "Wheelchair accessible parking lot": true
        }
      ]
    },
    "gasPrices": [],
    "url": "https://www.google.com/maps/search/?api=1&query=PharMerica%20%E2%80%93%20Tucson%2C%20AZ&query_place_id=ChIJa0VcSLd61oYR-rNKKW7LavU",
    "searchPageUrl": "https://www.google.com/maps/search/independent%20pharmacy%20Tucson%20AZ/@56.64892519166337,-169.4900814092578,12z?hl=en",
    "searchString": "independent pharmacy Tucson AZ",
    "language": "en",
    "rank": 5,
    "isAdvertisement": false,
    "imageUrl": "https://streetviewpixels-pa.googleapis.com/v1/thumbnail?panoid=JfYg1zjuBVWw8jiUbmEIPA&cb_client=search.gws-prod.gps&w=408&h=240&yaw=207.3655&pitch=0&thumbfov=100",
    "kgmid": "/g/1vm_yb1w",
    "classification": "chain",
    "is_independent": false,
    "is_compounding": false,
    "confidence": 0.95,
    "source": "perplexity",
    "method": "llm"
  },
  {
    "title": "Acacia Apothecary and Wellness Compounding Pharmacy-Houghton",
    "price": null,
    "categoryName": "Pharmacy",
    "address": "7545 S Houghton Rd #101, Tucson, AZ 85747",
    "neighborhood": "Rita Ranch",
    "street": "7545 S Houghton Rd #101",
    "city": "Tucson",
    "postalCode": "85747",
    "state": "Arizona",
    "countryCode": "US",
    "website": "http://acaciarx.com/",
    "phone": "(520) 670-0777",
    "phoneUnformatted": "+15206700777",
    "claimThisBusiness": false,
    "location": {
      "lat": 32.114822,
      "lng": -110.771707
    },
    "totalScore": 5,
    "permanentlyClosed": false,
    "temporarilyClosed": false,
    "placeId": null,
    "categories": [
      "Pharmacy",
      "Pharmaceutical lab"
    ],
    "fid": "0x86d661c14e36af69:0x3dcb6de51bdf36b9",
    "cid": "4452773487368419001",
    "reviewsCount": 2,
    "imagesCount": 16,
    "imageCategories": [],
    "scrapedAt": "2025-06-22T04:12:43.361Z",
    "googleFoodUrl": null,
    "hotelAds": [],
    "openingHours": [
      {
        "day": "Monday",
        "hours": "9:30\u202fAM to 5:30\u202fPM"
      },
      {
        "day": "Tuesday",
        "hours": "9:30\u202fAM to 5:30\u202fPM"
      },
      {
        "day": "Wednesday",
        "hours": "9:30\u202fAM to 5:30\u202fPM"
      },
      {
        "day": "Thursday",
        "hours": "9:30\u202fAM to 5:30\u202fPM"
      },
      {
        "day": "Friday",
        "hours": "9:30\u202fAM to 5:30\u202fPM"
      },
      {
        "day": "Saturday",
        "hours": "Closed"
      },
      {
        "day": "Sunday",
        "hours": "Closed"
      }
    ],
    "peopleAlsoSearch": [],
    "placesTags": [],
    "reviewsTags": [],
    "additionalInfo": {
      "From the business": [
        {
          "Small business": true
        }
      ],
      "Service options": [
        {
          "In-store pickup": true
        }
      ],
      "Accessibility": [
        {
          "Wheelchair accessible entrance": true
        },
        {
          "Wheelchair accessible parking lot": true
        }
      ],
      "Planning": [
        {
          "Quick visit": true
        }
      ],
      "Payments": [
        {
          "Credit cards": true
        },
        {
          "Debit cards": true
        },
        {
          "NFC mobile payments": true
        },
        {
          "Credit cards": true
        }
      ],
      "Parking": [
        {
          "Free parking lot": true
        }
      ]
    },
    "gasPrices": [],
    "url": "https://www.google.com/maps/search/?api=1&query=Acacia%20Apothecary%20and%20Wellness%20Compounding%20Pharmacy-Houghton&query_place_id=ChIJaa82TsFh1oYRuTbfG-Vtyz0",
    "searchPageUrl": "https://www.google.com/maps/search/independent%20pharmacy%20Tucson%20AZ/@56.64892519166337,-169.4900814092578,12z?hl=en",
    "searchString": "independent pharmacy Tucson AZ",
    "language": "en",
    "rank": 6,
    "isAdvertisement": false,
    "imageUrl": "https://lh3.googleusercontent.com/p/AF1QipOVkIaGAtngLoGupqDLCtPjPFqOZYXdfi8SDKQ=w408-h306-k-no",
    "kgmid": "/g/11kbygh4gj",
    "classification": "independent",
    "is_independent": true,
    "is_compounding": true,
    "confidence": 0.95,
    "source": "perplexity",
    "method": "llm"
  },
  {
    "title": "Desert Life Pharmacy",
    "price": null,
    "categoryName": "Pharmacy",
    "address": "63675 E SaddleBrooke Blvd S, Tucson, AZ 85739",
    "neighborhood": null,
    "street": "63675 E SaddleBrooke Blvd S",
    "city": "Tucson",
    "postalCode": "85739",
    "state": "Arizona",
    "countryCode": "US",
    "website": "http://desertlifepharmacy.com/",
    "phone": "(520) 477-9776",
    "phoneUnformatted": "+15204779776",
    "claimThisBusiness": false,
    "location": {
      "lat": 32.5350302,
      "lng": -110.887001
    },
    "totalScore": 4.7,
    "permanentlyClosed": false,
    "temporarilyClosed": false,
    "placeId": null,
    "categories": [
      "Pharmacy"
    ],
    "fid": "0x86d6118958af74c9:0x3486e9f932e0b6ef",
    "cid": "3784969793361196783",
    "reviewsCount": 32,
    "imagesCount": 11,
    "imageCategories": [],
    "scrapedAt": "2025-06-22T04:12:43.362Z",
    "googleFoodUrl": null,
    "hotelAds": [],
    "openingHours": [
      {
        "day": "Monday",
        "hours": "8\u202fAM to 5\u202fPM"
      },
      {
        "day": "Tuesday",
        "hours": "8\u202fAM to 5\u202fPM"
      },
      {
        "day": "Wednesday",
        "hours": "8\u202fAM to 5\u202fPM"
      },
      {
        "day": "Thursday",
        "hours": "8\u202fAM to 5\u202fPM"
      },
      {
        "day": "Friday",
        "hours": "8\u202fAM to 5\u202fPM"
      },
      {
        "day": "Saturday",
        "hours": "10\u202fAM to 2\u202fPM"
      },
      {
        "day": "Sunday",
        "hours": "Closed"
      }
    ],
    "peopleAlsoSearch": [],
    "placesTags": [],
    "reviewsTags": [],
    "additionalInfo": {
      "From the business": [
        {
          "Identifies as women-owned": true
        },
        {
          "Small business": true
        }
      ],
      "Service options": [
        {
          "Delivery": true
        },
        {
          "In-store pickup": true
        }
      ],
      "Accessibility": [
        {
          "Wheelchair accessible entrance": true
        },
        {
          "Wheelchair accessible parking lot": true
        }
      ],
      "Amenities": [
        {
          "Wi-Fi": true
        },
        {
          "Free Wi-Fi": true
        }
      ],
      "Planning": [
        {
          "Quick visit": true
        }
      ],
      "Payments": [
        {
          "Credit cards": true
        },
        {
          "Debit cards": true
        },
        {
          "NFC mobile payments": true
        },
        {
          "Credit cards": true
        }
      ]
    },
    "gasPrices": [],
    "url": "https://www.google.com/maps/search/?api=1&query=Desert%20Life%20Pharmacy&query_place_id=ChIJyXSvWIkR1oYR77bgMvnphjQ",
    "searchPageUrl": "https://www.google.com/maps/search/independent%20pharmacy%20Tucson%20AZ/@56.64892519166337,-169.4900814092578,12z?hl=en",
    "searchString": "independent pharmacy Tucson AZ",
    "language": "en",
    "rank": 7,
    "isAdvertisement": false,
    "imageUrl": "https://lh3.googleusercontent.com/gps-cs-s/AC9h4nr8306Rp7U7FjY43VkqujorqmiwpC2IZFvu9tzJFCzq3E8JFCPjfnKrdQcR0loiMIjJ-MteBzL15q3HHV1aizGe7YkcTgiWLVMu1pPeBkuWtow5ibzFpmGnSGfDrjc9221eqxx7=w470-h240-k-no",
    "kgmid": "/g/11h8fq6__q",
    "classification": "independent",
    "is_independent": true,
    "is_compounding": false,
    "confidence": 0.9,
    "source": "perplexity",
    "method": "llm"
  },
  {
    "title": "Walgreens Specialty Pharmacy",
    "description": "Department of the Walgreens chain providing prescription medications & other health-related items.",
    "price": null,
    "categoryName": "Pharmacy",
    "address": "3627 N Campbell Ave, Tucson, AZ 85719",
    "neighborhood": "Campus Farm",
    "street": "3627 N Campbell Ave",
    "city": "Tucson",
    "postalCode": "85719",
    "state": "Arizona",
    "countryCode": "US",
    "website": "https://www.walgreens.com/locator/walgreens-3627+n+campbell+ave-tucson-az-85719/id=21393",
    "phone": "(520) 325-3427",
    "phoneUnformatted": "+15203253427",
    "claimThisBusiness": false,
    "location": {
      "lat": 32.2731036,
      "lng": -110.9461988
    },
    "totalScore": 5,
    "permanentlyClosed": false,
    "temporarilyClosed": false,
    "placeId": "ChIJnRn5WcJz1oYRxSXcQoKNfHU",
    "categories": [
      "Pharmacy"
    ],
    "fid": "0x86d673c259f9199d:0x757c8d8242dc25c5",
    "cid": "8465796990156678597",
    "reviewsCount": 7,
    "imagesCount": 2,
    "imageCategories": [],
    "scrapedAt": "2025-06-22T04:12:43.362Z",
    "googleFoodUrl": null,
    "hotelAds": [],
    "openingHours": [
      {
        "day": "Monday",
        "hours": "8\u202fAM to 1:30\u202fPM, 2 to 5:30\u202fPM"
      },
      {
        "day": "Tuesday",
        "hours": "8\u202fAM to 1:30\u202fPM, 2 to 5:30\u202fPM"
      },
      {
        "day": "Wednesday",
        "hours": "8\u202fAM to 1:30\u202fPM, 2 to 5:30\u202fPM"
      },
      {
        "day": "Thursday",
        "hours": "8\u202fAM to 1:30\u202fPM, 2 to 5:30\u202fPM"
      },
      {
        "day": "Friday",
        "hours": "8\u202fAM to 1:30\u202fPM, 2 to 5:30\u202fPM"
      },
      {
        "day": "Saturday",
        "hours": "Closed"
      },
      {
        "day": "Sunday",
        "hours": "Closed"
      }
    ],
    "additionalOpeningHours": {
      "Drive through": [
        {
          "day": "Monday",
          "hours": "8\u202fAM\u20131:30\u202fPM"
        },
        {
          "day": "Tuesday",
          "hours": "8\u202fAM\u20131:30\u202fPM"
        },
        {
          "day": "Wednesday",
          "hours": "8\u202fAM\u20131:30\u202fPM"
        },
        {
          "day": "Thursday",
          "hours": "8\u202fAM\u20131:30\u202fPM"
        },
        {
          "day": "Friday",
          "hours": "8\u202fAM\u20131:30\u202fPM"
        },
        {
          "day": "Saturday",
          "hours": "Closed"
        },
        {
          "day": "Sunday",
          "hours": "Closed"
        }
      ]
    },
    "peopleAlsoSearch": [],
    "placesTags": [],
    "reviewsTags": [],
    "additionalInfo": {
      "Service options": [
        {
          "Delivery": true
        },
        {
          "In-store pickup": true
        }
      ],
      "Accessibility": [
        {
          "Wheelchair accessible entrance": true
        },
        {
          "Wheelchair accessible parking lot": true
        }
      ],
      "Payments": [
        {
          "Credit cards": true
        },
        {
          "Credit cards": true
        }
      ]
    },
    "gasPrices": [],
    "url": "https://www.google.com/maps/search/?api=1&query=Walgreens%20Specialty%20Pharmacy&query_place_id=ChIJnRn5WcJz1oYRxSXcQoKNfHU",
    "searchPageUrl": "https://www.google.com/maps/search/independent%20pharmacy%20Tucson%20AZ/@56.64892519166337,-169.4900814092578,12z?hl=en",
    "searchString": "independent pharmacy Tucson AZ",
    "language": "en",
    "rank": 9,
    "isAdvertisement": false,
    "imageUrl": "https://streetviewpixels-pa.googleapis.com/v1/thumbnail?panoid=gJ6bhGEgva7UStwBW0ipNg&cb_client=search.gws-prod.gps&w=408&h=240&yaw=279.0659&pitch=0&thumbfov=100",
    "kgmid": "/g/11rj_2dfdy",
    "classification": "chain",
    "is_independent": false,
    "confidence": 1.0,
    "source": "rule-based"
  },
  {
    "title": "Walgreens Specialty Pharmacy",
    "description": "Department of the Walgreens chain providing prescription medications & other health-related items.",
    "price": "$$",
    "categoryName": "Pharmacy",
    "address": "1830 E Broadway Blvd Suite 136, Tucson, AZ 85719",
    "neighborhood": "Miles",
    "street": "1830 E Broadway Blvd Suite 136",
    "city": "Tucson",
    "postalCode": "85719",
    "state": "Arizona",
    "countryCode": "US",
    "website": "https://www.walgreens.com/locator/walgreens-1830+e+broadway+blvd-tucson-az-85719/id=16500",
    "phone": "(520) 330-3451",
    "phoneUnformatted": "+15203303451",
    "claimThisBusiness": false,
    "location": {
      "lat": 32.2207399,
      "lng": -110.9448534
    },
    "totalScore": 4.4,
    "permanentlyClosed": false,
    "temporarilyClosed": false,
    "placeId": "ChIJQSnrylZw1oYRDLkAUu1smuU",
    "categories": [
      "Pharmacy"
    ],
    "fid": "0x86d67056caeb2941:0xe59a6ced5200b90c",
    "cid": "16544655947637766412",
    "reviewsCount": 17,
    "imagesCount": 3,
    "imageCategories": [],
    "scrapedAt": "2025-06-22T04:12:43.362Z",
    "googleFoodUrl": null,
    "hotelAds": [],
    "openingHours": [
      {
        "day": "Monday",
        "hours": "8:30\u202fAM to 1:30\u202fPM, 2 to 5\u202fPM"
      },
      {
        "day": "Tuesday",
        "hours": "8:30\u202fAM to 1:30\u202fPM, 2 to 5\u202fPM"
      },
      {
        "day": "Wednesday",
        "hours": "8:30\u202fAM to 1:30\u202fPM, 2 to 5\u202fPM"
      },
      {
        "day": "Thursday",
        "hours": "8:30\u202fAM to 1:30\u202fPM, 2 to 5\u202fPM"
      },
      {
        "day": "Friday",
        "hours": "8:30\u202fAM to 1:30\u202fPM, 2 to 5\u202fPM"
      },
      {
        "day": "Saturday",
        "hours": "Closed"
      },
      {
        "day": "Sunday",
        "hours": "Closed"
      }
    ],
    "peopleAlsoSearch": [],
    "placesTags": [],
    "reviewsTags": [],
    "additionalInfo": {
      "Service options": [
        {
          "In-store pickup": true
        }
      ],
      "Accessibility": [
        {
          "Wheelchair accessible entrance": true
        },
        {
          "Wheelchair accessible parking lot": true
        }
      ],
      "Payments": [
        {
          "Credit cards": true
        },
        {
          "Debit cards": true
        }
      ]
    },
    "gasPrices": [],
    "url": "https://www.google.com/maps/search/?api=1&query=Walgreens%20Specialty%20Pharmacy&query_place_id=ChIJQSnrylZw1oYRDLkAUu1smuU",
    "searchPageUrl": "https://www.google.com/maps/search/independent%20pharmacy%20Tucson%20AZ/@56.64892519166337,-169.4900814092578,12z?hl=en",
    "searchString": "independent pharmacy Tucson AZ",
    "language": "en",
    "rank": 10,
    "isAdvertisement": false,
    "imageUrl": "https://streetviewpixels-pa.googleapis.com/v1/thumbnail?panoid=jVGqzqpN_kjF4NOF3YSa2g&cb_client=search.gws-prod.gps&w=408&h=240&yaw=198.11794&pitch=0&thumbfov=100",
    "kgmid": "/g/11fz314vbl",
    "classification": "chain",
    "is_independent": false,
    "confidence": 1.0,
    "source": "rule-based"
  }
]