[
  {
    "title": "Mike's Pharmacy and Compounding Center",
    "price": null,
    "categoryName": "Pharmacy",
    "address": "180 S Holmes Ave, Idaho Falls, ID 83401",
    "neighborhood": null,
    "street": "180 S Holmes Ave",
    "city": "Idaho Falls",
    "postalCode": "83401",
    "state": "Idaho",
    "countryCode": "US",
    "website": "http://www.mikesrx.net/",
    "phone": "(208) 525-8700",
    "phoneUnformatted": "+12085258700",
    "claimThisBusiness": false,
    "location": {
      "lat": 43.4963515,
      "lng": -112.0242783
    },
    "totalScore": 4.4,
    "permanentlyClosed": false,
    "temporarilyClosed": false,
    "placeId": null,
    "categories": [
      "Pharmacy",
      "Drug store"
    ],
    "fid": "0x53545fe00ae6d32d:0xbf710cdef64faf00",
    "cid": "13794821285367230208",
    "reviewsCount": 130,
    "imagesCount": 20,
    "imageCategories": [],
    "scrapedAt": "2025-06-22T07:49:25.691Z",
    "googleFoodUrl": null,
    "hotelAds": [],
    "openingHours": [
      {
        "day": "Monday",
        "hours": "9\u202fAM to 6\u202fPM"
      },
      {
        "day": "Tuesday",
        "hours": "9\u202fAM to 6\u202fPM"
      },
      {
        "day": "Wednesday",
        "hours": "9\u202fAM to 6\u202fPM"
      },
      {
        "day": "Thursday",
        "hours": "9\u202fAM to 6\u202fPM"
      },
      {
        "day": "Friday",
        "hours": "9\u202fAM to 6\u202fPM"
      },
      {
        "day": "Saturday",
        "hours": "Closed"
      },
      {
        "day": "Sunday",
        "hours": "Closed"
      }
    ],
    "peopleAlsoSearch": [],
    "placesTags": [],
    "reviewsTags": [],
    "additionalInfo": {
      "From the business": [
        {
          "Small business": true
        }
      ],
      "Service options": [
        {
          "Delivery": true
        },
        {
          "Drive-through": true
        },
        {
          "In-store pickup": true
        },
        {
          "Same-day delivery": true
        }
      ],
      "Accessibility": [
        {
          "Wheelchair accessible entrance": true
        },
        {
          "Wheelchair accessible parking lot": true
        }
      ],
      "Planning": [
        {
          "Quick visit": true
        }
      ],
      "Payments": [
        {
          "Credit cards": true
        },
        {
          "Debit cards": true
        },
        {
          "NFC mobile payments": true
        },
        {
          "Credit cards": true
        }
      ]
    },
    "gasPrices": [],
    "url": "https://www.google.com/maps/search/?api=1&query=Mike's%20Pharmacy%20and%20Compounding%20Center&query_place_id=ChIJLdPmCuBfVFMRAK9P9t4Mcb8",
    "searchPageUrl": "https://www.google.com/maps/search/independent%20pharmacy%20Idaho%20Falls%20ID/@61.56929586514925,-158.8645058997317,9z?hl=en",
    "searchString": "independent pharmacy Idaho Falls ID",
    "language": "en",
    "rank": 1,
    "isAdvertisement": false,
    "imageUrl": "https://lh3.googleusercontent.com/p/AF1QipONqprP1QRCDXAM1OkGlWazNhj5Af__UGGaEpXw=w408-h544-k-no",
    "kgmid": "/g/1thxkq_y",
    "classification": "independent",
    "is_independent": true,
    "is_compounding": true,
    "confidence": 0.95,
    "source": "perplexity",
    "method": "llm",
    "query_location": "idaho_falls_id"
  },
  {
    "title": "Community Family Clinic Idaho Falls Pharmacy",
    "price": null,
    "categoryName": "Pharmacy",
    "address": "2100 Alan St Suite 2, Idaho Falls, ID 83404",
    "neighborhood": null,
    "street": "2100 Alan St Suite 2",
    "city": "Idaho Falls",
    "postalCode": "83404",
    "state": "Idaho",
    "countryCode": "US",
    "website": "https://idahocfc.org/pharmacy/",
    "phone": "(208) 470-7979",
    "phoneUnformatted": "+12084707979",
    "claimThisBusiness": false,
    "location": {
      "lat": 43.484221,
      "lng": -111.9919449
    },
    "totalScore": 5,
    "permanentlyClosed": false,
    "temporarilyClosed": false,
    "placeId": "ChIJ7fvwAdpfVFMRinXGuDMX4As",
    "categories": [
      "Pharmacy",
      "Doctor",
      "Family practice physician",
      "Medical clinic"
    ],
    "fid": "0x53545fda01f0fbed:0xbe01733b8c6758a",
    "cid": "855709440111179146",
    "reviewsCount": 21,
    "imagesCount": 10,
    "imageCategories": [],
    "scrapedAt": "2025-06-22T07:49:25.692Z",
    "googleFoodUrl": null,
    "hotelAds": [],
    "openingHours": [
      {
        "day": "Monday",
        "hours": "9\u202fAM to 1\u202fPM, 1:30 to 5:30\u202fPM"
      },
      {
        "day": "Tuesday",
        "hours": "9\u202fAM to 1\u202fPM, 1:30 to 5:30\u202fPM"
      },
      {
        "day": "Wednesday",
        "hours": "9\u202fAM to 1\u202fPM, 1:30 to 5:30\u202fPM"
      },
      {
        "day": "Thursday",
        "hours": "9\u202fAM to 1\u202fPM, 1:30 to 5:30\u202fPM"
      },
      {
        "day": "Friday",
        "hours": "9\u202fAM to 1\u202fPM, 1:30 to 5:30\u202fPM"
      },
      {
        "day": "Saturday",
        "hours": "Closed"
      },
      {
        "day": "Sunday",
        "hours": "Closed"
      }
    ],
    "peopleAlsoSearch": [],
    "placesTags": [],
    "reviewsTags": [],
    "additionalInfo": {
      "From the business": [
        {
          "Small business": true
        }
      ],
      "Service options": [
        {
          "Curbside pickup": true
        },
        {
          "In-store pickup": true
        },
        {
          "In-store shopping": true
        },
        {
          "English": true
        }
      ],
      "Accessibility": [
        {
          "Wheelchair accessible entrance": true
        },
        {
          "Wheelchair accessible parking lot": true
        },
        {
          "Wheelchair accessible restroom": true
        },
        {
          "Wheelchair accessible seating": true
        }
      ],
      "Amenities": [
        {
          "Gender-neutral restroom": true
        }
      ],
      "Crowd": [
        {
          "LGBTQ+ friendly": true
        },
        {
          "Transgender safespace": true
        }
      ],
      "Payments": [
        {
          "Credit cards": true
        },
        {
          "Debit cards": true
        },
        {
          "Credit cards": true
        }
      ],
      "Children": [
        {
          "Nursing room": true
        }
      ],
      "Parking": [
        {
          "Free parking lot": true
        }
      ]
    },
    "gasPrices": [],
    "url": "https://www.google.com/maps/search/?api=1&query=Community%20Family%20Clinic%20Idaho%20Falls%20Pharmacy&query_place_id=ChIJ7fvwAdpfVFMRinXGuDMX4As",
    "searchPageUrl": "https://www.google.com/maps/search/independent%20pharmacy%20Idaho%20Falls%20ID/@61.56929586514925,-158.8645058997317,9z?hl=en",
    "searchString": "independent pharmacy Idaho Falls ID",
    "language": "en",
    "rank": 2,
    "isAdvertisement": false,
    "imageUrl": "https://lh3.googleusercontent.com/gps-cs-s/AC9h4npfXnEuasEmoWxkeGhMbeLzpYWRRZQpltg_16IVGN0NdxPzcr0PsWAp5ayqMvsM3vNW5TT3xNyzJTVQPEVwpbCZUXDypKbnko-5pUij-hUtusfreQnJnbQRcG6v_D2nLX80u-AJ=w408-h272-k-no",
    "kgmid": "/g/11ss7_sby1",
    "classification": "hospital",
    "is_independent": false,
    "confidence": 1.0,
    "source": "rule-based"
  },
  {
    "title": "Prescription Center Pharmacy",
    "price": null,
    "categoryName": "Pharmacy",
    "address": "2252 Coronado St, Idaho Falls, ID 83404",
    "neighborhood": null,
    "street": "2252 Coronado St",
    "city": "Idaho Falls",
    "postalCode": "83404",
    "state": "Idaho",
    "countryCode": "US",
    "website": "https://prescriptioncenteridaho.com/",
    "phone": "(208) 523-3360",
    "phoneUnformatted": "+12085233360",
    "claimThisBusiness": false,
    "location": {
      "lat": 43.4721826,
      "lng": -111.989126
    },
    "totalScore": 3.8,
    "permanentlyClosed": false,
    "temporarilyClosed": false,
    "placeId": null,
    "categories": [
      "Pharmacy"
    ],
    "fid": "0x53545f213d0ce5e1:0x1c2666d8c5407ea0",
    "cid": "2028421763385294496",
    "reviewsCount": 82,
    "imagesCount": 6,
    "imageCategories": [],
    "scrapedAt": "2025-06-22T07:49:25.692Z",
    "googleFoodUrl": null,
    "hotelAds": [],
    "openingHours": [
      {
        "day": "Monday",
        "hours": "9\u202fAM to 7\u202fPM"
      },
      {
        "day": "Tuesday",
        "hours": "9\u202fAM to 7\u202fPM"
      },
      {
        "day": "Wednesday",
        "hours": "9\u202fAM to 7\u202fPM"
      },
      {
        "day": "Thursday",
        "hours": "9\u202fAM to 7\u202fPM"
      },
      {
        "day": "Friday",
        "hours": "9\u202fAM to 7\u202fPM"
      },
      {
        "day": "Saturday",
        "hours": "9\u202fAM to 2\u202fPM"
      },
      {
        "day": "Sunday",
        "hours": "Closed"
      }
    ],
    "additionalOpeningHours": {
      "Drive through": [
        {
          "day": "Monday",
          "hours": "9\u202fAM\u20137\u202fPM"
        },
        {
          "day": "Tuesday",
          "hours": "9\u202fAM\u20137\u202fPM"
        },
        {
          "day": "Wednesday",
          "hours": "9\u202fAM\u20137\u202fPM"
        },
        {
          "day": "Thursday",
          "hours": "9\u202fAM\u20137\u202fPM"
        },
        {
          "day": "Friday",
          "hours": "9\u202fAM\u20137\u202fPM"
        },
        {
          "day": "Saturday",
          "hours": "9\u202fAM\u20132\u202fPM"
        },
        {
          "day": "Sunday",
          "hours": "Closed"
        }
      ]
    },
    "peopleAlsoSearch": [],
    "placesTags": [],
    "reviewsTags": [],
    "additionalInfo": {
      "From the business": [
        {
          "Small business": true
        }
      ],
      "Service options": [
        {
          "Delivery": true
        },
        {
          "Drive-through": true
        },
        {
          "In-store pickup": true
        }
      ],
      "Accessibility": [
        {
          "Wheelchair accessible entrance": true
        },
        {
          "Wheelchair accessible parking lot": true
        }
      ],
      "Payments": [
        {
          "Credit cards": true
        }
      ]
    },
    "gasPrices": [],
    "url": "https://www.google.com/maps/search/?api=1&query=Prescription%20Center%20Pharmacy&query_place_id=ChIJ4eUMPSFfVFMRoH5AxdhmJhw",
    "searchPageUrl": "https://www.google.com/maps/search/independent%20pharmacy%20Idaho%20Falls%20ID/@61.56929586514925,-158.8645058997317,9z?hl=en",
    "searchString": "independent pharmacy Idaho Falls ID",
    "language": "en",
    "rank": 3,
    "isAdvertisement": false,
    "imageUrl": "https://lh3.googleusercontent.com/gps-cs-s/AC9h4noryWbI1IdqHM34QVmZKtPxI4rujgwdA0VZ9JFNX7aV6eFJBY_803dp01DpfBNnKfj5IdOyA4GHx0DfyCfV0baOlvxBTiWVvrZXoyhj8xUZtbMOMyk1F9ytk5I6L2nfDQEOo64b=w408-h306-k-no",
    "kgmid": "/g/1tlgxmf1",
    "classification": "independent",
    "is_independent": true,
    "is_compounding": false,
    "confidence": 0.9,
    "source": "perplexity",
    "method": "llm",
    "query_location": "idaho_falls_id"
  },
  {
    "title": "Rocky Mountain Pharmacy",
    "price": null,
    "categoryName": "Pharmacy",
    "address": "3910 Washington Pkwy Suite A, Idaho Falls, ID 83404",
    "neighborhood": null,
    "street": "3910 Washington Pkwy Suite A",
    "city": "Idaho Falls",
    "postalCode": "83404",
    "state": "Idaho",
    "countryCode": "US",
    "website": "https://rockymountainpharmacyidahofalls.com/",
    "phone": "(208) 528-9658",
    "phoneUnformatted": "+12085289658",
    "claimThisBusiness": false,
    "location": {
      "lat": 43.461805,
      "lng": -111.9933426
    },
    "totalScore": 4.5,
    "permanentlyClosed": false,
    "temporarilyClosed": false,
    "placeId": null,
    "categories": [
      "Pharmacy",
      "Diabetes equipment supplier"
    ],
    "fid": "0x53545fe6ebe3a223:0x647005b5708355e1",
    "cid": "7237290878019261921",
    "reviewsCount": 47,
    "imagesCount": 13,
    "imageCategories": [],
    "scrapedAt": "2025-06-22T07:49:25.692Z",
    "googleFoodUrl": null,
    "hotelAds": [],
    "openingHours": [
      {
        "day": "Monday",
        "hours": "8:30\u202fAM to 12:30\u202fPM, 1 to 5\u202fPM"
      },
      {
        "day": "Tuesday",
        "hours": "8:30\u202fAM to 12:30\u202fPM, 1 to 5\u202fPM"
      },
      {
        "day": "Wednesday",
        "hours": "8:30\u202fAM to 12:30\u202fPM, 1 to 5\u202fPM"
      },
      {
        "day": "Thursday",
        "hours": "8:30\u202fAM to 12:30\u202fPM, 1 to 5\u202fPM"
      },
      {
        "day": "Friday",
        "hours": "8:30\u202fAM to 12:30\u202fPM, 1 to 5\u202fPM"
      },
      {
        "day": "Saturday",
        "hours": "Closed"
      },
      {
        "day": "Sunday",
        "hours": "Closed"
      }
    ],
    "peopleAlsoSearch": [],
    "placesTags": [],
    "reviewsTags": [],
    "additionalInfo": {
      "From the business": [
        {
          "Small business": true
        }
      ],
      "Service options": [
        {
          "Curbside pickup": true
        },
        {
          "In-store pickup": true
        },
        {
          "Same-day delivery": false
        }
      ],
      "Accessibility": [
        {
          "Wheelchair accessible entrance": true
        },
        {
          "Wheelchair accessible parking lot": true
        }
      ],
      "Planning": [
        {
          "Quick visit": true
        }
      ],
      "Payments": [
        {
          "Credit cards": true
        },
        {
          "Debit cards": true
        },
        {
          "NFC mobile payments": true
        },
        {
          "Credit cards": true
        }
      ]
    },
    "gasPrices": [],
    "url": "https://www.google.com/maps/search/?api=1&query=Rocky%20Mountain%20Pharmacy&query_place_id=ChIJI6Lj6-ZfVFMR4VWDcLUFcGQ",
    "searchPageUrl": "https://www.google.com/maps/search/independent%20pharmacy%20Idaho%20Falls%20ID/@61.56929586514925,-158.8645058997317,9z?hl=en",
    "searchString": "independent pharmacy Idaho Falls ID",
    "language": "en",
    "rank": 4,
    "isAdvertisement": false,
    "imageUrl": "https://lh3.googleusercontent.com/p/AF1QipMViHlOwk6QOtdHsUJv1KVdVru-d1BP5wBJK3Lv=w408-h408-k-no",
    "kgmid": "/g/11jmdlqjqp",
    "classification": "independent",
    "is_independent": true,
    "is_compounding": false,
    "confidence": 0.9,
    "source": "perplexity",
    "method": "llm",
    "query_location": "idaho_falls_id"
  },
  {
    "title": "Prescription Center Homecare",
    "price": null,
    "categoryName": "Pharmacy",
    "address": "2250 Coronado St, Idaho Falls, ID 83404",
    "neighborhood": null,
    "street": "2250 Coronado St",
    "city": "Idaho Falls",
    "postalCode": "83404",
    "state": "Idaho",
    "countryCode": "US",
    "website": "https://prescriptioncenterhomecare.com/",
    "phone": "(208) 528-7979",
    "phoneUnformatted": "+12085287979",
    "claimThisBusiness": false,
    "location": {
      "lat": 43.4722313,
      "lng": -111.9892955
    },
    "totalScore": 5,
    "permanentlyClosed": false,
    "temporarilyClosed": false,
    "placeId": null,
    "categories": [
      "Pharmacy",
      "Home health care service"
    ],
    "fid": "0x53545f2138b6681f:0x4bc2b85fc53c2fb5",
    "cid": "5459128419796922293",
    "reviewsCount": 5,
    "imagesCount": 4,
    "imageCategories": [],
    "scrapedAt": "2025-06-22T07:49:25.693Z",
    "googleFoodUrl": null,
    "hotelAds": [],
    "openingHours": [
      {
        "day": "Monday",
        "hours": "9\u202fAM to 6\u202fPM"
      },
      {
        "day": "Tuesday",
        "hours": "9\u202fAM to 6\u202fPM"
      },
      {
        "day": "Wednesday",
        "hours": "9\u202fAM to 6\u202fPM"
      },
      {
        "day": "Thursday",
        "hours": "9\u202fAM to 6\u202fPM"
      },
      {
        "day": "Friday",
        "hours": "9\u202fAM to 6\u202fPM"
      },
      {
        "day": "Saturday",
        "hours": "Closed"
      },
      {
        "day": "Sunday",
        "hours": "Closed"
      }
    ],
    "peopleAlsoSearch": [],
    "placesTags": [],
    "reviewsTags": [],
    "additionalInfo": {
      "From the business": [
        {
          "Small business": true
        }
      ],
      "Service options": [
        {
          "Delivery": true
        },
        {
          "Onsite services": true
        },
        {
          "In-store shopping": false
        },
        {
          "Spanish": true
        }
      ],
      "Accessibility": [
        {
          "Wheelchair accessible entrance": true
        },
        {
          "Wheelchair accessible parking lot": true
        }
      ],
      "Payments": [
        {
          "Credit cards": true
        }
      ]
    },
    "gasPrices": [],
    "url": "https://www.google.com/maps/search/?api=1&query=Prescription%20Center%20Homecare&query_place_id=ChIJH2i2OCFfVFMRtS88xV-4wks",
    "searchPageUrl": "https://www.google.com/maps/search/independent%20pharmacy%20Idaho%20Falls%20ID/@61.56929586514925,-158.8645058997317,9z?hl=en",
    "searchString": "independent pharmacy Idaho Falls ID",
    "language": "en",
    "rank": 5,
    "isAdvertisement": false,
    "imageUrl": "https://lh3.googleusercontent.com/p/AF1QipOd4Xujzblu1ueRFkYR1eiLplH_K5-uTqsrQv9u=w408-h611-k-no",
    "kgmid": "/g/1tfy_sn8",
    "classification": "independent",
    "is_independent": true,
    "is_compounding": false,
    "confidence": 0.9,
    "source": "perplexity",
    "method": "llm",
    "query_location": "idaho_falls_id"
  },
  {
    "title": "Grand Peaks Pharmacy",
    "price": null,
    "categoryName": "Pharmacy",
    "address": "3729 Woodking Dr Suite #2, Idaho Falls, ID 83404",
    "neighborhood": null,
    "street": "3729 Woodking Dr Suite #2",
    "city": "Idaho Falls",
    "postalCode": "83404",
    "state": "Idaho",
    "countryCode": "US",
    "website": "https://grandpeaks.org/idaho-falls-pharmacy/",
    "phone": "(208) 612-6300",
    "phoneUnformatted": "+12086126300",
    "claimThisBusiness": false,
    "location": {
      "lat": 43.4635665,
      "lng": -111.9861521
    },
    "totalScore": 5,
    "permanentlyClosed": false,
    "temporarilyClosed": false,
    "placeId": null,
    "categories": [
      "Pharmacy"
    ],
    "fid": "0x53545fd500e3c9c1:0x47a2b5f086c6f037",
    "cid": "5161888167577972791",
    "reviewsCount": 5,
    "imagesCount": 1,
    "imageCategories": [],
    "scrapedAt": "2025-06-22T07:49:25.693Z",
    "googleFoodUrl": null,
    "hotelAds": [],
    "openingHours": [
      {
        "day": "Monday",
        "hours": "8\u202fAM to 6\u202fPM"
      },
      {
        "day": "Tuesday",
        "hours": "8\u202fAM to 6\u202fPM"
      },
      {
        "day": "Wednesday",
        "hours": "8\u202fAM to 6\u202fPM"
      },
      {
        "day": "Thursday",
        "hours": "8\u202fAM to 6\u202fPM"
      },
      {
        "day": "Friday",
        "hours": "8\u202fAM to 6\u202fPM"
      },
      {
        "day": "Saturday",
        "hours": "8\u202fAM to 3\u202fPM"
      },
      {
        "day": "Sunday",
        "hours": "Closed"
      }
    ],
    "peopleAlsoSearch": [],
    "placesTags": [],
    "reviewsTags": [],
    "additionalInfo": {
      "Accessibility": [
        {
          "Wheelchair accessible entrance": true
        },
        {
          "Wheelchair accessible parking lot": true
        }
      ],
      "Payments": [
        {
          "Credit cards": true
        }
      ]
    },
    "gasPrices": [],
    "url": "https://www.google.com/maps/search/?api=1&query=Grand%20Peaks%20Pharmacy&query_place_id=ChIJwcnjANVfVFMRN_DGhvC1okc",
    "searchPageUrl": "https://www.google.com/maps/search/independent%20pharmacy%20Idaho%20Falls%20ID/@61.56929586514925,-158.8645058997317,9z?hl=en",
    "searchString": "independent pharmacy Idaho Falls ID",
    "language": "en",
    "rank": 6,
    "isAdvertisement": false,
    "imageUrl": "https://streetviewpixels-pa.googleapis.com/v1/thumbnail?panoid=6_iVlD-15GOFT2lQbGuiyQ&cb_client=search.gws-prod.gps&w=408&h=240&yaw=172.61212&pitch=0&thumbfov=100",
    "kgmid": "/g/11vzc66nz0",
    "classification": "independent",
    "is_independent": true,
    "is_compounding": false,
    "confidence": 0.9,
    "source": "perplexity",
    "method": "llm",
    "query_location": "idaho_falls_id"
  },
  {
    "title": "Albertsons Pharmacy",
    "price": "$$",
    "categoryName": "Pharmacy",
    "address": "590 E 17th St, Idaho Falls, ID 83404",
    "neighborhood": null,
    "street": "590 E 17th St",
    "city": "Idaho Falls",
    "postalCode": "83404",
    "state": "Idaho",
    "countryCode": "US",
    "website": "https://local.pharmacy.albertsons.com/id/idaho-falls/590-e-17th-st.html",
    "phone": "(208) 523-1090",
    "phoneUnformatted": "+12085231090",
    "claimThisBusiness": false,
    "location": {
      "lat": 43.481429,
      "lng": -112.0214781
    },
    "totalScore": 3.8,
    "permanentlyClosed": false,
    "temporarilyClosed": false,
    "placeId": "ChIJFTebBDNZVFMRH1vVOwWJeRE",
    "categories": [
      "Pharmacy",
      "Drug store",
      "Vitamin & supplements store"
    ],
    "fid": "0x53545933049b3715:0x117989053bd55b1f",
    "cid": "1259188226398444319",
    "reviewsCount": 47,
    "imagesCount": 5,
    "imageCategories": [],
    "scrapedAt": "2025-06-22T07:49:25.693Z",
    "googleFoodUrl": null,
    "hotelAds": [],
    "openingHours": [
      {
        "day": "Monday",
        "hours": "8\u202fAM to 8\u202fPM"
      },
      {
        "day": "Tuesday",
        "hours": "8\u202fAM to 8\u202fPM"
      },
      {
        "day": "Wednesday",
        "hours": "8\u202fAM to 8\u202fPM"
      },
      {
        "day": "Thursday",
        "hours": "8\u202fAM to 8\u202fPM"
      },
      {
        "day": "Friday",
        "hours": "8\u202fAM to 8\u202fPM"
      },
      {
        "day": "Saturday",
        "hours": "9\u202fAM to 6\u202fPM"
      },
      {
        "day": "Sunday",
        "hours": "10\u202fAM to 5\u202fPM"
      }
    ],
    "peopleAlsoSearch": [],
    "placesTags": [],
    "reviewsTags": [],
    "additionalInfo": {
      "Service options": [
        {
          "Delivery": true
        },
        {
          "Drive-through": true
        },
        {
          "In-store pickup": true
        },
        {
          "In-store shopping": true
        },
        {
          "Onsite services": true
        },
        {
          "Same-day delivery": true
        }
      ],
      "Accessibility": [
        {
          "Wheelchair accessible entrance": true
        },
        {
          "Wheelchair accessible parking lot": true
        }
      ],
      "Crowd": [
        {
          "LGBTQ+ friendly": true
        }
      ],
      "Planning": [
        {
          "Appointment required": true
        },
        {
          "Quick visit": true
        }
      ],
      "Payments": [
        {
          "Checks": true
        },
        {
          "Debit cards": true
        },
        {
          "Credit cards": true
        }
      ]
    },
    "gasPrices": [],
    "url": "https://www.google.com/maps/search/?api=1&query=Albertsons%20Pharmacy&query_place_id=ChIJFTebBDNZVFMRH1vVOwWJeRE",
    "searchPageUrl": "https://www.google.com/maps/search/independent%20pharmacy%20Idaho%20Falls%20ID/@61.56929586514925,-158.8645058997317,9z?hl=en",
    "searchString": "independent pharmacy Idaho Falls ID",
    "language": "en",
    "rank": 7,
    "isAdvertisement": false,
    "imageUrl": "https://lh3.googleusercontent.com/p/AF1QipO8xypPSGF6W6KVxfIFwMCABNlicqtMYMK3IyuS=w427-h240-k-no",
    "kgmid": "/g/1tg5bs9b",
    "classification": "chain",
    "is_independent": false,
    "confidence": 1.0,
    "source": "rule-based"
  },
  {
    "title": "Sam's Club Pharmacy",
    "price": "$",
    "categoryName": "Pharmacy",
    "address": "700 E 17th St, Idaho Falls, ID 83404",
    "neighborhood": null,
    "street": "700 E 17th St",
    "city": "Idaho Falls",
    "postalCode": "83404",
    "state": "Idaho",
    "countryCode": "US",
    "website": "https://www.samsclub.com/local/pharmacy/idaho-falls-id-sams-club/6345",
    "phone": "(208) 523-0831",
    "phoneUnformatted": "+12085230831",
    "claimThisBusiness": false,
    "location": {
      "lat": 43.4796863,
      "lng": -112.0199692
    },
    "totalScore": 4.7,
    "permanentlyClosed": false,
    "temporarilyClosed": false,
    "placeId": null,
    "categories": [
      "Pharmacy"
    ],
    "fid": "0x53545932ea16d77d:0x2284aa550a8724a6",
    "cid": "2487300176440927398",
    "reviewsCount": 19,
    "imagesCount": 8,
    "imageCategories": [],
    "scrapedAt": "2025-06-22T07:49:25.693Z",
    "googleFoodUrl": null,
    "hotelAds": [],
    "openingHours": [
      {
        "day": "Monday",
        "hours": "9\u202fAM to 7\u202fPM"
      },
      {
        "day": "Tuesday",
        "hours": "9\u202fAM to 7\u202fPM"
      },
      {
        "day": "Wednesday",
        "hours": "9\u202fAM to 7\u202fPM"
      },
      {
        "day": "Thursday",
        "hours": "9\u202fAM to 7\u202fPM"
      },
      {
        "day": "Friday",
        "hours": "9\u202fAM to 7\u202fPM"
      },
      {
        "day": "Saturday",
        "hours": "9\u202fAM to 6\u202fPM"
      },
      {
        "day": "Sunday",
        "hours": "Closed"
      }
    ],
    "peopleAlsoSearch": [],
    "placesTags": [],
    "reviewsTags": [],
    "additionalInfo": {
      "Service options": [
        {
          "Curbside pickup": true
        },
        {
          "Delivery": true
        },
        {
          "In-store pickup": true
        },
        {
          "In-store shopping": true
        },
        {
          "Onsite services": true
        },
        {
          "Same-day delivery": true
        }
      ],
      "Accessibility": [
        {
          "Wheelchair accessible entrance": true
        },
        {
          "Wheelchair accessible parking lot": true
        }
      ],
      "Planning": [
        {
          "Quick visit": true
        }
      ],
      "Payments": [
        {
          "Credit cards": true
        },
        {
          "Debit cards": true
        },
        {
          "Credit cards": true
        }
      ]
    },
    "gasPrices": [],
    "url": "https://www.google.com/maps/search/?api=1&query=Sam's%20Club%20Pharmacy&query_place_id=ChIJfdcW6jJZVFMRpiSHClWqhCI",
    "searchPageUrl": "https://www.google.com/maps/search/independent%20pharmacy%20Idaho%20Falls%20ID/@61.56929586514925,-158.8645058997317,9z?hl=en",
    "searchString": "independent pharmacy Idaho Falls ID",
    "language": "en",
    "rank": 8,
    "isAdvertisement": false,
    "imageUrl": "https://lh3.googleusercontent.com/p/AF1QipMBSC8kdPBU2bEqBqqWg6bB4hvodD31E4AAHJpc=w408-h272-k-no",
    "kgmid": "/g/1pzwtdjkc",
    "classification": "chain",
    "is_independent": false,
    "is_compounding": false,
    "confidence": 0.99,
    "source": "perplexity",
    "method": "llm",
    "query_location": "idaho_falls_id"
  },
  {
    "title": "Walgreens Pharmacy",
    "description": "Department of the Walgreens chain providing prescription medications & other health-related items.",
    "price": "$$",
    "categoryName": "Pharmacy",
    "address": "535 E 17th St, Idaho Falls, ID 83404",
    "neighborhood": null,
    "street": "535 E 17th St",
    "city": "Idaho Falls",
    "postalCode": "83404",
    "state": "Idaho",
    "countryCode": "US",
    "website": "https://www.walgreens.com/locator/walgreens-535+e+17th+st-idaho+falls-id-83404/id=5839",
    "phone": "(208) 542-4569",
    "phoneUnformatted": "+12085424569",
    "claimThisBusiness": false,
    "location": {
      "lat": 43.4830713,
      "lng": -112.0227765
    },
    "totalScore": 3.2,
    "permanentlyClosed": false,
    "temporarilyClosed": false,
    "placeId": "ChIJtXLEnTRZVFMRYthApe-zTAc",
    "categories": [
      "Pharmacy"
    ],
    "fid": "0x535459349dc472b5:0x74cb3efa540d862",
    "cid": "525993098346551394",
    "reviewsCount": 22,
    "imagesCount": 3,
    "imageCategories": [],
    "scrapedAt": "2025-06-22T07:49:25.693Z",
    "googleFoodUrl": null,
    "hotelAds": [],
    "openingHours": [
      {
        "day": "Monday",
        "hours": "9\u202fAM to 1:30\u202fPM, 2 to 8\u202fPM"
      },
      {
        "day": "Tuesday",
        "hours": "9\u202fAM to 1:30\u202fPM, 2 to 8\u202fPM"
      },
      {
        "day": "Wednesday",
        "hours": "9\u202fAM to 1:30\u202fPM, 2 to 8\u202fPM"
      },
      {
        "day": "Thursday",
        "hours": "9\u202fAM to 1:30\u202fPM, 2 to 8\u202fPM"
      },
      {
        "day": "Friday",
        "hours": "9\u202fAM to 1:30\u202fPM, 2 to 8\u202fPM"
      },
      {
        "day": "Saturday",
        "hours": "9\u202fAM to 1:30\u202fPM, 2 to 5\u202fPM"
      },
      {
        "day": "Sunday",
        "hours": "9\u202fAM to 1:30\u202fPM, 2 to 5\u202fPM"
      }
    ],
    "additionalOpeningHours": {
      "Drive through": [
        {
          "day": "Monday",
          "hours": "9\u202fAM\u20131:30\u202fPM"
        },
        {
          "day": "Tuesday",
          "hours": "9\u202fAM\u20131:30\u202fPM"
        },
        {
          "day": "Wednesday",
          "hours": "9\u202fAM\u20131:30\u202fPM"
        },
        {
          "day": "Thursday",
          "hours": "9\u202fAM\u20131:30\u202fPM"
        },
        {
          "day": "Friday",
          "hours": "9\u202fAM\u20131:30\u202fPM"
        },
        {
          "day": "Saturday",
          "hours": "9\u202fAM\u20131:30\u202fPM"
        },
        {
          "day": "Sunday",
          "hours": "9\u202fAM\u20131:30\u202fPM"
        }
      ]
    },
    "peopleAlsoSearch": [],
    "placesTags": [],
    "reviewsTags": [],
    "additionalInfo": {
      "Service options": [
        {
          "Drive-through": true
        },
        {
          "In-store pickup": true
        },
        {
          "Onsite services": true
        }
      ],
      "Accessibility": [
        {
          "Wheelchair accessible entrance": true
        },
        {
          "Wheelchair accessible parking lot": true
        }
      ],
      "Offerings": [
        {
          "Naloxone": true
        }
      ],
      "Planning": [
        {
          "Quick visit": true
        }
      ],
      "Payments": [
        {
          "Checks": true
        },
        {
          "Credit cards": true
        },
        {
          "Debit cards": true
        }
      ]
    },
    "gasPrices": [],
    "url": "https://www.google.com/maps/search/?api=1&query=Walgreens%20Pharmacy&query_place_id=ChIJtXLEnTRZVFMRYthApe-zTAc",
    "searchPageUrl": "https://www.google.com/maps/search/independent%20pharmacy%20Idaho%20Falls%20ID/@61.56929586514925,-158.8645058997317,9z?hl=en",
    "searchString": "independent pharmacy Idaho Falls ID",
    "language": "en",
    "rank": 9,
    "isAdvertisement": false,
    "imageUrl": "https://lh3.googleusercontent.com/p/AF1QipOatg49xnqxV1ZNUwUiwdKnfNNFewhFVGh7G8KF=w525-h240-k-no",
    "kgmid": "/g/11cn949vjc",
    "classification": "chain",
    "is_independent": false,
    "confidence": 1.0,
    "source": "rule-based"
  },
  {
    "title": "Broulim's Pharmacy",
    "price": null,
    "categoryName": "Pharmacy",
    "address": "1855 W Broadway St, Idaho Falls, ID 83402",
    "neighborhood": null,
    "street": "1855 W Broadway St",
    "city": "Idaho Falls",
    "postalCode": "83402",
    "state": "Idaho",
    "countryCode": "US",
    "website": "https://broulimspharmacy.com/broadway-pharmacy/",
    "phone": "(208) 529-3638",
    "phoneUnformatted": "+12085293638",
    "claimThisBusiness": false,
    "location": {
      "lat": 43.496363,
      "lng": -112.0681214
    },
    "totalScore": 3.7,
    "permanentlyClosed": false,
    "temporarilyClosed": false,
    "placeId": null,
    "categories": [
      "Pharmacy"
    ],
    "fid": "0x535459250c80560d:0xb3b31b6b160263ea",
    "cid": "12948723500365013994",
    "reviewsCount": 42,
    "imagesCount": 4,
    "imageCategories": [],
    "scrapedAt": "2025-06-22T07:49:25.693Z",
    "googleFoodUrl": null,
    "hotelAds": [],
    "openingHours": [
      {
        "day": "Monday",
        "hours": "9\u202fAM to 6\u202fPM"
      },
      {
        "day": "Tuesday",
        "hours": "9\u202fAM to 6\u202fPM"
      },
      {
        "day": "Wednesday",
        "hours": "9\u202fAM to 6\u202fPM"
      },
      {
        "day": "Thursday",
        "hours": "9\u202fAM to 6\u202fPM"
      },
      {
        "day": "Friday",
        "hours": "9\u202fAM to 6\u202fPM"
      },
      {
        "day": "Saturday",
        "hours": "9\u202fAM to 5\u202fPM"
      },
      {
        "day": "Sunday",
        "hours": "Closed"
      }
    ],
    "peopleAlsoSearch": [],
    "placesTags": [],
    "reviewsTags": [],
    "additionalInfo": {
      "Service options": [
        {
          "Delivery": true
        },
        {
          "Drive-through": true
        },
        {
          "In-store pickup": true
        },
        {
          "Onsite services": true
        }
      ],
      "Accessibility": [
        {
          "Wheelchair accessible entrance": true
        },
        {
          "Wheelchair accessible parking lot": true
        }
      ],
      "Planning": [
        {
          "Quick visit": true
        }
      ],
      "Payments": [
        {
          "Credit cards": true
        },
        {
          "Debit cards": true
        },
        {
          "NFC mobile payments": true
        },
        {
          "Credit cards": true
        }
      ]
    },
    "gasPrices": [],
    "url": "https://www.google.com/maps/search/?api=1&query=Broulim's%20Pharmacy&query_place_id=ChIJDVaADCVZVFMR6mMCFmsbs7M",
    "searchPageUrl": "https://www.google.com/maps/search/independent%20pharmacy%20Idaho%20Falls%20ID/@61.56929586514925,-158.8645058997317,9z?hl=en",
    "searchString": "independent pharmacy Idaho Falls ID",
    "language": "en",
    "rank": 10,
    "isAdvertisement": false,
    "imageUrl": "https://lh3.googleusercontent.com/gps-cs-s/AC9h4noI7-AcKty3ROV0ZTNd9kM5tT8RNmvZeA7-UI-fjIQFgav0SJYkPVyeVht6UefvsOd42um0o35mvqLLwe-v-B8VH7qJelG1seXlqhOpg6Bs9tYirOhhTqc1ndKHqKjjQ3yy3aqz=w408-h306-k-no",
    "kgmid": "/g/11fnqvy343",
    "classification": "chain",
    "is_independent": false,
    "is_compounding": false,
    "confidence": 0.95,
    "source": "perplexity",
    "method": "llm",
    "query_location": "idaho_falls_id"
  },
  {
    "title": "Fred Meyer Pharmacy",
    "price": null,
    "categoryName": "Pharmacy",
    "address": "1555 Northgate Mile, Idaho Falls, ID 83401",
    "neighborhood": null,
    "street": "1555 Northgate Mile",
    "city": "Idaho Falls",
    "postalCode": "83401",
    "state": "Idaho",
    "countryCode": "US",
    "website": "https://www.fredmeyer.com/rx/pharmacy/details/701/00156?cid=loc_70100156P_gmb",
    "phone": "(208) 535-2553",
    "phoneUnformatted": "+12085352553",
    "claimThisBusiness": false,
    "location": {
      "lat": 43.5106584,
      "lng": -112.0199965
    },
    "totalScore": 3.9,
    "permanentlyClosed": false,
    "temporarilyClosed": false,
    "placeId": "ChIJ8QEW_h5cVFMR9oDKSOIuzLc",
    "categories": [
      "Pharmacy",
      "Drug store",
      "Health counselor",
      "Home health care service"
    ],
    "fid": "0x53545c1efe1601f1:0xb7cc2ee248ca80f6",
    "cid": "13244012153608503542",
    "reviewsCount": 47,
    "imagesCount": 13,
    "imageCategories": [],
    "scrapedAt": "2025-06-22T07:49:25.693Z",
    "googleFoodUrl": null,
    "hotelAds": [],
    "openingHours": [
      {
        "day": "Monday",
        "hours": "8\u202fAM to 1\u202fPM, 1:30 to 8\u202fPM"
      },
      {
        "day": "Tuesday",
        "hours": "8\u202fAM to 1\u202fPM, 1:30 to 8\u202fPM"
      },
      {
        "day": "Wednesday",
        "hours": "8\u202fAM to 1\u202fPM, 1:30 to 8\u202fPM"
      },
      {
        "day": "Thursday",
        "hours": "8\u202fAM to 1\u202fPM, 1:30 to 8\u202fPM"
      },
      {
        "day": "Friday",
        "hours": "8\u202fAM to 1\u202fPM, 1:30 to 8\u202fPM"
      },
      {
        "day": "Saturday",
        "hours": "9\u202fAM to 1\u202fPM, 1:30 to 6\u202fPM"
      },
      {
        "day": "Sunday",
        "hours": "10\u202fAM to 1\u202fPM, 1:30 to 5\u202fPM"
      }
    ],
    "peopleAlsoSearch": [],
    "placesTags": [],
    "reviewsTags": [],
    "additionalInfo": {
      "Service options": [
        {
          "Curbside pickup": true
        },
        {
          "Delivery": true
        },
        {
          "In-store pickup": true
        },
        {
          "In-store shopping": true
        },
        {
          "Same-day delivery": true
        }
      ],
      "Accessibility": [
        {
          "Wheelchair accessible entrance": true
        },
        {
          "Wheelchair accessible parking lot": true
        },
        {
          "Wheelchair accessible restroom": true
        },
        {
          "Wheelchair accessible seating": true
        }
      ],
      "Offerings": [
        {
          "Passport photos": true
        }
      ],
      "Crowd": [
        {
          "LGBTQ+ friendly": true
        },
        {
          "Transgender safespace": true
        }
      ],
      "Planning": [
        {
          "Quick visit": true
        }
      ],
      "Payments": [
        {
          "Checks": true
        },
        {
          "Credit cards": true
        },
        {
          "Debit cards": true
        },
        {
          "NFC mobile payments": true
        },
        {
          "Credit cards": true
        }
      ]
    },
    "gasPrices": [],
    "url": "https://www.google.com/maps/search/?api=1&query=Fred%20Meyer%20Pharmacy&query_place_id=ChIJ8QEW_h5cVFMR9oDKSOIuzLc",
    "searchPageUrl": "https://www.google.com/maps/search/independent%20pharmacy%20Idaho%20Falls%20ID/@61.56929586514925,-158.8645058997317,9z?hl=en",
    "searchString": "independent pharmacy Idaho Falls ID",
    "language": "en",
    "rank": 11,
    "isAdvertisement": false,
    "imageUrl": "https://lh3.googleusercontent.com/p/AF1QipNFxc52XM-B0IWLw8sBWknh2faBXX3a6N7RyiUP=w426-h240-k-no",
    "kgmid": "/g/1td588g6",
    "classification": "chain",
    "is_independent": false,
    "confidence": 1.0,
    "source": "rule-based"
  },
  {
    "title": "Mountain Care Pharmacy",
    "price": null,
    "categoryName": "Pharmacy",
    "address": "1753 W Broadway St, Idaho Falls, ID 83402",
    "neighborhood": null,
    "street": "1753 W Broadway St",
    "city": "Idaho Falls",
    "postalCode": "83402",
    "state": "Idaho",
    "countryCode": "US",
    "phone": "(208) 523-2330",
    "phoneUnformatted": "+12085232330",
    "claimThisBusiness": true,
    "location": {
      "lat": 43.4960101,
      "lng": -112.0665561
    },
    "totalScore": 5,
    "permanentlyClosed": false,
    "temporarilyClosed": true,
    "placeId": null,
    "categories": [
      "Pharmacy"
    ],
    "fid": "0x535459621e0fe143:0xeabef648dfc5dc94",
    "cid": "16915228043302526100",
    "reviewsCount": 2,
    "imagesCount": 1,
    "imageCategories": [],
    "scrapedAt": "2025-06-22T07:49:25.693Z",
    "googleFoodUrl": null,
    "hotelAds": [],
    "openingHours": [],
    "peopleAlsoSearch": [],
    "placesTags": [],
    "reviewsTags": [],
    "gasPrices": [],
    "url": "https://www.google.com/maps/search/?api=1&query=Mountain%20Care%20Pharmacy&query_place_id=ChIJQ-EPHmJZVFMRlNzF30j2vuo",
    "searchPageUrl": "https://www.google.com/maps/search/independent%20pharmacy%20Idaho%20Falls%20ID/@61.56929586514925,-158.8645058997317,9z?hl=en",
    "searchString": "independent pharmacy Idaho Falls ID",
    "language": "en",
    "rank": 12,
    "isAdvertisement": false,
    "imageUrl": "https://streetviewpixels-pa.googleapis.com/v1/thumbnail?panoid=vyvCKR7qTB9Zij614kLFDw&cb_client=search.gws-prod.gps&w=408&h=240&yaw=182.71959&pitch=0&thumbfov=100",
    "kgmid": "/g/113gbxrb4",
    "classification": "independent",
    "is_independent": true,
    "is_compounding": false,
    "confidence": 0.85,
    "source": "perplexity",
    "method": "llm",
    "query_location": "idaho_falls_id"
  },
  {
    "title": "Walgreens Pharmacy",
    "description": "Department of the Walgreens chain providing prescription medications & other health-related items.",
    "price": "$$",
    "categoryName": "Pharmacy",
    "address": "1604 W Broadway St, Idaho Falls, ID 83402",
    "neighborhood": null,
    "street": "1604 W Broadway St",
    "city": "Idaho Falls",
    "postalCode": "83402",
    "state": "Idaho",
    "countryCode": "US",
    "website": "https://www.walgreens.com/locator/walgreens-1604+w+broadway+st-idaho+falls-id-83402/id=15973",
    "phone": "(208) 522-4655",
    "phoneUnformatted": "+12085224655",
    "claimThisBusiness": false,
    "location": {
      "lat": 43.4973592,
      "lng": -112.0638916
    },
    "totalScore": 3.8,
    "permanentlyClosed": false,
    "temporarilyClosed": false,
    "placeId": "ChIJ5yBQy2FZVFMR_vo9_roLh-Q",
    "categories": [
      "Pharmacy"
    ],
    "fid": "0x53545961cb5020e7:0xe4870bbafe3dfafe",
    "cid": "16467143460260805374",
    "reviewsCount": 22,
    "imagesCount": 3,
    "imageCategories": [],
    "scrapedAt": "2025-06-22T07:49:25.693Z",
    "googleFoodUrl": null,
    "hotelAds": [],
    "openingHours": [
      {
        "day": "Monday",
        "hours": "9\u202fAM to 1:30\u202fPM, 2 to 9\u202fPM"
      },
      {
        "day": "Tuesday",
        "hours": "9\u202fAM to 1:30\u202fPM, 2 to 9\u202fPM"
      },
      {
        "day": "Wednesday",
        "hours": "9\u202fAM to 1:30\u202fPM, 2 to 9\u202fPM"
      },
      {
        "day": "Thursday",
        "hours": "9\u202fAM to 1:30\u202fPM, 2 to 9\u202fPM"
      },
      {
        "day": "Friday",
        "hours": "9\u202fAM to 1:30\u202fPM, 2 to 9\u202fPM"
      },
      {
        "day": "Saturday",
        "hours": "9\u202fAM to 1:30\u202fPM, 2 to 5\u202fPM"
      },
      {
        "day": "Sunday",
        "hours": "11\u202fAM to 4\u202fPM"
      }
    ],
    "additionalOpeningHours": {
      "Drive through": [
        {
          "day": "Monday",
          "hours": "9\u202fAM\u20131:30\u202fPM"
        },
        {
          "day": "Tuesday",
          "hours": "9\u202fAM\u20131:30\u202fPM"
        },
        {
          "day": "Wednesday",
          "hours": "9\u202fAM\u20131:30\u202fPM"
        },
        {
          "day": "Thursday",
          "hours": "9\u202fAM\u20131:30\u202fPM"
        },
        {
          "day": "Friday",
          "hours": "9\u202fAM\u20131:30\u202fPM"
        },
        {
          "day": "Saturday",
          "hours": "9\u202fAM\u20131:30\u202fPM"
        },
        {
          "day": "Sunday",
          "hours": "11\u202fAM\u20134\u202fPM"
        }
      ]
    },
    "peopleAlsoSearch": [],
    "placesTags": [],
    "reviewsTags": [],
    "additionalInfo": {
      "Service options": [
        {
          "Drive-through": true
        },
        {
          "In-store pickup": true
        }
      ],
      "Accessibility": [
        {
          "Wheelchair accessible entrance": true
        },
        {
          "Wheelchair accessible parking lot": true
        }
      ],
      "Offerings": [
        {
          "Naloxone": true
        }
      ],
      "Planning": [
        {
          "Quick visit": true
        }
      ],
      "Payments": [
        {
          "Credit cards": true
        },
        {
          "Debit cards": true
        }
      ]
    },
    "gasPrices": [],
    "url": "https://www.google.com/maps/search/?api=1&query=Walgreens%20Pharmacy&query_place_id=ChIJ5yBQy2FZVFMR_vo9_roLh-Q",
    "searchPageUrl": "https://www.google.com/maps/search/independent%20pharmacy%20Idaho%20Falls%20ID/@61.56929586514925,-158.8645058997317,9z?hl=en",
    "searchString": "independent pharmacy Idaho Falls ID",
    "language": "en",
    "rank": 13,
    "isAdvertisement": false,
    "imageUrl": "https://lh3.googleusercontent.com/p/AF1QipO9y79kzu00-WNnSJH9bderRmzQBUTX-igooC1x=w525-h240-k-no",
    "kgmid": "/g/11cn95h2d9",
    "classification": "chain",
    "is_independent": false,
    "confidence": 1.0,
    "source": "rule-based"
  },
  {
    "title": "Walgreens Pharmacy",
    "description": "Department of the Walgreens chain providing prescription medications & other health-related items.",
    "price": "$$",
    "categoryName": "Pharmacy",
    "address": "1725 1st St, Idaho Falls, ID 83401",
    "neighborhood": null,
    "street": "1725 1st St",
    "city": "Idaho Falls",
    "postalCode": "83401",
    "state": "Idaho",
    "countryCode": "US",
    "website": "https://www.walgreens.com/locator/walgreens-1725+1st+st-idaho+falls-id-83401/id=11622",
    "phone": "(208) 419-4684",
    "phoneUnformatted": "+12084194684",
    "claimThisBusiness": false,
    "location": {
      "lat": 43.4972736,
      "lng": -111.9999969
    },
    "totalScore": 3.1,
    "permanentlyClosed": false,
    "temporarilyClosed": false,
    "placeId": "ChIJj20QhJZeVFMR3fi-_Reshsw",
    "categories": [
      "Pharmacy"
    ],
    "fid": "0x53545e9684106d8f:0xcc86ac17fdbef8dd",
    "cid": "14737656049657903325",
    "reviewsCount": 19,
    "imagesCount": 3,
    "imageCategories": [],
    "scrapedAt": "2025-06-22T07:49:25.694Z",
    "googleFoodUrl": null,
    "hotelAds": [],
    "openingHours": [
      {
        "day": "Monday",
        "hours": "9\u202fAM to 1:30\u202fPM, 2 to 9\u202fPM"
      },
      {
        "day": "Tuesday",
        "hours": "9\u202fAM to 1:30\u202fPM, 2 to 9\u202fPM"
      },
      {
        "day": "Wednesday",
        "hours": "9\u202fAM to 1:30\u202fPM, 2 to 9\u202fPM"
      },
      {
        "day": "Thursday",
        "hours": "9\u202fAM to 1:30\u202fPM, 2 to 9\u202fPM"
      },
      {
        "day": "Friday",
        "hours": "9\u202fAM to 1:30\u202fPM, 2 to 9\u202fPM"
      },
      {
        "day": "Saturday",
        "hours": "9\u202fAM to 1:30\u202fPM, 2 to 5\u202fPM"
      },
      {
        "day": "Sunday",
        "hours": "11\u202fAM to 3\u202fPM"
      }
    ],
    "additionalOpeningHours": {
      "Drive through": [
        {
          "day": "Monday",
          "hours": "9\u202fAM\u20131:30\u202fPM"
        },
        {
          "day": "Tuesday",
          "hours": "9\u202fAM\u20131:30\u202fPM"
        },
        {
          "day": "Wednesday",
          "hours": "9\u202fAM\u20131:30\u202fPM"
        },
        {
          "day": "Thursday",
          "hours": "9\u202fAM\u20131:30\u202fPM"
        },
        {
          "day": "Friday",
          "hours": "9\u202fAM\u20131:30\u202fPM"
        },
        {
          "day": "Saturday",
          "hours": "9\u202fAM\u20131:30\u202fPM"
        },
        {
          "day": "Sunday",
          "hours": "11\u202fAM\u20133\u202fPM"
        }
      ]
    },
    "peopleAlsoSearch": [],
    "placesTags": [],
    "reviewsTags": [],
    "additionalInfo": {
      "Service options": [
        {
          "Curbside pickup": true
        },
        {
          "Drive-through": true
        },
        {
          "In-store pickup": true
        }
      ],
      "Accessibility": [
        {
          "Wheelchair accessible entrance": true
        },
        {
          "Wheelchair accessible parking lot": true
        }
      ],
      "Offerings": [
        {
          "Naloxone": true
        }
      ],
      "Planning": [
        {
          "Quick visit": true
        }
      ],
      "Payments": [
        {
          "Credit cards": true
        },
        {
          "Debit cards": true
        }
      ]
    },
    "gasPrices": [],
    "url": "https://www.google.com/maps/search/?api=1&query=Walgreens%20Pharmacy&query_place_id=ChIJj20QhJZeVFMR3fi-_Reshsw",
    "searchPageUrl": "https://www.google.com/maps/search/independent%20pharmacy%20Idaho%20Falls%20ID/@61.56929586514925,-158.8645058997317,9z?hl=en",
    "searchString": "independent pharmacy Idaho Falls ID",
    "language": "en",
    "rank": 14,
    "isAdvertisement": false,
    "imageUrl": "https://lh3.googleusercontent.com/p/AF1QipOWD4FBQV1yQAXIbt6BjwVKBcF38wpcVMfcyzCV=w525-h240-k-no",
    "kgmid": "/g/11cn94f0c4",
    "classification": "chain",
    "is_independent": false,
    "confidence": 1.0,
    "source": "rule-based"
  },
  {
    "title": "Walmart Pharmacy",
    "price": "$",
    "categoryName": "Pharmacy",
    "address": "500 S Utah Ave, Idaho Falls, ID 83402",
    "neighborhood": null,
    "street": "500 S Utah Ave",
    "city": "Idaho Falls",
    "postalCode": "83402",
    "state": "Idaho",
    "countryCode": "US",
    "website": "https://www.walmart.com/store/5494-idaho-falls-id/pharmacy/?veh=seo_loc",
    "phone": "(208) 528-8703",
    "phoneUnformatted": "+12085288703",
    "claimThisBusiness": false,
    "location": {
      "lat": 43.4927302,
      "lng": -112.0519039
    },
    "totalScore": 2.6,
    "permanentlyClosed": false,
    "temporarilyClosed": false,
    "placeId": "ChIJZ1bd11tZVFMRvM_H6nOdxRs",
    "categories": [
      "Pharmacy",
      "Herbal medicine store",
      "Medical supply store",
      "Parapharmacy",
      "Vitamin & supplements store"
    ],
    "fid": "0x5354595bd7dd5667:0x1bc59d73eac7cfbc",
    "cid": "2001178730621816764",
    "reviewsCount": 63,
    "imagesCount": 7,
    "imageCategories": [],
    "scrapedAt": "2025-06-22T07:49:25.694Z",
    "googleFoodUrl": null,
    "hotelAds": [],
    "openingHours": [
      {
        "day": "Monday",
        "hours": "9\u202fAM to 7\u202fPM"
      },
      {
        "day": "Tuesday",
        "hours": "9\u202fAM to 7\u202fPM"
      },
      {
        "day": "Wednesday",
        "hours": "9\u202fAM to 7\u202fPM"
      },
      {
        "day": "Thursday",
        "hours": "9\u202fAM to 7\u202fPM"
      },
      {
        "day": "Friday",
        "hours": "9\u202fAM to 7\u202fPM"
      },
      {
        "day": "Saturday",
        "hours": "9\u202fAM to 7\u202fPM"
      },
      {
        "day": "Sunday",
        "hours": "10\u202fAM to 6\u202fPM"
      }
    ],
    "peopleAlsoSearch": [],
    "placesTags": [],
    "reviewsTags": [],
    "additionalInfo": {
      "Service options": [
        {
          "Curbside pickup": true
        },
        {
          "Delivery": true
        },
        {
          "Drive-through": true
        },
        {
          "In-store pickup": true
        },
        {
          "In-store shopping": true
        },
        {
          "Onsite services": true
        }
      ],
      "Accessibility": [
        {
          "Wheelchair accessible entrance": true
        },
        {
          "Wheelchair accessible parking lot": true
        },
        {
          "Wheelchair accessible restroom": true
        }
      ],
      "Offerings": [
        {
          "Passport photos": true
        }
      ],
      "Amenities": [
        {
          "Wi-Fi": true
        },
        {
          "Free Wi-Fi": true
        }
      ],
      "Planning": [
        {
          "Quick visit": true
        }
      ],
      "Payments": [
        {
          "Credit cards": true
        },
        {
          "Debit cards": true
        },
        {
          "Credit cards": true
        }
      ]
    },
    "gasPrices": [],
    "url": "https://www.google.com/maps/search/?api=1&query=Walmart%20Pharmacy&query_place_id=ChIJZ1bd11tZVFMRvM_H6nOdxRs",
    "searchPageUrl": "https://www.google.com/maps/search/independent%20pharmacy%20Idaho%20Falls%20ID/@61.56929586514925,-158.8645058997317,9z?hl=en",
    "searchString": "independent pharmacy Idaho Falls ID",
    "language": "en",
    "rank": 15,
    "isAdvertisement": false,
    "imageUrl": "https://lh3.googleusercontent.com/p/AF1QipNyQFnhTcrlaUjSB5DvlC7iWtL_wM9QUI-PanL1=w408-h306-k-no",
    "kgmid": "/g/11r8w1m1f",
    "classification": "chain",
    "is_independent": false,
    "confidence": 1.0,
    "source": "rule-based"
  },
  {
    "title": "Idaho Drug Co",
    "price": null,
    "categoryName": "Pharmacy",
    "address": "139 E Main St, Rigby, ID 83442",
    "neighborhood": null,
    "street": "139 E Main St",
    "city": "Rigby",
    "postalCode": "83442",
    "state": "Idaho",
    "countryCode": "US",
    "website": "http://www.idahodrug.com/",
    "phone": "(208) 745-6831",
    "phoneUnformatted": "+12087456831",
    "claimThisBusiness": false,
    "location": {
      "lat": 43.6724845,
      "lng": -111.9137865
    },
    "totalScore": 4.9,
    "permanentlyClosed": false,
    "temporarilyClosed": false,
    "placeId": null,
    "categories": [
      "Pharmacy"
    ],
    "fid": "0x53546e999805b565:0x6e7388d3b037baee",
    "cid": "7958855409269717742",
    "reviewsCount": 59,
    "imagesCount": 39,
    "imageCategories": [],
    "scrapedAt": "2025-06-22T07:49:26.094Z",
    "googleFoodUrl": null,
    "hotelAds": [],
    "openingHours": [
      {
        "day": "Monday",
        "hours": "9\u202fAM to 6\u202fPM"
      },
      {
        "day": "Tuesday",
        "hours": "9\u202fAM to 6\u202fPM"
      },
      {
        "day": "Wednesday",
        "hours": "9\u202fAM to 6\u202fPM"
      },
      {
        "day": "Thursday",
        "hours": "9\u202fAM to 6\u202fPM"
      },
      {
        "day": "Friday",
        "hours": "9\u202fAM to 6\u202fPM"
      },
      {
        "day": "Saturday",
        "hours": "10\u202fAM to 4\u202fPM"
      },
      {
        "day": "Sunday",
        "hours": "Closed"
      }
    ],
    "peopleAlsoSearch": [],
    "placesTags": [],
    "reviewsTags": [],
    "additionalInfo": {
      "Service options": [
        {
          "Delivery": true
        },
        {
          "Same-day delivery": true
        }
      ],
      "Accessibility": [
        {
          "Wheelchair accessible entrance": true
        },
        {
          "Wheelchair accessible parking lot": true
        }
      ],
      "Planning": [
        {
          "Quick visit": true
        }
      ],
      "Payments": [
        {
          "Credit cards": true
        },
        {
          "Debit cards": true
        },
        {
          "NFC mobile payments": true
        },
        {
          "Credit cards": true
        }
      ]
    },
    "gasPrices": [],
    "url": "https://www.google.com/maps/search/?api=1&query=Idaho%20Drug%20Co&query_place_id=ChIJZbUFmJluVFMR7ro3sNOIc24",
    "searchPageUrl": "https://www.google.com/maps/search/independent%20pharmacy%20Idaho%20Falls%20ID/@-0.010408262428264635,-176.5468073723057,13z?hl=en",
    "searchString": "independent pharmacy Idaho Falls ID",
    "language": "en",
    "rank": 13,
    "isAdvertisement": false,
    "imageUrl": "https://lh3.googleusercontent.com/gps-cs-s/AC9h4nrUXgLoIi5I2mi9FZoFm3zVhUHR95M_85Nqo5nF5FMb2rHvdiUUpL5GSs2s7f9LBTnoar4fQa-NPtXTCjyNxXKhqlINND2nB_czxvJ2S3sA9iXANB8MSABDotiknYSxrpiIsLDTzw=w426-h240-k-no",
    "kgmid": "/g/1txy1_r7",
    "classification": "independent",
    "is_independent": true,
    "is_compounding": false,
    "confidence": 0.9,
    "source": "perplexity",
    "method": "llm",
    "query_location": "idaho_falls_id"
  },
  {
    "title": "Guardian Pharmacy of Idaho Falls",
    "price": null,
    "categoryName": "Pharmacy",
    "address": "3250 E 17th St, Ammon, ID 83406",
    "neighborhood": null,
    "street": "3250 E 17th St",
    "city": "Ammon",
    "postalCode": "83406",
    "state": "Idaho",
    "countryCode": "US",
    "website": "https://guardianpharmacy.com/idaho-idaho-falls/",
    "phone": "(208) 552-7677",
    "phoneUnformatted": "+12085527677",
    "claimThisBusiness": false,
    "location": {
      "lat": 43.481656,
      "lng": -111.9694155
    },
    "totalScore": 3.6,
    "permanentlyClosed": false,
    "temporarilyClosed": false,
    "placeId": null,
    "categories": [
      "Pharmacy"
    ],
    "fid": "0x53545efe7bc49447:0xb6c56c5e945b2fef",
    "cid": "13170051838786613231",
    "reviewsCount": 25,
    "imagesCount": 2,
    "imageCategories": [],
    "scrapedAt": "2025-06-22T07:49:28.478Z",
    "googleFoodUrl": null,
    "hotelAds": [],
    "openingHours": [
      {
        "day": "Monday",
        "hours": "9\u202fAM to 5:30\u202fPM"
      },
      {
        "day": "Tuesday",
        "hours": "9\u202fAM to 5:30\u202fPM"
      },
      {
        "day": "Wednesday",
        "hours": "9\u202fAM to 5:30\u202fPM"
      },
      {
        "day": "Thursday",
        "hours": "9\u202fAM to 5:30\u202fPM"
      },
      {
        "day": "Friday",
        "hours": "9\u202fAM to 5:30\u202fPM"
      },
      {
        "day": "Saturday",
        "hours": "Closed"
      },
      {
        "day": "Sunday",
        "hours": "Closed"
      }
    ],
    "peopleAlsoSearch": [],
    "placesTags": [],
    "reviewsTags": [],
    "additionalInfo": {
      "Accessibility": [
        {
          "Wheelchair accessible entrance": true
        },
        {
          "Wheelchair accessible parking lot": true
        }
      ],
      "Payments": [
        {
          "Credit cards": true
        },
        {
          "Debit cards": true
        },
        {
          "Credit cards": true
        }
      ]
    },
    "gasPrices": [],
    "url": "https://www.google.com/maps/search/?api=1&query=Guardian%20Pharmacy%20of%20Idaho%20Falls&query_place_id=ChIJR5TEe_5eVFMR7y9blF5sxbY",
    "searchPageUrl": "https://www.google.com/maps/search/independent%20pharmacy%20Idaho%20Falls%20ID/@65.04310121365691,-157.71370691405576,9z?hl=en",
    "searchString": "independent pharmacy Idaho Falls ID",
    "language": "en",
    "rank": 14,
    "isAdvertisement": false,
    "imageUrl": "https://lh3.googleusercontent.com/p/AF1QipPDbNSTSVBxPjFgHP0IEqEfKMzhCQey3Ml21HRJ=w648-h240-k-no",
    "kgmid": "/g/11b6d5l3fc",
    "classification": "independent",
    "is_independent": true,
    "is_compounding": false,
    "confidence": 0.9,
    "source": "perplexity",
    "method": "llm",
    "query_location": "idaho_falls_id"
  },
  {
    "title": "Independence Drug",
    "price": null,
    "categoryName": "Pharmacy",
    "address": "1074 Idaho St Ste 150, Elko, NV 89801",
    "neighborhood": null,
    "street": "1074 Idaho St Ste 150",
    "city": "Elko",
    "postalCode": "89801",
    "state": "Nevada",
    "countryCode": "US",
    "website": "https://independencedrug.com/",
    "phone": "(775) 264-4747",
    "phoneUnformatted": "+17752644747",
    "claimThisBusiness": false,
    "location": {
      "lat": 40.8369344,
      "lng": -115.7577507
    },
    "totalScore": 5,
    "permanentlyClosed": false,
    "temporarilyClosed": false,
    "placeId": null,
    "categories": [
      "Pharmacy"
    ],
    "fid": "0x80a6072c196133e3:0x9bebb2143819111",
    "cid": "702204343457255697",
    "reviewsCount": 13,
    "imagesCount": 2,
    "imageCategories": [],
    "scrapedAt": "2025-06-22T07:49:43.516Z",
    "googleFoodUrl": null,
    "hotelAds": [],
    "openingHours": [
      {
        "day": "Monday",
        "hours": "9\u202fAM to 6\u202fPM"
      },
      {
        "day": "Tuesday",
        "hours": "9\u202fAM to 6\u202fPM"
      },
      {
        "day": "Wednesday",
        "hours": "9\u202fAM to 6\u202fPM"
      },
      {
        "day": "Thursday",
        "hours": "9\u202fAM to 6\u202fPM"
      },
      {
        "day": "Friday",
        "hours": "9\u202fAM to 6\u202fPM"
      },
      {
        "day": "Saturday",
        "hours": "Closed"
      },
      {
        "day": "Sunday",
        "hours": "Closed"
      }
    ],
    "peopleAlsoSearch": [],
    "placesTags": [],
    "reviewsTags": [],
    "additionalInfo": {
      "Accessibility": [
        {
          "Wheelchair accessible entrance": true
        },
        {
          "Wheelchair accessible parking lot": true
        }
      ],
      "Planning": [
        {
          "Quick visit": true
        }
      ],
      "Payments": [
        {
          "Credit cards": true
        }
      ]
    },
    "gasPrices": [],
    "url": "https://www.google.com/maps/search/?api=1&query=Independence%20Drug&query_place_id=ChIJ4zNhGSwHpoAREZGBQyG7vgk",
    "searchPageUrl": "https://www.google.com/maps/search/independent%20pharmacy%20Idaho%20Falls%20ID/@-0.44082045103029055,-159.79279140435895,13z?hl=en",
    "searchString": "independent pharmacy Idaho Falls ID",
    "language": "en",
    "rank": 13,
    "isAdvertisement": false,
    "imageUrl": "https://lh3.googleusercontent.com/gps-cs-s/AC9h4nqYudXVV1AFoFJWR1ozAWoGNaUWh2uwlZF7DdTZMHA4Eb3F20SFre6YKIs-FCwfjx-xxgYQtzdrg4wZZO1sHVgHh-N76w_Yp1aJL93VLkoOBJOza9840XyWFs0oDIBHJpNxlmx6=w408-h661-k-no",
    "kgmid": "/g/11whm7y6hk",
    "classification": "independent",
    "is_independent": true,
    "is_compounding": false,
    "confidence": 0.9,
    "source": "perplexity",
    "method": "llm",
    "query_location": "idaho_falls_id"
  },
  {
    "title": "Vital Care of Eastern Idaho",
    "price": null,
    "categoryName": "Pharmacy",
    "address": "2375 E Sunnyside Rd Suite F2, Idaho Falls, ID 83404",
    "neighborhood": null,
    "street": "2375 E Sunnyside Rd Suite F2",
    "city": "Idaho Falls",
    "postalCode": "83404",
    "state": "Idaho",
    "countryCode": "US",
    "website": "http://oaksteadinfusion.com/",
    "phone": "(208) 623-8614",
    "phoneUnformatted": "+12086238614",
    "claimThisBusiness": false,
    "location": {
      "lat": 43.4684153,
      "lng": -111.9869344
    },
    "permanentlyClosed": false,
    "temporarilyClosed": false,
    "placeId": null,
    "categories": [
      "Pharmacy"
    ],
    "fid": "0x53545f18eddbbbdb:0x6ae172c7e2f3abf9",
    "cid": "7701563040611937273",
    "reviewsCount": 0,
    "imagesCount": 2,
    "imageCategories": [],
    "scrapedAt": "2025-06-22T07:49:43.516Z",
    "googleFoodUrl": null,
    "hotelAds": [],
    "openingHours": [
      {
        "day": "Monday",
        "hours": "9\u202fAM to 5\u202fPM"
      },
      {
        "day": "Tuesday",
        "hours": "9\u202fAM to 5\u202fPM"
      },
      {
        "day": "Wednesday",
        "hours": "9\u202fAM to 5\u202fPM"
      },
      {
        "day": "Thursday",
        "hours": "9\u202fAM to 5\u202fPM"
      },
      {
        "day": "Friday",
        "hours": "9\u202fAM to 5\u202fPM"
      },
      {
        "day": "Saturday",
        "hours": "Closed"
      },
      {
        "day": "Sunday",
        "hours": "Closed"
      }
    ],
    "peopleAlsoSearch": [],
    "placesTags": [],
    "reviewsTags": [],
    "additionalInfo": {
      "Accessibility": [
        {
          "Wheelchair accessible entrance": true
        },
        {
          "Wheelchair accessible parking lot": true
        }
      ],
      "Payments": [
        {
          "Credit cards": true
        }
      ]
    },
    "gasPrices": [],
    "url": "https://www.google.com/maps/search/?api=1&query=Vital%20Care%20of%20Eastern%20Idaho&query_place_id=ChIJ27vb7RhfVFMR-avz4sdy4Wo",
    "searchPageUrl": "https://www.google.com/maps/search/independent%20pharmacy%20Idaho%20Falls%20ID/@-0.44082045103029055,-159.79279140435895,13z?hl=en",
    "searchString": "independent pharmacy Idaho Falls ID",
    "language": "en",
    "rank": 15,
    "isAdvertisement": false,
    "imageUrl": "https://lh3.googleusercontent.com/p/AF1QipMswqcpvaM8w6WJ4z86io-YhAm9ZavQLjK7x4LS=w408-h544-k-no",
    "kgmid": "/g/11t9c74kq0",
    "classification": "independent",
    "is_independent": true,
    "is_compounding": false,
    "confidence": 0.85,
    "source": "perplexity",
    "method": "llm",
    "query_location": "idaho_falls_id"
  }
]