[
  {
    "title": "Professional Pharmacy",
    "price": null,
    "categoryName": "Pharmacy",
    "address": "401 N Waco Ave, Wichita, KS 67202",
    "neighborhood": null,
    "street": "401 N Waco Ave",
    "city": "Wichita",
    "postalCode": "67202",
    "state": "Kansas",
    "countryCode": "US",
    "website": "https://wichitapharmacy.com/",
    "phone": "(316) 263-5218",
    "phoneUnformatted": "+13162635218",
    "claimThisBusiness": false,
    "location": {
      "lat": 37.69165,
      "lng": -97.3421633
    },
    "totalScore": 4.8,
    "permanentlyClosed": false,
    "temporarilyClosed": false,
    "placeId": null,
    "categories": [
      "Pharmacy",
      "Drug store"
    ],
    "fid": "0x87bae3d000ea22ef:0x4a8bc7bf842f60ea",
    "cid": "5371606605939826922",
    "reviewsCount": 48,
    "imagesCount": 8,
    "imageCategories": [],
    "scrapedAt": "2025-06-22T07:58:53.845Z",
    "googleFoodUrl": null,
    "hotelAds": [],
    "openingHours": [
      {
        "day": "Monday",
        "hours": "9\u202fAM to 6\u202fPM"
      },
      {
        "day": "Tuesday",
        "hours": "9\u202fAM to 6\u202fPM"
      },
      {
        "day": "Wednesday",
        "hours": "9\u202fAM to 6\u202fPM"
      },
      {
        "day": "Thursday",
        "hours": "9\u202fAM to 6\u202fPM"
      },
      {
        "day": "Friday",
        "hours": "9\u202fAM to 6\u202fPM"
      },
      {
        "day": "Saturday",
        "hours": "Closed"
      },
      {
        "day": "Sunday",
        "hours": "Closed"
      }
    ],
    "additionalOpeningHours": {
      "Delivery": [
        {
          "day": "Monday",
          "hours": "12\u20135\u202fPM"
        },
        {
          "day": "Tuesday",
          "hours": "12\u20135\u202fPM"
        },
        {
          "day": "Wednesday",
          "hours": "12\u20135\u202fPM"
        },
        {
          "day": "Thursday",
          "hours": "12\u20135\u202fPM"
        },
        {
          "day": "Friday",
          "hours": "12\u20135\u202fPM"
        },
        {
          "day": "Saturday",
          "hours": "Closed"
        },
        {
          "day": "Sunday",
          "hours": "Closed"
        }
      ]
    },
    "peopleAlsoSearch": [],
    "placesTags": [],
    "reviewsTags": [],
    "additionalInfo": {
      "From the business": [
        {
          "Small business": true
        }
      ],
      "Service options": [
        {
          "Curbside pickup": true
        },
        {
          "Delivery": true
        },
        {
          "In-store pickup": true
        },
        {
          "In-store shopping": true
        },
        {
          "Onsite services": true
        },
        {
          "Same-day delivery": true
        },
        {
          "English": true
        }
      ],
      "Accessibility": [
        {
          "Wheelchair accessible entrance": true
        },
        {
          "Wheelchair accessible parking lot": true
        },
        {
          "Wheelchair accessible seating": true
        },
        {
          "Wheelchair accessible restroom": false
        }
      ],
      "Amenities": [
        {
          "Wi-Fi": true
        },
        {
          "Free Wi-Fi": true
        }
      ],
      "Crowd": [
        {
          "LGBTQ+ friendly": true
        },
        {
          "Transgender safespace": true
        }
      ],
      "Planning": [
        {
          "Quick visit": true
        }
      ],
      "Payments": [
        {
          "Credit cards": true
        },
        {
          "Debit cards": true
        },
        {
          "NFC mobile payments": true
        },
        {
          "Credit cards": true
        }
      ]
    },
    "gasPrices": [],
    "url": "https://www.google.com/maps/search/?api=1&query=Professional%20Pharmacy&query_place_id=ChIJ7yLqANDjuocR6mAvhL_Hi0o",
    "searchPageUrl": "https://www.google.com/maps/search/independent%20pharmacy%20Wichita%20KS/@64.34834014395538,-151.95971198567602,9z?hl=en",
    "searchString": "independent pharmacy Wichita KS",
    "language": "en",
    "rank": 1,
    "isAdvertisement": false,
    "imageUrl": "https://lh3.googleusercontent.com/gps-cs-s/AC9h4nrvS-asBQa50QwNpIat_Rh8qbz_yWDUvLhVhKFIyKrkzdsv0yUmYEie4eDJq_PAXeUWlUVKEO81gK_j7qbTN53igHxSfMtErIzrn08akbJGugCjxcs7yXNL1IOwNwhWkEJ5sY4R=w408-h544-k-no",
    "kgmid": "/g/1tlwg4q6",
    "classification": "independent",
    "is_independent": true,
    "is_compounding": false,
    "confidence": 0.9,
    "source": "perplexity",
    "method": "llm"
  },
  {
    "title": "Belmar Pharmacy (formerly Custom Rx Pharmacy)",
    "price": null,
    "categoryName": "Pharmacy",
    "address": "3510 N Ridge Rd #900, Wichita, KS 67205",
    "neighborhood": null,
    "street": "3510 N Ridge Rd #900",
    "city": "Wichita",
    "postalCode": "67205",
    "state": "Kansas",
    "countryCode": "US",
    "website": "http://www.belmarpharmacy.com/",
    "phone": "(316) 721-2626",
    "phoneUnformatted": "+13167212626",
    "claimThisBusiness": false,
    "location": {
      "lat": 37.7468321,
      "lng": -97.4253662
    },
    "totalScore": 4.5,
    "permanentlyClosed": false,
    "temporarilyClosed": false,
    "placeId": null,
    "categories": [
      "Pharmacy"
    ],
    "fid": "0x87bb1fe2e4439d11:0x86b9eca2b02e92dd",
    "cid": "9708050655258514141",
    "reviewsCount": 33,
    "imagesCount": 3,
    "imageCategories": [],
    "scrapedAt": "2025-06-22T07:58:53.846Z",
    "googleFoodUrl": null,
    "hotelAds": [],
    "openingHours": [
      {
        "day": "Monday",
        "hours": "9\u202fAM to 6\u202fPM"
      },
      {
        "day": "Tuesday",
        "hours": "9\u202fAM to 6\u202fPM"
      },
      {
        "day": "Wednesday",
        "hours": "9\u202fAM to 6\u202fPM"
      },
      {
        "day": "Thursday",
        "hours": "9\u202fAM to 6\u202fPM"
      },
      {
        "day": "Friday",
        "hours": "9\u202fAM to 6\u202fPM"
      },
      {
        "day": "Saturday",
        "hours": "Closed"
      },
      {
        "day": "Sunday",
        "hours": "Closed"
      }
    ],
    "peopleAlsoSearch": [],
    "placesTags": [],
    "reviewsTags": [],
    "additionalInfo": {
      "Service options": [
        {
          "Delivery": true
        }
      ],
      "Accessibility": [
        {
          "Wheelchair accessible entrance": true
        },
        {
          "Wheelchair accessible parking lot": true
        }
      ],
      "Payments": [
        {
          "Credit cards": true
        },
        {
          "Debit cards": true
        },
        {
          "Credit cards": true
        }
      ]
    },
    "gasPrices": [],
    "url": "https://www.google.com/maps/search/?api=1&query=Belmar%20Pharmacy%20(formerly%20Custom%20Rx%20Pharmacy)&query_place_id=ChIJEZ1D5OIfu4cR3ZIusKLsuYY",
    "searchPageUrl": "https://www.google.com/maps/search/independent%20pharmacy%20Wichita%20KS/@64.34834014395538,-151.95971198567602,9z?hl=en",
    "searchString": "independent pharmacy Wichita KS",
    "language": "en",
    "rank": 2,
    "isAdvertisement": false,
    "imageUrl": "https://lh3.googleusercontent.com/p/AF1QipONwbIk6ez6zeXn8y7FuFqTyx0ja_LQOoMADT85=w408-h408-k-no",
    "kgmid": "/g/1td2bvv5",
    "classification": "independent",
    "is_independent": true,
    "is_compounding": true,
    "confidence": 0.95,
    "source": "perplexity",
    "method": "llm"
  },
  {
    "title": "West Wichita Family Pharmacy",
    "price": null,
    "categoryName": "Pharmacy",
    "address": "8200 W Central Ave STE 5, Wichita, KS 67212",
    "neighborhood": null,
    "street": "8200 W Central Ave STE 5",
    "city": "Wichita",
    "postalCode": "67212",
    "state": "Kansas",
    "countryCode": "US",
    "website": "http://www.wwfrx.com/",
    "phone": "(316) 491-6428",
    "phoneUnformatted": "+13164916428",
    "claimThisBusiness": false,
    "location": {
      "lat": 37.6949432,
      "lng": -97.4368679
    },
    "totalScore": 4.5,
    "permanentlyClosed": false,
    "temporarilyClosed": false,
    "placeId": null,
    "categories": [
      "Pharmacy"
    ],
    "fid": "0x87bae16fd49f00b9:0xdffea917cb0b7445",
    "cid": "16140524034198303813",
    "reviewsCount": 23,
    "imagesCount": null,
    "imageCategories": [],
    "scrapedAt": "2025-06-22T07:58:53.846Z",
    "googleFoodUrl": null,
    "hotelAds": [],
    "openingHours": [
      {
        "day": "Monday",
        "hours": "9\u202fAM to 6\u202fPM"
      },
      {
        "day": "Tuesday",
        "hours": "9\u202fAM to 6\u202fPM"
      },
      {
        "day": "Wednesday",
        "hours": "9\u202fAM to 6\u202fPM"
      },
      {
        "day": "Thursday",
        "hours": "9\u202fAM to 6\u202fPM"
      },
      {
        "day": "Friday",
        "hours": "9\u202fAM to 6\u202fPM"
      },
      {
        "day": "Saturday",
        "hours": "9\u202fAM to 12\u202fPM"
      },
      {
        "day": "Sunday",
        "hours": "Closed"
      }
    ],
    "peopleAlsoSearch": [],
    "placesTags": [],
    "reviewsTags": [],
    "additionalInfo": {
      "From the business": [
        {
          "Small business": true
        }
      ],
      "Service options": [
        {
          "Curbside pickup": true
        },
        {
          "Delivery": true
        },
        {
          "Drive-through": true
        },
        {
          "In-store pickup": true
        },
        {
          "In-store shopping": true
        },
        {
          "Onsite services": true
        }
      ],
      "Accessibility": [
        {
          "Wheelchair accessible entrance": true
        },
        {
          "Wheelchair accessible parking lot": true
        }
      ],
      "Planning": [
        {
          "Quick visit": true
        }
      ],
      "Payments": [
        {
          "Credit cards": true
        }
      ]
    },
    "gasPrices": [],
    "url": "https://www.google.com/maps/search/?api=1&query=West%20Wichita%20Family%20Pharmacy&query_place_id=ChIJuQCf1G_huocRRXQLyxep_t8",
    "searchPageUrl": "https://www.google.com/maps/search/independent%20pharmacy%20Wichita%20KS/@64.34834014395538,-151.95971198567602,9z?hl=en",
    "searchString": "independent pharmacy Wichita KS",
    "language": "en",
    "rank": 3,
    "isAdvertisement": false,
    "kgmid": "/g/11h42swxrw",
    "classification": "independent",
    "is_independent": true,
    "is_compounding": false,
    "confidence": 0.8,
    "source": "perplexity",
    "method": "llm"
  },
  {
    "title": "Consumer's Pharmacy",
    "price": null,
    "categoryName": "Pharmacy",
    "address": "1035 N Emporia Ave, Wichita, KS 67214",
    "neighborhood": null,
    "street": "1035 N Emporia Ave",
    "city": "Wichita",
    "postalCode": "67214",
    "state": "Kansas",
    "countryCode": "US",
    "website": "http://consumerspharmacy.com/",
    "phone": "(316) 263-6233",
    "phoneUnformatted": "+13162636233",
    "claimThisBusiness": false,
    "location": {
      "lat": 37.7018623,
      "lng": -97.3339278
    },
    "totalScore": 4.2,
    "permanentlyClosed": false,
    "temporarilyClosed": false,
    "placeId": null,
    "categories": [
      "Pharmacy"
    ],
    "fid": "0x87bae3c94c900231:0x708a25e4bfdbb7bb",
    "cid": "8109335743435618235",
    "reviewsCount": 53,
    "imagesCount": 3,
    "imageCategories": [],
    "scrapedAt": "2025-06-22T07:58:53.846Z",
    "googleFoodUrl": null,
    "hotelAds": [],
    "openingHours": [
      {
        "day": "Monday",
        "hours": "9\u202fAM to 6\u202fPM"
      },
      {
        "day": "Tuesday",
        "hours": "9\u202fAM to 6\u202fPM"
      },
      {
        "day": "Wednesday",
        "hours": "9\u202fAM to 6\u202fPM"
      },
      {
        "day": "Thursday",
        "hours": "9\u202fAM to 6\u202fPM"
      },
      {
        "day": "Friday",
        "hours": "9\u202fAM to 6\u202fPM"
      },
      {
        "day": "Saturday",
        "hours": "Closed"
      },
      {
        "day": "Sunday",
        "hours": "Closed"
      }
    ],
    "additionalOpeningHours": {
      "Drive through": [
        {
          "day": "Monday",
          "hours": "9\u202fAM\u20136\u202fPM"
        },
        {
          "day": "Tuesday",
          "hours": "9\u202fAM\u20136\u202fPM"
        },
        {
          "day": "Wednesday",
          "hours": "9\u202fAM\u20136\u202fPM"
        },
        {
          "day": "Thursday",
          "hours": "9\u202fAM\u20136\u202fPM"
        },
        {
          "day": "Friday",
          "hours": "9\u202fAM\u20136\u202fPM"
        },
        {
          "day": "Saturday",
          "hours": "Closed"
        },
        {
          "day": "Sunday",
          "hours": "Closed"
        }
      ]
    },
    "peopleAlsoSearch": [],
    "placesTags": [],
    "reviewsTags": [],
    "additionalInfo": {
      "From the business": [
        {
          "Small business": true
        }
      ],
      "Service options": [
        {
          "Delivery": true
        },
        {
          "Drive-through": true
        },
        {
          "In-store pickup": true
        },
        {
          "In-store shopping": true
        },
        {
          "Same-day delivery": true
        }
      ],
      "Accessibility": [
        {
          "Wheelchair accessible entrance": true
        },
        {
          "Wheelchair accessible parking lot": true
        }
      ],
      "Payments": [
        {
          "Credit cards": true
        },
        {
          "Debit cards": true
        },
        {
          "NFC mobile payments": true
        },
        {
          "Credit cards": true
        }
      ]
    },
    "gasPrices": [],
    "url": "https://www.google.com/maps/search/?api=1&query=Consumer's%20Pharmacy&query_place_id=ChIJMQKQTMnjuocRu7fbv-QlinA",
    "searchPageUrl": "https://www.google.com/maps/search/independent%20pharmacy%20Wichita%20KS/@64.34834014395538,-151.95971198567602,9z?hl=en",
    "searchString": "independent pharmacy Wichita KS",
    "language": "en",
    "rank": 4,
    "isAdvertisement": false,
    "imageUrl": "https://lh3.googleusercontent.com/p/AF1QipOtLBmBX61GsiGJZlR4rmPRXm6c_v6YdO0EANpH=w480-h240-k-no",
    "kgmid": "/g/1tk63mz7",
    "classification": "independent",
    "is_independent": true,
    "is_compounding": false,
    "confidence": 0.9,
    "source": "perplexity",
    "method": "llm"
  },
  {
    "title": "Dandurand Drugs West",
    "price": null,
    "categoryName": "Pharmacy",
    "address": "2233 N Ridge Rd, Wichita, KS 67205",
    "neighborhood": null,
    "street": "2233 N Ridge Rd",
    "city": "Wichita",
    "postalCode": "67205",
    "state": "Kansas",
    "countryCode": "US",
    "website": "https://danduranddrugs.com/west-wichita-n-ridge-rd",
    "phone": "(316) 729-6000",
    "phoneUnformatted": "+13167296000",
    "claimThisBusiness": false,
    "location": {
      "lat": 37.7241676,
      "lng": -97.4269372
    },
    "totalScore": 4.2,
    "permanentlyClosed": false,
    "temporarilyClosed": false,
    "placeId": null,
    "categories": [
      "Pharmacy"
    ],
    "fid": "0x87bae012a519c315:0x7116c2dc0b5eb567",
    "cid": "8148914826112841063",
    "reviewsCount": 39,
    "imagesCount": 10,
    "imageCategories": [],
    "scrapedAt": "2025-06-22T07:58:53.846Z",
    "googleFoodUrl": null,
    "hotelAds": [],
    "openingHours": [
      {
        "day": "Monday",
        "hours": "9\u202fAM to 6\u202fPM"
      },
      {
        "day": "Tuesday",
        "hours": "9\u202fAM to 6\u202fPM"
      },
      {
        "day": "Wednesday",
        "hours": "9\u202fAM to 6\u202fPM"
      },
      {
        "day": "Thursday",
        "hours": "9\u202fAM to 6\u202fPM"
      },
      {
        "day": "Friday",
        "hours": "9\u202fAM to 6\u202fPM"
      },
      {
        "day": "Saturday",
        "hours": "Closed"
      },
      {
        "day": "Sunday",
        "hours": "Closed"
      }
    ],
    "peopleAlsoSearch": [],
    "placesTags": [],
    "reviewsTags": [],
    "additionalInfo": {
      "Service options": [
        {
          "Delivery": true
        },
        {
          "In-store pickup": true
        },
        {
          "In-store shopping": true
        },
        {
          "Same-day delivery": true
        }
      ],
      "Accessibility": [
        {
          "Wheelchair accessible entrance": true
        },
        {
          "Wheelchair accessible parking lot": true
        }
      ],
      "Planning": [
        {
          "Quick visit": true
        }
      ],
      "Payments": [
        {
          "Checks": true
        },
        {
          "Credit cards": true
        },
        {
          "Debit cards": true
        },
        {
          "NFC mobile payments": true
        }
      ]
    },
    "gasPrices": [],
    "url": "https://www.google.com/maps/search/?api=1&query=Dandurand%20Drugs%20West&query_place_id=ChIJFcMZpRLguocRZ7VeC9zCFnE",
    "searchPageUrl": "https://www.google.com/maps/search/independent%20pharmacy%20Wichita%20KS/@64.34834014395538,-151.95971198567602,9z?hl=en",
    "searchString": "independent pharmacy Wichita KS",
    "language": "en",
    "rank": 5,
    "isAdvertisement": false,
    "imageUrl": "https://lh3.googleusercontent.com/p/AF1QipO-x3LZXNyyTW3JOqm_BLuWDa2Ivwrpq-AVQB6J=w408-h408-k-no",
    "kgmid": "/g/11b5wkg3r7",
    "classification": "independent",
    "is_independent": true,
    "is_compounding": true,
    "confidence": 0.95,
    "source": "perplexity",
    "method": "llm"
  },
  {
    "title": "Dandurand Drugs E. Harry",
    "price": null,
    "categoryName": "Pharmacy",
    "address": "4183 E Harry St, Wichita, KS 67218",
    "neighborhood": "Grandview Heights",
    "street": "4183 E Harry St",
    "city": "Wichita",
    "postalCode": "67218",
    "state": "Kansas",
    "countryCode": "US",
    "phone": "(316) 689-6100",
    "phoneUnformatted": "+13166896100",
    "claimThisBusiness": false,
    "location": {
      "lat": 37.6640882,
      "lng": -97.287781
    },
    "totalScore": 4.8,
    "permanentlyClosed": false,
    "temporarilyClosed": false,
    "placeId": null,
    "categories": [
      "Pharmacy"
    ],
    "fid": "0x87bae49dab82cedf:0x482dcb519e180d47",
    "cid": "5201036696087956807",
    "reviewsCount": 26,
    "imagesCount": 36,
    "imageCategories": [],
    "scrapedAt": "2025-06-22T07:58:53.847Z",
    "googleFoodUrl": null,
    "hotelAds": [],
    "openingHours": [
      {
        "day": "Monday",
        "hours": "9\u202fAM to 6\u202fPM"
      },
      {
        "day": "Tuesday",
        "hours": "9\u202fAM to 6\u202fPM"
      },
      {
        "day": "Wednesday",
        "hours": "9\u202fAM to 6\u202fPM"
      },
      {
        "day": "Thursday",
        "hours": "9\u202fAM to 6\u202fPM"
      },
      {
        "day": "Friday",
        "hours": "9\u202fAM to 6\u202fPM"
      },
      {
        "day": "Saturday",
        "hours": "Closed"
      },
      {
        "day": "Sunday",
        "hours": "Closed"
      }
    ],
    "peopleAlsoSearch": [],
    "placesTags": [],
    "reviewsTags": [],
    "additionalInfo": {
      "Service options": [
        {
          "Delivery": true
        },
        {
          "Drive-through": true
        },
        {
          "In-store pickup": true
        },
        {
          "In-store shopping": true
        },
        {
          "Onsite services": true
        },
        {
          "Same-day delivery": true
        }
      ],
      "Accessibility": [
        {
          "Wheelchair accessible entrance": true
        },
        {
          "Wheelchair accessible parking lot": true
        }
      ],
      "Planning": [
        {
          "Quick visit": true
        }
      ],
      "Payments": [
        {
          "Checks": true
        },
        {
          "Credit cards": true
        },
        {
          "Debit cards": true
        },
        {
          "Credit cards": true
        }
      ]
    },
    "gasPrices": [],
    "url": "https://www.google.com/maps/search/?api=1&query=Dandurand%20Drugs%20E.%20Harry&query_place_id=ChIJ386Cq53kuocRRw0YnlHLLUg",
    "searchPageUrl": "https://www.google.com/maps/search/independent%20pharmacy%20Wichita%20KS/@64.34834014395538,-151.95971198567602,9z?hl=en",
    "searchString": "independent pharmacy Wichita KS",
    "language": "en",
    "rank": 6,
    "isAdvertisement": false,
    "imageUrl": "https://lh3.googleusercontent.com/p/AF1QipOKki9w4FDH2_jBiXJxOn-tu3aqE-pWPrCY4WI=w408-h544-k-no",
    "kgmid": "/g/1tdgqbk1",
    "classification": "independent",
    "is_independent": true,
    "is_compounding": true,
    "confidence": 0.95,
    "source": "perplexity",
    "method": "llm"
  },
  {
    "title": "Dandurand Drugs East",
    "price": null,
    "categoryName": "Pharmacy",
    "address": "7732 E Central Ave, Wichita, KS 67206",
    "neighborhood": null,
    "street": "7732 E Central Ave",
    "city": "Wichita",
    "postalCode": "67206",
    "state": "Kansas",
    "countryCode": "US",
    "website": "https://danduranddrugs.com/",
    "phone": "(316) 685-2353",
    "phoneUnformatted": "+13166852353",
    "claimThisBusiness": false,
    "location": {
      "lat": 37.694676,
      "lng": -97.246029
    },
    "totalScore": 4.4,
    "permanentlyClosed": false,
    "temporarilyClosed": false,
    "placeId": null,
    "categories": [
      "Pharmacy",
      "Gift shop",
      "Jewelry store"
    ],
    "fid": "0x87bafcc0516bff49:0x9da6b6007cac58db",
    "cid": "11359967223296579803",
    "reviewsCount": 65,
    "imagesCount": 15,
    "imageCategories": [],
    "scrapedAt": "2025-06-22T07:58:53.847Z",
    "googleFoodUrl": null,
    "hotelAds": [],
    "openingHours": [
      {
        "day": "Monday",
        "hours": "8:30\u202fAM to 6\u202fPM"
      },
      {
        "day": "Tuesday",
        "hours": "8:30\u202fAM to 6\u202fPM"
      },
      {
        "day": "Wednesday",
        "hours": "8:30\u202fAM to 6\u202fPM"
      },
      {
        "day": "Thursday",
        "hours": "8:30\u202fAM to 6\u202fPM"
      },
      {
        "day": "Friday",
        "hours": "8:30\u202fAM to 6\u202fPM"
      },
      {
        "day": "Saturday",
        "hours": "8:30\u202fAM to 4\u202fPM"
      },
      {
        "day": "Sunday",
        "hours": "Closed"
      }
    ],
    "peopleAlsoSearch": [],
    "placesTags": [],
    "reviewsTags": [],
    "additionalInfo": {
      "Service options": [
        {
          "Delivery": true
        },
        {
          "In-store pickup": true
        },
        {
          "Same-day delivery": true
        }
      ],
      "Accessibility": [
        {
          "Wheelchair accessible entrance": true
        },
        {
          "Wheelchair accessible parking lot": true
        }
      ],
      "Planning": [
        {
          "Quick visit": true
        }
      ],
      "Payments": [
        {
          "Credit cards": true
        },
        {
          "Debit cards": true
        },
        {
          "NFC mobile payments": true
        },
        {
          "Credit cards": true
        }
      ]
    },
    "gasPrices": [],
    "url": "https://www.google.com/maps/search/?api=1&query=Dandurand%20Drugs%20East&query_place_id=ChIJSf9rUcD8uocR21isfAC2pp0",
    "searchPageUrl": "https://www.google.com/maps/search/independent%20pharmacy%20Wichita%20KS/@64.34834014395538,-151.95971198567602,9z?hl=en",
    "searchString": "independent pharmacy Wichita KS",
    "language": "en",
    "rank": 7,
    "isAdvertisement": false,
    "imageUrl": "https://lh3.googleusercontent.com/p/AF1QipM7tFN-4Pl9qzaSfGACy_cqaPfMtbwb363-99a3=w408-h271-k-no",
    "kgmid": "/g/1td1vzd3",
    "classification": "independent",
    "is_independent": true,
    "is_compounding": true,
    "confidence": 0.95,
    "source": "perplexity",
    "method": "llm"
  },
  {
    "title": "Senior Care Pharmacy",
    "price": null,
    "categoryName": "Pharmacy",
    "address": "1402 S Ridge Rd, Wichita, KS 67209",
    "neighborhood": null,
    "street": "1402 S Ridge Rd",
    "city": "Wichita",
    "postalCode": "67209",
    "state": "Kansas",
    "countryCode": "US",
    "website": "https://seniorcarepharmacywichita.com/",
    "phone": "(316) 945-7455",
    "phoneUnformatted": "+13169457455",
    "claimThisBusiness": true,
    "location": {
      "lat": 37.6684123,
      "lng": -97.4253304
    },
    "totalScore": 4.1,
    "permanentlyClosed": false,
    "temporarilyClosed": false,
    "placeId": null,
    "categories": [
      "Pharmacy"
    ],
    "fid": "0x87bae0b04e23a4d9:0xe29b04b03e5e065f",
    "cid": "16328650028968969823",
    "reviewsCount": 11,
    "imagesCount": 1,
    "imageCategories": [],
    "scrapedAt": "2025-06-22T07:58:56.338Z",
    "googleFoodUrl": null,
    "hotelAds": [],
    "openingHours": [
      {
        "day": "Monday",
        "hours": "8\u202fAM to 5\u202fPM"
      },
      {
        "day": "Tuesday",
        "hours": "8\u202fAM to 5\u202fPM"
      },
      {
        "day": "Wednesday",
        "hours": "8\u202fAM to 5\u202fPM"
      },
      {
        "day": "Thursday",
        "hours": "8\u202fAM to 5\u202fPM"
      },
      {
        "day": "Friday",
        "hours": "8\u202fAM to 5\u202fPM"
      },
      {
        "day": "Saturday",
        "hours": "9\u202fAM to 12\u202fPM"
      },
      {
        "day": "Sunday",
        "hours": "Closed"
      }
    ],
    "peopleAlsoSearch": [],
    "placesTags": [],
    "reviewsTags": [],
    "additionalInfo": {
      "Service options": [
        {
          "Delivery": true
        },
        {
          "Same-day delivery": true
        }
      ],
      "Accessibility": [
        {
          "Wheelchair accessible entrance": true
        },
        {
          "Wheelchair accessible parking lot": true
        }
      ]
    },
    "gasPrices": [],
    "url": "https://www.google.com/maps/search/?api=1&query=Senior%20Care%20Pharmacy&query_place_id=ChIJ2aQjTrDguocRXwZePrAEm-I",
    "searchPageUrl": "https://www.google.com/maps/search/independent%20pharmacy%20Wichita%20KS/@58.095490516641576,-133.54692821486086,9z?hl=en",
    "searchString": "independent pharmacy Wichita KS",
    "language": "en",
    "rank": 7,
    "isAdvertisement": false,
    "imageUrl": "https://streetviewpixels-pa.googleapis.com/v1/thumbnail?panoid=cPzSpLVUDpQXhubTjBJqhA&cb_client=search.gws-prod.gps&w=408&h=240&yaw=177.63704&pitch=0&thumbfov=100",
    "kgmid": "/g/1tjs5g2k",
    "classification": "chain",
    "is_independent": false,
    "is_compounding": false,
    "confidence": 0.9,
    "source": "perplexity",
    "method": "llm"
  },
  {
    "title": "HealthCore Community Pharmacy",
    "price": null,
    "categoryName": "Pharmacy",
    "address": "2707 E 21st St N Suite 200, Wichita, KS 67214",
    "neighborhood": null,
    "street": "2707 E 21st St N Suite 200",
    "city": "Wichita",
    "postalCode": "67214",
    "state": "Kansas",
    "countryCode": "US",
    "website": "https://healthcoreclinic.org/pharmacy",
    "phone": "(316) 768-5922",
    "phoneUnformatted": "+13167685922",
    "claimThisBusiness": false,
    "location": {
      "lat": 37.7224141,
      "lng": -97.3051436
    },
    "totalScore": 4.6,
    "permanentlyClosed": false,
    "temporarilyClosed": false,
    "placeId": null,
    "categories": [
      "Pharmacy"
    ],
    "fid": "0x87bae3808de04a03:0xb8870ec524985e98",
    "cid": "13296612664719990424",
    "reviewsCount": 5,
    "imagesCount": 11,
    "imageCategories": [],
    "scrapedAt": "2025-06-22T07:58:56.338Z",
    "googleFoodUrl": null,
    "hotelAds": [],
    "openingHours": [
      {
        "day": "Monday",
        "hours": "8\u202fAM to 7\u202fPM"
      },
      {
        "day": "Tuesday",
        "hours": "8\u202fAM to 7\u202fPM"
      },
      {
        "day": "Wednesday",
        "hours": "8\u202fAM to 7\u202fPM"
      },
      {
        "day": "Thursday",
        "hours": "8\u202fAM to 7\u202fPM"
      },
      {
        "day": "Friday",
        "hours": "8\u202fAM to 5\u202fPM"
      },
      {
        "day": "Saturday",
        "hours": "8\u202fAM to 1\u202fPM"
      },
      {
        "day": "Sunday",
        "hours": "Closed"
      }
    ],
    "peopleAlsoSearch": [],
    "placesTags": [],
    "reviewsTags": [],
    "additionalInfo": {
      "Accessibility": [
        {
          "Wheelchair accessible entrance": true
        },
        {
          "Wheelchair accessible parking lot": true
        }
      ],
      "Payments": [
        {
          "Credit cards": true
        }
      ]
    },
    "gasPrices": [],
    "url": "https://www.google.com/maps/search/?api=1&query=HealthCore%20Community%20Pharmacy&query_place_id=ChIJA0rgjYDjuocRmF6YJMUOh7g",
    "searchPageUrl": "https://www.google.com/maps/search/independent%20pharmacy%20Wichita%20KS/@58.095490516641576,-133.54692821486086,9z?hl=en",
    "searchString": "independent pharmacy Wichita KS",
    "language": "en",
    "rank": 8,
    "isAdvertisement": false,
    "imageUrl": "https://lh3.googleusercontent.com/p/AF1QipMPKvIsp02GUKdh3hdbEgnG6y16WLu4vmkNfljo=w408-h297-k-no",
    "kgmid": "/g/11l3wdzy7s",
    "classification": "independent",
    "is_independent": true,
    "is_compounding": false,
    "confidence": 0.9,
    "source": "perplexity",
    "method": "llm"
  },
  {
    "title": "Hart Pharmacy",
    "price": null,
    "categoryName": "Pharmacy",
    "address": "6217 E 13th St N, Wichita, KS 67208",
    "neighborhood": null,
    "street": "6217 E 13th St N",
    "city": "Wichita",
    "postalCode": "67208",
    "state": "Kansas",
    "countryCode": "US",
    "website": "http://www.hartrx.com/",
    "phone": "(316) 683-5621",
    "phoneUnformatted": "+13166835621",
    "claimThisBusiness": false,
    "location": {
      "lat": 37.70713,
      "lng": -97.2639545
    },
    "totalScore": 4,
    "permanentlyClosed": false,
    "temporarilyClosed": false,
    "placeId": null,
    "categories": [
      "Pharmacy"
    ],
    "fid": "0x87bafcd49960b333:0x922dd9024ee9d6a9",
    "cid": "10533313707426567849",
    "reviewsCount": 115,
    "imagesCount": 14,
    "imageCategories": [],
    "scrapedAt": "2025-06-22T07:58:56.338Z",
    "googleFoodUrl": null,
    "hotelAds": [],
    "openingHours": [
      {
        "day": "Monday",
        "hours": "9\u202fAM to 6\u202fPM"
      },
      {
        "day": "Tuesday",
        "hours": "9\u202fAM to 6\u202fPM"
      },
      {
        "day": "Wednesday",
        "hours": "9\u202fAM to 6\u202fPM"
      },
      {
        "day": "Thursday",
        "hours": "9\u202fAM to 6\u202fPM"
      },
      {
        "day": "Friday",
        "hours": "9\u202fAM to 6\u202fPM"
      },
      {
        "day": "Saturday",
        "hours": "Closed"
      },
      {
        "day": "Sunday",
        "hours": "Closed"
      }
    ],
    "peopleAlsoSearch": [],
    "placesTags": [],
    "reviewsTags": [],
    "additionalInfo": {
      "From the business": [
        {
          "Small business": true
        }
      ],
      "Service options": [
        {
          "Delivery": true
        },
        {
          "In-store pickup": true
        },
        {
          "Onsite services": true
        },
        {
          "Same-day delivery": true
        }
      ],
      "Accessibility": [
        {
          "Wheelchair accessible entrance": true
        },
        {
          "Wheelchair accessible parking lot": true
        }
      ],
      "Planning": [
        {
          "Quick visit": true
        }
      ],
      "Payments": [
        {
          "Credit cards": true
        },
        {
          "Debit cards": true
        },
        {
          "NFC mobile payments": true
        },
        {
          "Credit cards": true
        }
      ]
    },
    "gasPrices": [],
    "url": "https://www.google.com/maps/search/?api=1&query=Hart%20Pharmacy&query_place_id=ChIJM7NgmdT8uocRqdbpTgLZLZI",
    "searchPageUrl": "https://www.google.com/maps/search/independent%20pharmacy%20Wichita%20KS/@58.095490516641576,-133.54692821486086,9z?hl=en",
    "searchString": "independent pharmacy Wichita KS",
    "language": "en",
    "rank": 9,
    "isAdvertisement": false,
    "imageUrl": "https://lh3.googleusercontent.com/p/AF1QipO3rGucm5g3aNtv9mvy9nAv-I6HGY11NA0w3VNI=w408-h544-k-no",
    "kgmid": "/g/1td4kmw2",
    "classification": "independent",
    "is_independent": true,
    "is_compounding": false,
    "confidence": 0.9,
    "source": "perplexity",
    "method": "llm"
  },
  {
    "title": "Dandurand Drugs Wellness",
    "price": null,
    "categoryName": "Pharmacy",
    "address": "550 N Hillside St, Wichita, KS 67214",
    "neighborhood": "Sleepy Hollow",
    "street": "550 N Hillside St",
    "city": "Wichita",
    "postalCode": "67214",
    "state": "Kansas",
    "countryCode": "US",
    "phone": "(316) 962-4210",
    "phoneUnformatted": "+13169624210",
    "claimThisBusiness": false,
    "location": {
      "lat": 37.6952735,
      "lng": -97.2977831
    },
    "totalScore": 4.4,
    "permanentlyClosed": false,
    "temporarilyClosed": false,
    "placeId": null,
    "categories": [
      "Pharmacy"
    ],
    "fid": "0x87bae3a54ab795b9:0x76444db2c2fbfeb1",
    "cid": "8522021825062633137",
    "reviewsCount": 8,
    "imagesCount": 1,
    "imageCategories": [],
    "scrapedAt": "2025-06-22T07:58:56.338Z",
    "googleFoodUrl": null,
    "hotelAds": [],
    "openingHours": [
      {
        "day": "Monday",
        "hours": "9\u202fAM to 7\u202fPM"
      },
      {
        "day": "Tuesday",
        "hours": "9\u202fAM to 7\u202fPM"
      },
      {
        "day": "Wednesday",
        "hours": "9\u202fAM to 7\u202fPM"
      },
      {
        "day": "Thursday",
        "hours": "9\u202fAM to 7\u202fPM"
      },
      {
        "day": "Friday",
        "hours": "9\u202fAM to 7\u202fPM"
      },
      {
        "day": "Saturday",
        "hours": "9\u202fAM to 3\u202fPM"
      },
      {
        "day": "Sunday",
        "hours": "9\u202fAM to 3\u202fPM"
      }
    ],
    "peopleAlsoSearch": [],
    "placesTags": [],
    "reviewsTags": [],
    "additionalInfo": {
      "Service options": [
        {
          "Delivery": true
        },
        {
          "In-store pickup": true
        }
      ],
      "Accessibility": [
        {
          "Wheelchair accessible entrance": true
        },
        {
          "Wheelchair accessible parking lot": true
        }
      ],
      "Amenities": [
        {
          "Wi-Fi": true
        },
        {
          "Free Wi-Fi": true
        }
      ],
      "Payments": [
        {
          "Credit cards": true
        },
        {
          "Debit cards": true
        },
        {
          "NFC mobile payments": true
        },
        {
          "Credit cards": true
        }
      ]
    },
    "gasPrices": [],
    "url": "https://www.google.com/maps/search/?api=1&query=Dandurand%20Drugs%20Wellness&query_place_id=ChIJuZW3SqXjuocRsf77wrJNRHY",
    "searchPageUrl": "https://www.google.com/maps/search/independent%20pharmacy%20Wichita%20KS/@58.095490516641576,-133.54692821486086,9z?hl=en",
    "searchString": "independent pharmacy Wichita KS",
    "language": "en",
    "rank": 10,
    "isAdvertisement": false,
    "imageUrl": "https://streetviewpixels-pa.googleapis.com/v1/thumbnail?panoid=7RgtPeRLTLLLV6M426GVzA&cb_client=search.gws-prod.gps&w=408&h=240&yaw=271.1204&pitch=0&thumbfov=100",
    "kgmid": "/g/11hdzd096t",
    "classification": "independent",
    "is_independent": true,
    "is_compounding": true,
    "confidence": 0.9,
    "source": "perplexity",
    "method": "llm"
  },
  {
    "title": "Hunter Health Community Pharmacy",
    "price": null,
    "categoryName": "Pharmacy",
    "address": "527 N Grove St, Wichita, KS 67214",
    "neighborhood": "The Elm",
    "street": "527 N Grove St",
    "city": "Wichita",
    "postalCode": "67214",
    "state": "Kansas",
    "countryCode": "US",
    "website": "https://hunterhealth.org/services/pharmacy/",
    "phone": "(316) 796-8438",
    "phoneUnformatted": "+13167968438",
    "claimThisBusiness": false,
    "location": {
      "lat": 37.6943183,
      "lng": -97.3085625
    },
    "totalScore": 4.5,
    "permanentlyClosed": false,
    "temporarilyClosed": false,
    "placeId": null,
    "categories": [
      "Pharmacy"
    ],
    "fid": "0x87bae31b999bb4cb:0xd5402895c6497170",
    "cid": "15366326552330072432",
    "reviewsCount": 6,
    "imagesCount": 1,
    "imageCategories": [],
    "scrapedAt": "2025-06-22T07:58:57.452Z",
    "googleFoodUrl": null,
    "hotelAds": [],
    "openingHours": [
      {
        "day": "Monday",
        "hours": "8\u202fAM to 7\u202fPM"
      },
      {
        "day": "Tuesday",
        "hours": "8\u202fAM to 7\u202fPM"
      },
      {
        "day": "Wednesday",
        "hours": "8\u202fAM to 7\u202fPM"
      },
      {
        "day": "Thursday",
        "hours": "8\u202fAM to 7\u202fPM"
      },
      {
        "day": "Friday",
        "hours": "8\u202fAM to 7\u202fPM"
      },
      {
        "day": "Saturday",
        "hours": "Closed"
      },
      {
        "day": "Sunday",
        "hours": "Closed"
      }
    ],
    "peopleAlsoSearch": [],
    "placesTags": [],
    "reviewsTags": [],
    "additionalInfo": {
      "Accessibility": [
        {
          "Wheelchair accessible entrance": true
        },
        {
          "Wheelchair accessible parking lot": true
        }
      ],
      "Payments": [
        {
          "Credit cards": true
        }
      ]
    },
    "gasPrices": [],
    "url": "https://www.google.com/maps/search/?api=1&query=Hunter%20Health%20Community%20Pharmacy&query_place_id=ChIJy7SbmRvjuocRcHFJxpUoQNU",
    "searchPageUrl": "https://www.google.com/maps/search/independent%20pharmacy%20Wichita%20KS/@67.1273844227615,-163.4677018424355,9z?hl=en",
    "searchString": "independent pharmacy Wichita KS",
    "language": "en",
    "rank": 7,
    "isAdvertisement": false,
    "imageUrl": "https://streetviewpixels-pa.googleapis.com/v1/thumbnail?panoid=l8fA4csa84E4odIqsz4OyA&cb_client=search.gws-prod.gps&w=408&h=240&yaw=266.7421&pitch=0&thumbfov=100",
    "kgmid": "/g/11y3v24kd0",
    "classification": "independent",
    "is_independent": true,
    "is_compounding": false,
    "confidence": 0.9,
    "source": "perplexity",
    "method": "llm"
  },
  {
    "title": "AuBurn LTC Pharmacy",
    "price": null,
    "categoryName": "Pharmacy",
    "address": "5318 W Central Ave, Wichita, KS 67212",
    "neighborhood": "Orchard Park",
    "street": "5318 W Central Ave",
    "city": "Wichita",
    "postalCode": "67212",
    "state": "Kansas",
    "countryCode": "US",
    "website": "https://auburnltc.com/",
    "phone": "(316) 252-8600",
    "phoneUnformatted": "+13162528600",
    "claimThisBusiness": false,
    "location": {
      "lat": 37.6950708,
      "lng": -97.4053573
    },
    "totalScore": 2.3,
    "permanentlyClosed": false,
    "temporarilyClosed": false,
    "placeId": null,
    "categories": [
      "Pharmacy",
      "Medical equipment supplier"
    ],
    "fid": "0x87bae11208b46621:0xb17a05ed41259c30",
    "cid": "12788540608430316592",
    "reviewsCount": 6,
    "imagesCount": 2,
    "imageCategories": [],
    "scrapedAt": "2025-06-22T07:58:57.452Z",
    "googleFoodUrl": null,
    "hotelAds": [],
    "openingHours": [
      {
        "day": "Monday",
        "hours": "8\u202fAM to 5\u202fPM"
      },
      {
        "day": "Tuesday",
        "hours": "8\u202fAM to 5\u202fPM"
      },
      {
        "day": "Wednesday",
        "hours": "8\u202fAM to 5\u202fPM"
      },
      {
        "day": "Thursday",
        "hours": "8\u202fAM to 5\u202fPM"
      },
      {
        "day": "Friday",
        "hours": "8\u202fAM to 5\u202fPM"
      },
      {
        "day": "Saturday",
        "hours": "8\u202fAM to 12\u202fPM"
      },
      {
        "day": "Sunday",
        "hours": "Closed"
      }
    ],
    "peopleAlsoSearch": [],
    "placesTags": [],
    "reviewsTags": [],
    "additionalInfo": {
      "Service options": [
        {
          "Delivery": true
        },
        {
          "Same-day delivery": true
        }
      ],
      "Accessibility": [
        {
          "Wheelchair accessible entrance": true
        },
        {
          "Wheelchair accessible parking lot": true
        }
      ],
      "Payments": [
        {
          "Credit cards": true
        }
      ]
    },
    "gasPrices": [],
    "url": "https://www.google.com/maps/search/?api=1&query=AuBurn%20LTC%20Pharmacy&query_place_id=ChIJIWa0CBLhuocRMJwlQe0FerE",
    "searchPageUrl": "https://www.google.com/maps/search/independent%20pharmacy%20Wichita%20KS/@67.1273844227615,-163.4677018424355,9z?hl=en",
    "searchString": "independent pharmacy Wichita KS",
    "language": "en",
    "rank": 10,
    "isAdvertisement": false,
    "imageUrl": "https://lh3.googleusercontent.com/p/AF1QipNplS6G6IflPwdCxNHuHsYsPkcu6qowRZ1qRE4A=w408-h254-k-no",
    "kgmid": "/g/11hbt603d8",
    "classification": "independent",
    "is_independent": true,
    "is_compounding": true,
    "confidence": 0.9,
    "source": "perplexity",
    "method": "llm"
  },
  {
    "title": "Ascension Rx - Murdock Pharmacy",
    "price": null,
    "categoryName": "Pharmacy",
    "address": "3311 E Murdock St, Wichita, KS 67208",
    "neighborhood": "Sleepy Hollow",
    "street": "3311 E Murdock St",
    "city": "Wichita",
    "postalCode": "67208",
    "state": "Kansas",
    "countryCode": "US",
    "website": "https://healthcare.ascension.org/locations/kansas/kswic/wichita-ascension-medical-group-via-christi-on-murdock/departments/pharmacy?utm_campaign=gmb&utm_medium=organic&utm_source=local",
    "phone": "(316) 274-8280",
    "phoneUnformatted": "+13162748280",
    "claimThisBusiness": false,
    "location": {
      "lat": 37.6967821,
      "lng": -97.2963328
    },
    "totalScore": 3.9,
    "permanentlyClosed": false,
    "temporarilyClosed": false,
    "placeId": null,
    "categories": [
      "Pharmacy"
    ],
    "fid": "0x87bae311b76eaf8d:0x686fea253adb37f0",
    "cid": "7525490947981522928",
    "reviewsCount": 18,
    "imagesCount": 2,
    "imageCategories": [],
    "scrapedAt": "2025-06-22T07:58:58.936Z",
    "googleFoodUrl": null,
    "hotelAds": [],
    "openingHours": [
      {
        "day": "Monday",
        "hours": "8\u202fAM to 5\u202fPM"
      },
      {
        "day": "Tuesday",
        "hours": "8\u202fAM to 5\u202fPM"
      },
      {
        "day": "Wednesday",
        "hours": "8\u202fAM to 5\u202fPM"
      },
      {
        "day": "Thursday",
        "hours": "8\u202fAM to 5\u202fPM"
      },
      {
        "day": "Friday",
        "hours": "8\u202fAM to 5\u202fPM"
      },
      {
        "day": "Saturday",
        "hours": "Closed"
      },
      {
        "day": "Sunday",
        "hours": "Closed"
      }
    ],
    "peopleAlsoSearch": [],
    "placesTags": [],
    "reviewsTags": [],
    "additionalInfo": {
      "Accessibility": [
        {
          "Wheelchair accessible entrance": true
        },
        {
          "Wheelchair accessible parking lot": true
        }
      ],
      "Payments": [
        {
          "Credit cards": true
        }
      ]
    },
    "gasPrices": [],
    "url": "https://www.google.com/maps/search/?api=1&query=Ascension%20Rx%20-%20Murdock%20Pharmacy&query_place_id=ChIJja9utxHjuocR8DfbOiXqb2g",
    "searchPageUrl": "https://www.google.com/maps/search/independent%20pharmacy%20Wichita%20KS/@69.21166763186608,-143.9041190859444,9z?hl=en",
    "searchString": "independent pharmacy Wichita KS",
    "language": "en",
    "rank": 10,
    "isAdvertisement": false,
    "imageUrl": "https://lh3.googleusercontent.com/p/AF1QipOLrVB523Q5bHxJkMbQSJxD_N1CCknv_BIrO2me=w408-h408-k-no",
    "kgmid": "/g/1tglzhn1",
    "classification": "chain",
    "is_independent": false,
    "is_compounding": false,
    "confidence": 0.95,
    "source": "perplexity",
    "method": "llm"
  },
  {
    "title": "Ascension Rx - St. Joseph Pharmacy",
    "price": null,
    "categoryName": "Pharmacy",
    "address": "3600 E Harry St Room 2001, Wichita, KS 67218",
    "neighborhood": "Hilltop",
    "street": "3600 E Harry St Room 2001",
    "city": "Wichita",
    "postalCode": "67218",
    "state": "Kansas",
    "countryCode": "US",
    "website": "https://healthcare.ascension.org/locations/kansas/kswic/wichita-ascension-via-christi-st-joseph/departments/pharmacy?utm_campaign=gmb&utm_medium=organic&utm_source=local",
    "phone": "(316) 681-6611",
    "phoneUnformatted": "+13166816611",
    "claimThisBusiness": false,
    "location": {
      "lat": 37.6661562,
      "lng": -97.2930942
    },
    "totalScore": 5,
    "permanentlyClosed": false,
    "temporarilyClosed": false,
    "placeId": null,
    "categories": [
      "Pharmacy"
    ],
    "fid": "0x87bae5c063550b4b:0x52e46b593ad4c914",
    "cid": "5973017036783405332",
    "reviewsCount": 5,
    "imagesCount": 3,
    "imageCategories": [],
    "scrapedAt": "2025-06-22T07:58:58.936Z",
    "googleFoodUrl": null,
    "hotelAds": [],
    "openingHours": [
      {
        "day": "Monday",
        "hours": "9\u202fAM to 5:30\u202fPM"
      },
      {
        "day": "Tuesday",
        "hours": "9\u202fAM to 5:30\u202fPM"
      },
      {
        "day": "Wednesday",
        "hours": "9\u202fAM to 5:30\u202fPM"
      },
      {
        "day": "Thursday",
        "hours": "9\u202fAM to 5:30\u202fPM"
      },
      {
        "day": "Friday",
        "hours": "9\u202fAM to 5:30\u202fPM"
      },
      {
        "day": "Saturday",
        "hours": "Closed"
      },
      {
        "day": "Sunday",
        "hours": "Closed"
      }
    ],
    "peopleAlsoSearch": [],
    "placesTags": [],
    "reviewsTags": [],
    "additionalInfo": {
      "Service options": [
        {
          "In-store pickup": true
        }
      ],
      "Accessibility": [
        {
          "Wheelchair accessible entrance": true
        },
        {
          "Wheelchair accessible parking lot": true
        }
      ],
      "Payments": [
        {
          "Credit cards": true
        }
      ]
    },
    "gasPrices": [],
    "url": "https://www.google.com/maps/search/?api=1&query=Ascension%20Rx%20-%20St.%20Joseph%20Pharmacy&query_place_id=ChIJSwtVY8DluocRFMnUOllr5FI",
    "searchPageUrl": "https://www.google.com/maps/search/independent%20pharmacy%20Wichita%20KS/@69.21166763186608,-143.9041190859444,9z?hl=en",
    "searchString": "independent pharmacy Wichita KS",
    "language": "en",
    "rank": 12,
    "isAdvertisement": false,
    "imageUrl": "https://lh3.googleusercontent.com/p/AF1QipM0mOxJZIWatbnw53sF9WVAFVCo0M6Ez0AgbiM6=w408-h521-k-no",
    "kgmid": "/g/11qn9k7wlw",
    "classification": "independent",
    "is_independent": true,
    "is_compounding": false,
    "confidence": 0.9,
    "source": "perplexity",
    "method": "llm"
  },
  {
    "title": "Hart Pharmacy at Comcare",
    "price": null,
    "categoryName": "Pharmacy",
    "address": "1919 N Amidon Ave suite 220, Wichita, KS 67203",
    "neighborhood": null,
    "street": "1919 N Amidon Ave suite 220",
    "city": "Wichita",
    "postalCode": "67203",
    "state": "Kansas",
    "countryCode": "US",
    "website": "http://www.hartrx.com/",
    "phone": "(316) 295-4721",
    "phoneUnformatted": "+13162954721",
    "claimThisBusiness": false,
    "location": {
      "lat": 37.7180923,
      "lng": -97.3635462
    },
    "totalScore": 4.6,
    "permanentlyClosed": false,
    "temporarilyClosed": false,
    "placeId": null,
    "categories": [
      "Pharmacy"
    ],
    "fid": "0x87bae18e1465b163:0x3080044414e1349b",
    "cid": "3494798001294095515",
    "reviewsCount": 13,
    "imagesCount": 2,
    "imageCategories": [],
    "scrapedAt": "2025-06-22T07:59:26.791Z",
    "googleFoodUrl": null,
    "hotelAds": [],
    "openingHours": [
      {
        "day": "Monday",
        "hours": "8\u202fAM to 5\u202fPM"
      },
      {
        "day": "Tuesday",
        "hours": "8\u202fAM to 5\u202fPM"
      },
      {
        "day": "Wednesday",
        "hours": "8\u202fAM to 5\u202fPM"
      },
      {
        "day": "Thursday",
        "hours": "8\u202fAM to 5\u202fPM"
      },
      {
        "day": "Friday",
        "hours": "8\u202fAM to 5\u202fPM"
      },
      {
        "day": "Saturday",
        "hours": "Closed"
      },
      {
        "day": "Sunday",
        "hours": "Closed"
      }
    ],
    "peopleAlsoSearch": [],
    "placesTags": [],
    "reviewsTags": [],
    "additionalInfo": {
      "From the business": [
        {
          "Small business": true
        }
      ],
      "Service options": [
        {
          "In-store pickup": true
        }
      ],
      "Accessibility": [
        {
          "Wheelchair accessible entrance": true
        },
        {
          "Wheelchair accessible parking lot": true
        }
      ],
      "Planning": [
        {
          "Quick visit": true
        }
      ],
      "Payments": [
        {
          "Credit cards": true
        },
        {
          "Debit cards": true
        },
        {
          "NFC mobile payments": true
        },
        {
          "Credit cards": true
        }
      ]
    },
    "gasPrices": [],
    "url": "https://www.google.com/maps/search/?api=1&query=Hart%20Pharmacy%20at%20Comcare&query_place_id=ChIJY7FlFI7huocRmzThFEQEgDA",
    "searchPageUrl": "https://www.google.com/maps/search/independent%20pharmacy%20Wichita%20KS/@63.653579074253855,-145.05491807162034,9z?hl=en",
    "searchString": "independent pharmacy Wichita KS",
    "language": "en",
    "rank": 13,
    "isAdvertisement": false,
    "imageUrl": "https://lh3.googleusercontent.com/gps-cs-s/AC9h4npaYRovbCNKwcoe-wnUjbm8CxLR7WOe-zsdBpexU5f03HaxBL8u4YKa-sfxanKXYRmXoVAFGYe_wYGYC4pwfOQ1GNTaEMfvY-GD0cPW7u2C2vJsv5bIcNwyrvQVRhmyNLjNvCsI=w408-h544-k-no",
    "kgmid": "/g/11gd67qwjs",
    "classification": "independent",
    "is_independent": true,
    "is_compounding": false,
    "confidence": 0.9,
    "source": "perplexity",
    "method": "llm"
  },
  {
    "title": "Walgreens Specialty Pharmacy",
    "description": "Department of the Walgreens chain providing prescription medications & other health-related items.",
    "price": "$$",
    "categoryName": "Pharmacy",
    "address": "803 N Broadway Ave, Wichita, KS 67214",
    "neighborhood": null,
    "street": "803 N Broadway Ave",
    "city": "Wichita",
    "postalCode": "67214",
    "state": "Kansas",
    "countryCode": "US",
    "website": "https://www.walgreens.com/locator/walgreens-803+n+broadway+ave-wichita-ks-67214/id=16517",
    "phone": "(316) 768-5450",
    "phoneUnformatted": "+13167685450",
    "claimThisBusiness": false,
    "location": {
      "lat": 37.6977651,
      "lng": -97.3361488
    },
    "totalScore": 4.7,
    "permanentlyClosed": false,
    "temporarilyClosed": false,
    "placeId": null,
    "categories": [
      "Pharmacy"
    ],
    "fid": "0x87bae3cf5a085539:0x65e272f802bbb539",
    "cid": "7341556752090641721",
    "reviewsCount": 32,
    "imagesCount": 2,
    "imageCategories": [],
    "scrapedAt": "2025-06-22T07:59:26.791Z",
    "googleFoodUrl": null,
    "hotelAds": [],
    "openingHours": [
      {
        "day": "Monday",
        "hours": "8:30\u202fAM to 1:30\u202fPM, 2 to 5\u202fPM"
      },
      {
        "day": "Tuesday",
        "hours": "8:30\u202fAM to 1:30\u202fPM, 2 to 5\u202fPM"
      },
      {
        "day": "Wednesday",
        "hours": "8:30\u202fAM to 1:30\u202fPM, 2 to 5\u202fPM"
      },
      {
        "day": "Thursday",
        "hours": "8:30\u202fAM to 1:30\u202fPM, 2 to 5\u202fPM"
      },
      {
        "day": "Friday",
        "hours": "8:30\u202fAM to 1:30\u202fPM, 2 to 5\u202fPM"
      },
      {
        "day": "Saturday",
        "hours": "Closed"
      },
      {
        "day": "Sunday",
        "hours": "Closed"
      }
    ],
    "peopleAlsoSearch": [],
    "placesTags": [],
    "reviewsTags": [],
    "additionalInfo": {
      "Service options": [
        {
          "In-store pickup": true
        }
      ],
      "Accessibility": [
        {
          "Wheelchair accessible entrance": true
        },
        {
          "Wheelchair accessible parking lot": true
        }
      ],
      "Planning": [
        {
          "Quick visit": true
        }
      ],
      "Payments": [
        {
          "Credit cards": true
        },
        {
          "Debit cards": true
        }
      ]
    },
    "gasPrices": [],
    "url": "https://www.google.com/maps/search/?api=1&query=Walgreens%20Specialty%20Pharmacy&query_place_id=ChIJOVUIWs_juocRObW7Avhy4mU",
    "searchPageUrl": "https://www.google.com/maps/search/independent%20pharmacy%20Wichita%20KS/@63.653579074253855,-145.05491807162034,9z?hl=en",
    "searchString": "independent pharmacy Wichita KS",
    "language": "en",
    "rank": 17,
    "isAdvertisement": false,
    "imageUrl": "https://lh3.googleusercontent.com/p/AF1QipNfFNMyFaNn36jI_aINIlDTGvuRHjTXpQT37qNn=w427-h240-k-no",
    "kgmid": "/g/11c7194kpf",
    "classification": "chain",
    "is_independent": false,
    "is_compounding": false,
    "confidence": 0.95,
    "source": "perplexity",
    "method": "llm"
  },
  {
    "title": "CVS Pharmacy",
    "price": null,
    "categoryName": "Pharmacy",
    "address": "3149 E Harry St, Wichita, KS 67211",
    "neighborhood": "Mead",
    "street": "3149 E Harry St",
    "city": "Wichita",
    "postalCode": "67211",
    "state": "Kansas",
    "countryCode": "US",
    "website": "https://www.cvs.com/store-locator/wichita-ks-pharmacies/3149-east-harry-wichita-ks-67211/storeid=10070?WT.mc_id=LS_GOOGLE_RX_10070",
    "phone": "(316) 686-1583",
    "phoneUnformatted": "+13166861583",
    "claimThisBusiness": false,
    "location": {
      "lat": 37.6641117,
      "lng": -97.2992253
    },
    "totalScore": 4,
    "permanentlyClosed": false,
    "temporarilyClosed": false,
    "placeId": null,
    "categories": [
      "Pharmacy"
    ],
    "fid": "0x87bae48313411de3:0x6ef471199bb88acf",
    "cid": "7995139593290156751",
    "reviewsCount": 23,
    "imagesCount": 8,
    "imageCategories": [],
    "scrapedAt": "2025-06-22T07:59:26.791Z",
    "googleFoodUrl": null,
    "hotelAds": [],
    "openingHours": [
      {
        "day": "Monday",
        "hours": "8\u202fAM to 1:30\u202fPM, 2 to 8\u202fPM"
      },
      {
        "day": "Tuesday",
        "hours": "8\u202fAM to 1:30\u202fPM, 2 to 8\u202fPM"
      },
      {
        "day": "Wednesday",
        "hours": "8\u202fAM to 1:30\u202fPM, 2 to 8\u202fPM"
      },
      {
        "day": "Thursday",
        "hours": "8\u202fAM to 1:30\u202fPM, 2 to 8\u202fPM"
      },
      {
        "day": "Friday",
        "hours": "8\u202fAM to 1:30\u202fPM, 2 to 8\u202fPM"
      },
      {
        "day": "Saturday",
        "hours": "9\u202fAM to 1:30\u202fPM, 2 to 6\u202fPM"
      },
      {
        "day": "Sunday",
        "hours": "11\u202fAM to 1:30\u202fPM, 2 to 5\u202fPM"
      }
    ],
    "peopleAlsoSearch": [],
    "placesTags": [],
    "reviewsTags": [],
    "additionalInfo": {
      "Service options": [
        {
          "Delivery": true
        },
        {
          "Drive-through": true
        },
        {
          "In-store shopping": true
        }
      ],
      "Accessibility": [
        {
          "Wheelchair accessible entrance": true
        },
        {
          "Wheelchair accessible parking lot": true
        }
      ],
      "Offerings": [
        {
          "Naloxone": true
        },
        {
          "Passport photos": true
        }
      ],
      "Crowd": [
        {
          "LGBTQ+ friendly": true
        },
        {
          "Transgender safespace": true
        }
      ],
      "Planning": [
        {
          "Quick visit": true
        }
      ],
      "Payments": [
        {
          "Credit cards": true
        },
        {
          "Debit cards": true
        },
        {
          "NFC mobile payments": true
        },
        {
          "SNAP/EBT": true
        },
        {
          "Credit cards": true
        }
      ]
    },
    "gasPrices": [],
    "url": "https://www.google.com/maps/search/?api=1&query=CVS%20Pharmacy&query_place_id=ChIJ4x1BE4PkuocRz4q4mxlx9G4",
    "searchPageUrl": "https://www.google.com/maps/search/independent%20pharmacy%20Wichita%20KS/@63.653579074253855,-145.05491807162034,9z?hl=en",
    "searchString": "independent pharmacy Wichita KS",
    "language": "en",
    "rank": 18,
    "isAdvertisement": false,
    "imageUrl": "https://lh3.googleusercontent.com/p/AF1QipO-aTwQ24jeGJwU9jlomZmLrG45pHKSMxcmmjk4=w408-h272-k-no",
    "kgmid": "/g/11c475cgtm",
    "classification": "chain",
    "is_independent": false,
    "is_compounding": false,
    "confidence": 1.0,
    "source": "perplexity",
    "method": "llm"
  },
  {
    "title": "CVS Pharmacy",
    "price": null,
    "categoryName": "Pharmacy",
    "address": "4808 E Central Ave, Wichita, KS 67208",
    "neighborhood": null,
    "street": "4808 E Central Ave",
    "city": "Wichita",
    "postalCode": "67208",
    "state": "Kansas",
    "countryCode": "US",
    "website": "https://www.cvs.com/store-locator/wichita-ks-pharmacies/4808-east-central-ave-wichita-ks-67208/storeid=10075?WT.mc_id=LS_GOOGLE_RX_10075",
    "phone": "(316) 682-1733",
    "phoneUnformatted": "+13166821733",
    "claimThisBusiness": false,
    "location": {
      "lat": 37.6945202,
      "lng": -97.2801407
    },
    "totalScore": 4.5,
    "permanentlyClosed": false,
    "temporarilyClosed": false,
    "placeId": null,
    "categories": [
      "Pharmacy"
    ],
    "fid": "0x87bae339158f9237:0x995f840011332605",
    "cid": "11051697146413917701",
    "reviewsCount": 21,
    "imagesCount": 13,
    "imageCategories": [],
    "scrapedAt": "2025-06-22T07:59:26.791Z",
    "googleFoodUrl": null,
    "hotelAds": [],
    "openingHours": [
      {
        "day": "Monday",
        "hours": "8\u202fAM to 1:30\u202fPM, 2 to 8\u202fPM"
      },
      {
        "day": "Tuesday",
        "hours": "8\u202fAM to 1:30\u202fPM, 2 to 8\u202fPM"
      },
      {
        "day": "Wednesday",
        "hours": "8\u202fAM to 1:30\u202fPM, 2 to 8\u202fPM"
      },
      {
        "day": "Thursday",
        "hours": "8\u202fAM to 1:30\u202fPM, 2 to 8\u202fPM"
      },
      {
        "day": "Friday",
        "hours": "8\u202fAM to 1:30\u202fPM, 2 to 8\u202fPM"
      },
      {
        "day": "Saturday",
        "hours": "9\u202fAM to 1:30\u202fPM, 2 to 6\u202fPM"
      },
      {
        "day": "Sunday",
        "hours": "10\u202fAM to 1:30\u202fPM, 2 to 6\u202fPM"
      }
    ],
    "peopleAlsoSearch": [],
    "placesTags": [],
    "reviewsTags": [],
    "additionalInfo": {
      "Service options": [
        {
          "Delivery": true
        },
        {
          "Drive-through": true
        },
        {
          "In-store shopping": true
        },
        {
          "Onsite services": true
        }
      ],
      "Accessibility": [
        {
          "Wheelchair accessible entrance": true
        },
        {
          "Wheelchair accessible parking lot": true
        }
      ],
      "Offerings": [
        {
          "Naloxone": true
        },
        {
          "Passport photos": true
        }
      ],
      "Crowd": [
        {
          "LGBTQ+ friendly": true
        },
        {
          "Transgender safespace": true
        }
      ],
      "Planning": [
        {
          "Quick visit": true
        }
      ],
      "Payments": [
        {
          "Credit cards": true
        },
        {
          "Debit cards": true
        },
        {
          "NFC mobile payments": true
        },
        {
          "Credit cards": true
        }
      ]
    },
    "gasPrices": [],
    "url": "https://www.google.com/maps/search/?api=1&query=CVS%20Pharmacy&query_place_id=ChIJN5KPFTnjuocRBSYzEQCEX5k",
    "searchPageUrl": "https://www.google.com/maps/search/independent%20pharmacy%20Wichita%20KS/@63.653579074253855,-145.05491807162034,9z?hl=en",
    "searchString": "independent pharmacy Wichita KS",
    "language": "en",
    "rank": 19,
    "isAdvertisement": false,
    "imageUrl": "https://lh3.googleusercontent.com/p/AF1QipMq84V-rci7jfEk9XJZByFGV4x6WF3rNDhiWu9l=w408-h272-k-no",
    "kgmid": "/g/11c468db01",
    "classification": "chain",
    "is_independent": false,
    "is_compounding": false,
    "confidence": 0.95,
    "source": "perplexity",
    "method": "llm"
  },
  {
    "title": "CVS Pharmacy",
    "description": "Drugstore chain selling a variety of beauty & health products, plus some grocery & household items.",
    "price": null,
    "categoryName": "Pharmacy",
    "address": "7575 W Maple St, Wichita, KS 67209",
    "neighborhood": null,
    "street": "7575 W Maple St",
    "city": "Wichita",
    "postalCode": "67209",
    "state": "Kansas",
    "countryCode": "US",
    "website": "https://www.cvs.com/store-locator/wichita-ks-pharmacies/7575-w-maple-st-wichita-ks-67209/storeid=17060?WT.mc_id=LS_GOOGLE_RX_17060",
    "phone": "(316) 729-0320",
    "phoneUnformatted": "+13167290320",
    "claimThisBusiness": false,
    "location": {
      "lat": 37.6781081,
      "lng": -97.4314006
    },
    "totalScore": 4,
    "permanentlyClosed": false,
    "temporarilyClosed": false,
    "placeId": null,
    "categories": [
      "Pharmacy"
    ],
    "fid": "0x87bae0a219d32f8d:0x4bc7c59d3386ef4e",
    "cid": "5460550352175034190",
    "reviewsCount": 26,
    "imagesCount": 6,
    "imageCategories": [],
    "scrapedAt": "2025-06-22T07:59:26.791Z",
    "googleFoodUrl": null,
    "hotelAds": [],
    "openingHours": [
      {
        "day": "Monday",
        "hours": "9\u202fAM to 1:30\u202fPM, 2 to 7\u202fPM"
      },
      {
        "day": "Tuesday",
        "hours": "9\u202fAM to 1:30\u202fPM, 2 to 7\u202fPM"
      },
      {
        "day": "Wednesday",
        "hours": "9\u202fAM to 1:30\u202fPM, 2 to 7\u202fPM"
      },
      {
        "day": "Thursday",
        "hours": "9\u202fAM to 1:30\u202fPM, 2 to 7\u202fPM"
      },
      {
        "day": "Friday",
        "hours": "9\u202fAM to 1:30\u202fPM, 2 to 7\u202fPM"
      },
      {
        "day": "Saturday",
        "hours": "9\u202fAM to 1:30\u202fPM, 2 to 5\u202fPM"
      },
      {
        "day": "Sunday",
        "hours": "11\u202fAM to 1:30\u202fPM, 2 to 5\u202fPM"
      }
    ],
    "peopleAlsoSearch": [],
    "placesTags": [],
    "reviewsTags": [],
    "additionalInfo": {
      "Service options": [
        {
          "Delivery": true
        },
        {
          "In-store shopping": true
        }
      ],
      "Accessibility": [
        {
          "Wheelchair accessible entrance": true
        },
        {
          "Wheelchair accessible parking lot": true
        }
      ],
      "Offerings": [
        {
          "Naloxone": true
        }
      ],
      "Amenities": [
        {
          "Wi-Fi": true
        }
      ],
      "Crowd": [
        {
          "LGBTQ+ friendly": true
        },
        {
          "Transgender safespace": true
        }
      ],
      "Planning": [
        {
          "Quick visit": true
        }
      ],
      "Payments": [
        {
          "Credit cards": true
        },
        {
          "Debit cards": true
        },
        {
          "Credit cards": true
        }
      ]
    },
    "gasPrices": [],
    "url": "https://www.google.com/maps/search/?api=1&query=CVS%20Pharmacy&query_place_id=ChIJjS_TGaLguocRTu-GM53Fx0s",
    "searchPageUrl": "https://www.google.com/maps/search/independent%20pharmacy%20Wichita%20KS/@63.653579074253855,-145.05491807162034,9z?hl=en",
    "searchString": "independent pharmacy Wichita KS",
    "language": "en",
    "rank": 20,
    "isAdvertisement": false,
    "imageUrl": "https://lh3.googleusercontent.com/p/AF1QipOShJwKZcQ_abPG4HZ1BTy5gBTYtiiyGQhWrRnG=w408-h272-k-no",
    "kgmid": "/g/1hc0t7m1t",
    "classification": "chain",
    "is_independent": false,
    "is_compounding": false,
    "confidence": 0.95,
    "source": "perplexity",
    "method": "llm"
  }
]