[
  {
    "title": "Health Center Pharmacy",
    "price": null,
    "categoryName": "Pharmacy",
    "address": "1401 13th Ave E B, West Fargo, ND 58078",
    "neighborhood": null,
    "street": "1401 13th Ave E B",
    "city": "West Fargo",
    "postalCode": "58078",
    "state": "North Dakota",
    "countryCode": "US",
    "phone": "(701) 364-5800",
    "phoneUnformatted": "+17013645800",
    "claimThisBusiness": false,
    "location": {
      "lat": 46.8612616,
      "lng": -96.8773544
    },
    "totalScore": 5,
    "permanentlyClosed": false,
    "temporarilyClosed": false,
    "placeId": "ChIJTyJA41HLyFIRu6AmxZKVACg",
    "categories": [
      "Pharmacy",
      "Medical equipment supplier"
    ],
    "fid": "0x52c8cb51e340224f:0x28009592c526a0bb",
    "cid": "2882468219122524347",
    "reviewsCount": 17,
    "imagesCount": 1,
    "imageCategories": [],
    "scrapedAt": "2025-06-22T09:18:16.800Z",
    "googleFoodUrl": null,
    "hotelAds": [],
    "openingHours": [
      {
        "day": "Monday",
        "hours": "9\u202fAM to 6\u202fPM"
      },
      {
        "day": "Tuesday",
        "hours": "9\u202fAM to 6\u202fPM"
      },
      {
        "day": "Wednesday",
        "hours": "9\u202fAM to 6\u202fPM"
      },
      {
        "day": "Thursday",
        "hours": "9\u202fAM to 6\u202fPM"
      },
      {
        "day": "Friday",
        "hours": "9\u202fAM to 6\u202fPM"
      },
      {
        "day": "Saturday",
        "hours": "Closed"
      },
      {
        "day": "Sunday",
        "hours": "Closed"
      }
    ],
    "peopleAlsoSearch": [],
    "placesTags": [],
    "reviewsTags": [],
    "additionalInfo": {
      "From the business": [
        {
          "Small business": true
        }
      ],
      "Service options": [
        {
          "Drive-through": true
        }
      ],
      "Accessibility": [
        {
          "Wheelchair accessible entrance": true
        },
        {
          "Wheelchair accessible parking lot": true
        }
      ],
      "Amenities": [
        {
          "Wi-Fi": true
        },
        {
          "Free Wi-Fi": true
        }
      ],
      "Payments": [
        {
          "Credit cards": true
        },
        {
          "Debit cards": true
        },
        {
          "NFC mobile payments": true
        },
        {
          "Credit cards": true
        }
      ]
    },
    "gasPrices": [],
    "url": "https://www.google.com/maps/search/?api=1&query=Health%20Center%20Pharmacy&query_place_id=ChIJTyJA41HLyFIRu6AmxZKVACg",
    "searchPageUrl": "https://www.google.com/maps/search/independent%20pharmacy%20West%20Fargo%20ND/@52.05033240061953,179.44759101927465,12z?hl=en",
    "searchString": "independent pharmacy West Fargo ND",
    "language": "en",
    "rank": 1,
    "isAdvertisement": false,
    "imageUrl": "https://streetviewpixels-pa.googleapis.com/v1/thumbnail?panoid=V0zpILqz7k3PqFqn5UH8lQ&cb_client=search.gws-prod.gps&w=408&h=240&yaw=119.15548&pitch=0&thumbfov=100",
    "kgmid": "/g/1tfd6ml9",
    "classification": "hospital",
    "is_independent": false,
    "confidence": 1.0,
    "source": "rule-based"
  },
  {
    "title": "Prescription Shop",
    "price": null,
    "categoryName": "Pharmacy",
    "address": "1210 Sheyenne St, West Fargo, ND 58078",
    "neighborhood": null,
    "street": "1210 Sheyenne St",
    "city": "West Fargo",
    "postalCode": "58078",
    "state": "North Dakota",
    "countryCode": "US",
    "website": "http://www.rxshopwf.com/",
    "phone": "(701) 282-4665",
    "phoneUnformatted": "+17012824665",
    "claimThisBusiness": true,
    "location": {
      "lat": 46.8629644,
      "lng": -96.9047162
    },
    "totalScore": 4.3,
    "permanentlyClosed": false,
    "temporarilyClosed": false,
    "placeId": null,
    "categories": [
      "Pharmacy"
    ],
    "fid": "0x52cf34bc4caee0d9:0xdc70e31cb31ca997",
    "cid": "15884445598139328919",
    "reviewsCount": 32,
    "imagesCount": 4,
    "imageCategories": [],
    "scrapedAt": "2025-06-22T09:18:16.801Z",
    "googleFoodUrl": null,
    "hotelAds": [],
    "openingHours": [
      {
        "day": "Monday",
        "hours": "7:30\u202fAM to 7\u202fPM"
      },
      {
        "day": "Tuesday",
        "hours": "7:30\u202fAM to 7\u202fPM"
      },
      {
        "day": "Wednesday",
        "hours": "7:30\u202fAM to 7\u202fPM"
      },
      {
        "day": "Thursday",
        "hours": "7:30\u202fAM to 7\u202fPM"
      },
      {
        "day": "Friday",
        "hours": "7:30\u202fAM to 6:30\u202fPM"
      },
      {
        "day": "Saturday",
        "hours": "8\u202fAM to 12\u202fPM"
      },
      {
        "day": "Sunday",
        "hours": "Closed"
      }
    ],
    "peopleAlsoSearch": [],
    "placesTags": [],
    "reviewsTags": [],
    "additionalInfo": {
      "Service options": [
        {
          "Delivery": true
        },
        {
          "Drive-through": true
        },
        {
          "In-store pickup": true
        },
        {
          "Same-day delivery": true
        }
      ],
      "Accessibility": [
        {
          "Wheelchair accessible entrance": true
        },
        {
          "Wheelchair accessible parking lot": true
        }
      ],
      "Planning": [
        {
          "Quick visit": true
        }
      ],
      "Payments": [
        {
          "Credit cards": true
        },
        {
          "Debit cards": true
        },
        {
          "NFC mobile payments": true
        },
        {
          "Credit cards": true
        }
      ]
    },
    "gasPrices": [],
    "url": "https://www.google.com/maps/search/?api=1&query=Prescription%20Shop&query_place_id=ChIJ2eCuTLw0z1IRl6kcsxzjcNw",
    "searchPageUrl": "https://www.google.com/maps/search/independent%20pharmacy%20West%20Fargo%20ND/@52.05033240061953,179.44759101927465,12z?hl=en",
    "searchString": "independent pharmacy West Fargo ND",
    "language": "en",
    "rank": 2,
    "isAdvertisement": false,
    "imageUrl": "https://lh3.googleusercontent.com/gps-cs-s/AC9h4no2GmdSi2fWXp0cxcklOct0lHR1T-md1kDKbQ_uQuTfu1IyBKWgan2XCNCH7w8QRoyboV20s6B3aQTf8XSv-h3Pw6CXEaxFW-t1ZU6WLr--6MT4mUyh0yzHvIOIkr6GK3IT8IQE=w408-h544-k-no",
    "kgmid": "/g/1tglmkbq",
    "classification": "independent",
    "is_independent": true,
    "is_compounding": false,
    "confidence": 0.9,
    "source": "perplexity",
    "method": "llm",
    "query_location": "west_fargo_nd"
  },
  {
    "title": "SKripts Pharmacy",
    "price": null,
    "categoryName": "Pharmacy",
    "address": "750 23rd Ave E, West Fargo, ND 58078",
    "neighborhood": null,
    "street": "750 23rd Ave E",
    "city": "West Fargo",
    "postalCode": "58078",
    "state": "North Dakota",
    "countryCode": "US",
    "website": "http://www.skriptspharmacy.com/",
    "phone": "(701) 281-2222",
    "phoneUnformatted": "+17012812222",
    "claimThisBusiness": false,
    "location": {
      "lat": 46.844527,
      "lng": -96.887749
    },
    "totalScore": 4.7,
    "permanentlyClosed": false,
    "temporarilyClosed": false,
    "placeId": null,
    "categories": [
      "Pharmacy"
    ],
    "fid": "0x52cf34c59967ef1b:0x24199623f0d1957e",
    "cid": "2601275340891460990",
    "reviewsCount": 26,
    "imagesCount": 3,
    "imageCategories": [],
    "scrapedAt": "2025-06-22T09:18:16.802Z",
    "googleFoodUrl": null,
    "hotelAds": [],
    "openingHours": [
      {
        "day": "Monday",
        "hours": "10\u202fAM to 7\u202fPM"
      },
      {
        "day": "Tuesday",
        "hours": "10\u202fAM to 7\u202fPM"
      },
      {
        "day": "Wednesday",
        "hours": "10\u202fAM to 7\u202fPM"
      },
      {
        "day": "Thursday",
        "hours": "10\u202fAM to 7\u202fPM"
      },
      {
        "day": "Friday",
        "hours": "10\u202fAM to 7\u202fPM"
      },
      {
        "day": "Saturday",
        "hours": "9:30\u202fAM to 6\u202fPM"
      },
      {
        "day": "Sunday",
        "hours": "Closed"
      }
    ],
    "peopleAlsoSearch": [],
    "placesTags": [],
    "reviewsTags": [],
    "additionalInfo": {
      "From the business": [
        {
          "Small business": true
        }
      ],
      "Service options": [
        {
          "In-store pickup": true
        },
        {
          "In-store shopping": true
        }
      ],
      "Accessibility": [
        {
          "Wheelchair accessible entrance": true
        },
        {
          "Wheelchair accessible parking lot": true
        },
        {
          "Wheelchair accessible restroom": true
        }
      ],
      "Crowd": [
        {
          "LGBTQ+ friendly": true
        },
        {
          "Transgender safespace": true
        }
      ],
      "Planning": [
        {
          "Quick visit": true
        }
      ],
      "Payments": [
        {
          "Credit cards": true
        },
        {
          "Debit cards": true
        },
        {
          "NFC mobile payments": true
        },
        {
          "Credit cards": true
        }
      ]
    },
    "gasPrices": [],
    "url": "https://www.google.com/maps/search/?api=1&query=SKripts%20Pharmacy&query_place_id=ChIJG-9nmcU0z1IRfpXR8COWGSQ",
    "searchPageUrl": "https://www.google.com/maps/search/independent%20pharmacy%20West%20Fargo%20ND/@52.05033240061953,179.44759101927465,12z?hl=en",
    "searchString": "independent pharmacy West Fargo ND",
    "language": "en",
    "rank": 3,
    "isAdvertisement": false,
    "imageUrl": "https://lh3.googleusercontent.com/gps-cs-s/AC9h4nrSNO8YIHyETSR5XXkf6l0HuZgKFG_hEEtfcBi6A1hcSAjrIsxKDI2DUSM7En_YsymHWcS7oxZVevi0TMJv_NtSokuNQPgP1W55I4dU_2iR2YH55SG4BNd4x_muXxqx0EjqDUCMXA=w408-h306-k-no",
    "kgmid": "/g/1ptw_n_fy",
    "classification": "independent",
    "is_independent": true,
    "is_compounding": false,
    "confidence": 0.9,
    "source": "perplexity",
    "method": "llm",
    "query_location": "west_fargo_nd"
  },
  {
    "title": "West Acres Pharmacy",
    "price": null,
    "categoryName": "Pharmacy",
    "address": "3902 13th Ave S Suite 3706, Fargo, ND 58103",
    "neighborhood": "West Acres",
    "street": "3902 13th Ave S Suite 3706",
    "city": "Fargo",
    "postalCode": "58103",
    "state": "North Dakota",
    "countryCode": "US",
    "website": "http://www.mygnp.com/store?id=0013000000ioBbz&utm_source=google&utm_medium=local&utm_campaign=localmaps&utm_content=3502994",
    "phone": "(701) 282-0285",
    "phoneUnformatted": "+17012820285",
    "claimThisBusiness": false,
    "location": {
      "lat": 46.858682,
      "lng": -96.8452433
    },
    "totalScore": 4.6,
    "permanentlyClosed": false,
    "temporarilyClosed": false,
    "placeId": "ChIJh8Vh7HvLyFIRjDIbFpHk6R4",
    "categories": [
      "Pharmacy",
      "Drug store"
    ],
    "fid": "0x52c8cb7bec61c587:0x1ee9e491161b328c",
    "cid": "2227562802503692940",
    "reviewsCount": 31,
    "imagesCount": 8,
    "imageCategories": [],
    "scrapedAt": "2025-06-22T09:18:16.802Z",
    "googleFoodUrl": null,
    "hotelAds": [],
    "openingHours": [
      {
        "day": "Monday",
        "hours": "9\u202fAM to 6\u202fPM"
      },
      {
        "day": "Tuesday",
        "hours": "9\u202fAM to 6\u202fPM"
      },
      {
        "day": "Wednesday",
        "hours": "9\u202fAM to 6\u202fPM"
      },
      {
        "day": "Thursday",
        "hours": "9\u202fAM to 6\u202fPM"
      },
      {
        "day": "Friday",
        "hours": "9\u202fAM to 6\u202fPM"
      },
      {
        "day": "Saturday",
        "hours": "Closed"
      },
      {
        "day": "Sunday",
        "hours": "Closed"
      }
    ],
    "peopleAlsoSearch": [],
    "placesTags": [],
    "reviewsTags": [],
    "additionalInfo": {
      "Service options": [
        {
          "In-store pickup": true
        },
        {
          "In-store shopping": true
        }
      ],
      "Accessibility": [
        {
          "Wheelchair accessible entrance": true
        },
        {
          "Wheelchair accessible parking lot": true
        }
      ],
      "Planning": [
        {
          "Quick visit": true
        }
      ],
      "Payments": [
        {
          "Checks": true
        },
        {
          "Credit cards": true
        },
        {
          "Debit cards": true
        },
        {
          "NFC mobile payments": true
        },
        {
          "Credit cards": true
        }
      ]
    },
    "gasPrices": [],
    "url": "https://www.google.com/maps/search/?api=1&query=West%20Acres%20Pharmacy&query_place_id=ChIJh8Vh7HvLyFIRjDIbFpHk6R4",
    "searchPageUrl": "https://www.google.com/maps/search/independent%20pharmacy%20West%20Fargo%20ND/@52.05033240061953,179.44759101927465,12z?hl=en",
    "searchString": "independent pharmacy West Fargo ND",
    "language": "en",
    "rank": 4,
    "isAdvertisement": false,
    "imageUrl": "https://lh3.googleusercontent.com/gps-cs-s/AC9h4nqfDfLMaVdz0qj44e3qW0gAQ135aTyb9YZ4fi0XM7nofFRz9Dum5fb7ov8FPNnyPAbljmq6to_a45fWHOuG84BlfeZyB-tBXRusBiIl7Y5dlF6V2D4XEP7p2PGb2SscjKi873nH=w408-h612-k-no",
    "kgmid": "/g/1tqyf4f3",
    "classification": "hospital",
    "is_independent": false,
    "confidence": 1.0,
    "source": "rule-based"
  },
  {
    "title": "Medical Pharmacy Sheyenne",
    "price": null,
    "categoryName": "Pharmacy",
    "address": "2050 Sheyenne St, West Fargo, ND 58078",
    "neighborhood": null,
    "street": "2050 Sheyenne St",
    "city": "West Fargo",
    "postalCode": "58078",
    "state": "North Dakota",
    "countryCode": "US",
    "phone": "(701) 630-0695",
    "phoneUnformatted": "+17016300695",
    "claimThisBusiness": true,
    "location": {
      "lat": 46.8521885,
      "lng": -96.9079368
    },
    "totalScore": 4.6,
    "permanentlyClosed": false,
    "temporarilyClosed": false,
    "placeId": null,
    "categories": [
      "Pharmacy"
    ],
    "fid": "0x52cf3336315b83a1:0xe3d5aa187834d5cd",
    "cid": "16417215038721676749",
    "reviewsCount": 9,
    "imagesCount": 1,
    "imageCategories": [],
    "scrapedAt": "2025-06-22T09:18:16.802Z",
    "googleFoodUrl": null,
    "hotelAds": [],
    "openingHours": [
      {
        "day": "Monday",
        "hours": "9\u202fAM to 1:30\u202fPM, 2 to 7\u202fPM"
      },
      {
        "day": "Tuesday",
        "hours": "9\u202fAM to 1:30\u202fPM, 2 to 7\u202fPM"
      },
      {
        "day": "Wednesday",
        "hours": "9\u202fAM to 1:30\u202fPM, 2 to 7\u202fPM"
      },
      {
        "day": "Thursday",
        "hours": "9\u202fAM to 1:30\u202fPM, 2 to 7\u202fPM"
      },
      {
        "day": "Friday",
        "hours": "9\u202fAM to 1:30\u202fPM, 2 to 7\u202fPM"
      },
      {
        "day": "Saturday",
        "hours": "9\u202fAM to 3\u202fPM"
      },
      {
        "day": "Sunday",
        "hours": "11\u202fAM to 3\u202fPM"
      }
    ],
    "peopleAlsoSearch": [],
    "placesTags": [],
    "reviewsTags": [],
    "additionalInfo": {
      "Accessibility": [
        {
          "Wheelchair accessible entrance": true
        },
        {
          "Wheelchair accessible parking lot": true
        }
      ],
      "Planning": [
        {
          "Quick visit": true
        }
      ],
      "Payments": [
        {
          "Credit cards": true
        },
        {
          "Debit cards": true
        },
        {
          "NFC mobile payments": true
        },
        {
          "Credit cards": true
        }
      ]
    },
    "gasPrices": [],
    "url": "https://www.google.com/maps/search/?api=1&query=Medical%20Pharmacy%20Sheyenne&query_place_id=ChIJoYNbMTYzz1IRzdU0eBiq1eM",
    "searchPageUrl": "https://www.google.com/maps/search/independent%20pharmacy%20West%20Fargo%20ND/@52.05033240061953,179.44759101927465,12z?hl=en",
    "searchString": "independent pharmacy West Fargo ND",
    "language": "en",
    "rank": 5,
    "isAdvertisement": false,
    "imageUrl": "https://lh3.googleusercontent.com/gps-cs-s/AC9h4nq_z3SS367dUMtNOgk8Jw45UzOIiSqUWz8qy5myJkHcC3ILEHEhx58ZO1PCiTonmxzS_G3P76AV6EbWze5u4evA36gW4-7KfmTgFfl3gIK3YuITZq7FiassEzHxl3s9RfGwKNq-=w426-h240-k-no",
    "kgmid": "/g/11h_15f8ym",
    "classification": "independent",
    "is_independent": true,
    "is_compounding": false,
    "confidence": 0.85,
    "source": "perplexity",
    "method": "llm",
    "query_location": "west_fargo_nd"
  },
  {
    "title": "Prosperity Health Pharmacy",
    "price": null,
    "categoryName": "Pharmacy",
    "address": "5180 Prosperity Way S STE 106, Fargo, ND 58104",
    "neighborhood": "Centennial",
    "street": "5180 Prosperity Way S STE 106",
    "city": "Fargo",
    "postalCode": "58104",
    "state": "North Dakota",
    "countryCode": "US",
    "website": "http://www.prosperityhealthpharmacy.com/",
    "phone": "(701) 951-7979",
    "phoneUnformatted": "+17019517979",
    "claimThisBusiness": false,
    "location": {
      "lat": 46.8040471,
      "lng": -96.8252449
    },
    "totalScore": 5,
    "permanentlyClosed": false,
    "temporarilyClosed": false,
    "placeId": "ChIJyURFEiPNyFIRDcqcfMRYybg",
    "categories": [
      "Pharmacy"
    ],
    "fid": "0x52c8cd23124544c9:0xb8c958c47c9cca0d",
    "cid": "13315271374225066509",
    "reviewsCount": 43,
    "imagesCount": 15,
    "imageCategories": [],
    "scrapedAt": "2025-06-22T09:18:16.802Z",
    "googleFoodUrl": null,
    "hotelAds": [],
    "openingHours": [
      {
        "day": "Monday",
        "hours": "9\u202fAM to 7\u202fPM"
      },
      {
        "day": "Tuesday",
        "hours": "9\u202fAM to 7\u202fPM"
      },
      {
        "day": "Wednesday",
        "hours": "9\u202fAM to 7\u202fPM"
      },
      {
        "day": "Thursday",
        "hours": "9\u202fAM to 7\u202fPM"
      },
      {
        "day": "Friday",
        "hours": "9\u202fAM to 7\u202fPM"
      },
      {
        "day": "Saturday",
        "hours": "9\u202fAM to 1\u202fPM"
      },
      {
        "day": "Sunday",
        "hours": "Closed"
      }
    ],
    "peopleAlsoSearch": [],
    "placesTags": [],
    "reviewsTags": [],
    "additionalInfo": {
      "From the business": [
        {
          "Small business": true
        }
      ],
      "Service options": [
        {
          "Curbside pickup": true
        },
        {
          "Delivery": true
        },
        {
          "In-store pickup": true
        },
        {
          "In-store shopping": true
        },
        {
          "Onsite services": true
        }
      ],
      "Accessibility": [
        {
          "Wheelchair accessible entrance": true
        },
        {
          "Wheelchair accessible parking lot": true
        }
      ],
      "Planning": [
        {
          "Quick visit": true
        }
      ],
      "Payments": [
        {
          "Credit cards": true
        }
      ]
    },
    "gasPrices": [],
    "url": "https://www.google.com/maps/search/?api=1&query=Prosperity%20Health%20Pharmacy&query_place_id=ChIJyURFEiPNyFIRDcqcfMRYybg",
    "searchPageUrl": "https://www.google.com/maps/search/independent%20pharmacy%20West%20Fargo%20ND/@52.05033240061953,179.44759101927465,12z?hl=en",
    "searchString": "independent pharmacy West Fargo ND",
    "language": "en",
    "rank": 6,
    "isAdvertisement": false,
    "imageUrl": "https://lh3.googleusercontent.com/p/AF1QipPM-BcEexFqV_XITziSdx4hy-eLMQJe0JyN5Iif=w408-h544-k-no",
    "kgmid": "/g/11ftwp802q",
    "classification": "hospital",
    "is_independent": false,
    "confidence": 1.0,
    "source": "rule-based"
  },
  {
    "title": "LifeScript Pharmacy",
    "price": null,
    "categoryName": "Pharmacy",
    "address": "5670 38th Ave S ste a, Fargo, ND 58104",
    "neighborhood": null,
    "street": "5670 38th Ave S ste a",
    "city": "Fargo",
    "postalCode": "58104",
    "state": "North Dakota",
    "countryCode": "US",
    "website": "http://www.lifescriptpharmacy.com/",
    "phone": "(701) 205-4545",
    "phoneUnformatted": "+17012054545",
    "claimThisBusiness": false,
    "location": {
      "lat": 46.8199779,
      "lng": -96.8817661
    },
    "totalScore": 4,
    "permanentlyClosed": false,
    "temporarilyClosed": false,
    "placeId": null,
    "categories": [
      "Pharmacy"
    ],
    "fid": "0x52cf332c2b2015a7:0xa5b44cf1581f28d7",
    "cid": "11940253111515293911",
    "reviewsCount": 28,
    "imagesCount": 1,
    "imageCategories": [],
    "scrapedAt": "2025-06-22T09:18:16.802Z",
    "googleFoodUrl": null,
    "hotelAds": [],
    "openingHours": [
      {
        "day": "Monday",
        "hours": "9\u202fAM to 7\u202fPM"
      },
      {
        "day": "Tuesday",
        "hours": "9\u202fAM to 7\u202fPM"
      },
      {
        "day": "Wednesday",
        "hours": "9\u202fAM to 7\u202fPM"
      },
      {
        "day": "Thursday",
        "hours": "9\u202fAM to 7\u202fPM"
      },
      {
        "day": "Friday",
        "hours": "9\u202fAM to 7\u202fPM"
      },
      {
        "day": "Saturday",
        "hours": "Closed"
      },
      {
        "day": "Sunday",
        "hours": "Closed"
      }
    ],
    "peopleAlsoSearch": [],
    "placesTags": [],
    "reviewsTags": [],
    "additionalInfo": {
      "From the business": [
        {
          "Small business": true
        }
      ],
      "Service options": [
        {
          "Delivery": true
        },
        {
          "Drive-through": true
        },
        {
          "In-store pickup": true
        },
        {
          "Same-day delivery": true
        }
      ],
      "Accessibility": [
        {
          "Wheelchair accessible entrance": true
        },
        {
          "Wheelchair accessible parking lot": true
        }
      ],
      "Payments": [
        {
          "Credit cards": true
        },
        {
          "Debit cards": true
        },
        {
          "NFC mobile payments": true
        },
        {
          "Credit cards": true
        }
      ]
    },
    "gasPrices": [],
    "url": "https://www.google.com/maps/search/?api=1&query=LifeScript%20Pharmacy&query_place_id=ChIJpxUgKywzz1IR1ygfWPFMtKU",
    "searchPageUrl": "https://www.google.com/maps/search/independent%20pharmacy%20West%20Fargo%20ND/@52.05033240061953,179.44759101927465,12z?hl=en",
    "searchString": "independent pharmacy West Fargo ND",
    "language": "en",
    "rank": 7,
    "isAdvertisement": false,
    "imageUrl": "https://streetviewpixels-pa.googleapis.com/v1/thumbnail?panoid=6OIbuAss_Wq8aSw3uOMppg&cb_client=search.gws-prod.gps&w=408&h=240&yaw=86.33122&pitch=0&thumbfov=100",
    "kgmid": "/g/11gf9dgv1b",
    "classification": "independent",
    "is_independent": true,
    "is_compounding": false,
    "confidence": 0.85,
    "source": "perplexity",
    "method": "llm",
    "query_location": "west_fargo_nd"
  },
  {
    "title": "Linson Pharmacy",
    "price": null,
    "categoryName": "Pharmacy",
    "address": "3175 25th St S Ste D, Fargo, ND 58103",
    "neighborhood": "Bluemont Lakes",
    "street": "3175 25th St S Ste D",
    "city": "Fargo",
    "postalCode": "58103",
    "state": "North Dakota",
    "countryCode": "US",
    "website": "https://linsonpharmacy.com/",
    "phone": "(701) 293-6022",
    "phoneUnformatted": "+17012936022",
    "claimThisBusiness": false,
    "location": {
      "lat": 46.8334745,
      "lng": -96.8221068
    },
    "totalScore": 4.3,
    "permanentlyClosed": false,
    "temporarilyClosed": false,
    "placeId": null,
    "categories": [
      "Pharmacy",
      "Diabetes equipment supplier"
    ],
    "fid": "0x52c8cc5ce9bc9695:0xac01e1801172e488",
    "cid": "12394435589665121416",
    "reviewsCount": 43,
    "imagesCount": 4,
    "imageCategories": [],
    "scrapedAt": "2025-06-22T09:18:16.802Z",
    "googleFoodUrl": null,
    "hotelAds": [],
    "openingHours": [
      {
        "day": "Monday",
        "hours": "8\u202fAM to 7\u202fPM"
      },
      {
        "day": "Tuesday",
        "hours": "8\u202fAM to 7\u202fPM"
      },
      {
        "day": "Wednesday",
        "hours": "8\u202fAM to 7\u202fPM"
      },
      {
        "day": "Thursday",
        "hours": "8\u202fAM to 7\u202fPM"
      },
      {
        "day": "Friday",
        "hours": "8\u202fAM to 7\u202fPM"
      },
      {
        "day": "Saturday",
        "hours": "9\u202fAM to 4\u202fPM"
      },
      {
        "day": "Sunday",
        "hours": "12 to 4\u202fPM"
      }
    ],
    "peopleAlsoSearch": [],
    "placesTags": [],
    "reviewsTags": [],
    "additionalInfo": {
      "From the business": [
        {
          "Small business": true
        }
      ],
      "Service options": [
        {
          "Delivery": true
        },
        {
          "In-store pickup": true
        },
        {
          "Same-day delivery": true
        }
      ],
      "Accessibility": [
        {
          "Wheelchair accessible entrance": true
        },
        {
          "Wheelchair accessible parking lot": true
        }
      ],
      "Planning": [
        {
          "Quick visit": true
        }
      ],
      "Payments": [
        {
          "Checks": true
        },
        {
          "Credit cards": true
        },
        {
          "Debit cards": true
        },
        {
          "NFC mobile payments": true
        },
        {
          "Credit cards": true
        }
      ]
    },
    "gasPrices": [],
    "url": "https://www.google.com/maps/search/?api=1&query=Linson%20Pharmacy&query_place_id=ChIJlZa86VzMyFIRiORyEYDhAaw",
    "searchPageUrl": "https://www.google.com/maps/search/independent%20pharmacy%20West%20Fargo%20ND/@52.05033240061953,179.44759101927465,12z?hl=en",
    "searchString": "independent pharmacy West Fargo ND",
    "language": "en",
    "rank": 8,
    "isAdvertisement": false,
    "imageUrl": "https://lh3.googleusercontent.com/gps-cs-s/AC9h4nr7c2AoZ3Mr18F8-ILUkaniRqGwVgD96JxfwNqSCUcUdpqVr7cfRHsb3Cdi1CkWTuxYRqZ1qLcWR9g6AC1gNgPVVYe62TphEXGfRWeGq42sxjm-JPLnC3TtOXg2n36mBI38Dxfmnw=w426-h240-k-no",
    "kgmid": "/g/1vc81g9k",
    "classification": "independent",
    "is_independent": true,
    "is_compounding": false,
    "confidence": 0.9,
    "source": "perplexity",
    "method": "llm",
    "query_location": "west_fargo_nd"
  },
  {
    "title": "Southpointe Pharmacy",
    "price": null,
    "categoryName": "Pharmacy",
    "address": "2400 32nd Ave S #4, Fargo, ND 58103",
    "neighborhood": "Southpointe",
    "street": "2400 32nd Ave S #4",
    "city": "Fargo",
    "postalCode": "58103",
    "state": "North Dakota",
    "countryCode": "US",
    "website": "http://www.southpointepharmacy.com/",
    "phone": "(701) 234-9912",
    "phoneUnformatted": "+17012349912",
    "claimThisBusiness": false,
    "location": {
      "lat": 46.8319113,
      "lng": -96.8184799
    },
    "totalScore": 4.4,
    "permanentlyClosed": false,
    "temporarilyClosed": false,
    "placeId": null,
    "categories": [
      "Pharmacy"
    ],
    "fid": "0x52c8cc5cca9d263d:0x2abe2bdfb0817a29",
    "cid": "3079947434906974761",
    "reviewsCount": 41,
    "imagesCount": 3,
    "imageCategories": [],
    "scrapedAt": "2025-06-22T09:18:16.802Z",
    "googleFoodUrl": null,
    "hotelAds": [],
    "openingHours": [
      {
        "day": "Monday",
        "hours": "8\u202fAM to 6\u202fPM"
      },
      {
        "day": "Tuesday",
        "hours": "8\u202fAM to 6\u202fPM"
      },
      {
        "day": "Wednesday",
        "hours": "8\u202fAM to 6\u202fPM"
      },
      {
        "day": "Thursday",
        "hours": "8\u202fAM to 6\u202fPM"
      },
      {
        "day": "Friday",
        "hours": "8\u202fAM to 6\u202fPM"
      },
      {
        "day": "Saturday",
        "hours": "9\u202fAM to 1\u202fPM"
      },
      {
        "day": "Sunday",
        "hours": "Closed"
      }
    ],
    "peopleAlsoSearch": [],
    "placesTags": [],
    "reviewsTags": [],
    "additionalInfo": {
      "From the business": [
        {
          "Small business": true
        }
      ],
      "Service options": [
        {
          "In-store pickup": true
        }
      ],
      "Accessibility": [
        {
          "Wheelchair accessible entrance": true
        },
        {
          "Wheelchair accessible parking lot": true
        }
      ],
      "Offerings": [
        {
          "Medication disposal": true
        }
      ],
      "Planning": [
        {
          "Quick visit": true
        }
      ],
      "Payments": [
        {
          "Credit cards": true
        },
        {
          "Debit cards": true
        },
        {
          "NFC mobile payments": true
        },
        {
          "Credit cards": true
        }
      ]
    },
    "gasPrices": [],
    "url": "https://www.google.com/maps/search/?api=1&query=Southpointe%20Pharmacy&query_place_id=ChIJPSadylzMyFIRKXqBsN8rvio",
    "searchPageUrl": "https://www.google.com/maps/search/independent%20pharmacy%20West%20Fargo%20ND/@52.05033240061953,179.44759101927465,12z?hl=en",
    "searchString": "independent pharmacy West Fargo ND",
    "language": "en",
    "rank": 9,
    "isAdvertisement": false,
    "imageUrl": "https://lh3.googleusercontent.com/gps-cs-s/AC9h4nprAU65rrJCoiBaBsGoqBix6dJ-yQHXDMXGjDaMMG0bJlYxdC-ZeGmW58ySc0z6TMfWbDCnyxXsln_q6uCPAI8VRyRNWvjeEq1gsJrwLoEbqD0A_ploEtFqr8NWqeOqN5w6N64M=w408-h544-k-no",
    "kgmid": "/g/1ttdy2s9",
    "classification": "independent",
    "is_independent": true,
    "is_compounding": false,
    "confidence": 0.9,
    "source": "perplexity",
    "method": "llm",
    "query_location": "west_fargo_nd"
  },
  {
    "title": "M-D Pharmacy",
    "price": null,
    "categoryName": "Pharmacy",
    "address": "4101 13th Ave S, Fargo, ND 58103",
    "neighborhood": "Village West",
    "street": "4101 13th Ave S",
    "city": "Fargo",
    "postalCode": "58103",
    "state": "North Dakota",
    "countryCode": "US",
    "website": "http://www.m-dpharmacy.com/",
    "phone": "(701) 364-5690",
    "phoneUnformatted": "+17013645690",
    "claimThisBusiness": false,
    "location": {
      "lat": 46.8630087,
      "lng": -96.8504859
    },
    "totalScore": 4.8,
    "permanentlyClosed": false,
    "temporarilyClosed": false,
    "placeId": null,
    "categories": [
      "Pharmacy"
    ],
    "fid": "0x52c8cb6556e93f1b:0x1592d1ccee540b4d",
    "cid": "1554535499498261325",
    "reviewsCount": 33,
    "imagesCount": 4,
    "imageCategories": [],
    "scrapedAt": "2025-06-22T09:18:16.803Z",
    "googleFoodUrl": null,
    "hotelAds": [],
    "openingHours": [
      {
        "day": "Monday",
        "hours": "9\u202fAM to 6\u202fPM"
      },
      {
        "day": "Tuesday",
        "hours": "9\u202fAM to 6\u202fPM"
      },
      {
        "day": "Wednesday",
        "hours": "9\u202fAM to 6\u202fPM"
      },
      {
        "day": "Thursday",
        "hours": "9\u202fAM to 6\u202fPM"
      },
      {
        "day": "Friday",
        "hours": "9\u202fAM to 6\u202fPM"
      },
      {
        "day": "Saturday",
        "hours": "9\u202fAM to 1\u202fPM"
      },
      {
        "day": "Sunday",
        "hours": "Closed"
      }
    ],
    "peopleAlsoSearch": [],
    "placesTags": [],
    "reviewsTags": [],
    "additionalInfo": {
      "From the business": [
        {
          "Small business": true
        }
      ],
      "Service options": [
        {
          "Delivery": true
        },
        {
          "In-store pickup": true
        }
      ],
      "Accessibility": [
        {
          "Wheelchair accessible entrance": true
        },
        {
          "Wheelchair accessible parking lot": true
        }
      ],
      "Planning": [
        {
          "Quick visit": true
        }
      ],
      "Payments": [
        {
          "Checks": true
        },
        {
          "Credit cards": true
        },
        {
          "Debit cards": true
        },
        {
          "NFC mobile payments": true
        },
        {
          "Credit cards": true
        }
      ]
    },
    "gasPrices": [],
    "url": "https://www.google.com/maps/search/?api=1&query=M-D%20Pharmacy&query_place_id=ChIJGz_pVmXLyFIRTQtU7szRkhU",
    "searchPageUrl": "https://www.google.com/maps/search/independent%20pharmacy%20West%20Fargo%20ND/@52.05033240061953,179.44759101927465,12z?hl=en",
    "searchString": "independent pharmacy West Fargo ND",
    "language": "en",
    "rank": 10,
    "isAdvertisement": false,
    "imageUrl": "https://lh3.googleusercontent.com/p/AF1QipNT8RERKKDQLwP0O7Qt3mL-kSfG5qe9bv4Y1YLL=w408-h266-k-no",
    "kgmid": "/g/1pp2vf77t",
    "classification": "independent",
    "is_independent": true,
    "is_compounding": false,
    "confidence": 0.9,
    "source": "perplexity",
    "method": "llm",
    "query_location": "west_fargo_nd"
  },
  {
    "title": "Thrifty White Pharmacy",
    "price": null,
    "categoryName": "Pharmacy",
    "address": "1100 13th Ave E, West Fargo, ND 58078",
    "neighborhood": null,
    "street": "1100 13th Ave E",
    "city": "West Fargo",
    "postalCode": "58078",
    "state": "North Dakota",
    "countryCode": "US",
    "website": "http://www.thriftywhite.com/",
    "phone": "(701) 281-5695",
    "phoneUnformatted": "+17012815695",
    "claimThisBusiness": false,
    "location": {
      "lat": 46.8636417,
      "lng": -96.8814578
    },
    "totalScore": 2.8,
    "permanentlyClosed": false,
    "temporarilyClosed": false,
    "placeId": null,
    "categories": [
      "Pharmacy",
      "Drug store"
    ],
    "fid": "0x52c8cb4d03dae7f3:0x2938c0026d8783cd",
    "cid": "2970335070910907341",
    "reviewsCount": 58,
    "imagesCount": 5,
    "imageCategories": [],
    "scrapedAt": "2025-06-22T09:18:16.803Z",
    "googleFoodUrl": null,
    "hotelAds": [],
    "openingHours": [
      {
        "day": "Monday",
        "hours": "9\u202fAM to 7\u202fPM"
      },
      {
        "day": "Tuesday",
        "hours": "9\u202fAM to 7\u202fPM"
      },
      {
        "day": "Wednesday",
        "hours": "9\u202fAM to 7\u202fPM"
      },
      {
        "day": "Thursday",
        "hours": "9\u202fAM to 7\u202fPM"
      },
      {
        "day": "Friday",
        "hours": "9\u202fAM to 7\u202fPM"
      },
      {
        "day": "Saturday",
        "hours": "9\u202fAM to 4\u202fPM"
      },
      {
        "day": "Sunday",
        "hours": "12 to 4\u202fPM"
      }
    ],
    "peopleAlsoSearch": [],
    "placesTags": [],
    "reviewsTags": [],
    "additionalInfo": {
      "Service options": [
        {
          "In-store pickup": true
        },
        {
          "In-store shopping": true
        }
      ],
      "Accessibility": [
        {
          "Wheelchair accessible entrance": true
        },
        {
          "Wheelchair accessible parking lot": true
        }
      ],
      "Offerings": [
        {
          "Medication disposal": true
        }
      ],
      "Planning": [
        {
          "Quick visit": true
        }
      ],
      "Payments": [
        {
          "Checks": true
        },
        {
          "Credit cards": true
        },
        {
          "Debit cards": true
        },
        {
          "NFC mobile payments": true
        }
      ]
    },
    "gasPrices": [],
    "url": "https://www.google.com/maps/search/?api=1&query=Thrifty%20White%20Pharmacy&query_place_id=ChIJ8-faA03LyFIRzYOHbQLAOCk",
    "searchPageUrl": "https://www.google.com/maps/search/independent%20pharmacy%20West%20Fargo%20ND/@52.05033240061953,179.44759101927465,12z?hl=en",
    "searchString": "independent pharmacy West Fargo ND",
    "language": "en",
    "rank": 11,
    "isAdvertisement": false,
    "imageUrl": "https://lh3.googleusercontent.com/p/AF1QipOXmLp5cnWnzLQf7CuNYauDOakSUaSd3QY1teF4=w408-h332-k-no",
    "kgmid": "/g/1v5frkg9",
    "classification": "chain",
    "is_independent": false,
    "is_compounding": false,
    "confidence": 0.95,
    "source": "perplexity",
    "method": "llm",
    "query_location": "west_fargo_nd"
  },
  {
    "title": "Prescription Center Pharmacy",
    "price": null,
    "categoryName": "Pharmacy",
    "address": "2701 13th Ave S, Fargo, ND 58103",
    "neighborhood": "Westgate",
    "street": "2701 13th Ave S",
    "city": "Fargo",
    "postalCode": "58103",
    "state": "North Dakota",
    "countryCode": "US",
    "website": "http://www.prescriptioncenterfargo.com/",
    "phone": "(701) 234-3630",
    "phoneUnformatted": "+17012343630",
    "claimThisBusiness": false,
    "location": {
      "lat": 46.8620912,
      "lng": -96.8225739
    },
    "totalScore": 5,
    "permanentlyClosed": false,
    "temporarilyClosed": false,
    "placeId": null,
    "categories": [
      "Pharmacy"
    ],
    "fid": "0x52c8cb8efdf47187:0xfedbba2a13955963",
    "cid": "18364476595413277027",
    "reviewsCount": 4,
    "imagesCount": 1,
    "imageCategories": [],
    "scrapedAt": "2025-06-22T09:18:16.803Z",
    "googleFoodUrl": null,
    "hotelAds": [],
    "openingHours": [
      {
        "day": "Monday",
        "hours": "7:30\u202fAM to 7:30\u202fPM"
      },
      {
        "day": "Tuesday",
        "hours": "7:30\u202fAM to 7:30\u202fPM"
      },
      {
        "day": "Wednesday",
        "hours": "7:30\u202fAM to 7:30\u202fPM"
      },
      {
        "day": "Thursday",
        "hours": "7:30\u202fAM to 7:30\u202fPM"
      },
      {
        "day": "Friday",
        "hours": "7:30\u202fAM to 7:30\u202fPM"
      },
      {
        "day": "Saturday",
        "hours": "8\u202fAM to 5\u202fPM"
      },
      {
        "day": "Sunday",
        "hours": "8\u202fAM to 5\u202fPM"
      }
    ],
    "peopleAlsoSearch": [],
    "placesTags": [],
    "reviewsTags": [],
    "additionalInfo": {
      "From the business": [
        {
          "Small business": true
        }
      ],
      "Accessibility": [
        {
          "Wheelchair accessible entrance": true
        },
        {
          "Wheelchair accessible parking lot": true
        }
      ],
      "Offerings": [
        {
          "Medication disposal": true
        }
      ],
      "Payments": [
        {
          "Credit cards": true
        },
        {
          "Debit cards": true
        },
        {
          "NFC mobile payments": true
        },
        {
          "Credit cards": true
        }
      ]
    },
    "gasPrices": [],
    "url": "https://www.google.com/maps/search/?api=1&query=Prescription%20Center%20Pharmacy&query_place_id=ChIJh3H0_Y7LyFIRY1mVEyq62_4",
    "searchPageUrl": "https://www.google.com/maps/search/independent%20pharmacy%20West%20Fargo%20ND/@52.05033240061953,179.44759101927465,12z?hl=en",
    "searchString": "independent pharmacy West Fargo ND",
    "language": "en",
    "rank": 12,
    "isAdvertisement": false,
    "imageUrl": "https://streetviewpixels-pa.googleapis.com/v1/thumbnail?panoid=Dzb_kjnKTJDvgSb4Nx-NKQ&cb_client=search.gws-prod.gps&w=408&h=240&yaw=281.2885&pitch=0&thumbfov=100",
    "kgmid": "/g/1xg5s9zw",
    "classification": "independent",
    "is_independent": true,
    "is_compounding": false,
    "confidence": 0.85,
    "source": "perplexity",
    "method": "llm",
    "query_location": "west_fargo_nd"
  },
  {
    "title": "Medical Pharmacy South",
    "price": null,
    "categoryName": "Pharmacy",
    "address": "4151 45th St S, Fargo, ND 58104",
    "neighborhood": null,
    "street": "4151 45th St S",
    "city": "Fargo",
    "postalCode": "58104",
    "state": "North Dakota",
    "countryCode": "US",
    "website": "https://www.medpharmsouth.com/",
    "phone": "(701) 282-8075",
    "phoneUnformatted": "+17012828075",
    "claimThisBusiness": false,
    "location": {
      "lat": 46.8171391,
      "lng": -96.8637118
    },
    "totalScore": 4.4,
    "permanentlyClosed": false,
    "temporarilyClosed": false,
    "placeId": null,
    "categories": [
      "Pharmacy"
    ],
    "fid": "0x52c8ccd73d2f105f:0x7a0311957192917c",
    "cid": "8791890231110570364",
    "reviewsCount": 50,
    "imagesCount": 2,
    "imageCategories": [],
    "scrapedAt": "2025-06-22T09:18:16.803Z",
    "googleFoodUrl": null,
    "hotelAds": [],
    "openingHours": [
      {
        "day": "Monday",
        "hours": "9\u202fAM to 8\u202fPM"
      },
      {
        "day": "Tuesday",
        "hours": "9\u202fAM to 8\u202fPM"
      },
      {
        "day": "Wednesday",
        "hours": "9\u202fAM to 8\u202fPM"
      },
      {
        "day": "Thursday",
        "hours": "9\u202fAM to 8\u202fPM"
      },
      {
        "day": "Friday",
        "hours": "9\u202fAM to 8\u202fPM"
      },
      {
        "day": "Saturday",
        "hours": "9\u202fAM to 5\u202fPM"
      },
      {
        "day": "Sunday",
        "hours": "12 to 5\u202fPM"
      }
    ],
    "peopleAlsoSearch": [],
    "placesTags": [],
    "reviewsTags": [],
    "additionalInfo": {
      "From the business": [
        {
          "Small business": true
        }
      ],
      "Service options": [
        {
          "In-store pickup": true
        }
      ],
      "Accessibility": [
        {
          "Wheelchair accessible entrance": true
        },
        {
          "Wheelchair accessible parking lot": true
        }
      ],
      "Offerings": [
        {
          "Medication disposal": true
        }
      ],
      "Planning": [
        {
          "Quick visit": true
        }
      ],
      "Payments": [
        {
          "Credit cards": true
        },
        {
          "Debit cards": true
        },
        {
          "NFC mobile payments": true
        },
        {
          "Credit cards": true
        }
      ]
    },
    "gasPrices": [],
    "url": "https://www.google.com/maps/search/?api=1&query=Medical%20Pharmacy%20South&query_place_id=ChIJXxAvPdfMyFIRfJGScZURA3o",
    "searchPageUrl": "https://www.google.com/maps/search/independent%20pharmacy%20West%20Fargo%20ND/@52.05033240061953,179.44759101927465,12z?hl=en",
    "searchString": "independent pharmacy West Fargo ND",
    "language": "en",
    "rank": 13,
    "isAdvertisement": false,
    "imageUrl": "https://lh3.googleusercontent.com/p/AF1QipNmebYcvS5-SEdC3Rkn6rxKsZirr1JxYlVDnqMG=w426-h240-k-no",
    "kgmid": "/g/1tftkw1v",
    "classification": "independent",
    "is_independent": true,
    "is_compounding": false,
    "confidence": 0.9,
    "source": "perplexity",
    "method": "llm",
    "query_location": "west_fargo_nd"
  },
  {
    "title": "Sanford Pharmacy",
    "price": null,
    "categoryName": "Pharmacy",
    "address": "West Fargo, ND 58078",
    "neighborhood": null,
    "street": null,
    "city": "West Fargo",
    "postalCode": null,
    "state": "North Dakota",
    "countryCode": "US",
    "phone": "(701) 282-4665",
    "phoneUnformatted": "+17012824665",
    "claimThisBusiness": true,
    "location": {
      "lat": 46.862793,
      "lng": -96.905334
    },
    "totalScore": 5,
    "permanentlyClosed": false,
    "temporarilyClosed": false,
    "placeId": null,
    "categories": [
      "Pharmacy"
    ],
    "fid": "0x52cf34bda24a0d87:0x633ff1c729147884",
    "cid": "7151700570977630340",
    "reviewsCount": 3,
    "imagesCount": 1,
    "imageCategories": [],
    "scrapedAt": "2025-06-22T09:18:16.803Z",
    "googleFoodUrl": null,
    "hotelAds": [],
    "openingHours": [
      {
        "day": "Monday",
        "hours": "8\u202fAM to 4\u202fPM"
      },
      {
        "day": "Tuesday",
        "hours": "8\u202fAM to 4\u202fPM"
      },
      {
        "day": "Wednesday",
        "hours": "8\u202fAM to 4\u202fPM"
      },
      {
        "day": "Thursday",
        "hours": "8\u202fAM to 4\u202fPM"
      },
      {
        "day": "Friday",
        "hours": "8\u202fAM to 4\u202fPM"
      },
      {
        "day": "Saturday",
        "hours": "Closed"
      },
      {
        "day": "Sunday",
        "hours": "Closed"
      }
    ],
    "peopleAlsoSearch": [],
    "placesTags": [],
    "reviewsTags": [],
    "additionalInfo": {
      "Accessibility": [
        {
          "Wheelchair accessible entrance": true
        },
        {
          "Wheelchair accessible parking lot": true
        }
      ],
      "Payments": [
        {
          "Credit cards": true
        }
      ]
    },
    "gasPrices": [],
    "url": "https://www.google.com/maps/search/?api=1&query=Sanford%20Pharmacy&query_place_id=ChIJhw1Kor00z1IRhHgUKcfxP2M",
    "searchPageUrl": "https://www.google.com/maps/search/independent%20pharmacy%20West%20Fargo%20ND/@52.05033240061953,179.44759101927465,12z?hl=en",
    "searchString": "independent pharmacy West Fargo ND",
    "language": "en",
    "rank": 14,
    "isAdvertisement": false,
    "imageUrl": "https://streetviewpixels-pa.googleapis.com/v1/thumbnail?panoid=lp_EMPeFEyrLH-jcBhw32Q&cb_client=search.gws-prod.gps&w=408&h=240&yaw=356.25812&pitch=0&thumbfov=100",
    "kgmid": "/g/11k5ltmtgm",
    "classification": "hospital",
    "is_independent": false,
    "is_compounding": false,
    "confidence": 0.9,
    "source": "perplexity",
    "method": "llm",
    "query_location": "west_fargo_nd"
  },
  {
    "title": "Wall's Prairie Pharmacy",
    "price": null,
    "categoryName": "Pharmacy",
    "address": "4731 13th Ave S, Fargo, ND 58103",
    "neighborhood": "Village West",
    "street": "4731 13th Ave S",
    "city": "Fargo",
    "postalCode": "58103",
    "state": "North Dakota",
    "countryCode": "US",
    "website": "https://wallsprairiepharmacy.com/",
    "phone": "(701) 373-0325",
    "phoneUnformatted": "+17013730325",
    "claimThisBusiness": false,
    "location": {
      "lat": 46.8642498,
      "lng": -96.8653544
    },
    "totalScore": 3.5,
    "permanentlyClosed": false,
    "temporarilyClosed": false,
    "placeId": null,
    "categories": [
      "Pharmacy"
    ],
    "fid": "0x52c8cb5b4df65283:0xa5acbfe0276a2b16",
    "cid": "11938127681707191062",
    "reviewsCount": 52,
    "imagesCount": 3,
    "imageCategories": [],
    "scrapedAt": "2025-06-22T09:18:16.803Z",
    "googleFoodUrl": null,
    "hotelAds": [],
    "openingHours": [
      {
        "day": "Monday",
        "hours": "9\u202fAM to 6\u202fPM"
      },
      {
        "day": "Tuesday",
        "hours": "9\u202fAM to 6\u202fPM"
      },
      {
        "day": "Wednesday",
        "hours": "9\u202fAM to 6\u202fPM"
      },
      {
        "day": "Thursday",
        "hours": "9\u202fAM to 6\u202fPM"
      },
      {
        "day": "Friday",
        "hours": "9\u202fAM to 6\u202fPM"
      },
      {
        "day": "Saturday",
        "hours": "9\u202fAM to 2\u202fPM"
      },
      {
        "day": "Sunday",
        "hours": "Closed"
      }
    ],
    "peopleAlsoSearch": [],
    "placesTags": [],
    "reviewsTags": [],
    "additionalInfo": {
      "From the business": [
        {
          "Small business": true
        }
      ],
      "Service options": [
        {
          "Delivery": true
        },
        {
          "In-store pickup": true
        },
        {
          "Same-day delivery": true
        }
      ],
      "Accessibility": [
        {
          "Wheelchair accessible entrance": true
        },
        {
          "Wheelchair accessible parking lot": true
        }
      ],
      "Planning": [
        {
          "Quick visit": true
        }
      ],
      "Payments": [
        {
          "Credit cards": true
        },
        {
          "Debit cards": true
        },
        {
          "NFC mobile payments": true
        },
        {
          "Credit cards": true
        }
      ]
    },
    "gasPrices": [],
    "url": "https://www.google.com/maps/search/?api=1&query=Wall's%20Prairie%20Pharmacy&query_place_id=ChIJg1L2TVvLyFIRFitqJ-C_rKU",
    "searchPageUrl": "https://www.google.com/maps/search/independent%20pharmacy%20West%20Fargo%20ND/@52.05033240061953,179.44759101927465,12z?hl=en",
    "searchString": "independent pharmacy West Fargo ND",
    "language": "en",
    "rank": 15,
    "isAdvertisement": false,
    "imageUrl": "https://lh3.googleusercontent.com/gps-cs-s/AC9h4nqv3gBbirob3P7kgckmxOdcf1nvGtkQIf_1ovv1bwr1hSsacK837bPvLR-1lZgdN3lmvvVtm6Ej8wg0is_2c2vHl-ixBM0SDwMH4i3Ufd5YBOr9nUFi_O2lmC3bRdf4kSMtP-6v=w408-h306-k-no",
    "kgmid": "/g/1w6651d3",
    "classification": "independent",
    "is_independent": true,
    "is_compounding": false,
    "confidence": 0.9,
    "source": "perplexity",
    "method": "llm",
    "query_location": "west_fargo_nd"
  },
  {
    "title": "Dakota Clinic Pharmacy at SU Drive",
    "price": null,
    "categoryName": "Pharmacy",
    "address": "1702 S University Dr, Fargo, ND 58103",
    "neighborhood": "Clara Barton",
    "street": "1702 S University Dr",
    "city": "Fargo",
    "postalCode": "58103",
    "state": "North Dakota",
    "countryCode": "US",
    "phone": "(701) 364-3450",
    "phoneUnformatted": "+17013643450",
    "claimThisBusiness": false,
    "location": {
      "lat": 46.8536236,
      "lng": -96.7977858
    },
    "totalScore": 4.5,
    "permanentlyClosed": false,
    "temporarilyClosed": false,
    "placeId": "ChIJ99EgVgbMyFIRpDRw_PbL6PE",
    "categories": [
      "Pharmacy",
      "Drug store"
    ],
    "fid": "0x52c8cc065620d1f7:0xf1e8cbf6fc7034a4",
    "cid": "17431406619395110052",
    "reviewsCount": 18,
    "imagesCount": 6,
    "imageCategories": [],
    "scrapedAt": "2025-06-22T09:18:16.803Z",
    "googleFoodUrl": null,
    "hotelAds": [],
    "openingHours": [
      {
        "day": "Monday",
        "hours": "8\u202fAM to 6\u202fPM"
      },
      {
        "day": "Tuesday",
        "hours": "8\u202fAM to 6\u202fPM"
      },
      {
        "day": "Wednesday",
        "hours": "8\u202fAM to 6\u202fPM"
      },
      {
        "day": "Thursday",
        "hours": "8\u202fAM to 6\u202fPM"
      },
      {
        "day": "Friday",
        "hours": "8\u202fAM to 6\u202fPM"
      },
      {
        "day": "Saturday",
        "hours": "8\u202fAM to 12\u202fPM"
      },
      {
        "day": "Sunday",
        "hours": "Closed"
      }
    ],
    "peopleAlsoSearch": [],
    "placesTags": [],
    "reviewsTags": [],
    "additionalInfo": {
      "From the business": [
        {
          "Small business": true
        }
      ],
      "Service options": [
        {
          "Curbside pickup": true
        },
        {
          "Delivery": true
        },
        {
          "Drive-through": true
        },
        {
          "In-store pickup": true
        },
        {
          "In-store shopping": true
        },
        {
          "Same-day delivery": true
        }
      ],
      "Accessibility": [
        {
          "Wheelchair accessible entrance": true
        },
        {
          "Wheelchair accessible parking lot": true
        }
      ],
      "Offerings": [
        {
          "Medication disposal": true
        }
      ],
      "Payments": [
        {
          "Credit cards": true
        },
        {
          "Debit cards": true
        },
        {
          "NFC mobile payments": true
        },
        {
          "Credit cards": true
        }
      ]
    },
    "gasPrices": [],
    "url": "https://www.google.com/maps/search/?api=1&query=Dakota%20Clinic%20Pharmacy%20at%20SU%20Drive&query_place_id=ChIJ99EgVgbMyFIRpDRw_PbL6PE",
    "searchPageUrl": "https://www.google.com/maps/search/independent%20pharmacy%20West%20Fargo%20ND/@52.05033240061953,179.44759101927465,12z?hl=en",
    "searchString": "independent pharmacy West Fargo ND",
    "language": "en",
    "rank": 16,
    "isAdvertisement": false,
    "imageUrl": "https://lh3.googleusercontent.com/p/AF1QipN67NaXc17vvmEw7hbv5cCFcgjWlDihmtuHNJn-=w408-h306-k-no",
    "kgmid": "/g/12hkky5lz",
    "classification": "hospital",
    "is_independent": false,
    "confidence": 1.0,
    "source": "rule-based"
  },
  {
    "title": "Northport Drug",
    "price": null,
    "categoryName": "Pharmacy",
    "address": "2522 Broadway N, Fargo, ND 58102",
    "neighborhood": "Northport",
    "street": "2522 Broadway N",
    "city": "Fargo",
    "postalCode": "58102",
    "state": "North Dakota",
    "countryCode": "US",
    "website": "https://www.mygnp.com/pharmacies/northport-drug-fargo-nd-58102/",
    "phone": "(701) 235-5543",
    "phoneUnformatted": "+17012355543",
    "claimThisBusiness": false,
    "location": {
      "lat": 46.9109491,
      "lng": -96.7890284
    },
    "totalScore": 4.7,
    "permanentlyClosed": false,
    "temporarilyClosed": false,
    "placeId": null,
    "categories": [
      "Pharmacy"
    ],
    "fid": "0x52c8c99171127407:0xfe8483546d97ec70",
    "cid": "18339927981198666864",
    "reviewsCount": 16,
    "imagesCount": 2,
    "imageCategories": [],
    "scrapedAt": "2025-06-22T09:18:16.803Z",
    "googleFoodUrl": null,
    "hotelAds": [],
    "openingHours": [
      {
        "day": "Monday",
        "hours": "8\u202fAM to 7\u202fPM"
      },
      {
        "day": "Tuesday",
        "hours": "8\u202fAM to 7\u202fPM"
      },
      {
        "day": "Wednesday",
        "hours": "8\u202fAM to 7\u202fPM"
      },
      {
        "day": "Thursday",
        "hours": "8\u202fAM to 7\u202fPM"
      },
      {
        "day": "Friday",
        "hours": "8\u202fAM to 7\u202fPM"
      },
      {
        "day": "Saturday",
        "hours": "9\u202fAM to 3\u202fPM"
      },
      {
        "day": "Sunday",
        "hours": "Closed"
      }
    ],
    "peopleAlsoSearch": [],
    "placesTags": [],
    "reviewsTags": [],
    "additionalInfo": {
      "From the business": [
        {
          "Small business": true
        }
      ],
      "Service options": [
        {
          "In-store pickup": true
        }
      ],
      "Accessibility": [
        {
          "Wheelchair accessible entrance": true
        },
        {
          "Wheelchair accessible parking lot": true
        }
      ],
      "Planning": [
        {
          "Quick visit": true
        }
      ],
      "Payments": [
        {
          "Credit cards": true
        },
        {
          "Debit cards": true
        },
        {
          "NFC mobile payments": true
        },
        {
          "Credit cards": true
        }
      ]
    },
    "gasPrices": [],
    "url": "https://www.google.com/maps/search/?api=1&query=Northport%20Drug&query_place_id=ChIJB3QScZHJyFIRcOyXbVSDhP4",
    "searchPageUrl": "https://www.google.com/maps/search/independent%20pharmacy%20West%20Fargo%20ND/@52.05033240061953,179.44759101927465,12z?hl=en",
    "searchString": "independent pharmacy West Fargo ND",
    "language": "en",
    "rank": 17,
    "isAdvertisement": false,
    "imageUrl": "https://lh3.googleusercontent.com/gps-cs-s/AC9h4nqoRxYB3j5idgbnlHICMQk9GnOYmoUkKVJnhTAmwLGL1asKM_2YWDaVA2myZIAFFnuDUKWWkUIWPheQvnDVbTgRyoxP77eSypXDioJWRUCuy95E_cQx5hIl0T0wIvpWg_TB8O4=w408-h306-k-no",
    "kgmid": "/g/1tsypfft",
    "classification": "independent",
    "is_independent": true,
    "is_compounding": false,
    "confidence": 0.9,
    "source": "perplexity",
    "method": "llm",
    "query_location": "west_fargo_nd"
  },
  {
    "title": "InHealth Specialty Pharmacy",
    "price": null,
    "categoryName": "Pharmacy",
    "address": "2345 25th St S ste c, Fargo, ND 58103",
    "neighborhood": "Bluemont Lakes",
    "street": "2345 25th St S ste c",
    "city": "Fargo",
    "postalCode": "58103",
    "state": "North Dakota",
    "countryCode": "US",
    "website": "http://www.inhealthcompounding.com/",
    "phone": "(701) 365-6050",
    "phoneUnformatted": "+17013656050",
    "claimThisBusiness": false,
    "location": {
      "lat": 46.8430397,
      "lng": -96.820664
    },
    "totalScore": 4.4,
    "permanentlyClosed": false,
    "temporarilyClosed": false,
    "placeId": "ChIJAxCuom_MyFIRB_zbL0HpPXc",
    "categories": [
      "Pharmacy"
    ],
    "fid": "0x52c8cc6fa2ae1003:0x773de9412fdbfc07",
    "cid": "8592280130277866503",
    "reviewsCount": 18,
    "imagesCount": 4,
    "imageCategories": [],
    "scrapedAt": "2025-06-22T09:18:16.803Z",
    "googleFoodUrl": null,
    "hotelAds": [],
    "openingHours": [
      {
        "day": "Monday",
        "hours": "9\u202fAM to 5:30\u202fPM"
      },
      {
        "day": "Tuesday",
        "hours": "9\u202fAM to 5:30\u202fPM"
      },
      {
        "day": "Wednesday",
        "hours": "9\u202fAM to 5:30\u202fPM"
      },
      {
        "day": "Thursday",
        "hours": "9\u202fAM to 5:30\u202fPM"
      },
      {
        "day": "Friday",
        "hours": "9\u202fAM to 5:30\u202fPM"
      },
      {
        "day": "Saturday",
        "hours": "Closed"
      },
      {
        "day": "Sunday",
        "hours": "Closed"
      }
    ],
    "peopleAlsoSearch": [],
    "placesTags": [],
    "reviewsTags": [],
    "additionalInfo": {
      "From the business": [
        {
          "Small business": true
        }
      ],
      "Service options": [
        {
          "Delivery": true
        },
        {
          "In-store pickup": true
        }
      ],
      "Accessibility": [
        {
          "Wheelchair accessible entrance": true
        },
        {
          "Wheelchair accessible parking lot": true
        }
      ],
      "Offerings": [
        {
          "Medication disposal": true
        }
      ],
      "Payments": [
        {
          "Credit cards": true
        },
        {
          "Debit cards": true
        },
        {
          "Credit cards": true
        }
      ]
    },
    "gasPrices": [],
    "url": "https://www.google.com/maps/search/?api=1&query=InHealth%20Specialty%20Pharmacy&query_place_id=ChIJAxCuom_MyFIRB_zbL0HpPXc",
    "searchPageUrl": "https://www.google.com/maps/search/independent%20pharmacy%20West%20Fargo%20ND/@52.05033240061953,179.44759101927465,12z?hl=en",
    "searchString": "independent pharmacy West Fargo ND",
    "language": "en",
    "rank": 18,
    "isAdvertisement": false,
    "imageUrl": "https://lh3.googleusercontent.com/gps-cs-s/AC9h4nq1YNdiZ1_cl-dAFjI_8_EHbx0I_OdSdvhwxPnMTlm_TEzQqx5NviMs8QpFJR0FRrBKyYsTXWktbo7GAVCWNnvaWhESOcl5pMTYilY46L92jbL-77SFaDnwEwnLq0Oa2ud2yl0=w484-h240-k-no",
    "kgmid": "/g/1tjdldp0",
    "classification": "hospital",
    "is_independent": false,
    "confidence": 1.0,
    "source": "rule-based"
  },
  {
    "title": "CVS Pharmacy",
    "price": null,
    "categoryName": "Pharmacy",
    "address": "2425 13th Ave S, Fargo, ND 58103",
    "neighborhood": "Carl Ben",
    "street": "2425 13th Ave S",
    "city": "Fargo",
    "postalCode": "58103",
    "state": "North Dakota",
    "countryCode": "US",
    "website": "https://www.cvs.com/store-locator/fargo-nd-pharmacies/2425-13th-ave-south-fargo-nd-58103/storeid=8612?WT.mc_id=LS_GOOGLE_RX_8612",
    "phone": "(701) 232-4872",
    "phoneUnformatted": "+17012324872",
    "claimThisBusiness": false,
    "location": {
      "lat": 46.8621227,
      "lng": -96.8186178
    },
    "totalScore": 3.5,
    "permanentlyClosed": false,
    "temporarilyClosed": false,
    "placeId": "ChIJQVfVOYzLyFIR0JxHLul8zU4",
    "categories": [
      "Pharmacy"
    ],
    "fid": "0x52c8cb8c39d55741:0x4ecd7ce92e479cd0",
    "cid": "5678332046129732816",
    "reviewsCount": 62,
    "imagesCount": 10,
    "imageCategories": [],
    "scrapedAt": "2025-06-22T09:18:16.803Z",
    "googleFoodUrl": null,
    "hotelAds": [],
    "openingHours": [
      {
        "day": "Monday",
        "hours": "8\u202fAM to 1:30\u202fPM, 2 to 9\u202fPM"
      },
      {
        "day": "Tuesday",
        "hours": "8\u202fAM to 1:30\u202fPM, 2 to 9\u202fPM"
      },
      {
        "day": "Wednesday",
        "hours": "8\u202fAM to 1:30\u202fPM, 2 to 9\u202fPM"
      },
      {
        "day": "Thursday",
        "hours": "8\u202fAM to 1:30\u202fPM, 2 to 9\u202fPM"
      },
      {
        "day": "Friday",
        "hours": "8\u202fAM to 1:30\u202fPM, 2 to 9\u202fPM"
      },
      {
        "day": "Saturday",
        "hours": "9\u202fAM to 1:30\u202fPM, 2 to 9\u202fPM"
      },
      {
        "day": "Sunday",
        "hours": "10\u202fAM to 1:30\u202fPM, 2 to 6\u202fPM"
      }
    ],
    "peopleAlsoSearch": [],
    "placesTags": [],
    "reviewsTags": [],
    "additionalInfo": {
      "Service options": [
        {
          "Delivery": true
        },
        {
          "Drive-through": true
        },
        {
          "In-store pickup": true
        },
        {
          "In-store shopping": true
        },
        {
          "Onsite services": true
        }
      ],
      "Accessibility": [
        {
          "Wheelchair accessible entrance": true
        },
        {
          "Wheelchair accessible parking lot": true
        }
      ],
      "Offerings": [
        {
          "Medication disposal": true
        },
        {
          "Naloxone": true
        },
        {
          "Passport photos": true
        }
      ],
      "Crowd": [
        {
          "LGBTQ+ friendly": true
        },
        {
          "Transgender safespace": true
        }
      ],
      "Planning": [
        {
          "Quick visit": true
        }
      ],
      "Payments": [
        {
          "Credit cards": true
        },
        {
          "Debit cards": true
        },
        {
          "NFC mobile payments": true
        },
        {
          "SNAP/EBT": true
        },
        {
          "Credit cards": true
        }
      ]
    },
    "gasPrices": [],
    "url": "https://www.google.com/maps/search/?api=1&query=CVS%20Pharmacy&query_place_id=ChIJQVfVOYzLyFIR0JxHLul8zU4",
    "searchPageUrl": "https://www.google.com/maps/search/independent%20pharmacy%20West%20Fargo%20ND/@52.05033240061953,179.44759101927465,12z?hl=en",
    "searchString": "independent pharmacy West Fargo ND",
    "language": "en",
    "rank": 19,
    "isAdvertisement": false,
    "imageUrl": "https://lh3.googleusercontent.com/p/AF1QipPi4rybV5kpguTTa4UrUQLn545IZZFYplbTSMc9=w408-h272-k-no",
    "kgmid": "/g/11c461zg5c",
    "classification": "chain",
    "is_independent": false,
    "confidence": 1.0,
    "source": "rule-based"
  },
  {
    "title": "Sanford Specialty Pharmacy",
    "price": null,
    "categoryName": "Pharmacy",
    "address": "737 Broadway N, Fargo, ND 58102",
    "neighborhood": "Downtown",
    "street": "737 Broadway N",
    "city": "Fargo",
    "postalCode": "58102",
    "state": "North Dakota",
    "countryCode": "US",
    "website": "https://www.sanfordhealth.org/locations/sanford-specialty-pharmacy?yxt_info=sanford-location-0779A8BA-A99C-494B-9FFC-D80DA04F124F&y_source=1_MjAxMDk4NzEyNS03MTUtbG9jYXRpb24ud2Vic2l0ZQ%3D%3D",
    "phone": "(701) 234-7600",
    "phoneUnformatted": "+17012347600",
    "claimThisBusiness": false,
    "location": {
      "lat": 46.8844324,
      "lng": -96.7875759
    },
    "permanentlyClosed": false,
    "temporarilyClosed": false,
    "placeId": null,
    "categories": [
      "Pharmacy"
    ],
    "fid": "0x52c8c93df59c2e4f:0xaf402ea9ac85976b",
    "cid": "12628144661425657707",
    "reviewsCount": 0,
    "imagesCount": 3,
    "imageCategories": [],
    "scrapedAt": "2025-06-22T09:18:16.803Z",
    "googleFoodUrl": null,
    "hotelAds": [],
    "openingHours": [
      {
        "day": "Monday",
        "hours": "8\u202fAM to 4:30\u202fPM"
      },
      {
        "day": "Tuesday",
        "hours": "8\u202fAM to 4:30\u202fPM"
      },
      {
        "day": "Wednesday",
        "hours": "8\u202fAM to 4:30\u202fPM"
      },
      {
        "day": "Thursday",
        "hours": "8\u202fAM to 4:30\u202fPM"
      },
      {
        "day": "Friday",
        "hours": "8\u202fAM to 4:30\u202fPM"
      },
      {
        "day": "Saturday",
        "hours": "Closed"
      },
      {
        "day": "Sunday",
        "hours": "Closed"
      }
    ],
    "peopleAlsoSearch": [],
    "placesTags": [],
    "reviewsTags": [],
    "gasPrices": [],
    "url": "https://www.google.com/maps/search/?api=1&query=Sanford%20Specialty%20Pharmacy&query_place_id=ChIJTy6c9T3JyFIRa5eFrKkuQK8",
    "searchPageUrl": "https://www.google.com/maps/search/independent%20pharmacy%20West%20Fargo%20ND/@52.05033240061953,179.44759101927465,12z?hl=en",
    "searchString": "independent pharmacy West Fargo ND",
    "language": "en",
    "rank": 20,
    "isAdvertisement": false,
    "imageUrl": "https://lh3.googleusercontent.com/p/AF1QipNseOxULOiwDuSvX3c4SV2REtxUPNmWlkAOB9Ms=w427-h240-k-no",
    "kgmid": "/g/11ycxt80zg",
    "classification": "hospital",
    "is_independent": false,
    "is_compounding": false,
    "confidence": 0.98,
    "source": "perplexity",
    "method": "llm",
    "query_location": "west_fargo_nd"
  }
]