[
  {
    "title": "Louisiana Independent Pharms",
    "price": null,
    "categoryName": "Pharmacy",
    "address": "543 Spanish Town Rd, Baton Rouge, LA 70802",
    "neighborhood": "Downtown",
    "street": "543 Spanish Town Rd",
    "city": "Baton Rouge",
    "postalCode": "70802",
    "state": "Louisiana",
    "countryCode": "US",
    "phone": "(225) 334-9165",
    "phoneUnformatted": "+12253349165",
    "claimThisBusiness": true,
    "location": {
      "lat": 30.4549512,
      "lng": -91.1852259
    },
    "permanentlyClosed": false,
    "temporarilyClosed": false,
    "placeId": null,
    "categories": [
      "Pharmacy"
    ],
    "fid": "0x8626a0e838e74e5d:0xd2e26db47c63fd5e",
    "cid": "15195828714649943390",
    "reviewsCount": 0,
    "imagesCount": 1,
    "imageCategories": [],
    "scrapedAt": "2025-06-22T05:24:40.459Z",
    "googleFoodUrl": null,
    "hotelAds": [],
    "openingHours": [],
    "peopleAlsoSearch": [],
    "placesTags": [],
    "reviewsTags": [],
    "additionalInfo": {
      "Accessibility": [
        {
          "Wheelchair accessible entrance": true
        },
        {
          "Wheelchair accessible parking lot": true
        }
      ],
      "Planning": [
        {
          "Quick visit": true
        }
      ],
      "Payments": [
        {
          "Credit cards": true
        }
      ]
    },
    "gasPrices": [],
    "url": "https://www.google.com/maps/search/?api=1&query=Louisiana%20Independent%20Pharms&query_place_id=ChIJXU7nOOigJoYRXv1jfLRt4tI",
    "searchPageUrl": "https://www.google.com/maps/search/independent%20pharmacy%20Baton%20Rouge%20LA/@18.458974397176295,-64.80239423087781,11z?hl=en",
    "searchString": "independent pharmacy Baton Rouge LA",
    "language": "en",
    "rank": 1,
    "isAdvertisement": false,
    "imageUrl": "https://streetviewpixels-pa.googleapis.com/v1/thumbnail?panoid=PMrqM4EcpSTDZhT8A8rOCA&cb_client=search.gws-prod.gps&w=408&h=240&yaw=1.804555&pitch=0&thumbfov=100",
    "kgmid": "/g/1261q1vbd",
    "classification": "independent",
    "is_independent": true,
    "is_compounding": false,
    "confidence": 0.85,
    "source": "perplexity",
    "method": "llm"
  },
  {
    "title": "Baton Rouge General Corner Pharmacy",
    "price": null,
    "categoryName": "Pharmacy",
    "address": "8585 Picardy Ave Entrance 3, Baton Rouge, LA 70809",
    "neighborhood": "South Baton Rouge",
    "street": "8585 Picardy Ave Entrance 3",
    "city": "Baton Rouge",
    "postalCode": "70809",
    "state": "Louisiana",
    "countryCode": "US",
    "phone": "(225) 763-4692",
    "phoneUnformatted": "+12257634692",
    "claimThisBusiness": false,
    "location": {
      "lat": 30.3933082,
      "lng": -91.0952626
    },
    "totalScore": 3.5,
    "permanentlyClosed": false,
    "temporarilyClosed": false,
    "placeId": null,
    "categories": [
      "Pharmacy"
    ],
    "fid": "0x8626a4f9aaa91865:0xc5a3902951a8e05",
    "cid": "890086559613357573",
    "reviewsCount": 8,
    "imagesCount": 2,
    "imageCategories": [],
    "scrapedAt": "2025-06-22T05:24:40.460Z",
    "googleFoodUrl": null,
    "hotelAds": [],
    "openingHours": [
      {
        "day": "Monday",
        "hours": "7\u202fAM to 5:30\u202fPM"
      },
      {
        "day": "Tuesday",
        "hours": "7\u202fAM to 5:30\u202fPM"
      },
      {
        "day": "Wednesday",
        "hours": "7\u202fAM to 5:30\u202fPM"
      },
      {
        "day": "Thursday",
        "hours": "7\u202fAM to 5:30\u202fPM"
      },
      {
        "day": "Friday",
        "hours": "7\u202fAM to 5:30\u202fPM"
      },
      {
        "day": "Saturday",
        "hours": "Closed"
      },
      {
        "day": "Sunday",
        "hours": "Closed"
      }
    ],
    "peopleAlsoSearch": [],
    "placesTags": [],
    "reviewsTags": [],
    "additionalInfo": {
      "Service options": [
        {
          "Curbside pickup": true
        },
        {
          "Delivery": true
        },
        {
          "In-store pickup": true
        },
        {
          "In-store shopping": true
        },
        {
          "Same-day delivery": true
        }
      ],
      "Accessibility": [
        {
          "Wheelchair accessible entrance": true
        },
        {
          "Wheelchair accessible parking lot": true
        }
      ],
      "Payments": [
        {
          "Credit cards": true
        }
      ]
    },
    "gasPrices": [],
    "url": "https://www.google.com/maps/search/?api=1&query=Baton%20Rouge%20General%20Corner%20Pharmacy&query_place_id=ChIJZRipqvmkJoYRBY4alQI5Wgw",
    "searchPageUrl": "https://www.google.com/maps/search/independent%20pharmacy%20Baton%20Rouge%20LA/@18.458974397176295,-64.80239423087781,11z?hl=en",
    "searchString": "independent pharmacy Baton Rouge LA",
    "language": "en",
    "rank": 2,
    "isAdvertisement": false,
    "imageUrl": "https://lh3.googleusercontent.com/p/AF1QipNhZr72SDlIYaXSjr-liZdMEBQEAp8XgtqZtIQf=w408-h258-k-no",
    "kgmid": "/g/11b6gdjy_1",
    "classification": "hospital",
    "is_independent": false,
    "is_compounding": false,
    "confidence": 0.9,
    "source": "perplexity",
    "method": "llm"
  },
  {
    "title": "Baton Rouge Speciality Pharmacy, LLC",
    "price": null,
    "categoryName": "Pharmacy",
    "address": "748 Chevelle Dr, Baton Rouge, LA 70806",
    "neighborhood": "Mid City South",
    "street": "748 Chevelle Dr",
    "city": "Baton Rouge",
    "postalCode": "70806",
    "state": "Louisiana",
    "countryCode": "US",
    "claimThisBusiness": true,
    "location": {
      "lat": 30.4435895,
      "lng": -91.0989013
    },
    "permanentlyClosed": false,
    "temporarilyClosed": false,
    "placeId": null,
    "categories": [
      "Pharmacy"
    ],
    "fid": "0x8626a3b186891719:0xc426e8d6d15f07ef",
    "cid": "14134240489882191855",
    "reviewsCount": 0,
    "imagesCount": 1,
    "imageCategories": [],
    "scrapedAt": "2025-06-22T05:24:40.461Z",
    "googleFoodUrl": null,
    "hotelAds": [],
    "openingHours": [],
    "peopleAlsoSearch": [],
    "placesTags": [],
    "reviewsTags": [],
    "additionalInfo": {
      "Service options": [
        {
          "Delivery": true
        },
        {
          "Same-day delivery": true
        }
      ],
      "Accessibility": [
        {
          "Wheelchair accessible entrance": true
        },
        {
          "Wheelchair accessible parking lot": true
        }
      ],
      "Payments": [
        {
          "Credit cards": true
        },
        {
          "Debit cards": true
        },
        {
          "NFC mobile payments": true
        },
        {
          "Credit cards": true
        }
      ]
    },
    "gasPrices": [],
    "url": "https://www.google.com/maps/search/?api=1&query=Baton%20Rouge%20Speciality%20Pharmacy%2C%20LLC&query_place_id=ChIJGReJhrGjJoYR7wdf0dboJsQ",
    "searchPageUrl": "https://www.google.com/maps/search/independent%20pharmacy%20Baton%20Rouge%20LA/@18.458974397176295,-64.80239423087781,11z?hl=en",
    "searchString": "independent pharmacy Baton Rouge LA",
    "language": "en",
    "rank": 4,
    "isAdvertisement": false,
    "imageUrl": "https://streetviewpixels-pa.googleapis.com/v1/thumbnail?panoid=lWSS0GHYnNCZV-xJoqhaZw&cb_client=search.gws-prod.gps&w=408&h=240&yaw=250.47754&pitch=0&thumbfov=100",
    "kgmid": "/g/11f6dq_6nn",
    "classification": "independent",
    "is_independent": true,
    "is_compounding": false,
    "confidence": 0.85,
    "source": "perplexity",
    "method": "llm"
  },
  {
    "title": "Integrative Pharmacy and Wellness",
    "price": null,
    "categoryName": "Pharmacy",
    "address": "9026 Jefferson Hwy STE 101, Baton Rouge, LA 70809",
    "neighborhood": null,
    "street": "9026 Jefferson Hwy STE 101",
    "city": "Baton Rouge",
    "postalCode": "70809",
    "state": "Louisiana",
    "countryCode": "US",
    "website": "https://integrativepharmacyandwellness.com/",
    "phone": "(225) 831-1212",
    "phoneUnformatted": "+12258311212",
    "claimThisBusiness": false,
    "location": {
      "lat": 30.4152749,
      "lng": -91.0871973
    },
    "totalScore": 4.9,
    "permanentlyClosed": false,
    "temporarilyClosed": false,
    "placeId": null,
    "categories": [
      "Pharmacy"
    ],
    "fid": "0x8626a56c7c0d82bb:0x1486781f13b0f664",
    "cid": "1479001602507470436",
    "reviewsCount": 15,
    "imagesCount": 3,
    "imageCategories": [],
    "scrapedAt": "2025-06-22T05:24:40.461Z",
    "googleFoodUrl": null,
    "hotelAds": [],
    "openingHours": [
      {
        "day": "Monday",
        "hours": "9\u202fAM to 5\u202fPM"
      },
      {
        "day": "Tuesday",
        "hours": "9\u202fAM to 5\u202fPM"
      },
      {
        "day": "Wednesday",
        "hours": "9\u202fAM to 5\u202fPM"
      },
      {
        "day": "Thursday",
        "hours": "9\u202fAM to 5\u202fPM"
      },
      {
        "day": "Friday",
        "hours": "9\u202fAM to 5\u202fPM"
      },
      {
        "day": "Saturday",
        "hours": "Closed"
      },
      {
        "day": "Sunday",
        "hours": "Closed"
      }
    ],
    "peopleAlsoSearch": [],
    "placesTags": [],
    "reviewsTags": [],
    "additionalInfo": {
      "From the business": [
        {
          "Small business": true
        }
      ],
      "Accessibility": [
        {
          "Wheelchair accessible entrance": true
        },
        {
          "Wheelchair accessible parking lot": true
        }
      ],
      "Payments": [
        {
          "Credit cards": true
        },
        {
          "Debit cards": true
        },
        {
          "NFC mobile payments": true
        },
        {
          "Credit cards": true
        }
      ]
    },
    "gasPrices": [],
    "url": "https://www.google.com/maps/search/?api=1&query=Integrative%20Pharmacy%20and%20Wellness&query_place_id=ChIJu4INfGylJoYRZPawEx94hhQ",
    "searchPageUrl": "https://www.google.com/maps/search/independent%20pharmacy%20Baton%20Rouge%20LA/@18.458974397176295,-64.80239423087781,11z?hl=en",
    "searchString": "independent pharmacy Baton Rouge LA",
    "language": "en",
    "rank": 5,
    "isAdvertisement": false,
    "imageUrl": "https://lh3.googleusercontent.com/p/AF1QipPR0YHcgCYjUxuMPbNPq6OMaLAJoRDS1iObIpdt=w408-h286-k-no",
    "kgmid": "/g/11gsfsm56w",
    "classification": "independent",
    "is_independent": true,
    "is_compounding": false,
    "confidence": 0.9,
    "source": "perplexity",
    "method": "llm"
  },
  {
    "title": "Pharmaceutical Specialties LLC Compounding Pharmacy",
    "price": null,
    "categoryName": "Pharmacy",
    "address": "8645 Bluebonnet Blvd, Baton Rouge, LA 70810",
    "neighborhood": "South Baton Rouge",
    "street": "8645 Bluebonnet Blvd",
    "city": "Baton Rouge",
    "postalCode": "70810",
    "state": "Louisiana",
    "countryCode": "US",
    "website": "https://www.pharmaceuticalspecialtiesllc.com/",
    "phone": "(225) 767-1655",
    "phoneUnformatted": "+12257671655",
    "claimThisBusiness": false,
    "location": {
      "lat": 30.3708633,
      "lng": -91.1012605
    },
    "totalScore": 5,
    "permanentlyClosed": false,
    "temporarilyClosed": false,
    "placeId": null,
    "categories": [
      "Pharmacy"
    ],
    "fid": "0x8626a506cbf18d25:0xc3c47b28d25a0174",
    "cid": "14106535348089258356",
    "reviewsCount": 33,
    "imagesCount": 13,
    "imageCategories": [],
    "scrapedAt": "2025-06-22T05:24:40.461Z",
    "googleFoodUrl": null,
    "hotelAds": [],
    "openingHours": [
      {
        "day": "Monday",
        "hours": "9\u202fAM to 5\u202fPM"
      },
      {
        "day": "Tuesday",
        "hours": "9\u202fAM to 5\u202fPM"
      },
      {
        "day": "Wednesday",
        "hours": "9\u202fAM to 5\u202fPM"
      },
      {
        "day": "Thursday",
        "hours": "9\u202fAM to 5\u202fPM"
      },
      {
        "day": "Friday",
        "hours": "9\u202fAM to 4\u202fPM"
      },
      {
        "day": "Saturday",
        "hours": "Closed"
      },
      {
        "day": "Sunday",
        "hours": "Closed"
      }
    ],
    "peopleAlsoSearch": [],
    "placesTags": [],
    "reviewsTags": [],
    "additionalInfo": {
      "From the business": [
        {
          "Small business": true
        }
      ],
      "Service options": [
        {
          "Delivery": true
        },
        {
          "In-store pickup": true
        }
      ],
      "Accessibility": [
        {
          "Wheelchair accessible entrance": true
        },
        {
          "Wheelchair accessible parking lot": true
        }
      ],
      "Payments": [
        {
          "Credit cards": true
        },
        {
          "Debit cards": true
        },
        {
          "NFC mobile payments": true
        },
        {
          "Credit cards": true
        }
      ]
    },
    "gasPrices": [],
    "url": "https://www.google.com/maps/search/?api=1&query=Pharmaceutical%20Specialties%20LLC%20Compounding%20Pharmacy&query_place_id=ChIJJY3xywalJoYRdAFa0ih7xMM",
    "searchPageUrl": "https://www.google.com/maps/search/independent%20pharmacy%20Baton%20Rouge%20LA/@18.458974397176295,-64.80239423087781,11z?hl=en",
    "searchString": "independent pharmacy Baton Rouge LA",
    "language": "en",
    "rank": 6,
    "isAdvertisement": false,
    "imageUrl": "https://lh3.googleusercontent.com/gps-cs-s/AC9h4nrz3TsWXiQqMtxzqnzfOc7-0zaKx5g5YoEcGk0eaeiWgqG1hfEX4eVelH5JSaINiJQ701IiS1UZCWFU590xgPZvEwiWac2sP9Pv1Dqy30qEAVmx_9SPg-voZheQhJG8aAZRBr5o=w408-h544-k-no",
    "kgmid": "/g/1tdps0cl",
    "classification": "independent",
    "is_independent": true,
    "is_compounding": true,
    "confidence": 0.95,
    "source": "perplexity",
    "method": "llm"
  },
  {
    "title": "Central Pharmacy",
    "price": null,
    "categoryName": "Pharmacy",
    "address": "9952 Sullivan Rd Suite B, Baton Rouge, LA 70818",
    "neighborhood": null,
    "street": "9952 Sullivan Rd Suite B",
    "city": "Baton Rouge",
    "postalCode": "70818",
    "state": "Louisiana",
    "countryCode": "US",
    "website": "http://mycentralrx.com/",
    "phone": "(225) 262-6200",
    "phoneUnformatted": "+12252626200",
    "claimThisBusiness": false,
    "location": {
      "lat": 30.5392616,
      "lng": -91.0277416
    },
    "totalScore": 4.1,
    "permanentlyClosed": false,
    "temporarilyClosed": false,
    "placeId": null,
    "categories": [
      "Pharmacy",
      "Drug store"
    ],
    "fid": "0x862697bda52690e7:0x57ede24acea90350",
    "cid": "6335969061702796112",
    "reviewsCount": 60,
    "imagesCount": 9,
    "imageCategories": [],
    "scrapedAt": "2025-06-22T05:24:40.461Z",
    "googleFoodUrl": null,
    "hotelAds": [],
    "openingHours": [
      {
        "day": "Monday",
        "hours": "8:30\u202fAM to 6:30\u202fPM"
      },
      {
        "day": "Tuesday",
        "hours": "8:30\u202fAM to 6:30\u202fPM"
      },
      {
        "day": "Wednesday",
        "hours": "8:30\u202fAM to 6:30\u202fPM"
      },
      {
        "day": "Thursday",
        "hours": "8:30\u202fAM to 6:30\u202fPM"
      },
      {
        "day": "Friday",
        "hours": "8:30\u202fAM to 6:30\u202fPM"
      },
      {
        "day": "Saturday",
        "hours": "8:30\u202fAM to 3\u202fPM"
      },
      {
        "day": "Sunday",
        "hours": "Closed"
      }
    ],
    "peopleAlsoSearch": [],
    "placesTags": [],
    "reviewsTags": [],
    "additionalInfo": {
      "From the business": [
        {
          "Small business": true
        }
      ],
      "Service options": [
        {
          "Delivery": true
        },
        {
          "Drive-through": true
        },
        {
          "In-store pickup": true
        },
        {
          "Same-day delivery": true
        }
      ],
      "Accessibility": [
        {
          "Wheelchair accessible entrance": true
        },
        {
          "Wheelchair accessible parking lot": true
        }
      ],
      "Planning": [
        {
          "Quick visit": true
        }
      ],
      "Payments": [
        {
          "Credit cards": true
        },
        {
          "NFC mobile payments": true
        }
      ]
    },
    "gasPrices": [],
    "url": "https://www.google.com/maps/search/?api=1&query=Central%20Pharmacy&query_place_id=ChIJ55Ampb2XJoYRUAOpzkri7Vc",
    "searchPageUrl": "https://www.google.com/maps/search/independent%20pharmacy%20Baton%20Rouge%20LA/@18.458974397176295,-64.80239423087781,11z?hl=en",
    "searchString": "independent pharmacy Baton Rouge LA",
    "language": "en",
    "rank": 7,
    "isAdvertisement": false,
    "imageUrl": "https://lh3.googleusercontent.com/p/AF1QipMZcZ32oMPSlvUehkYKV8BAEjg7L5k8j51umS9X=w408-h271-k-no",
    "kgmid": "/g/11g69261wm",
    "classification": "independent",
    "is_independent": true,
    "is_compounding": false,
    "confidence": 0.9,
    "source": "perplexity",
    "method": "llm"
  },
  {
    "title": "Wellness Pharmacy",
    "price": null,
    "categoryName": "Pharmacy",
    "address": "12716 Perkins Rd, Baton Rouge, LA 70810",
    "neighborhood": "South Baton Rouge",
    "street": "12716 Perkins Rd",
    "city": "Baton Rouge",
    "postalCode": "70810",
    "state": "Louisiana",
    "countryCode": "US",
    "website": "https://www.wellnesspharmacybr.com/",
    "phone": "(225) 256-3083",
    "phoneUnformatted": "+12252563083",
    "claimThisBusiness": false,
    "location": {
      "lat": 30.3684508,
      "lng": -91.0762365
    },
    "totalScore": 4.1,
    "permanentlyClosed": false,
    "temporarilyClosed": false,
    "placeId": null,
    "categories": [
      "Pharmacy",
      "Drug store"
    ],
    "fid": "0x8626a5b343e3ca0f:0x1c2799e8954d890a",
    "cid": "2028759381370046730",
    "reviewsCount": 31,
    "imagesCount": 36,
    "imageCategories": [],
    "scrapedAt": "2025-06-22T05:24:40.462Z",
    "googleFoodUrl": null,
    "hotelAds": [],
    "openingHours": [
      {
        "day": "Monday",
        "hours": "9\u202fAM to 6\u202fPM"
      },
      {
        "day": "Tuesday",
        "hours": "9\u202fAM to 6\u202fPM"
      },
      {
        "day": "Wednesday",
        "hours": "9\u202fAM to 6\u202fPM"
      },
      {
        "day": "Thursday",
        "hours": "9\u202fAM to 6\u202fPM"
      },
      {
        "day": "Friday",
        "hours": "9\u202fAM to 6\u202fPM"
      },
      {
        "day": "Saturday",
        "hours": "9\u202fAM to 1\u202fPM"
      },
      {
        "day": "Sunday",
        "hours": "Closed"
      }
    ],
    "additionalOpeningHours": {
      "Delivery": [
        {
          "day": "Monday",
          "hours": "9\u202fAM\u20135\u202fPM"
        },
        {
          "day": "Tuesday",
          "hours": "9\u202fAM\u20135\u202fPM"
        },
        {
          "day": "Wednesday",
          "hours": "9\u202fAM\u20135\u202fPM"
        },
        {
          "day": "Thursday",
          "hours": "9\u202fAM\u20135\u202fPM"
        },
        {
          "day": "Friday",
          "hours": "9\u202fAM\u20135\u202fPM"
        },
        {
          "day": "Saturday",
          "hours": "Closed"
        },
        {
          "day": "Sunday",
          "hours": "Closed"
        }
      ],
      "Drive through": [
        {
          "day": "Monday",
          "hours": "9\u202fAM\u20136\u202fPM"
        },
        {
          "day": "Tuesday",
          "hours": "9\u202fAM\u20136\u202fPM"
        },
        {
          "day": "Wednesday",
          "hours": "9\u202fAM\u20136\u202fPM"
        },
        {
          "day": "Thursday",
          "hours": "9\u202fAM\u20136\u202fPM"
        },
        {
          "day": "Friday",
          "hours": "9\u202fAM\u20136\u202fPM"
        },
        {
          "day": "Saturday",
          "hours": "9\u202fAM\u20131\u202fPM"
        },
        {
          "day": "Sunday",
          "hours": "Closed"
        }
      ],
      "Pickup": [
        {
          "day": "Monday",
          "hours": "9\u202fAM\u20136\u202fPM"
        },
        {
          "day": "Tuesday",
          "hours": "9\u202fAM\u20136\u202fPM"
        },
        {
          "day": "Wednesday",
          "hours": "9\u202fAM\u20136\u202fPM"
        },
        {
          "day": "Thursday",
          "hours": "9\u202fAM\u20136\u202fPM"
        },
        {
          "day": "Friday",
          "hours": "9\u202fAM\u20136\u202fPM"
        },
        {
          "day": "Saturday",
          "hours": "9\u202fAM\u20131\u202fPM"
        },
        {
          "day": "Sunday",
          "hours": "Closed"
        }
      ]
    },
    "peopleAlsoSearch": [],
    "placesTags": [],
    "reviewsTags": [],
    "additionalInfo": {
      "From the business": [
        {
          "Small business": true
        }
      ],
      "Service options": [
        {
          "Curbside pickup": true
        },
        {
          "Delivery": true
        },
        {
          "Drive-through": true
        },
        {
          "In-store pickup": true
        },
        {
          "In-store shopping": true
        },
        {
          "Onsite services": true
        },
        {
          "Same-day delivery": true
        },
        {
          "English": true
        }
      ],
      "Accessibility": [
        {
          "Wheelchair accessible entrance": true
        },
        {
          "Wheelchair accessible parking lot": true
        }
      ],
      "Planning": [
        {
          "Quick visit": true
        }
      ],
      "Payments": [
        {
          "Checks": true
        },
        {
          "Credit cards": true
        },
        {
          "Debit cards": true
        },
        {
          "NFC mobile payments": true
        },
        {
          "Credit cards": true
        }
      ]
    },
    "gasPrices": [],
    "url": "https://www.google.com/maps/search/?api=1&query=Wellness%20Pharmacy&query_place_id=ChIJD8rjQ7OlJoYRColNleiZJxw",
    "searchPageUrl": "https://www.google.com/maps/search/independent%20pharmacy%20Baton%20Rouge%20LA/@18.458974397176295,-64.80239423087781,11z?hl=en",
    "searchString": "independent pharmacy Baton Rouge LA",
    "language": "en",
    "rank": 8,
    "isAdvertisement": false,
    "imageUrl": "https://lh3.googleusercontent.com/gps-cs-s/AC9h4npw_GroGE8pDC8uOYSH_bH_7IBdlFdEkLRsXfuZ8e8A3ZowpxNPoMIWT0r6bYoLzZLMZZ8Y0Zprn7h49Ak0PEpu7WtVsEvaGx580r3BrFEwmQtt6skgAenQlhhwT6JwF_LNZxiDcw=w493-h240-k-no",
    "kgmid": "/g/11mtn1thph",
    "classification": "independent",
    "is_independent": true,
    "is_compounding": false,
    "confidence": 0.9,
    "source": "perplexity",
    "method": "llm"
  },
  {
    "title": "Phoenix Pharmacy Solutions",
    "price": null,
    "categoryName": "Pharmacy",
    "address": "7941 Picardy Ave, Baton Rouge, LA 70809",
    "neighborhood": "South Baton Rouge",
    "street": "7941 Picardy Ave",
    "city": "Baton Rouge",
    "postalCode": "70809",
    "state": "Louisiana",
    "countryCode": "US",
    "website": "https://www.phoenixpharmacyrx.com/",
    "phone": "(225) 819-3336",
    "phoneUnformatted": "+12258193336",
    "claimThisBusiness": false,
    "location": {
      "lat": 30.3974461,
      "lng": -91.1054449
    },
    "totalScore": 4.2,
    "permanentlyClosed": false,
    "temporarilyClosed": false,
    "placeId": null,
    "categories": [
      "Pharmacy"
    ],
    "fid": "0x8626bbaa57ce38db:0x6b5a94df03d2ee13",
    "cid": "7735658995525021203",
    "reviewsCount": 24,
    "imagesCount": 9,
    "imageCategories": [],
    "scrapedAt": "2025-06-22T05:24:40.462Z",
    "googleFoodUrl": null,
    "hotelAds": [],
    "openingHours": [
      {
        "day": "Monday",
        "hours": "9\u202fAM to 5:30\u202fPM"
      },
      {
        "day": "Tuesday",
        "hours": "9\u202fAM to 5:30\u202fPM"
      },
      {
        "day": "Wednesday",
        "hours": "9\u202fAM to 5:30\u202fPM"
      },
      {
        "day": "Thursday",
        "hours": "9\u202fAM to 5:30\u202fPM"
      },
      {
        "day": "Friday",
        "hours": "9\u202fAM to 5:30\u202fPM"
      },
      {
        "day": "Saturday",
        "hours": "Closed"
      },
      {
        "day": "Sunday",
        "hours": "Closed"
      }
    ],
    "peopleAlsoSearch": [],
    "placesTags": [],
    "reviewsTags": [],
    "additionalInfo": {
      "From the business": [
        {
          "Small business": true
        }
      ],
      "Service options": [
        {
          "Delivery": true
        },
        {
          "In-store pickup": true
        },
        {
          "In-store shopping": true
        },
        {
          "Onsite services": true
        },
        {
          "Same-day delivery": true
        }
      ],
      "Accessibility": [
        {
          "Wheelchair accessible entrance": true
        },
        {
          "Wheelchair accessible parking lot": true
        }
      ],
      "Payments": [
        {
          "Credit cards": true
        },
        {
          "Debit cards": true
        },
        {
          "NFC mobile payments": true
        },
        {
          "Credit cards": true
        }
      ]
    },
    "gasPrices": [],
    "url": "https://www.google.com/maps/search/?api=1&query=Phoenix%20Pharmacy%20Solutions&query_place_id=ChIJ2zjOV6q7JoYRE-7SA9-UWms",
    "searchPageUrl": "https://www.google.com/maps/search/independent%20pharmacy%20Baton%20Rouge%20LA/@18.458974397176295,-64.80239423087781,11z?hl=en",
    "searchString": "independent pharmacy Baton Rouge LA",
    "language": "en",
    "rank": 9,
    "isAdvertisement": false,
    "imageUrl": "https://lh3.googleusercontent.com/p/AF1QipMF76e3VCDs8d28F2cg0RQGqsVuHoO5wYTZGzB9=w408-h306-k-no",
    "kgmid": "/g/11j0_nky8l",
    "classification": "independent",
    "is_independent": true,
    "is_compounding": false,
    "confidence": 0.9,
    "source": "perplexity",
    "method": "llm"
  },
  {
    "title": "Prescriptions to Geaux",
    "price": null,
    "categoryName": "Pharmacy",
    "address": "3012 Government St, Baton Rouge, LA 70806",
    "neighborhood": "Mid City South",
    "street": "3012 Government St",
    "city": "Baton Rouge",
    "postalCode": "70806",
    "state": "Louisiana",
    "countryCode": "US",
    "website": "http://www.rxtogeaux.com/",
    "phone": "(225) 615-8730",
    "phoneUnformatted": "+12256158730",
    "claimThisBusiness": false,
    "location": {
      "lat": 30.4438405,
      "lng": -91.1576837
    },
    "totalScore": 4.8,
    "permanentlyClosed": false,
    "temporarilyClosed": false,
    "placeId": null,
    "categories": [
      "Pharmacy"
    ],
    "fid": "0x8626a0c1639cef97:0xa041a5eca5fd2ab6",
    "cid": "11547693355370359478",
    "reviewsCount": 48,
    "imagesCount": 5,
    "imageCategories": [],
    "scrapedAt": "2025-06-22T05:24:40.462Z",
    "googleFoodUrl": null,
    "hotelAds": [],
    "openingHours": [
      {
        "day": "Monday",
        "hours": "8\u202fAM to 6\u202fPM"
      },
      {
        "day": "Tuesday",
        "hours": "8\u202fAM to 6\u202fPM"
      },
      {
        "day": "Wednesday",
        "hours": "8\u202fAM to 6\u202fPM"
      },
      {
        "day": "Thursday",
        "hours": "8\u202fAM to 6\u202fPM"
      },
      {
        "day": "Friday",
        "hours": "8\u202fAM to 6\u202fPM"
      },
      {
        "day": "Saturday",
        "hours": "Closed"
      },
      {
        "day": "Sunday",
        "hours": "Closed"
      }
    ],
    "peopleAlsoSearch": [],
    "placesTags": [],
    "reviewsTags": [],
    "additionalInfo": {
      "From the business": [
        {
          "Small business": true
        }
      ],
      "Service options": [
        {
          "Delivery": true
        },
        {
          "In-store pickup": true
        },
        {
          "Same-day delivery": true
        }
      ],
      "Accessibility": [
        {
          "Wheelchair accessible entrance": true
        },
        {
          "Wheelchair accessible parking lot": true
        }
      ],
      "Planning": [
        {
          "Quick visit": true
        }
      ],
      "Payments": [
        {
          "Credit cards": true
        },
        {
          "Debit cards": true
        },
        {
          "NFC mobile payments": true
        },
        {
          "Credit cards": true
        }
      ]
    },
    "gasPrices": [],
    "url": "https://www.google.com/maps/search/?api=1&query=Prescriptions%20to%20Geaux&query_place_id=ChIJl--cY8GgJoYRtir9peylQaA",
    "searchPageUrl": "https://www.google.com/maps/search/independent%20pharmacy%20Baton%20Rouge%20LA/@18.458974397176295,-64.80239423087781,11z?hl=en",
    "searchString": "independent pharmacy Baton Rouge LA",
    "language": "en",
    "rank": 10,
    "isAdvertisement": false,
    "imageUrl": "https://lh3.googleusercontent.com/p/AF1QipO3QOrgRMf-CDwBbxRkJ-0EOQQGkAaOutXuZzMK=w408-h272-k-no",
    "kgmid": "/g/1pv5y7rgj",
    "classification": "independent",
    "is_independent": true,
    "is_compounding": false,
    "confidence": 0.9,
    "source": "perplexity",
    "method": "llm"
  },
  {
    "title": "AHF Pharmacy - Baton Rouge",
    "price": null,
    "categoryName": "Pharmacy",
    "address": "4890 Bluebonnet Blvd, Baton Rouge, LA 70809",
    "neighborhood": null,
    "street": "4890 Bluebonnet Blvd",
    "city": "Baton Rouge",
    "postalCode": "70809",
    "state": "Louisiana",
    "countryCode": "US",
    "website": "https://ahfpharmacy.org/",
    "phone": "(225) 297-4430",
    "phoneUnformatted": "+12252974430",
    "claimThisBusiness": false,
    "location": {
      "lat": 30.4050617,
      "lng": -91.0817774
    },
    "totalScore": 5,
    "permanentlyClosed": false,
    "temporarilyClosed": false,
    "placeId": null,
    "categories": [
      "Pharmacy"
    ],
    "fid": "0x8626a4eb224db7b5:0x2537200dbfc4c8e7",
    "cid": "2681647346546428135",
    "reviewsCount": 4,
    "imagesCount": 3,
    "imageCategories": [],
    "scrapedAt": "2025-06-22T05:24:40.462Z",
    "googleFoodUrl": null,
    "hotelAds": [],
    "openingHours": [
      {
        "day": "Monday",
        "hours": "8:30\u202fAM to 5\u202fPM"
      },
      {
        "day": "Tuesday",
        "hours": "8:30\u202fAM to 5\u202fPM"
      },
      {
        "day": "Wednesday",
        "hours": "8:30\u202fAM to 5\u202fPM"
      },
      {
        "day": "Thursday",
        "hours": "8:30\u202fAM to 5\u202fPM"
      },
      {
        "day": "Friday",
        "hours": "8:30\u202fAM to 5\u202fPM"
      },
      {
        "day": "Saturday",
        "hours": "Closed"
      },
      {
        "day": "Sunday",
        "hours": "Closed"
      }
    ],
    "peopleAlsoSearch": [],
    "placesTags": [],
    "reviewsTags": [],
    "additionalInfo": {
      "Service options": [
        {
          "Delivery": true
        },
        {
          "In-store pickup": true
        }
      ],
      "Accessibility": [
        {
          "Wheelchair accessible entrance": true
        },
        {
          "Wheelchair accessible parking lot": true
        }
      ],
      "Payments": [
        {
          "Credit cards": true
        },
        {
          "Debit cards": true
        },
        {
          "NFC mobile payments": true
        },
        {
          "Credit cards": true
        }
      ]
    },
    "gasPrices": [],
    "url": "https://www.google.com/maps/search/?api=1&query=AHF%20Pharmacy%20-%20Baton%20Rouge&query_place_id=ChIJtbdNIuukJoYR58jEvw0gNyU",
    "searchPageUrl": "https://www.google.com/maps/search/independent%20pharmacy%20Baton%20Rouge%20LA/@18.458974397176295,-64.80239423087781,11z?hl=en",
    "searchString": "independent pharmacy Baton Rouge LA",
    "language": "en",
    "rank": 11,
    "isAdvertisement": false,
    "imageUrl": "https://lh3.googleusercontent.com/p/AF1QipO_uVsNfupjuvMr0v4cCuQQVrsQMqxRq73g_W2A=w426-h240-k-no",
    "kgmid": "/g/11fy_4xmhh",
    "classification": "independent",
    "is_independent": true,
    "is_compounding": false,
    "confidence": 0.9,
    "source": "perplexity",
    "method": "llm"
  },
  {
    "title": "Cypress Pharmacy",
    "price": null,
    "categoryName": "Pharmacy",
    "address": "5383 Jones Creek Rd, Baton Rouge, LA 70817",
    "neighborhood": null,
    "street": "5383 Jones Creek Rd",
    "city": "Baton Rouge",
    "postalCode": "70817",
    "state": "Louisiana",
    "countryCode": "US",
    "website": "https://cypresspharmacyla.com/cypress-in-baton-rouge/",
    "phone": "(225) 214-0133",
    "phoneUnformatted": "+12252140133",
    "claimThisBusiness": false,
    "location": {
      "lat": 30.4052909,
      "lng": -91.0147469
    },
    "totalScore": 4.7,
    "permanentlyClosed": false,
    "temporarilyClosed": false,
    "placeId": null,
    "categories": [
      "Pharmacy"
    ],
    "fid": "0x8626bbc61371b1f3:0x5455751e9134d70e",
    "cid": "6076892046351980302",
    "reviewsCount": 12,
    "imagesCount": 1,
    "imageCategories": [],
    "scrapedAt": "2025-06-22T05:24:40.462Z",
    "googleFoodUrl": null,
    "hotelAds": [],
    "openingHours": [
      {
        "day": "Monday",
        "hours": "9\u202fAM to 6\u202fPM"
      },
      {
        "day": "Tuesday",
        "hours": "9\u202fAM to 6\u202fPM"
      },
      {
        "day": "Wednesday",
        "hours": "9\u202fAM to 6\u202fPM"
      },
      {
        "day": "Thursday",
        "hours": "9\u202fAM to 6\u202fPM"
      },
      {
        "day": "Friday",
        "hours": "9\u202fAM to 6\u202fPM"
      },
      {
        "day": "Saturday",
        "hours": "9\u202fAM to 1\u202fPM"
      },
      {
        "day": "Sunday",
        "hours": "Closed"
      }
    ],
    "peopleAlsoSearch": [],
    "placesTags": [],
    "reviewsTags": [],
    "additionalInfo": {
      "From the business": [
        {
          "Small business": true
        }
      ],
      "Service options": [
        {
          "Curbside pickup": true
        },
        {
          "In-store pickup": true
        },
        {
          "Onsite services": true
        }
      ],
      "Accessibility": [
        {
          "Wheelchair accessible entrance": true
        },
        {
          "Wheelchair accessible parking lot": true
        }
      ],
      "Planning": [
        {
          "Quick visit": true
        }
      ],
      "Payments": [
        {
          "Credit cards": true
        },
        {
          "Debit cards": true
        },
        {
          "NFC mobile payments": true
        },
        {
          "Credit cards": true
        }
      ]
    },
    "gasPrices": [],
    "url": "https://www.google.com/maps/search/?api=1&query=Cypress%20Pharmacy&query_place_id=ChIJ87FxE8a7JoYRDtc0kR51VVQ",
    "searchPageUrl": "https://www.google.com/maps/search/independent%20pharmacy%20Baton%20Rouge%20LA/@18.458974397176295,-64.80239423087781,11z?hl=en",
    "searchString": "independent pharmacy Baton Rouge LA",
    "language": "en",
    "rank": 12,
    "isAdvertisement": false,
    "imageUrl": "https://streetviewpixels-pa.googleapis.com/v1/thumbnail?panoid=4FH2mWiLl_bI0Xr5Cwmozg&cb_client=search.gws-prod.gps&w=408&h=240&yaw=95.016205&pitch=0&thumbfov=100",
    "kgmid": "/g/11jrct2wz3",
    "classification": "independent",
    "is_independent": true,
    "is_compounding": false,
    "confidence": 0.9,
    "source": "perplexity",
    "method": "llm"
  },
  {
    "title": "Prescriptions to Geaux",
    "price": null,
    "categoryName": "Pharmacy",
    "address": "6251 Perkins Rd STE C, Baton Rouge, LA 70808",
    "neighborhood": "Highlands/Perkins",
    "street": "6251 Perkins Rd STE C",
    "city": "Baton Rouge",
    "postalCode": "70808",
    "state": "Louisiana",
    "countryCode": "US",
    "website": "http://www.ptgrx.com/",
    "phone": "(225) 389-6251",
    "phoneUnformatted": "+12253896251",
    "claimThisBusiness": false,
    "location": {
      "lat": 30.4057863,
      "lng": -91.1233382
    },
    "totalScore": 3.8,
    "permanentlyClosed": false,
    "temporarilyClosed": false,
    "placeId": null,
    "categories": [
      "Pharmacy"
    ],
    "fid": "0x8626a54b7161b2a5:0x96d223fe09f94465",
    "cid": "10867788424794424421",
    "reviewsCount": 36,
    "imagesCount": 8,
    "imageCategories": [],
    "scrapedAt": "2025-06-22T05:24:40.463Z",
    "googleFoodUrl": null,
    "hotelAds": [],
    "openingHours": [
      {
        "day": "Monday",
        "hours": "8\u202fAM to 6\u202fPM"
      },
      {
        "day": "Tuesday",
        "hours": "8\u202fAM to 6\u202fPM"
      },
      {
        "day": "Wednesday",
        "hours": "8\u202fAM to 6\u202fPM"
      },
      {
        "day": "Thursday",
        "hours": "8\u202fAM to 6\u202fPM"
      },
      {
        "day": "Friday",
        "hours": "8\u202fAM to 6\u202fPM"
      },
      {
        "day": "Saturday",
        "hours": "Closed"
      },
      {
        "day": "Sunday",
        "hours": "Closed"
      }
    ],
    "peopleAlsoSearch": [],
    "placesTags": [],
    "reviewsTags": [],
    "additionalInfo": {
      "From the business": [
        {
          "Small business": true
        }
      ],
      "Service options": [
        {
          "Delivery": true
        },
        {
          "Same-day delivery": true
        }
      ],
      "Accessibility": [
        {
          "Wheelchair accessible entrance": true
        },
        {
          "Wheelchair accessible parking lot": true
        }
      ],
      "Planning": [
        {
          "Quick visit": true
        }
      ],
      "Payments": [
        {
          "Credit cards": true
        },
        {
          "Debit cards": true
        },
        {
          "NFC mobile payments": true
        },
        {
          "Credit cards": true
        }
      ]
    },
    "gasPrices": [],
    "url": "https://www.google.com/maps/search/?api=1&query=Prescriptions%20to%20Geaux&query_place_id=ChIJpbJhcUulJoYRZUT5Cf4j0pY",
    "searchPageUrl": "https://www.google.com/maps/search/independent%20pharmacy%20Baton%20Rouge%20LA/@18.458974397176295,-64.80239423087781,11z?hl=en",
    "searchString": "independent pharmacy Baton Rouge LA",
    "language": "en",
    "rank": 13,
    "isAdvertisement": false,
    "imageUrl": "https://lh3.googleusercontent.com/p/AF1QipPiYLkaKXrUVjDt5G8PYT-bc1u-zQF_5RCztz3l=w408-h367-k-no",
    "kgmid": "/g/11flxl60d7",
    "classification": "independent",
    "is_independent": true,
    "is_compounding": false,
    "confidence": 0.9,
    "source": "perplexity",
    "method": "llm"
  },
  {
    "title": "Avita Pharmacy 1040",
    "price": null,
    "categoryName": "Pharmacy",
    "address": "6100 Corporate Blvd #250, Baton Rouge, LA 70808",
    "neighborhood": "Mid City South",
    "street": "6100 Corporate Blvd #250",
    "city": "Baton Rouge",
    "postalCode": "70808",
    "state": "Louisiana",
    "countryCode": "US",
    "website": "http://www.avitapharmacy.com/",
    "phone": "(225) 924-1930",
    "phoneUnformatted": "+12259241930",
    "claimThisBusiness": false,
    "location": {
      "lat": 30.4241978,
      "lng": -91.1279547
    },
    "totalScore": 4.1,
    "permanentlyClosed": false,
    "temporarilyClosed": false,
    "placeId": null,
    "categories": [
      "Pharmacy"
    ],
    "fid": "0x8626a39dc46a3227:0xdbd3122ddf050799",
    "cid": "15840024302616643481",
    "reviewsCount": 34,
    "imagesCount": 7,
    "imageCategories": [],
    "scrapedAt": "2025-06-22T05:24:40.463Z",
    "googleFoodUrl": null,
    "hotelAds": [],
    "openingHours": [
      {
        "day": "Monday",
        "hours": "8\u202fAM to 6\u202fPM"
      },
      {
        "day": "Tuesday",
        "hours": "8\u202fAM to 6\u202fPM"
      },
      {
        "day": "Wednesday",
        "hours": "8\u202fAM to 6\u202fPM"
      },
      {
        "day": "Thursday",
        "hours": "8\u202fAM to 6\u202fPM"
      },
      {
        "day": "Friday",
        "hours": "8\u202fAM to 6\u202fPM"
      },
      {
        "day": "Saturday",
        "hours": "9\u202fAM to 1\u202fPM"
      },
      {
        "day": "Sunday",
        "hours": "Closed"
      }
    ],
    "peopleAlsoSearch": [],
    "placesTags": [],
    "reviewsTags": [],
    "additionalInfo": {
      "Service options": [
        {
          "Delivery": true
        },
        {
          "Same-day delivery": false
        }
      ],
      "Accessibility": [
        {
          "Wheelchair accessible entrance": true
        },
        {
          "Wheelchair accessible parking lot": true
        }
      ],
      "Crowd": [
        {
          "LGBTQ+ friendly": true
        },
        {
          "Transgender safespace": true
        }
      ],
      "Payments": [
        {
          "Credit cards": true
        },
        {
          "Debit cards": true
        },
        {
          "Credit cards": true
        }
      ]
    },
    "gasPrices": [],
    "url": "https://www.google.com/maps/search/?api=1&query=Avita%20Pharmacy%201040&query_place_id=ChIJJzJqxJ2jJoYRmQcF3y0S09s",
    "searchPageUrl": "https://www.google.com/maps/search/independent%20pharmacy%20Baton%20Rouge%20LA/@18.458974397176295,-64.80239423087781,11z?hl=en",
    "searchString": "independent pharmacy Baton Rouge LA",
    "language": "en",
    "rank": 14,
    "isAdvertisement": false,
    "imageUrl": "https://lh3.googleusercontent.com/p/AF1QipNtG5ajZLyvuPA1QTrNUI4e3FhSIuB3cvLcatwZ=w408-h240-k-no",
    "kgmid": "/g/1tn01lht",
    "classification": "independent",
    "is_independent": true,
    "is_compounding": false,
    "confidence": 0.85,
    "source": "perplexity",
    "method": "llm"
  },
  {
    "title": "Louisiana Express Pharmacy",
    "price": null,
    "categoryName": "Pharmacy",
    "address": "4560 North Blvd, Baton Rouge, LA 70806",
    "neighborhood": "Mid City South",
    "street": "4560 North Blvd",
    "city": "Baton Rouge",
    "postalCode": "70806",
    "state": "Louisiana",
    "countryCode": "US",
    "website": "https://www.louisianaexpresspharmacy.com/",
    "phone": "(225) 924-2484",
    "phoneUnformatted": "+12259242484",
    "claimThisBusiness": false,
    "location": {
      "lat": 30.4484515,
      "lng": -91.141633
    },
    "totalScore": 3.7,
    "permanentlyClosed": false,
    "temporarilyClosed": false,
    "placeId": null,
    "categories": [
      "Pharmacy"
    ],
    "fid": "0x8626a15c7b848951:0x684b75808810129d",
    "cid": "7515229598096822941",
    "reviewsCount": 3,
    "imagesCount": 12,
    "imageCategories": [],
    "scrapedAt": "2025-06-22T05:24:40.463Z",
    "googleFoodUrl": null,
    "hotelAds": [],
    "openingHours": [
      {
        "day": "Monday",
        "hours": "10\u202fAM to 2\u202fPM"
      },
      {
        "day": "Tuesday",
        "hours": "10\u202fAM to 2\u202fPM"
      },
      {
        "day": "Wednesday",
        "hours": "10\u202fAM to 2\u202fPM"
      },
      {
        "day": "Thursday",
        "hours": "10\u202fAM to 2\u202fPM"
      },
      {
        "day": "Friday",
        "hours": "10\u202fAM to 2\u202fPM"
      },
      {
        "day": "Saturday",
        "hours": "Closed"
      },
      {
        "day": "Sunday",
        "hours": "Closed"
      }
    ],
    "peopleAlsoSearch": [],
    "placesTags": [],
    "reviewsTags": [],
    "additionalInfo": {
      "From the business": [
        {
          "Small business": true
        }
      ],
      "Service options": [
        {
          "Delivery": true
        },
        {
          "American Sign Language": true
        }
      ],
      "Accessibility": [
        {
          "Wheelchair accessible entrance": true
        },
        {
          "Wheelchair accessible parking lot": true
        }
      ],
      "Payments": [
        {
          "Credit cards": true
        }
      ]
    },
    "gasPrices": [],
    "url": "https://www.google.com/maps/search/?api=1&query=Louisiana%20Express%20Pharmacy&query_place_id=ChIJUYmEe1yhJoYRnRIQiIB1S2g",
    "searchPageUrl": "https://www.google.com/maps/search/independent%20pharmacy%20Baton%20Rouge%20LA/@18.458974397176295,-64.80239423087781,11z?hl=en",
    "searchString": "independent pharmacy Baton Rouge LA",
    "language": "en",
    "rank": 15,
    "isAdvertisement": false,
    "imageUrl": "https://lh3.googleusercontent.com/p/AF1QipOExTNzOZDI1m5AYb5A0s1feReUFSIS93BnS0qT=w408-h291-k-no",
    "kgmid": "/g/11bbwmmt_3",
    "classification": "independent",
    "is_independent": true,
    "is_compounding": false,
    "confidence": 0.9,
    "source": "perplexity",
    "method": "llm"
  },
  {
    "title": "Red Stick Pharmacy",
    "price": null,
    "categoryName": "Pharmacy",
    "address": "18181 Old Jefferson Hwy Ste #101, Baton Rouge, LA 70817",
    "neighborhood": null,
    "street": "18181 Old Jefferson Hwy Ste #101",
    "city": "Baton Rouge",
    "postalCode": "70817",
    "state": "Louisiana",
    "countryCode": "US",
    "website": "https://www.redstickpharmacy.com/",
    "phone": "(225) 408-1777",
    "phoneUnformatted": "+12254081777",
    "claimThisBusiness": false,
    "location": {
      "lat": 30.3561133,
      "lng": -90.9929334
    },
    "totalScore": 4.8,
    "permanentlyClosed": false,
    "temporarilyClosed": false,
    "placeId": null,
    "categories": [
      "Pharmacy"
    ],
    "fid": "0x8626ba1a815e033d:0xa58e581334294092",
    "cid": "11929569302453764242",
    "reviewsCount": 32,
    "imagesCount": 5,
    "imageCategories": [],
    "scrapedAt": "2025-06-22T05:24:40.463Z",
    "googleFoodUrl": null,
    "hotelAds": [],
    "openingHours": [
      {
        "day": "Monday",
        "hours": "8\u202fAM to 6\u202fPM"
      },
      {
        "day": "Tuesday",
        "hours": "8\u202fAM to 6\u202fPM"
      },
      {
        "day": "Wednesday",
        "hours": "8\u202fAM to 6\u202fPM"
      },
      {
        "day": "Thursday",
        "hours": "8\u202fAM to 6\u202fPM"
      },
      {
        "day": "Friday",
        "hours": "8\u202fAM to 6\u202fPM"
      },
      {
        "day": "Saturday",
        "hours": "Closed"
      },
      {
        "day": "Sunday",
        "hours": "Closed"
      }
    ],
    "peopleAlsoSearch": [],
    "placesTags": [],
    "reviewsTags": [],
    "additionalInfo": {
      "From the business": [
        {
          "Small business": true
        }
      ],
      "Service options": [
        {
          "Delivery": true
        },
        {
          "Same-day delivery": true
        }
      ],
      "Accessibility": [
        {
          "Wheelchair accessible entrance": true
        },
        {
          "Wheelchair accessible parking lot": true
        }
      ],
      "Payments": [
        {
          "Credit cards": true
        },
        {
          "Debit cards": true
        },
        {
          "NFC mobile payments": true
        },
        {
          "Credit cards": true
        }
      ]
    },
    "gasPrices": [],
    "url": "https://www.google.com/maps/search/?api=1&query=Red%20Stick%20Pharmacy&query_place_id=ChIJPQNegRq6JoYRkkApNBNYjqU",
    "searchPageUrl": "https://www.google.com/maps/search/independent%20pharmacy%20Baton%20Rouge%20LA/@18.458974397176295,-64.80239423087781,11z?hl=en",
    "searchString": "independent pharmacy Baton Rouge LA",
    "language": "en",
    "rank": 16,
    "isAdvertisement": false,
    "imageUrl": "https://lh3.googleusercontent.com/gps-cs-s/AC9h4nr4R46HspfME9DbXo6Age97qHSgg_txaCUgP6jRwKsgcXdzsvi-waTJ1qKOpUj4R9f0lf7bdjLZDrNahqrfexqyR_1LQlxK0VOdhnNQbLW3EG40EaNetYTV3VlxlhySd-YkBmN4=w426-h240-k-no",
    "kgmid": "/g/11f06nvs5r",
    "classification": "independent",
    "is_independent": true,
    "is_compounding": false,
    "confidence": 0.9,
    "source": "perplexity",
    "method": "llm"
  },
  {
    "title": "Albertsons Pharmacy",
    "price": "$$",
    "categoryName": "Pharmacy",
    "address": "2950 College Dr, Baton Rouge, LA 70808",
    "neighborhood": "Highlands/Perkins",
    "street": "2950 College Dr",
    "city": "Baton Rouge",
    "postalCode": "70808",
    "state": "Louisiana",
    "countryCode": "US",
    "website": "https://local.pharmacy.albertsons.com/la/baton-rouge/2950-college-dr.html",
    "phone": "(225) 924-6094",
    "phoneUnformatted": "+12259246094",
    "claimThisBusiness": false,
    "location": {
      "lat": 30.421765,
      "lng": -91.1413675
    },
    "totalScore": 4.4,
    "permanentlyClosed": false,
    "temporarilyClosed": false,
    "placeId": "ChIJWabqH6-mJoYR4peJnW6Cr3Q",
    "categories": [
      "Pharmacy",
      "Drug store",
      "Vitamin & supplements store"
    ],
    "fid": "0x8626a6af1feaa659:0x74af826e9d8997e2",
    "cid": "8408082440925059042",
    "reviewsCount": 12,
    "imagesCount": 5,
    "imageCategories": [],
    "scrapedAt": "2025-06-22T05:24:40.463Z",
    "googleFoodUrl": null,
    "hotelAds": [],
    "openingHours": [
      {
        "day": "Monday",
        "hours": "9\u202fAM to 8\u202fPM"
      },
      {
        "day": "Tuesday",
        "hours": "9\u202fAM to 8\u202fPM"
      },
      {
        "day": "Wednesday",
        "hours": "9\u202fAM to 8\u202fPM"
      },
      {
        "day": "Thursday",
        "hours": "9\u202fAM to 8\u202fPM"
      },
      {
        "day": "Friday",
        "hours": "9\u202fAM to 8\u202fPM"
      },
      {
        "day": "Saturday",
        "hours": "9\u202fAM to 6\u202fPM"
      },
      {
        "day": "Sunday",
        "hours": "10\u202fAM to 5\u202fPM"
      }
    ],
    "peopleAlsoSearch": [],
    "placesTags": [],
    "reviewsTags": [],
    "additionalInfo": {
      "Service options": [
        {
          "Delivery": true
        },
        {
          "Drive-through": true
        },
        {
          "In-store pickup": true
        },
        {
          "In-store shopping": true
        },
        {
          "Same-day delivery": true
        }
      ],
      "Accessibility": [
        {
          "Wheelchair accessible entrance": true
        },
        {
          "Wheelchair accessible parking lot": true
        }
      ],
      "Crowd": [
        {
          "LGBTQ+ friendly": true
        }
      ],
      "Planning": [
        {
          "Appointment required": true
        },
        {
          "Quick visit": true
        }
      ],
      "Payments": [
        {
          "Checks": true
        },
        {
          "Debit cards": true
        },
        {
          "Credit cards": true
        }
      ]
    },
    "gasPrices": [],
    "url": "https://www.google.com/maps/search/?api=1&query=Albertsons%20Pharmacy&query_place_id=ChIJWabqH6-mJoYR4peJnW6Cr3Q",
    "searchPageUrl": "https://www.google.com/maps/search/independent%20pharmacy%20Baton%20Rouge%20LA/@18.458974397176295,-64.80239423087781,11z?hl=en",
    "searchString": "independent pharmacy Baton Rouge LA",
    "language": "en",
    "rank": 17,
    "isAdvertisement": false,
    "imageUrl": "https://lh3.googleusercontent.com/p/AF1QipNykGlW_kac9JDqi0hPiFSvTn5Kwm5LEgkwMItw=w427-h240-k-no",
    "kgmid": "/g/11cjkvmxnr",
    "classification": "chain",
    "is_independent": false,
    "confidence": 1.0,
    "source": "rule-based"
  },
  {
    "title": "Apothecare Pharmacy",
    "price": null,
    "categoryName": "Pharmacy",
    "address": "2370 Town Center Blvd, Baton Rouge, LA 70806",
    "neighborhood": "Mid City South",
    "street": "2370 Town Center Blvd",
    "city": "Baton Rouge",
    "postalCode": "70806",
    "state": "Louisiana",
    "countryCode": "US",
    "website": "http://www.apothecarebr.com/",
    "phone": "(225) 490-0420",
    "phoneUnformatted": "+12254900420",
    "claimThisBusiness": false,
    "location": {
      "lat": 30.4324081,
      "lng": -91.1158558
    },
    "totalScore": 4.2,
    "permanentlyClosed": false,
    "temporarilyClosed": false,
    "placeId": null,
    "categories": [
      "Pharmacy"
    ],
    "fid": "0x8626a3dfc9aa1737:0x2234f227ef27ed29",
    "cid": "2464861149408521513",
    "reviewsCount": 5,
    "imagesCount": 2,
    "imageCategories": [],
    "scrapedAt": "2025-06-22T05:24:40.463Z",
    "googleFoodUrl": null,
    "hotelAds": [],
    "openingHours": [
      {
        "day": "Monday",
        "hours": "9\u202fAM to 5\u202fPM"
      },
      {
        "day": "Tuesday",
        "hours": "9\u202fAM to 5\u202fPM"
      },
      {
        "day": "Wednesday",
        "hours": "9\u202fAM to 5\u202fPM"
      },
      {
        "day": "Thursday",
        "hours": "9\u202fAM to 5\u202fPM"
      },
      {
        "day": "Friday",
        "hours": "9\u202fAM to 5\u202fPM"
      },
      {
        "day": "Saturday",
        "hours": "Closed"
      },
      {
        "day": "Sunday",
        "hours": "Closed"
      }
    ],
    "peopleAlsoSearch": [],
    "placesTags": [],
    "reviewsTags": [],
    "additionalInfo": {
      "From the business": [
        {
          "Small business": true
        }
      ],
      "Service options": [
        {
          "Delivery": true
        },
        {
          "Same-day delivery": true
        }
      ],
      "Accessibility": [
        {
          "Wheelchair accessible entrance": true
        },
        {
          "Wheelchair accessible parking lot": true
        }
      ],
      "Payments": [
        {
          "Credit cards": true
        },
        {
          "Debit cards": true
        },
        {
          "Credit cards": true
        }
      ]
    },
    "gasPrices": [],
    "url": "https://www.google.com/maps/search/?api=1&query=Apothecare%20Pharmacy&query_place_id=ChIJNxeqyd-jJoYRKe0n7yfyNCI",
    "searchPageUrl": "https://www.google.com/maps/search/independent%20pharmacy%20Baton%20Rouge%20LA/@18.458974397176295,-64.80239423087781,11z?hl=en",
    "searchString": "independent pharmacy Baton Rouge LA",
    "language": "en",
    "rank": 18,
    "isAdvertisement": false,
    "imageUrl": "https://lh3.googleusercontent.com/p/AF1QipMS2PiWMj9Sfa9ASsMbnFV1ecYDmokAC-s0TiTa=w408-h260-k-no",
    "kgmid": "/g/11hzjqgk1n",
    "classification": "independent",
    "is_independent": true,
    "is_compounding": false,
    "confidence": 0.9,
    "source": "perplexity",
    "method": "llm"
  },
  {
    "title": "Albertsons Pharmacy",
    "price": "$$",
    "categoryName": "Pharmacy",
    "address": "9960 Bluebonnet Blvd, Baton Rouge, LA 70810",
    "neighborhood": "South Baton Rouge",
    "street": "9960 Bluebonnet Blvd",
    "city": "Baton Rouge",
    "postalCode": "70810",
    "state": "Louisiana",
    "countryCode": "US",
    "website": "https://local.pharmacy.albertsons.com/la/baton-rouge/9960-bluebonnet-blvd.html",
    "phone": "(225) 768-7950",
    "phoneUnformatted": "+12257687950",
    "claimThisBusiness": false,
    "location": {
      "lat": 30.355779,
      "lng": -91.1111131
    },
    "totalScore": 4.4,
    "permanentlyClosed": false,
    "temporarilyClosed": false,
    "placeId": "ChIJq8PEUJGlJoYR0sLFdH8hoW8",
    "categories": [
      "Pharmacy",
      "Drug store",
      "Vitamin & supplements store"
    ],
    "fid": "0x8626a59150c4c3ab:0x6fa1217f74c5c2d2",
    "cid": "8043747240764097234",
    "reviewsCount": 7,
    "imagesCount": 4,
    "imageCategories": [],
    "scrapedAt": "2025-06-22T05:24:40.463Z",
    "googleFoodUrl": null,
    "hotelAds": [],
    "openingHours": [
      {
        "day": "Monday",
        "hours": "9\u202fAM to 8\u202fPM"
      },
      {
        "day": "Tuesday",
        "hours": "9\u202fAM to 8\u202fPM"
      },
      {
        "day": "Wednesday",
        "hours": "9\u202fAM to 8\u202fPM"
      },
      {
        "day": "Thursday",
        "hours": "9\u202fAM to 8\u202fPM"
      },
      {
        "day": "Friday",
        "hours": "9\u202fAM to 8\u202fPM"
      },
      {
        "day": "Saturday",
        "hours": "9\u202fAM to 6\u202fPM"
      },
      {
        "day": "Sunday",
        "hours": "10\u202fAM to 5\u202fPM"
      }
    ],
    "peopleAlsoSearch": [],
    "placesTags": [],
    "reviewsTags": [],
    "additionalInfo": {
      "Service options": [
        {
          "Delivery": true
        },
        {
          "In-store pickup": true
        },
        {
          "In-store shopping": true
        },
        {
          "Onsite services": true
        },
        {
          "Same-day delivery": true
        }
      ],
      "Accessibility": [
        {
          "Wheelchair accessible entrance": true
        },
        {
          "Wheelchair accessible parking lot": true
        }
      ],
      "Crowd": [
        {
          "LGBTQ+ friendly": true
        }
      ],
      "Planning": [
        {
          "Appointment required": true
        },
        {
          "Quick visit": true
        }
      ],
      "Payments": [
        {
          "Checks": true
        },
        {
          "Debit cards": true
        },
        {
          "Credit cards": true
        }
      ]
    },
    "gasPrices": [],
    "url": "https://www.google.com/maps/search/?api=1&query=Albertsons%20Pharmacy&query_place_id=ChIJq8PEUJGlJoYR0sLFdH8hoW8",
    "searchPageUrl": "https://www.google.com/maps/search/independent%20pharmacy%20Baton%20Rouge%20LA/@18.458974397176295,-64.80239423087781,11z?hl=en",
    "searchString": "independent pharmacy Baton Rouge LA",
    "language": "en",
    "rank": 19,
    "isAdvertisement": false,
    "imageUrl": "https://lh3.googleusercontent.com/p/AF1QipNGxmZLgl5vocsGCtRvM2EhPxpFsapNgQP29ZoH=w427-h240-k-no",
    "kgmid": "/g/1tgxtxqd",
    "classification": "chain",
    "is_independent": false,
    "confidence": 1.0,
    "source": "rule-based"
  },
  {
    "title": "O'Donovan Pharmacy",
    "price": null,
    "categoryName": "Pharmacy",
    "address": "5131 O'Donovan Dr Suite 402, Baton Rouge, LA 70808",
    "neighborhood": "Highlands/Perkins",
    "street": "5131 O'Donovan Dr Suite 402",
    "city": "Baton Rouge",
    "postalCode": "70808",
    "state": "Louisiana",
    "countryCode": "US",
    "website": "https://ololrmc.com/",
    "phone": "(225) 374-0270",
    "phoneUnformatted": "+12253740270",
    "claimThisBusiness": false,
    "location": {
      "lat": 30.4039608,
      "lng": -91.1121519
    },
    "totalScore": 3.8,
    "permanentlyClosed": false,
    "temporarilyClosed": false,
    "placeId": "ChIJtwn2lqSlJoYR4xO6W8BP0fU",
    "categories": [
      "Pharmacy"
    ],
    "fid": "0x8626a5a496f609b7:0xf5d14fc05bba13e3",
    "cid": "17713026497016108003",
    "reviewsCount": 13,
    "imagesCount": 3,
    "imageCategories": [],
    "scrapedAt": "2025-06-22T05:24:40.463Z",
    "googleFoodUrl": null,
    "hotelAds": [],
    "openingHours": [
      {
        "day": "Monday",
        "hours": "8\u202fAM to 4:30\u202fPM"
      },
      {
        "day": "Tuesday",
        "hours": "8\u202fAM to 4:30\u202fPM"
      },
      {
        "day": "Wednesday",
        "hours": "8\u202fAM to 4:30\u202fPM"
      },
      {
        "day": "Thursday",
        "hours": "8\u202fAM to 4:30\u202fPM"
      },
      {
        "day": "Friday",
        "hours": "8\u202fAM to 4:30\u202fPM"
      },
      {
        "day": "Saturday",
        "hours": "Closed"
      },
      {
        "day": "Sunday",
        "hours": "Closed"
      }
    ],
    "peopleAlsoSearch": [],
    "placesTags": [],
    "reviewsTags": [],
    "additionalInfo": {
      "Service options": [
        {
          "Delivery": true
        },
        {
          "In-store shopping": true
        }
      ],
      "Accessibility": [
        {
          "Wheelchair accessible entrance": true
        },
        {
          "Wheelchair accessible parking lot": true
        }
      ],
      "Payments": [
        {
          "Credit cards": true
        },
        {
          "Debit cards": true
        },
        {
          "NFC mobile payments": true
        },
        {
          "Credit cards": true
        }
      ]
    },
    "gasPrices": [],
    "url": "https://www.google.com/maps/search/?api=1&query=O'Donovan%20Pharmacy&query_place_id=ChIJtwn2lqSlJoYR4xO6W8BP0fU",
    "searchPageUrl": "https://www.google.com/maps/search/independent%20pharmacy%20Baton%20Rouge%20LA/@18.458974397176295,-64.80239423087781,11z?hl=en",
    "searchString": "independent pharmacy Baton Rouge LA",
    "language": "en",
    "rank": 20,
    "isAdvertisement": false,
    "imageUrl": "https://lh3.googleusercontent.com/gps-cs-s/AC9h4nqstouNWTSL_24O5mRFKP3rIeuGtaCorv8FIjdzw75SB0niyvQmztpiygpTLcklShj7TbBBQl9O9TxrZI-uMSskw3Eoy7tW3nRK2nFrUf_b08V1OgH5rViTe_-FsgWy3bj0qsa7=w408-h725-k-no",
    "kgmid": "/g/11ghnpw92x",
    "classification": "hospital",
    "is_independent": false,
    "confidence": 1.0,
    "source": "rule-based"
  }
]