[
  {
    "title": "Park Pharmacy Lafayette",
    "price": null,
    "categoryName": "Pharmacy",
    "address": "4811 Ambassador Caffery Pkwy #101, Lafayette, LA 70508",
    "neighborhood": null,
    "street": "4811 Ambassador Caffery Pkwy #101",
    "city": "Lafayette",
    "postalCode": "70508",
    "state": "Louisiana",
    "countryCode": "US",
    "website": "https://www.parkpharmacyla.com/",
    "phone": "(337) 806-9000",
    "phoneUnformatted": "+13378069000",
    "claimThisBusiness": false,
    "location": {
      "lat": 30.1494289,
      "lng": -92.0365801
    },
    "totalScore": 3.9,
    "permanentlyClosed": false,
    "temporarilyClosed": false,
    "placeId": null,
    "categories": [
      "Pharmacy"
    ],
    "fid": "0x86249d8ec4c72547:0x425105f83e50a6e0",
    "cid": "4778607243372308192",
    "reviewsCount": 37,
    "imagesCount": null,
    "imageCategories": [],
    "scrapedAt": "2025-06-22T05:25:59.494Z",
    "googleFoodUrl": null,
    "hotelAds": [],
    "openingHours": [
      {
        "day": "Monday",
        "hours": "7\u202fAM to 6\u202fPM"
      },
      {
        "day": "Tuesday",
        "hours": "7\u202fAM to 6\u202fPM"
      },
      {
        "day": "Wednesday",
        "hours": "7\u202fAM to 6\u202fPM"
      },
      {
        "day": "Thursday",
        "hours": "7\u202fAM to 6\u202fPM"
      },
      {
        "day": "Friday",
        "hours": "7\u202fAM to 6\u202fPM"
      },
      {
        "day": "Saturday",
        "hours": "8\u202fAM to 12\u202fPM"
      },
      {
        "day": "Sunday",
        "hours": "Closed"
      }
    ],
    "peopleAlsoSearch": [],
    "placesTags": [],
    "reviewsTags": [],
    "additionalInfo": {
      "From the business": [
        {
          "Small business": true
        }
      ],
      "Service options": [
        {
          "Delivery": true
        },
        {
          "Drive-through": true
        },
        {
          "In-store pickup": true
        },
        {
          "In-store shopping": true
        },
        {
          "Onsite services": true
        },
        {
          "Same-day delivery": true
        }
      ],
      "Accessibility": [
        {
          "Wheelchair accessible entrance": true
        },
        {
          "Wheelchair accessible parking lot": true
        }
      ],
      "Planning": [
        {
          "Quick visit": true
        }
      ],
      "Payments": [
        {
          "Credit cards": true
        },
        {
          "Debit cards": true
        },
        {
          "NFC mobile payments": true
        },
        {
          "Credit cards": true
        }
      ]
    },
    "gasPrices": [],
    "url": "https://www.google.com/maps/search/?api=1&query=Park%20Pharmacy%20Lafayette&query_place_id=ChIJRyXHxI6dJIYR4KZQPvgFUUI",
    "searchPageUrl": "https://www.google.com/maps/search/independent%20pharmacy%20Lafayette%20LA/@0.7385981862251749,-176.61788845,13z?hl=en",
    "searchString": "independent pharmacy Lafayette LA",
    "language": "en",
    "rank": 1,
    "isAdvertisement": false,
    "kgmid": "/g/11fx7vtygx",
    "classification": "independent",
    "is_independent": true,
    "is_compounding": false,
    "confidence": 0.9,
    "source": "perplexity",
    "method": "llm"
  },
  {
    "title": "Northside Pharmacy",
    "price": null,
    "categoryName": "Pharmacy",
    "address": "2930 Moss St A, Lafayette, LA 70501",
    "neighborhood": null,
    "street": "2930 Moss St A",
    "city": "Lafayette",
    "postalCode": "70501",
    "state": "Louisiana",
    "countryCode": "US",
    "website": "http://northsidepharmacylafayette.com/",
    "phone": "(337) 232-2666",
    "phoneUnformatted": "+13372322666",
    "claimThisBusiness": false,
    "location": {
      "lat": 30.2605014,
      "lng": -92.0063571
    },
    "totalScore": 4.5,
    "permanentlyClosed": false,
    "temporarilyClosed": false,
    "placeId": null,
    "categories": [
      "Pharmacy",
      "Drug store"
    ],
    "fid": "0x86249b3fbe2b1697:0x8a0dad4311bd2c9",
    "cid": "621737353468957385",
    "reviewsCount": 60,
    "imagesCount": 5,
    "imageCategories": [],
    "scrapedAt": "2025-06-22T05:25:59.495Z",
    "googleFoodUrl": null,
    "hotelAds": [],
    "openingHours": [
      {
        "day": "Monday",
        "hours": "8\u202fAM to 6\u202fPM"
      },
      {
        "day": "Tuesday",
        "hours": "8\u202fAM to 6\u202fPM"
      },
      {
        "day": "Wednesday",
        "hours": "8\u202fAM to 6\u202fPM"
      },
      {
        "day": "Thursday",
        "hours": "8\u202fAM to 6\u202fPM"
      },
      {
        "day": "Friday",
        "hours": "8\u202fAM to 5:30\u202fPM"
      },
      {
        "day": "Saturday",
        "hours": "Closed"
      },
      {
        "day": "Sunday",
        "hours": "Closed"
      }
    ],
    "peopleAlsoSearch": [],
    "placesTags": [],
    "reviewsTags": [],
    "additionalInfo": {
      "From the business": [
        {
          "Small business": true
        }
      ],
      "Service options": [
        {
          "Delivery": true
        },
        {
          "In-store pickup": true
        }
      ],
      "Accessibility": [
        {
          "Wheelchair accessible entrance": true
        },
        {
          "Wheelchair accessible parking lot": true
        }
      ],
      "Planning": [
        {
          "Quick visit": true
        }
      ],
      "Payments": [
        {
          "Credit cards": true
        },
        {
          "Debit cards": true
        },
        {
          "NFC mobile payments": true
        },
        {
          "Credit cards": true
        }
      ]
    },
    "gasPrices": [],
    "url": "https://www.google.com/maps/search/?api=1&query=Northside%20Pharmacy&query_place_id=ChIJlxYrvj-bJIYRydIbMdTaoAg",
    "searchPageUrl": "https://www.google.com/maps/search/independent%20pharmacy%20Lafayette%20LA/@0.7385981862251749,-176.61788845,13z?hl=en",
    "searchString": "independent pharmacy Lafayette LA",
    "language": "en",
    "rank": 2,
    "isAdvertisement": false,
    "imageUrl": "https://lh3.googleusercontent.com/p/AF1QipN4T_36fbpHniO1Dd-KYvMMxXHxy4bWdF2DD32M=w408-h544-k-no",
    "kgmid": "/g/1vb9ddyv",
    "classification": "independent",
    "is_independent": true,
    "is_compounding": false,
    "confidence": 0.9,
    "source": "perplexity",
    "method": "llm"
  },
  {
    "title": "The Compounding Center Pharmacy",
    "price": null,
    "categoryName": "Pharmacy",
    "address": "3810 Ambassador Caffery Pkwy UNIT 200, Lafayette, LA 70503",
    "neighborhood": null,
    "street": "3810 Ambassador Caffery Pkwy UNIT 200",
    "city": "Lafayette",
    "postalCode": "70503",
    "state": "Louisiana",
    "countryCode": "US",
    "website": "http://www.facebook.com/compoundingcenterrx",
    "phone": "(337) 981-8844",
    "phoneUnformatted": "+13379818844",
    "claimThisBusiness": false,
    "location": {
      "lat": 30.1688513,
      "lng": -92.0647778
    },
    "totalScore": 4.3,
    "permanentlyClosed": false,
    "temporarilyClosed": false,
    "placeId": null,
    "categories": [
      "Pharmacy"
    ],
    "fid": "0x86249d93e98a59ed:0xa9c7f7eb2f857586",
    "cid": "12234019502261892486",
    "reviewsCount": 20,
    "imagesCount": 5,
    "imageCategories": [],
    "scrapedAt": "2025-06-22T05:25:59.496Z",
    "googleFoodUrl": null,
    "hotelAds": [],
    "openingHours": [
      {
        "day": "Monday",
        "hours": "8:30\u202fAM to 5\u202fPM"
      },
      {
        "day": "Tuesday",
        "hours": "8:30\u202fAM to 5\u202fPM"
      },
      {
        "day": "Wednesday",
        "hours": "8:30\u202fAM to 5\u202fPM"
      },
      {
        "day": "Thursday",
        "hours": "8:30\u202fAM to 5\u202fPM"
      },
      {
        "day": "Friday",
        "hours": "8:30\u202fAM to 5\u202fPM"
      },
      {
        "day": "Saturday",
        "hours": "Closed"
      },
      {
        "day": "Sunday",
        "hours": "Closed"
      }
    ],
    "peopleAlsoSearch": [],
    "placesTags": [],
    "reviewsTags": [],
    "additionalInfo": {
      "From the business": [
        {
          "Small business": true
        }
      ],
      "Service options": [
        {
          "Delivery": true
        },
        {
          "In-store pickup": true
        },
        {
          "In-store shopping": true
        },
        {
          "Same-day delivery": true
        }
      ],
      "Accessibility": [
        {
          "Wheelchair accessible entrance": true
        },
        {
          "Wheelchair accessible parking lot": true
        }
      ],
      "Planning": [
        {
          "Quick visit": true
        }
      ],
      "Payments": [
        {
          "Credit cards": true
        },
        {
          "Debit cards": true
        },
        {
          "NFC mobile payments": true
        },
        {
          "Credit cards": true
        }
      ]
    },
    "gasPrices": [],
    "url": "https://www.google.com/maps/search/?api=1&query=The%20Compounding%20Center%20Pharmacy&query_place_id=ChIJ7VmK6ZOdJIYRhnWFL-v3x6k",
    "searchPageUrl": "https://www.google.com/maps/search/independent%20pharmacy%20Lafayette%20LA/@0.7385981862251749,-176.61788845,13z?hl=en",
    "searchString": "independent pharmacy Lafayette LA",
    "language": "en",
    "rank": 3,
    "isAdvertisement": false,
    "imageUrl": "https://lh3.googleusercontent.com/gps-cs-s/AC9h4nqZWkilw54PsGmpp7FHnxjd6nBgEI47QP7gQnwtnsG-FGvQkPNzMy6P51x4OO4l7_kTDKwn1PlHp1QYDORwsYlA9qeNLz-0gbKC4y-hU1o8yPck-ItIC5xnwFdRoitaX2NcPNUE=w408-h725-k-no",
    "kgmid": "/g/1tfx57m1",
    "classification": "independent",
    "is_independent": true,
    "is_compounding": true,
    "confidence": 0.95,
    "source": "perplexity",
    "method": "llm"
  },
  {
    "title": "Acadiana Prescription Shop",
    "price": null,
    "categoryName": "Pharmacy",
    "address": "454 Heymann Blvd, Lafayette, LA 70503",
    "neighborhood": null,
    "street": "454 Heymann Blvd",
    "city": "Lafayette",
    "postalCode": "70503",
    "state": "Louisiana",
    "countryCode": "US",
    "website": "http://www.acadianarx.com/",
    "phone": "(337) 233-4017",
    "phoneUnformatted": "+13372334017",
    "claimThisBusiness": false,
    "location": {
      "lat": 30.2037069,
      "lng": -92.0166944
    },
    "totalScore": 4.8,
    "permanentlyClosed": false,
    "temporarilyClosed": false,
    "placeId": null,
    "categories": [
      "Pharmacy"
    ],
    "fid": "0x86249cefbf82886b:0xafd6c5ce3ed91359",
    "cid": "12670532091261817689",
    "reviewsCount": 57,
    "imagesCount": 3,
    "imageCategories": [],
    "scrapedAt": "2025-06-22T05:25:59.496Z",
    "googleFoodUrl": null,
    "hotelAds": [],
    "openingHours": [
      {
        "day": "Monday",
        "hours": "8\u202fAM to 6\u202fPM"
      },
      {
        "day": "Tuesday",
        "hours": "8\u202fAM to 6\u202fPM"
      },
      {
        "day": "Wednesday",
        "hours": "8\u202fAM to 6\u202fPM"
      },
      {
        "day": "Thursday",
        "hours": "8\u202fAM to 6\u202fPM"
      },
      {
        "day": "Friday",
        "hours": "8\u202fAM to 6\u202fPM"
      },
      {
        "day": "Saturday",
        "hours": "9\u202fAM to 12\u202fPM"
      },
      {
        "day": "Sunday",
        "hours": "Closed"
      }
    ],
    "peopleAlsoSearch": [],
    "placesTags": [],
    "reviewsTags": [],
    "additionalInfo": {
      "From the business": [
        {
          "Small business": true
        }
      ],
      "Service options": [
        {
          "Curbside pickup": true
        },
        {
          "Delivery": true
        },
        {
          "Drive-through": true
        },
        {
          "In-store pickup": true
        },
        {
          "Onsite services": true
        },
        {
          "Same-day delivery": true
        }
      ],
      "Accessibility": [
        {
          "Wheelchair accessible entrance": true
        },
        {
          "Wheelchair accessible parking lot": true
        }
      ],
      "Planning": [
        {
          "Quick visit": true
        }
      ],
      "Payments": [
        {
          "Credit cards": true
        },
        {
          "Debit cards": true
        },
        {
          "NFC mobile payments": true
        },
        {
          "Credit cards": true
        }
      ]
    },
    "gasPrices": [],
    "url": "https://www.google.com/maps/search/?api=1&query=Acadiana%20Prescription%20Shop&query_place_id=ChIJa4iCv--cJIYRWRPZPs7F1q8",
    "searchPageUrl": "https://www.google.com/maps/search/independent%20pharmacy%20Lafayette%20LA/@0.7385981862251749,-176.61788845,13z?hl=en",
    "searchString": "independent pharmacy Lafayette LA",
    "language": "en",
    "rank": 4,
    "isAdvertisement": false,
    "imageUrl": "https://lh3.googleusercontent.com/gps-cs-s/AC9h4nrijQQQND7Zq8fM18WKXqOX8oY2KvwWN1woc8uKeemJlL-6Oca_SWQk1C1POiiIn19PjguhEL9zlZMV_QThireNxioV1GICVWuy8gL3oy5jL-smK-I9FX_zoRvrl2SlL9_fcl1G=w408-h544-k-no",
    "kgmid": "/g/1td0t7dy",
    "classification": "independent",
    "is_independent": true,
    "is_compounding": false,
    "confidence": 0.9,
    "source": "perplexity",
    "method": "llm"
  },
  {
    "title": "Neighbors Pharmacy",
    "price": null,
    "categoryName": "Pharmacy",
    "address": "6770 Johnston St, Lafayette, LA 70503",
    "neighborhood": null,
    "street": "6770 Johnston St",
    "city": "Lafayette",
    "postalCode": "70503",
    "state": "Louisiana",
    "countryCode": "US",
    "website": "https://neighborspharmacy.com/",
    "phone": "(337) 706-7706",
    "phoneUnformatted": "+13377067706",
    "claimThisBusiness": true,
    "location": {
      "lat": 30.1521236,
      "lng": -92.0933268
    },
    "totalScore": 4.4,
    "permanentlyClosed": false,
    "temporarilyClosed": false,
    "placeId": null,
    "categories": [
      "Pharmacy",
      "Gift shop"
    ],
    "fid": "0x86249e25066f4c9d:0xe49c5671d91914d5",
    "cid": "16473136583988024533",
    "reviewsCount": 29,
    "imagesCount": 10,
    "imageCategories": [],
    "scrapedAt": "2025-06-22T05:25:59.496Z",
    "googleFoodUrl": null,
    "hotelAds": [],
    "openingHours": [
      {
        "day": "Monday",
        "hours": "9\u202fAM to 6\u202fPM"
      },
      {
        "day": "Tuesday",
        "hours": "9\u202fAM to 6\u202fPM"
      },
      {
        "day": "Wednesday",
        "hours": "9\u202fAM to 6\u202fPM"
      },
      {
        "day": "Thursday",
        "hours": "9\u202fAM to 6\u202fPM"
      },
      {
        "day": "Friday",
        "hours": "9\u202fAM to 6\u202fPM"
      },
      {
        "day": "Saturday",
        "hours": "9\u202fAM to 1\u202fPM"
      },
      {
        "day": "Sunday",
        "hours": "Closed"
      }
    ],
    "peopleAlsoSearch": [],
    "placesTags": [],
    "reviewsTags": [],
    "additionalInfo": {
      "From the business": [
        {
          "Small business": true
        }
      ],
      "Service options": [
        {
          "Delivery": true
        },
        {
          "Drive-through": true
        },
        {
          "In-store pickup": true
        },
        {
          "Same-day delivery": true
        }
      ],
      "Accessibility": [
        {
          "Wheelchair accessible entrance": true
        },
        {
          "Wheelchair accessible parking lot": true
        }
      ],
      "Planning": [
        {
          "Quick visit": true
        }
      ],
      "Payments": [
        {
          "Credit cards": true
        },
        {
          "Debit cards": true
        },
        {
          "NFC mobile payments": true
        }
      ]
    },
    "gasPrices": [],
    "url": "https://www.google.com/maps/search/?api=1&query=Neighbors%20Pharmacy&query_place_id=ChIJnUxvBiWeJIYR1RQZ2XFWnOQ",
    "searchPageUrl": "https://www.google.com/maps/search/independent%20pharmacy%20Lafayette%20LA/@0.7385981862251749,-176.61788845,13z?hl=en",
    "searchString": "independent pharmacy Lafayette LA",
    "language": "en",
    "rank": 5,
    "isAdvertisement": false,
    "imageUrl": "https://lh3.googleusercontent.com/gps-cs-s/AC9h4noE_Aj5HG2Bm-s3oSv1ivauP_mhj-z7X5oEX8S6Lhql5Rt9gLfng_qEpTxnR9QkgQYSiR2gsbTeM98MdzpZz-5ZoUYpfA5gY9td2bqziWyl0ZULNKwi7GyM1KCgcmofoxLV3PEB=w408-h271-k-no",
    "kgmid": "/g/11bvcvlcsc",
    "classification": "independent",
    "is_independent": true,
    "is_compounding": false,
    "confidence": 0.9,
    "source": "perplexity",
    "method": "llm"
  },
  {
    "title": "Province Pharmacy",
    "price": null,
    "categoryName": "Pharmacy",
    "address": "5000 Ambassador Caffery Pkwy building 3 ste, Lafayette, LA 70508",
    "neighborhood": null,
    "street": "5000 Ambassador Caffery Pkwy building 3 ste",
    "city": "Lafayette",
    "postalCode": "70508",
    "state": "Louisiana",
    "countryCode": "US",
    "website": "http://www.provincepharmacy.com/",
    "phone": "(337) 534-0615",
    "phoneUnformatted": "+13375340615",
    "claimThisBusiness": false,
    "location": {
      "lat": 30.146669,
      "lng": -92.0353169
    },
    "totalScore": 5,
    "permanentlyClosed": false,
    "temporarilyClosed": false,
    "placeId": null,
    "categories": [
      "Pharmacy"
    ],
    "fid": "0x86249de568f29f73:0xea9b80a7689289ad",
    "cid": "16905247082767616429",
    "reviewsCount": 109,
    "imagesCount": 2,
    "imageCategories": [],
    "scrapedAt": "2025-06-22T05:25:59.496Z",
    "googleFoodUrl": null,
    "hotelAds": [],
    "openingHours": [
      {
        "day": "Monday",
        "hours": "8\u202fAM to 5\u202fPM"
      },
      {
        "day": "Tuesday",
        "hours": "8\u202fAM to 5\u202fPM"
      },
      {
        "day": "Wednesday",
        "hours": "8\u202fAM to 5\u202fPM"
      },
      {
        "day": "Thursday",
        "hours": "8\u202fAM to 5\u202fPM"
      },
      {
        "day": "Friday",
        "hours": "8\u202fAM to 5\u202fPM"
      },
      {
        "day": "Saturday",
        "hours": "Closed"
      },
      {
        "day": "Sunday",
        "hours": "Closed"
      }
    ],
    "peopleAlsoSearch": [],
    "placesTags": [],
    "reviewsTags": [],
    "additionalInfo": {
      "From the business": [
        {
          "Small business": true
        }
      ],
      "Service options": [
        {
          "Delivery": true
        },
        {
          "In-store pickup": true
        },
        {
          "Same-day delivery": true
        }
      ],
      "Accessibility": [
        {
          "Wheelchair accessible entrance": true
        },
        {
          "Wheelchair accessible parking lot": true
        }
      ],
      "Planning": [
        {
          "Quick visit": true
        }
      ],
      "Payments": [
        {
          "Credit cards": true
        },
        {
          "Debit cards": true
        },
        {
          "NFC mobile payments": true
        },
        {
          "Credit cards": true
        }
      ]
    },
    "gasPrices": [],
    "url": "https://www.google.com/maps/search/?api=1&query=Province%20Pharmacy&query_place_id=ChIJc5_yaOWdJIYRrYmSaKeAm-o",
    "searchPageUrl": "https://www.google.com/maps/search/independent%20pharmacy%20Lafayette%20LA/@0.7385981862251749,-176.61788845,13z?hl=en",
    "searchString": "independent pharmacy Lafayette LA",
    "language": "en",
    "rank": 6,
    "isAdvertisement": false,
    "imageUrl": "https://lh3.googleusercontent.com/p/AF1QipP6h_Dpb_QxEbOul48Oh5qkiplDT4V4W5gwH60_=w432-h240-k-no",
    "kgmid": "/g/11h2hb55vz",
    "classification": "independent",
    "is_independent": true,
    "is_compounding": false,
    "confidence": 0.9,
    "source": "perplexity",
    "method": "llm"
  },
  {
    "title": "Professional Arts Specialty Pharmacy",
    "price": null,
    "categoryName": "Pharmacy",
    "address": "128 Curran Ln, Lafayette, LA 70506",
    "neighborhood": null,
    "street": "128 Curran Ln",
    "city": "Lafayette",
    "postalCode": "70506",
    "state": "Louisiana",
    "countryCode": "US",
    "website": "http://www.professionalarts.com/",
    "phone": "(888) 237-4737",
    "phoneUnformatted": "+18882374737",
    "claimThisBusiness": false,
    "location": {
      "lat": 30.18873,
      "lng": -92.0794408
    },
    "totalScore": 4.9,
    "permanentlyClosed": false,
    "temporarilyClosed": false,
    "placeId": null,
    "categories": [
      "Pharmacy",
      "Medical laboratory",
      "Medical supply store"
    ],
    "fid": "0x86249e9b24d7dd0b:0xd9e5fec8583ac9c",
    "cid": "981327238270266524",
    "reviewsCount": 338,
    "imagesCount": 8,
    "imageCategories": [],
    "scrapedAt": "2025-06-22T05:25:59.496Z",
    "googleFoodUrl": null,
    "hotelAds": [],
    "openingHours": [
      {
        "day": "Monday",
        "hours": "8\u202fAM to 5:30\u202fPM"
      },
      {
        "day": "Tuesday",
        "hours": "8\u202fAM to 5:30\u202fPM"
      },
      {
        "day": "Wednesday",
        "hours": "8\u202fAM to 5:30\u202fPM"
      },
      {
        "day": "Thursday",
        "hours": "8\u202fAM to 5:30\u202fPM"
      },
      {
        "day": "Friday",
        "hours": "8\u202fAM to 5:30\u202fPM"
      },
      {
        "day": "Saturday",
        "hours": "Closed"
      },
      {
        "day": "Sunday",
        "hours": "Closed"
      }
    ],
    "peopleAlsoSearch": [],
    "placesTags": [],
    "reviewsTags": [],
    "additionalInfo": {
      "From the business": [
        {
          "Small business": true
        }
      ],
      "Service options": [
        {
          "Delivery": true
        },
        {
          "In-store pickup": true
        }
      ],
      "Accessibility": [
        {
          "Wheelchair accessible entrance": true
        },
        {
          "Wheelchair accessible parking lot": true
        }
      ],
      "Payments": [
        {
          "Credit cards": true
        },
        {
          "Debit cards": true
        },
        {
          "NFC mobile payments": true
        },
        {
          "Credit cards": true
        }
      ]
    },
    "gasPrices": [],
    "url": "https://www.google.com/maps/search/?api=1&query=Professional%20Arts%20Specialty%20Pharmacy&query_place_id=ChIJC93XJJueJIYRnKyDhexfng0",
    "searchPageUrl": "https://www.google.com/maps/search/independent%20pharmacy%20Lafayette%20LA/@0.7385981862251749,-176.61788845,13z?hl=en",
    "searchString": "independent pharmacy Lafayette LA",
    "language": "en",
    "rank": 7,
    "isAdvertisement": false,
    "imageUrl": "https://lh3.googleusercontent.com/p/AF1QipP_VuSNLh3pDtWYzRs90xmgKNavpoQ2_0Wu8fiJ=w408-h270-k-no",
    "kgmid": "/g/12vqmq7zf",
    "classification": "independent",
    "is_independent": true,
    "is_compounding": false,
    "confidence": 0.9,
    "source": "perplexity",
    "method": "llm"
  },
  {
    "title": "Health Mart",
    "price": null,
    "categoryName": "Pharmacy",
    "address": "600 Johnston St, Lafayette, LA 70501",
    "neighborhood": "Downtown Lafayette",
    "street": "600 Johnston St",
    "city": "Lafayette",
    "postalCode": "70501",
    "state": "Louisiana",
    "countryCode": "US",
    "website": "https://www.healthmart.com/",
    "phone": "(337) 235-3523",
    "phoneUnformatted": "+13372353523",
    "claimThisBusiness": true,
    "location": {
      "lat": 30.2225548,
      "lng": -92.0159559
    },
    "totalScore": 4.6,
    "permanentlyClosed": false,
    "temporarilyClosed": false,
    "placeId": null,
    "categories": [
      "Pharmacy"
    ],
    "fid": "0x86249c9043f1f8c1:0xfb53e407a87c3999",
    "cid": "18110069248129513881",
    "reviewsCount": 32,
    "imagesCount": 2,
    "imageCategories": [],
    "scrapedAt": "2025-06-22T05:25:59.497Z",
    "googleFoodUrl": null,
    "hotelAds": [],
    "openingHours": [
      {
        "day": "Monday",
        "hours": "8\u202fAM to 6\u202fPM"
      },
      {
        "day": "Tuesday",
        "hours": "8\u202fAM to 6\u202fPM"
      },
      {
        "day": "Wednesday",
        "hours": "8\u202fAM to 6\u202fPM"
      },
      {
        "day": "Thursday",
        "hours": "8\u202fAM to 6\u202fPM"
      },
      {
        "day": "Friday",
        "hours": "8\u202fAM to 6\u202fPM"
      },
      {
        "day": "Saturday",
        "hours": "8\u202fAM to 12\u202fPM"
      },
      {
        "day": "Sunday",
        "hours": "Closed"
      }
    ],
    "peopleAlsoSearch": [],
    "placesTags": [],
    "reviewsTags": [],
    "additionalInfo": {
      "Service options": [
        {
          "Delivery": true
        },
        {
          "In-store pickup": true
        },
        {
          "Same-day delivery": true
        }
      ],
      "Accessibility": [
        {
          "Wheelchair accessible entrance": true
        },
        {
          "Wheelchair accessible parking lot": true
        }
      ],
      "Planning": [
        {
          "Quick visit": true
        }
      ],
      "Payments": [
        {
          "Credit cards": true
        },
        {
          "Debit cards": true
        },
        {
          "NFC mobile payments": true
        },
        {
          "Credit cards": true
        }
      ]
    },
    "gasPrices": [],
    "url": "https://www.google.com/maps/search/?api=1&query=Health%20Mart&query_place_id=ChIJwfjxQ5CcJIYRmTl8qAfkU_s",
    "searchPageUrl": "https://www.google.com/maps/search/independent%20pharmacy%20Lafayette%20LA/@0.7385981862251749,-176.61788845,13z?hl=en",
    "searchString": "independent pharmacy Lafayette LA",
    "language": "en",
    "rank": 8,
    "isAdvertisement": false,
    "imageUrl": "https://lh3.googleusercontent.com/gps-cs-s/AC9h4nrea0FgRGWyB15MdJRwkqcax9hDJLVxNFgbSznHi2ECeMvrsLH3tWHZm5TKGTVo6YVFR4BWxM6ajrgoFTWM_Kwpmmm61O4fHGm_kxFdUcbuFDfBt_KxnHe4y52M9xkFM2G9JP8=w408-h318-k-no",
    "kgmid": "/g/11bbrkcxdg",
    "classification": "chain",
    "is_independent": false,
    "is_compounding": false,
    "confidence": 0.95,
    "source": "perplexity",
    "method": "llm"
  },
  {
    "title": "Falcon Pharmacy",
    "price": null,
    "categoryName": "Pharmacy",
    "address": "1103 Kaliste Saloom Rd # 103, Lafayette, LA 70508",
    "neighborhood": null,
    "street": "1103 Kaliste Saloom Rd # 103",
    "city": "Lafayette",
    "postalCode": "70508",
    "state": "Louisiana",
    "countryCode": "US",
    "phone": "(337) 210-1248",
    "phoneUnformatted": "+13372101248",
    "claimThisBusiness": false,
    "location": {
      "lat": 30.174427,
      "lng": -92.026376
    },
    "totalScore": 4.6,
    "permanentlyClosed": false,
    "temporarilyClosed": false,
    "placeId": null,
    "categories": [
      "Pharmacy"
    ],
    "fid": "0x86249d09c8ae20fd:0x418eed48ef6f876a",
    "cid": "4723973956668721002",
    "reviewsCount": 5,
    "imagesCount": 1,
    "imageCategories": [],
    "scrapedAt": "2025-06-22T05:25:59.497Z",
    "googleFoodUrl": null,
    "hotelAds": [],
    "openingHours": [
      {
        "day": "Monday",
        "hours": "8:30\u202fAM to 5\u202fPM"
      },
      {
        "day": "Tuesday",
        "hours": "8:30\u202fAM to 5\u202fPM"
      },
      {
        "day": "Wednesday",
        "hours": "8:30\u202fAM to 5\u202fPM"
      },
      {
        "day": "Thursday",
        "hours": "8:30\u202fAM to 5\u202fPM"
      },
      {
        "day": "Friday",
        "hours": "8:30\u202fAM to 12\u202fPM"
      },
      {
        "day": "Saturday",
        "hours": "Closed"
      },
      {
        "day": "Sunday",
        "hours": "Closed"
      }
    ],
    "peopleAlsoSearch": [],
    "placesTags": [],
    "reviewsTags": [],
    "additionalInfo": {
      "From the business": [
        {
          "Small business": true
        }
      ],
      "Accessibility": [
        {
          "Wheelchair accessible entrance": true
        },
        {
          "Wheelchair accessible parking lot": true
        }
      ],
      "Payments": [
        {
          "Credit cards": true
        },
        {
          "Debit cards": true
        },
        {
          "NFC mobile payments": true
        },
        {
          "Credit cards": true
        }
      ]
    },
    "gasPrices": [],
    "url": "https://www.google.com/maps/search/?api=1&query=Falcon%20Pharmacy&query_place_id=ChIJ_SCuyAmdJIYRaodv70jtjkE",
    "searchPageUrl": "https://www.google.com/maps/search/independent%20pharmacy%20Lafayette%20LA/@0.7385981862251749,-176.61788845,13z?hl=en",
    "searchString": "independent pharmacy Lafayette LA",
    "language": "en",
    "rank": 9,
    "isAdvertisement": false,
    "imageUrl": "https://streetviewpixels-pa.googleapis.com/v1/thumbnail?panoid=qmv0mnGc6xDtmmtKErowlA&cb_client=search.gws-prod.gps&w=408&h=240&yaw=45.55766&pitch=0&thumbfov=100",
    "kgmid": "/g/1tczqqmr",
    "classification": "independent",
    "is_independent": true,
    "is_compounding": false,
    "confidence": 0.85,
    "source": "perplexity",
    "method": "llm"
  },
  {
    "title": "Jefferson Drug Pharmacy",
    "price": null,
    "categoryName": "Pharmacy",
    "address": "616 Jefferson St, Lafayette, LA 70501",
    "neighborhood": null,
    "street": "616 Jefferson St",
    "city": "Lafayette",
    "postalCode": "70501",
    "state": "Louisiana",
    "countryCode": "US",
    "phone": "(337) 889-3795",
    "phoneUnformatted": "+13378893795",
    "claimThisBusiness": false,
    "location": {
      "lat": 30.2296937,
      "lng": -92.0096026
    },
    "totalScore": 4.5,
    "permanentlyClosed": false,
    "temporarilyClosed": false,
    "placeId": null,
    "categories": [
      "Pharmacy"
    ],
    "fid": "0x86249c98ce631afb:0x1c11a8d2096af4e9",
    "cid": "2022583327720666345",
    "reviewsCount": 28,
    "imagesCount": 3,
    "imageCategories": [],
    "scrapedAt": "2025-06-22T05:25:59.497Z",
    "googleFoodUrl": null,
    "hotelAds": [],
    "openingHours": [
      {
        "day": "Monday",
        "hours": "9\u202fAM to 5:30\u202fPM"
      },
      {
        "day": "Tuesday",
        "hours": "9\u202fAM to 5:30\u202fPM"
      },
      {
        "day": "Wednesday",
        "hours": "9\u202fAM to 5:30\u202fPM"
      },
      {
        "day": "Thursday",
        "hours": "9\u202fAM to 5:30\u202fPM"
      },
      {
        "day": "Friday",
        "hours": "9\u202fAM to 5:30\u202fPM"
      },
      {
        "day": "Saturday",
        "hours": "Closed"
      },
      {
        "day": "Sunday",
        "hours": "Closed"
      }
    ],
    "peopleAlsoSearch": [],
    "placesTags": [],
    "reviewsTags": [],
    "additionalInfo": {
      "From the business": [
        {
          "Small business": true
        }
      ],
      "Service options": [
        {
          "Delivery": true
        },
        {
          "In-store pickup": true
        },
        {
          "In-store shopping": true
        },
        {
          "Same-day delivery": true
        }
      ],
      "Accessibility": [
        {
          "Wheelchair accessible entrance": true
        },
        {
          "Wheelchair accessible parking lot": true
        }
      ],
      "Planning": [
        {
          "Quick visit": true
        }
      ],
      "Payments": [
        {
          "Checks": true
        },
        {
          "Credit cards": true
        },
        {
          "Debit cards": true
        },
        {
          "Credit cards": true
        }
      ]
    },
    "gasPrices": [],
    "url": "https://www.google.com/maps/search/?api=1&query=Jefferson%20Drug%20Pharmacy&query_place_id=ChIJ-xpjzpicJIYR6fRqCdKoERw",
    "searchPageUrl": "https://www.google.com/maps/search/independent%20pharmacy%20Lafayette%20LA/@0.7385981862251749,-176.61788845,13z?hl=en",
    "searchString": "independent pharmacy Lafayette LA",
    "language": "en",
    "rank": 10,
    "isAdvertisement": false,
    "imageUrl": "https://lh3.googleusercontent.com/p/AF1QipMfvZdW-BV8aBbLJYuSU8yA3qQZaMMuddaEK3-E=w408-h306-k-no",
    "kgmid": "/g/1thx4ds6",
    "classification": "independent",
    "is_independent": true,
    "is_compounding": false,
    "confidence": 0.85,
    "source": "perplexity",
    "method": "llm"
  },
  {
    "title": "Medicine Bin",
    "price": null,
    "categoryName": "Pharmacy",
    "address": "1105 W Willow St, Lafayette, LA 70501",
    "neighborhood": null,
    "street": "1105 W Willow St",
    "city": "Lafayette",
    "postalCode": "70501",
    "state": "Louisiana",
    "countryCode": "US",
    "website": "https://www.medicinebinpharmacy.com/",
    "phone": "(337) 408-8800",
    "phoneUnformatted": "+13374088800",
    "claimThisBusiness": false,
    "location": {
      "lat": 30.244432,
      "lng": -92.0309558
    },
    "totalScore": 5,
    "permanentlyClosed": false,
    "temporarilyClosed": false,
    "placeId": null,
    "categories": [
      "Pharmacy"
    ],
    "fid": "0x86249b830d19c051:0x94f426132d19a14e",
    "cid": "10733245675733623118",
    "reviewsCount": 25,
    "imagesCount": 9,
    "imageCategories": [],
    "scrapedAt": "2025-06-22T05:25:59.497Z",
    "googleFoodUrl": null,
    "hotelAds": [],
    "openingHours": [
      {
        "day": "Monday",
        "hours": "8:30\u202fAM to 5:30\u202fPM"
      },
      {
        "day": "Tuesday",
        "hours": "8:30\u202fAM to 5:30\u202fPM"
      },
      {
        "day": "Wednesday",
        "hours": "8:30\u202fAM to 5:30\u202fPM"
      },
      {
        "day": "Thursday",
        "hours": "8:30\u202fAM to 5:30\u202fPM"
      },
      {
        "day": "Friday",
        "hours": "8:30\u202fAM to 5:30\u202fPM"
      },
      {
        "day": "Saturday",
        "hours": "Closed"
      },
      {
        "day": "Sunday",
        "hours": "Closed"
      }
    ],
    "peopleAlsoSearch": [],
    "placesTags": [],
    "reviewsTags": [],
    "additionalInfo": {
      "From the business": [
        {
          "Small business": true
        }
      ],
      "Service options": [
        {
          "Delivery": true
        },
        {
          "Drive-through": true
        },
        {
          "Onsite services": true
        },
        {
          "Same-day delivery": true
        }
      ],
      "Accessibility": [
        {
          "Wheelchair accessible entrance": true
        },
        {
          "Wheelchair accessible parking lot": true
        }
      ],
      "Planning": [
        {
          "Quick visit": true
        }
      ],
      "Payments": [
        {
          "Credit cards": true
        },
        {
          "Debit cards": true
        },
        {
          "NFC mobile payments": true
        },
        {
          "Credit cards": true
        }
      ]
    },
    "gasPrices": [],
    "url": "https://www.google.com/maps/search/?api=1&query=Medicine%20Bin&query_place_id=ChIJUcAZDYObJIYRTqEZLRMm9JQ",
    "searchPageUrl": "https://www.google.com/maps/search/independent%20pharmacy%20Lafayette%20LA/@0.7385981862251749,-176.61788845,13z?hl=en",
    "searchString": "independent pharmacy Lafayette LA",
    "language": "en",
    "rank": 11,
    "isAdvertisement": false,
    "imageUrl": "https://lh3.googleusercontent.com/p/AF1QipMvEfvxL4h_Uu6sBNd6Qlsy8N99pkFpg7yFqc57=w408-h643-k-no",
    "kgmid": "/g/11hb3315_x",
    "classification": "independent",
    "is_independent": true,
    "is_compounding": false,
    "confidence": 0.85,
    "source": "perplexity",
    "method": "llm"
  },
  {
    "title": "Teche Drugs",
    "price": null,
    "categoryName": "Pharmacy",
    "address": "509 Jefferson St, Lafayette, LA 70501",
    "neighborhood": "Downtown Lafayette",
    "street": "509 Jefferson St",
    "city": "Lafayette",
    "postalCode": "70501",
    "state": "Louisiana",
    "countryCode": "US",
    "website": "http://www.techedrugs.com/",
    "phone": "(337) 235-4578",
    "phoneUnformatted": "+13372354578",
    "claimThisBusiness": false,
    "location": {
      "lat": 30.2254176,
      "lng": -92.0184939
    },
    "totalScore": 4.5,
    "permanentlyClosed": false,
    "temporarilyClosed": false,
    "placeId": null,
    "categories": [
      "Pharmacy"
    ],
    "fid": "0x86249c85414c5563:0x794efa5b612717b6",
    "cid": "8741199197151631286",
    "reviewsCount": 48,
    "imagesCount": 11,
    "imageCategories": [],
    "scrapedAt": "2025-06-22T05:25:59.497Z",
    "googleFoodUrl": null,
    "hotelAds": [],
    "openingHours": [
      {
        "day": "Monday",
        "hours": "8\u202fAM to 5:30\u202fPM"
      },
      {
        "day": "Tuesday",
        "hours": "8\u202fAM to 5:30\u202fPM"
      },
      {
        "day": "Wednesday",
        "hours": "8\u202fAM to 5:30\u202fPM"
      },
      {
        "day": "Thursday",
        "hours": "8\u202fAM to 5:30\u202fPM"
      },
      {
        "day": "Friday",
        "hours": "8\u202fAM to 5:30\u202fPM"
      },
      {
        "day": "Saturday",
        "hours": "9\u202fAM to 6\u202fPM"
      },
      {
        "day": "Sunday",
        "hours": "9\u202fAM to 6\u202fPM"
      }
    ],
    "peopleAlsoSearch": [],
    "placesTags": [],
    "reviewsTags": [],
    "additionalInfo": {
      "From the business": [
        {
          "Small business": true
        }
      ],
      "Service options": [
        {
          "Delivery": true
        },
        {
          "In-store pickup": true
        },
        {
          "In-store shopping": true
        },
        {
          "Same-day delivery": true
        }
      ],
      "Accessibility": [
        {
          "Wheelchair accessible entrance": true
        },
        {
          "Wheelchair accessible parking lot": true
        }
      ],
      "Planning": [
        {
          "Quick visit": true
        }
      ],
      "Payments": [
        {
          "Credit cards": true
        },
        {
          "Debit cards": true
        },
        {
          "NFC mobile payments": true
        },
        {
          "Credit cards": true
        }
      ]
    },
    "gasPrices": [],
    "url": "https://www.google.com/maps/search/?api=1&query=Teche%20Drugs&query_place_id=ChIJY1VMQYWcJIYRthcnYVv6Tnk",
    "searchPageUrl": "https://www.google.com/maps/search/independent%20pharmacy%20Lafayette%20LA/@0.7385981862251749,-176.61788845,13z?hl=en",
    "searchString": "independent pharmacy Lafayette LA",
    "language": "en",
    "rank": 12,
    "isAdvertisement": false,
    "imageUrl": "https://lh3.googleusercontent.com/gps-cs-s/AC9h4npR4H8pS6M4ue3eNPiVDOilLAoo0xesQt50xQTxXFxhHQyNypEe0SMRx6M3TTpEIStcYS1b1WXty6ClvvQTrzv3b1HNJrvEJMvb4QKhC0tS33KMlmpRUYG7QEt9S2pmPfsEazE=w408-h544-k-no",
    "kgmid": "/g/1tggn_mr",
    "classification": "independent",
    "is_independent": true,
    "is_compounding": false,
    "confidence": 0.9,
    "source": "perplexity",
    "method": "llm"
  },
  {
    "title": "PALLIATIVE PHARMACY SOLUTIONS LLC",
    "price": null,
    "categoryName": "Pharmacy",
    "address": "620 Guilbeau Rd, Lafayette, LA 70506",
    "neighborhood": null,
    "street": "620 Guilbeau Rd",
    "city": "Lafayette",
    "postalCode": "70506",
    "state": "Louisiana",
    "countryCode": "US",
    "phone": "(337) 262-9777",
    "phoneUnformatted": "+13372629777",
    "claimThisBusiness": true,
    "location": {
      "lat": 30.2013474,
      "lng": -92.07342
    },
    "totalScore": 4.5,
    "permanentlyClosed": false,
    "temporarilyClosed": false,
    "placeId": null,
    "categories": [
      "Pharmacy"
    ],
    "fid": "0x86249e9b24d7dd0b:0x858a7bf92989be31",
    "cid": "9622639863904452145",
    "reviewsCount": 2,
    "imagesCount": 1,
    "imageCategories": [],
    "scrapedAt": "2025-06-22T05:25:59.497Z",
    "googleFoodUrl": null,
    "hotelAds": [],
    "openingHours": [
      {
        "day": "Monday",
        "hours": "8\u202fAM to 5:30\u202fPM"
      },
      {
        "day": "Tuesday",
        "hours": "8\u202fAM to 5:30\u202fPM"
      },
      {
        "day": "Wednesday",
        "hours": "8\u202fAM to 5:30\u202fPM"
      },
      {
        "day": "Thursday",
        "hours": "8\u202fAM to 5:30\u202fPM"
      },
      {
        "day": "Friday",
        "hours": "8\u202fAM to 5:30\u202fPM"
      },
      {
        "day": "Saturday",
        "hours": "Closed"
      },
      {
        "day": "Sunday",
        "hours": "Closed"
      }
    ],
    "peopleAlsoSearch": [],
    "placesTags": [],
    "reviewsTags": [],
    "additionalInfo": {
      "Accessibility": [
        {
          "Wheelchair accessible entrance": true
        },
        {
          "Wheelchair accessible parking lot": true
        }
      ],
      "Payments": [
        {
          "Credit cards": true
        }
      ]
    },
    "gasPrices": [],
    "url": "https://www.google.com/maps/search/?api=1&query=PALLIATIVE%20PHARMACY%20SOLUTIONS%20LLC&query_place_id=ChIJC93XJJueJIYRMb6JKfl7ioU",
    "searchPageUrl": "https://www.google.com/maps/search/independent%20pharmacy%20Lafayette%20LA/@0.7385981862251749,-176.61788845,13z?hl=en",
    "searchString": "independent pharmacy Lafayette LA",
    "language": "en",
    "rank": 13,
    "isAdvertisement": false,
    "imageUrl": "https://streetviewpixels-pa.googleapis.com/v1/thumbnail?panoid=tZUn4pG9CV0ePAqhhe0_HQ&cb_client=search.gws-prod.gps&w=408&h=240&yaw=44.31229&pitch=0&thumbfov=100",
    "kgmid": "/g/1q69z3bsb",
    "classification": "independent",
    "is_independent": true,
    "is_compounding": false,
    "confidence": 0.85,
    "source": "perplexity",
    "method": "llm"
  },
  {
    "title": "Drug Emporium Lafayette",
    "price": null,
    "categoryName": "Pharmacy",
    "address": "505 Bertrand Dr, Lafayette, LA 70506",
    "neighborhood": null,
    "street": "505 Bertrand Dr",
    "city": "Lafayette",
    "postalCode": "70506",
    "state": "Louisiana",
    "countryCode": "US",
    "website": "https://www.drugemporiuminc.com/stores/lafayette-la/",
    "phone": "(337) 261-0051",
    "phoneUnformatted": "+13372610051",
    "claimThisBusiness": false,
    "location": {
      "lat": 30.2106808,
      "lng": -92.0461629
    },
    "totalScore": 4.7,
    "permanentlyClosed": false,
    "temporarilyClosed": false,
    "placeId": null,
    "categories": [
      "Pharmacy",
      "Cosmetics store",
      "Greeting card shop",
      "Health food store",
      "Pet supply store",
      "Grocery store",
      "Vitamin & supplements store"
    ],
    "fid": "0x86249c4030495c17:0xd25101971ac9f133",
    "cid": "15154895969579561267",
    "reviewsCount": 1863,
    "imagesCount": 252,
    "imageCategories": [],
    "scrapedAt": "2025-06-22T05:25:59.497Z",
    "googleFoodUrl": null,
    "hotelAds": [],
    "openingHours": [
      {
        "day": "Monday",
        "hours": "8\u202fAM to 9\u202fPM"
      },
      {
        "day": "Tuesday",
        "hours": "8\u202fAM to 9\u202fPM"
      },
      {
        "day": "Wednesday",
        "hours": "8\u202fAM to 9\u202fPM"
      },
      {
        "day": "Thursday",
        "hours": "8\u202fAM to 9\u202fPM"
      },
      {
        "day": "Friday",
        "hours": "8\u202fAM to 9\u202fPM"
      },
      {
        "day": "Saturday",
        "hours": "8\u202fAM to 9\u202fPM"
      },
      {
        "day": "Sunday",
        "hours": "9\u202fAM to 6\u202fPM"
      }
    ],
    "peopleAlsoSearch": [],
    "placesTags": [],
    "reviewsTags": [],
    "additionalInfo": {
      "Service options": [
        {
          "Curbside pickup": true
        },
        {
          "In-store pickup": true
        },
        {
          "In-store shopping": true
        },
        {
          "Onsite services": true
        },
        {
          "Delivery": false
        },
        {
          "Same-day delivery": false
        }
      ],
      "Accessibility": [
        {
          "Wheelchair accessible entrance": true
        },
        {
          "Wheelchair accessible parking lot": true
        },
        {
          "Wheelchair accessible restroom": true
        }
      ],
      "Offerings": [
        {
          "Organic products": true
        },
        {
          "Pharmacy": true
        }
      ],
      "Amenities": [
        {
          "Restroom": true
        }
      ],
      "Planning": [
        {
          "Quick visit": true
        }
      ],
      "Payments": [
        {
          "Checks": true
        },
        {
          "Credit cards": true
        },
        {
          "Debit cards": true
        },
        {
          "NFC mobile payments": true
        },
        {
          "Credit cards": true
        }
      ],
      "Parking": [
        {
          "On-site parking": true
        }
      ]
    },
    "gasPrices": [],
    "url": "https://www.google.com/maps/search/?api=1&query=Drug%20Emporium%20Lafayette&query_place_id=ChIJF1xJMECcJIYRM_HJGpcBUdI",
    "searchPageUrl": "https://www.google.com/maps/search/independent%20pharmacy%20Lafayette%20LA/@0.7385981862251749,-176.61788845,13z?hl=en",
    "searchString": "independent pharmacy Lafayette LA",
    "language": "en",
    "rank": 14,
    "isAdvertisement": false,
    "imageUrl": "https://lh3.googleusercontent.com/p/AF1QipPMCuyQMbYAJFjj6mbGEBb8r4Dv-legicbdmE3F=w408-h342-k-no",
    "kgmid": "/g/1tg6kxp6",
    "classification": "chain",
    "is_independent": false,
    "is_compounding": false,
    "confidence": 0.85,
    "source": "perplexity",
    "method": "llm"
  },
  {
    "title": "Super 1 Foods Pharmacy",
    "price": null,
    "categoryName": "Pharmacy",
    "address": "215 W Willow St, Lafayette, LA 70501",
    "neighborhood": null,
    "street": "215 W Willow St",
    "city": "Lafayette",
    "postalCode": "70501",
    "state": "Louisiana",
    "countryCode": "US",
    "website": "https://brookshiresgrocery.web.medrefill.com/bgweb/#/home",
    "phone": "(337) 572-9053",
    "phoneUnformatted": "+13375729053",
    "claimThisBusiness": false,
    "location": {
      "lat": 30.2438773,
      "lng": -92.0161107
    },
    "totalScore": 4,
    "permanentlyClosed": false,
    "temporarilyClosed": false,
    "placeId": null,
    "categories": [
      "Pharmacy"
    ],
    "fid": "0x86249b64e71ce48d:0xf72e067ae222f04",
    "cid": "1113198793821662980",
    "reviewsCount": 4,
    "imagesCount": 1,
    "imageCategories": [],
    "scrapedAt": "2025-06-22T05:25:59.498Z",
    "googleFoodUrl": null,
    "hotelAds": [],
    "openingHours": [
      {
        "day": "Monday",
        "hours": "9\u202fAM to 6\u202fPM"
      },
      {
        "day": "Tuesday",
        "hours": "9\u202fAM to 6\u202fPM"
      },
      {
        "day": "Wednesday",
        "hours": "9\u202fAM to 6\u202fPM"
      },
      {
        "day": "Thursday",
        "hours": "9\u202fAM to 6\u202fPM"
      },
      {
        "day": "Friday",
        "hours": "9\u202fAM to 6\u202fPM"
      },
      {
        "day": "Saturday",
        "hours": "10\u202fAM to 2\u202fPM"
      },
      {
        "day": "Sunday",
        "hours": "Closed"
      }
    ],
    "peopleAlsoSearch": [],
    "placesTags": [],
    "reviewsTags": [],
    "additionalInfo": {
      "Service options": [
        {
          "In-store pickup": true
        },
        {
          "In-store shopping": true
        }
      ],
      "Accessibility": [
        {
          "Wheelchair accessible entrance": true
        },
        {
          "Wheelchair accessible parking lot": true
        }
      ],
      "Amenities": [
        {
          "Wi-Fi": true
        },
        {
          "Free Wi-Fi": true
        }
      ],
      "Planning": [
        {
          "Quick visit": true
        }
      ],
      "Payments": [
        {
          "Checks": true
        },
        {
          "Credit cards": true
        },
        {
          "Debit cards": true
        },
        {
          "NFC mobile payments": true
        },
        {
          "Credit cards": true
        }
      ]
    },
    "gasPrices": [],
    "url": "https://www.google.com/maps/search/?api=1&query=Super%201%20Foods%20Pharmacy&query_place_id=ChIJjeQc52SbJIYRBC8irmfgcg8",
    "searchPageUrl": "https://www.google.com/maps/search/independent%20pharmacy%20Lafayette%20LA/@0.7385981862251749,-176.61788845,13z?hl=en",
    "searchString": "independent pharmacy Lafayette LA",
    "language": "en",
    "rank": 15,
    "isAdvertisement": false,
    "imageUrl": "https://streetviewpixels-pa.googleapis.com/v1/thumbnail?panoid=tMBe5N4-O9KeRf0DeDk97A&cb_client=search.gws-prod.gps&w=408&h=240&yaw=281.7002&pitch=0&thumbfov=100",
    "kgmid": "/g/1tj3lfpz",
    "classification": "chain",
    "is_independent": false,
    "is_compounding": false,
    "confidence": 0.95,
    "source": "perplexity",
    "method": "llm"
  },
  {
    "title": "Cashway Pharmacy",
    "price": null,
    "categoryName": "Pharmacy",
    "address": "5900 Cameron St SUITE 100, Scott, LA 70583",
    "neighborhood": null,
    "street": "5900 Cameron St SUITE 100",
    "city": "Scott",
    "postalCode": "70583",
    "state": "Louisiana",
    "countryCode": "US",
    "website": "https://cashwayinscott.com/",
    "phone": "(337) 233-3382",
    "phoneUnformatted": "+13372333382",
    "claimThisBusiness": true,
    "location": {
      "lat": 30.2337671,
      "lng": -92.095495
    },
    "totalScore": 4.6,
    "permanentlyClosed": false,
    "temporarilyClosed": false,
    "placeId": null,
    "categories": [
      "Pharmacy"
    ],
    "fid": "0x86249ecd5b279c4f:0x7eac55f96ccde0dc",
    "cid": "9127765074533802204",
    "reviewsCount": 50,
    "imagesCount": 1,
    "imageCategories": [],
    "scrapedAt": "2025-06-22T05:25:59.498Z",
    "googleFoodUrl": null,
    "hotelAds": [],
    "openingHours": [
      {
        "day": "Monday",
        "hours": "7\u202fAM to 6\u202fPM"
      },
      {
        "day": "Tuesday",
        "hours": "7\u202fAM to 6\u202fPM"
      },
      {
        "day": "Wednesday",
        "hours": "7\u202fAM to 6\u202fPM"
      },
      {
        "day": "Thursday",
        "hours": "7\u202fAM to 6\u202fPM"
      },
      {
        "day": "Friday",
        "hours": "7\u202fAM to 6\u202fPM"
      },
      {
        "day": "Saturday",
        "hours": "7\u202fAM to 12\u202fPM"
      },
      {
        "day": "Sunday",
        "hours": "Closed"
      }
    ],
    "peopleAlsoSearch": [],
    "placesTags": [],
    "reviewsTags": [],
    "additionalInfo": {
      "Service options": [
        {
          "Delivery": true
        },
        {
          "In-store pickup": true
        },
        {
          "Same-day delivery": true
        }
      ],
      "Accessibility": [
        {
          "Wheelchair accessible entrance": true
        },
        {
          "Wheelchair accessible parking lot": true
        }
      ],
      "Planning": [
        {
          "Quick visit": true
        }
      ],
      "Payments": [
        {
          "Credit cards": true
        },
        {
          "Debit cards": true
        },
        {
          "NFC mobile payments": true
        },
        {
          "Credit cards": true
        }
      ]
    },
    "gasPrices": [],
    "url": "https://www.google.com/maps/search/?api=1&query=Cashway%20Pharmacy&query_place_id=ChIJT5wnW82eJIYR3ODNbPlVrH4",
    "searchPageUrl": "https://www.google.com/maps/search/independent%20pharmacy%20Lafayette%20LA/@0.7385981862251749,-176.61788845,13z?hl=en",
    "searchString": "independent pharmacy Lafayette LA",
    "language": "en",
    "rank": 16,
    "isAdvertisement": false,
    "imageUrl": "https://streetviewpixels-pa.googleapis.com/v1/thumbnail?panoid=K_pRtQpIwOCgRoSnbW5vEw&cb_client=search.gws-prod.gps&w=408&h=240&yaw=348.232&pitch=0&thumbfov=100",
    "kgmid": "/g/1tfzs8jy",
    "classification": "independent",
    "is_independent": true,
    "is_compounding": false,
    "confidence": 0.9,
    "source": "perplexity",
    "method": "llm"
  },
  {
    "title": "CVS Pharmacy",
    "price": null,
    "categoryName": "Pharmacy",
    "address": "1920 Kaliste Saloom Rd, Lafayette, LA 70508",
    "neighborhood": "River Ranch",
    "street": "1920 Kaliste Saloom Rd",
    "city": "Lafayette",
    "postalCode": "70508",
    "state": "Louisiana",
    "countryCode": "US",
    "website": "https://www.cvs.com/store-locator/lafayette-la-pharmacies/1920-kaliste-saloom-lafayette-la-70508/storeid=5443?WT.mc_id=LS_GOOGLE_RX_5443",
    "phone": "(337) 984-1092",
    "phoneUnformatted": "+13379841092",
    "claimThisBusiness": false,
    "location": {
      "lat": 30.1680089,
      "lng": -92.0362739
    },
    "totalScore": 3.8,
    "permanentlyClosed": false,
    "temporarilyClosed": false,
    "placeId": null,
    "categories": [
      "Pharmacy"
    ],
    "fid": "0x86249da2c6baf713:0x268db07ebd48ae16",
    "cid": "2778070603545488918",
    "reviewsCount": 41,
    "imagesCount": 8,
    "imageCategories": [],
    "scrapedAt": "2025-06-22T05:25:59.498Z",
    "googleFoodUrl": null,
    "hotelAds": [],
    "openingHours": [
      {
        "day": "Monday",
        "hours": "12\u202fAM to 1:30\u202fPM, 2\u202fPM to 12\u202fAM"
      },
      {
        "day": "Tuesday",
        "hours": "12\u202fAM to 1:30\u202fPM, 2\u202fPM to 12\u202fAM"
      },
      {
        "day": "Wednesday",
        "hours": "12\u202fAM to 1:30\u202fPM, 2\u202fPM to 12\u202fAM"
      },
      {
        "day": "Thursday",
        "hours": "12\u202fAM to 1:30\u202fPM, 2\u202fPM to 12\u202fAM"
      },
      {
        "day": "Friday",
        "hours": "12\u202fAM to 1:30\u202fPM, 2\u202fPM to 12\u202fAM"
      },
      {
        "day": "Saturday",
        "hours": "12\u202fAM to 1:30\u202fPM, 2\u202fPM to 12\u202fAM"
      },
      {
        "day": "Sunday",
        "hours": "12\u202fAM to 1:30\u202fPM, 2\u202fPM to 12\u202fAM"
      }
    ],
    "peopleAlsoSearch": [],
    "placesTags": [],
    "reviewsTags": [],
    "additionalInfo": {
      "Service options": [
        {
          "Delivery": true
        },
        {
          "Drive-through": true
        },
        {
          "In-store pickup": true
        },
        {
          "In-store shopping": true
        },
        {
          "Onsite services": true
        }
      ],
      "Accessibility": [
        {
          "Wheelchair accessible entrance": true
        },
        {
          "Wheelchair accessible parking lot": true
        }
      ],
      "Offerings": [
        {
          "Medication disposal": true
        },
        {
          "Naloxone": true
        },
        {
          "Passport photos": true
        }
      ],
      "Crowd": [
        {
          "LGBTQ+ friendly": true
        },
        {
          "Transgender safespace": true
        }
      ],
      "Planning": [
        {
          "Quick visit": true
        }
      ],
      "Payments": [
        {
          "Credit cards": true
        },
        {
          "Debit cards": true
        },
        {
          "NFC mobile payments": true
        },
        {
          "SNAP/EBT": true
        },
        {
          "Credit cards": true
        }
      ]
    },
    "gasPrices": [],
    "url": "https://www.google.com/maps/search/?api=1&query=CVS%20Pharmacy&query_place_id=ChIJE_e6xqKdJIYRFq5IvX6wjSY",
    "searchPageUrl": "https://www.google.com/maps/search/independent%20pharmacy%20Lafayette%20LA/@0.7385981862251749,-176.61788845,13z?hl=en",
    "searchString": "independent pharmacy Lafayette LA",
    "language": "en",
    "rank": 17,
    "isAdvertisement": false,
    "imageUrl": "https://lh3.googleusercontent.com/p/AF1QipNe-9km5okQm729K0RGVU-SYszuTSLJgQGf7hYW=w408-h272-k-no",
    "kgmid": "/g/11c4675ch2",
    "classification": "chain",
    "is_independent": false,
    "is_compounding": false,
    "confidence": 0.99,
    "source": "perplexity",
    "method": "llm"
  },
  {
    "title": "CVS Pharmacy",
    "price": null,
    "categoryName": "Pharmacy",
    "address": "3225 Louisiana Ave, Lafayette, LA 70501",
    "neighborhood": null,
    "street": "3225 Louisiana Ave",
    "city": "Lafayette",
    "postalCode": "70501",
    "state": "Louisiana",
    "countryCode": "US",
    "website": "https://www.cvs.com/store-locator/lafayette-la-pharmacies/3225-louisiana-ave-lafayette-la-70501/storeid=17441?WT.mc_id=LS_GOOGLE_RX_17441",
    "phone": "(337) 769-7516",
    "phoneUnformatted": "+13377697516",
    "claimThisBusiness": false,
    "location": {
      "lat": 30.265523,
      "lng": -91.9965876
    },
    "totalScore": 4.1,
    "permanentlyClosed": false,
    "temporarilyClosed": false,
    "placeId": null,
    "categories": [
      "Pharmacy"
    ],
    "fid": "0x86249b30c87add75:0xa4a2f6828c7a5290",
    "cid": "11863315409010315920",
    "reviewsCount": 14,
    "imagesCount": 6,
    "imageCategories": [],
    "scrapedAt": "2025-06-22T05:25:59.498Z",
    "googleFoodUrl": null,
    "hotelAds": [],
    "openingHours": [
      {
        "day": "Monday",
        "hours": "9\u202fAM to 1:30\u202fPM, 2 to 7\u202fPM"
      },
      {
        "day": "Tuesday",
        "hours": "9\u202fAM to 1:30\u202fPM, 2 to 7\u202fPM"
      },
      {
        "day": "Wednesday",
        "hours": "9\u202fAM to 1:30\u202fPM, 2 to 7\u202fPM"
      },
      {
        "day": "Thursday",
        "hours": "9\u202fAM to 1:30\u202fPM, 2 to 7\u202fPM"
      },
      {
        "day": "Friday",
        "hours": "9\u202fAM to 1:30\u202fPM, 2 to 7\u202fPM"
      },
      {
        "day": "Saturday",
        "hours": "9\u202fAM to 1:30\u202fPM, 2 to 5\u202fPM"
      },
      {
        "day": "Sunday",
        "hours": "11\u202fAM to 1:30\u202fPM, 2 to 5\u202fPM"
      }
    ],
    "peopleAlsoSearch": [],
    "placesTags": [],
    "reviewsTags": [],
    "additionalInfo": {
      "Service options": [
        {
          "Delivery": true
        },
        {
          "In-store shopping": true
        },
        {
          "Onsite services": true
        }
      ],
      "Accessibility": [
        {
          "Wheelchair accessible entrance": true
        },
        {
          "Wheelchair accessible parking lot": true
        }
      ],
      "Offerings": [
        {
          "Naloxone": true
        }
      ],
      "Crowd": [
        {
          "LGBTQ+ friendly": true
        },
        {
          "Transgender safespace": true
        }
      ],
      "Planning": [
        {
          "Quick visit": true
        }
      ],
      "Payments": [
        {
          "Credit cards": true
        },
        {
          "Debit cards": true
        },
        {
          "Credit cards": true
        }
      ]
    },
    "gasPrices": [],
    "url": "https://www.google.com/maps/search/?api=1&query=CVS%20Pharmacy&query_place_id=ChIJdd16yDCbJIYRkFJ6jIL2oqQ",
    "searchPageUrl": "https://www.google.com/maps/search/independent%20pharmacy%20Lafayette%20LA/@0.7385981862251749,-176.61788845,13z?hl=en",
    "searchString": "independent pharmacy Lafayette LA",
    "language": "en",
    "rank": 18,
    "isAdvertisement": false,
    "imageUrl": "https://lh3.googleusercontent.com/p/AF1QipP0don9GTIuzlEmyvgpzCd0ATrCf7ExrwA8UiW3=w408-h272-k-no",
    "kgmid": "/g/1hc3n084r",
    "classification": "chain",
    "is_independent": false,
    "is_compounding": false,
    "confidence": 1.0,
    "source": "perplexity",
    "method": "llm"
  },
  {
    "title": "CVS Pharmacy",
    "price": null,
    "categoryName": "Pharmacy",
    "address": "705 Bertrand Dr, Lafayette, LA 70506",
    "neighborhood": null,
    "street": "705 Bertrand Dr",
    "city": "Lafayette",
    "postalCode": "70506",
    "state": "Louisiana",
    "countryCode": "US",
    "website": "https://www.cvs.com/store-locator/lafayette-la-pharmacies/705-bertrand-dr-lafayette-la-70506/storeid=5284?WT.mc_id=LS_GOOGLE_RX_5284",
    "phone": "(337) 232-7380",
    "phoneUnformatted": "+13372327380",
    "claimThisBusiness": false,
    "location": {
      "lat": 30.214135,
      "lng": -92.0471903
    },
    "totalScore": 1.3,
    "permanentlyClosed": false,
    "temporarilyClosed": false,
    "placeId": null,
    "categories": [
      "Pharmacy"
    ],
    "fid": "0x86249c1533e54ca7:0xbb4419d0005f1cd4",
    "cid": "13493938764658973908",
    "reviewsCount": 7,
    "imagesCount": 24,
    "imageCategories": [],
    "scrapedAt": "2025-06-22T05:25:59.498Z",
    "googleFoodUrl": null,
    "hotelAds": [],
    "openingHours": [
      {
        "day": "Monday",
        "hours": "9\u202fAM to 1:30\u202fPM, 2 to 7\u202fPM"
      },
      {
        "day": "Tuesday",
        "hours": "9\u202fAM to 1:30\u202fPM, 2 to 7\u202fPM"
      },
      {
        "day": "Wednesday",
        "hours": "9\u202fAM to 1:30\u202fPM, 2 to 7\u202fPM"
      },
      {
        "day": "Thursday",
        "hours": "9\u202fAM to 1:30\u202fPM, 2 to 7\u202fPM"
      },
      {
        "day": "Friday",
        "hours": "9\u202fAM to 1:30\u202fPM, 2 to 7\u202fPM"
      },
      {
        "day": "Saturday",
        "hours": "10\u202fAM to 1:30\u202fPM, 2 to 6\u202fPM"
      },
      {
        "day": "Sunday",
        "hours": "10\u202fAM to 1:30\u202fPM, 2 to 6\u202fPM"
      }
    ],
    "peopleAlsoSearch": [],
    "placesTags": [],
    "reviewsTags": [],
    "additionalInfo": {
      "Service options": [
        {
          "Delivery": true
        },
        {
          "Drive-through": true
        },
        {
          "In-store pickup": true
        },
        {
          "In-store shopping": true
        }
      ],
      "Accessibility": [
        {
          "Wheelchair accessible entrance": true
        },
        {
          "Wheelchair accessible parking lot": true
        }
      ],
      "Offerings": [
        {
          "Naloxone": true
        },
        {
          "Passport photos": true
        }
      ],
      "Crowd": [
        {
          "LGBTQ+ friendly": true
        },
        {
          "Transgender safespace": true
        }
      ],
      "Planning": [
        {
          "Quick visit": true
        }
      ],
      "Payments": [
        {
          "Credit cards": true
        },
        {
          "Debit cards": true
        },
        {
          "NFC mobile payments": true
        },
        {
          "SNAP/EBT": true
        },
        {
          "Credit cards": true
        }
      ]
    },
    "gasPrices": [],
    "url": "https://www.google.com/maps/search/?api=1&query=CVS%20Pharmacy&query_place_id=ChIJp0zlMxWcJIYR1BxfANAZRLs",
    "searchPageUrl": "https://www.google.com/maps/search/independent%20pharmacy%20Lafayette%20LA/@0.7385981862251749,-176.61788845,13z?hl=en",
    "searchString": "independent pharmacy Lafayette LA",
    "language": "en",
    "rank": 19,
    "isAdvertisement": false,
    "imageUrl": "https://lh3.googleusercontent.com/p/AF1QipNEIJCAL7fHg16Ifq1IbNQ0TcY5NVzNeXJJ8qn5=w408-h272-k-no",
    "kgmid": "/g/11c475c4n5",
    "classification": "chain",
    "is_independent": false,
    "is_compounding": false,
    "confidence": 1.0,
    "source": "perplexity",
    "method": "llm"
  },
  {
    "title": "Warren J. Guidry, PD",
    "price": null,
    "categoryName": "Pharmacy",
    "address": "620 Jefferson Blvd, Lafayette, LA 70501",
    "neighborhood": null,
    "street": "620 Jefferson Blvd",
    "city": "Lafayette",
    "postalCode": "70501",
    "state": "Louisiana",
    "countryCode": "US",
    "phone": "(337) 234-1428",
    "phoneUnformatted": "+13372341428",
    "claimThisBusiness": true,
    "location": {
      "lat": 30.2296774,
      "lng": -92.0094764
    },
    "permanentlyClosed": false,
    "temporarilyClosed": false,
    "placeId": null,
    "categories": [
      "Pharmacy"
    ],
    "fid": "0x86249c98ce631afb:0x5ca5010eb2f84042",
    "cid": "6675743185290412098",
    "reviewsCount": 0,
    "imagesCount": 1,
    "imageCategories": [],
    "scrapedAt": "2025-06-22T05:25:59.498Z",
    "googleFoodUrl": null,
    "hotelAds": [],
    "openingHours": [
      {
        "day": "Monday",
        "hours": "9\u202fAM to 5:30\u202fPM"
      },
      {
        "day": "Tuesday",
        "hours": "9\u202fAM to 5:30\u202fPM"
      },
      {
        "day": "Wednesday",
        "hours": "9\u202fAM to 5:30\u202fPM"
      },
      {
        "day": "Thursday",
        "hours": "9\u202fAM to 5:30\u202fPM"
      },
      {
        "day": "Friday",
        "hours": "9\u202fAM to 5:30\u202fPM"
      },
      {
        "day": "Saturday",
        "hours": "Closed"
      },
      {
        "day": "Sunday",
        "hours": "Closed"
      }
    ],
    "peopleAlsoSearch": [],
    "placesTags": [],
    "reviewsTags": [],
    "additionalInfo": {
      "Accessibility": [
        {
          "Wheelchair accessible entrance": true
        },
        {
          "Wheelchair accessible parking lot": true
        }
      ],
      "Planning": [
        {
          "Quick visit": true
        }
      ],
      "Payments": [
        {
          "Credit cards": true
        }
      ]
    },
    "gasPrices": [],
    "url": "https://www.google.com/maps/search/?api=1&query=Warren%20J.%20Guidry%2C%20PD&query_place_id=ChIJ-xpjzpicJIYRQkD4sg4BpVw",
    "searchPageUrl": "https://www.google.com/maps/search/independent%20pharmacy%20Lafayette%20LA/@0.7385981862251749,-176.61788845,13z?hl=en",
    "searchString": "independent pharmacy Lafayette LA",
    "language": "en",
    "rank": 20,
    "isAdvertisement": false,
    "imageUrl": "https://streetviewpixels-pa.googleapis.com/v1/thumbnail?panoid=1fFNkhpyBOkYfwzxMF1LVA&cb_client=search.gws-prod.gps&w=408&h=240&yaw=158.63182&pitch=0&thumbfov=100",
    "kgmid": "/g/1tg5cgjz",
    "classification": "independent",
    "is_independent": true,
    "is_compounding": false,
    "confidence": 0.85,
    "source": "perplexity",
    "method": "llm"
  }
]