[
  {
    "title": "Saveway Compounding Pharmacy",
    "price": null,
    "categoryName": "Pharmacy",
    "address": "31 Albe Dr # 1, Newark, DE 19702",
    "neighborhood": null,
    "street": "31 Albe Dr # 1",
    "city": "Newark",
    "postalCode": "19702",
    "state": "Delaware",
    "countryCode": "US",
    "website": "https://www.savewaypharmacy.com/",
    "phone": "(302) 369-5520",
    "phoneUnformatted": "+13023695520",
    "claimThisBusiness": false,
    "location": {
      "lat": 39.6490992,
      "lng": -75.7144791
    },
    "totalScore": 4.3,
    "permanentlyClosed": false,
    "temporarilyClosed": false,
    "placeId": null,
    "categories": [
      "Pharmacy",
      "Notary public"
    ],
    "fid": "0x89c7a9e1d481268f:0xcb92843f5c8329c6",
    "cid": "14668932343969032646",
    "reviewsCount": 77,
    "imagesCount": 7,
    "imageCategories": [],
    "scrapedAt": "2025-06-22T07:29:20.946Z",
    "googleFoodUrl": null,
    "hotelAds": [],
    "openingHours": [
      {
        "day": "Monday",
        "hours": "9\u202fAM to 6\u202fPM"
      },
      {
        "day": "Tuesday",
        "hours": "9\u202fAM to 6\u202fPM"
      },
      {
        "day": "Wednesday",
        "hours": "9\u202fAM to 6\u202fPM"
      },
      {
        "day": "Thursday",
        "hours": "9\u202fAM to 6\u202fPM"
      },
      {
        "day": "Friday",
        "hours": "9\u202fAM to 6\u202fPM"
      },
      {
        "day": "Saturday",
        "hours": "Closed"
      },
      {
        "day": "Sunday",
        "hours": "Closed"
      }
    ],
    "peopleAlsoSearch": [],
    "placesTags": [],
    "reviewsTags": [],
    "additionalInfo": {
      "From the business": [
        {
          "Small business": true
        }
      ],
      "Service options": [
        {
          "Delivery": true
        },
        {
          "In-store pickup": true
        },
        {
          "In-store shopping": true
        }
      ],
      "Accessibility": [
        {
          "Wheelchair accessible entrance": true
        },
        {
          "Wheelchair accessible parking lot": true
        }
      ],
      "Payments": [
        {
          "Checks": true
        },
        {
          "Credit cards": true
        },
        {
          "Debit cards": true
        },
        {
          "Credit cards": true
        }
      ]
    },
    "gasPrices": [],
    "url": "https://www.google.com/maps/search/?api=1&query=Saveway%20Compounding%20Pharmacy&query_place_id=ChIJjyaB1OGpx4kRximDXD-Ekss",
    "searchPageUrl": "https://www.google.com/maps/search/independent%20pharmacy%20Newark%20DE/@55.584301372022004,-157.4754430303149,13z?hl=en",
    "searchString": "independent pharmacy Newark DE",
    "language": "en",
    "rank": 1,
    "isAdvertisement": false,
    "imageUrl": "https://lh3.googleusercontent.com/p/AF1QipOhouj-FG4nwToNgWb7dlLJxn43E27twXehTFg8=w443-h240-k-no",
    "kgmid": "/g/1trrf4xb",
    "classification": "independent",
    "is_independent": true,
    "is_compounding": true,
    "confidence": 0.95,
    "source": "perplexity",
    "method": "llm"
  },
  {
    "title": "Metro Pharmacy Inc",
    "price": null,
    "categoryName": "Pharmacy",
    "address": "620 Stanton Christiana Rd, Newark, DE 19713",
    "neighborhood": null,
    "street": "620 Stanton Christiana Rd",
    "city": "Newark",
    "postalCode": "19713",
    "state": "Delaware",
    "countryCode": "US",
    "phone": "(302) 407-5895",
    "phoneUnformatted": "+13024075895",
    "claimThisBusiness": false,
    "location": {
      "lat": 39.7023104,
      "lng": -75.6504348
    },
    "totalScore": 4.8,
    "permanentlyClosed": false,
    "temporarilyClosed": false,
    "placeId": null,
    "categories": [
      "Pharmacy"
    ],
    "fid": "0x89c701a14a6e2eef:0x3dea0caeccc4085f",
    "cid": "4461392325763139679",
    "reviewsCount": 34,
    "imagesCount": 1,
    "imageCategories": [],
    "scrapedAt": "2025-06-22T07:29:20.947Z",
    "googleFoodUrl": null,
    "hotelAds": [],
    "openingHours": [
      {
        "day": "Monday",
        "hours": "8\u202fAM to 5:30\u202fPM"
      },
      {
        "day": "Tuesday",
        "hours": "8\u202fAM to 5:30\u202fPM"
      },
      {
        "day": "Wednesday",
        "hours": "8\u202fAM to 5:30\u202fPM"
      },
      {
        "day": "Thursday",
        "hours": "8\u202fAM to 5:30\u202fPM"
      },
      {
        "day": "Friday",
        "hours": "8\u202fAM to 5:30\u202fPM"
      },
      {
        "day": "Saturday",
        "hours": "Closed"
      },
      {
        "day": "Sunday",
        "hours": "Closed"
      }
    ],
    "peopleAlsoSearch": [],
    "placesTags": [],
    "reviewsTags": [],
    "additionalInfo": {
      "From the business": [
        {
          "Small business": true
        }
      ],
      "Service options": [
        {
          "Delivery": true
        },
        {
          "In-store pickup": true
        },
        {
          "In-store shopping": true
        }
      ],
      "Accessibility": [
        {
          "Wheelchair accessible entrance": true
        },
        {
          "Wheelchair accessible parking lot": true
        }
      ],
      "Payments": [
        {
          "Credit cards": true
        },
        {
          "Debit cards": true
        },
        {
          "NFC mobile payments": true
        },
        {
          "Credit cards": true
        }
      ]
    },
    "gasPrices": [],
    "url": "https://www.google.com/maps/search/?api=1&query=Metro%20Pharmacy%20Inc&query_place_id=ChIJ7y5uSqEBx4kRXwjEzK4M6j0",
    "searchPageUrl": "https://www.google.com/maps/search/independent%20pharmacy%20Newark%20DE/@55.584301372022004,-157.4754430303149,13z?hl=en",
    "searchString": "independent pharmacy Newark DE",
    "language": "en",
    "rank": 2,
    "isAdvertisement": false,
    "imageUrl": "https://streetviewpixels-pa.googleapis.com/v1/thumbnail?panoid=I1FW6uZt_BsB8Iyajjf9TQ&cb_client=search.gws-prod.gps&w=408&h=240&yaw=113.10121&pitch=0&thumbfov=100",
    "kgmid": "/g/11bw5_9gg3",
    "classification": "independent",
    "is_independent": true,
    "is_compounding": false,
    "confidence": 0.85,
    "source": "perplexity",
    "method": "llm"
  },
  {
    "title": "Delaware Apothecary by Apotheco Pharmacy",
    "price": null,
    "categoryName": "Pharmacy",
    "address": "1215 Churchmans Rd Suite 1200, Newark, DE 19713",
    "neighborhood": null,
    "street": "1215 Churchmans Rd Suite 1200",
    "city": "Newark",
    "postalCode": "19713",
    "state": "Delaware",
    "countryCode": "US",
    "website": "https://www.apothecopharmacy.com/location/apotheco-pharmacy-delaware/?utm_source=GMBlisting&utm_medium=organic",
    "phone": "(302) 789-9750",
    "phoneUnformatted": "+13027899750",
    "claimThisBusiness": false,
    "location": {
      "lat": 39.6903981,
      "lng": -75.6598113
    },
    "totalScore": 4.8,
    "permanentlyClosed": false,
    "temporarilyClosed": false,
    "placeId": null,
    "categories": [
      "Pharmacy",
      "Wellness center"
    ],
    "fid": "0x89c7012511660691:0xfcc91ac4e595c51",
    "cid": "1138444975052774481",
    "reviewsCount": 467,
    "imagesCount": 10,
    "imageCategories": [],
    "scrapedAt": "2025-06-22T07:29:20.948Z",
    "googleFoodUrl": null,
    "hotelAds": [],
    "openingHours": [
      {
        "day": "Monday",
        "hours": "9\u202fAM to 5\u202fPM"
      },
      {
        "day": "Tuesday",
        "hours": "9\u202fAM to 5\u202fPM"
      },
      {
        "day": "Wednesday",
        "hours": "9\u202fAM to 5\u202fPM"
      },
      {
        "day": "Thursday",
        "hours": "9\u202fAM to 5\u202fPM"
      },
      {
        "day": "Friday",
        "hours": "9\u202fAM to 5\u202fPM"
      },
      {
        "day": "Saturday",
        "hours": "Closed"
      },
      {
        "day": "Sunday",
        "hours": "Closed"
      }
    ],
    "peopleAlsoSearch": [],
    "placesTags": [],
    "reviewsTags": [],
    "additionalInfo": {
      "Service options": [
        {
          "Delivery": true
        },
        {
          "In-store pickup": true
        },
        {
          "In-store shopping": true
        },
        {
          "Same-day delivery": true
        }
      ],
      "Accessibility": [
        {
          "Wheelchair accessible entrance": true
        },
        {
          "Wheelchair accessible parking lot": true
        }
      ],
      "Payments": [
        {
          "Credit cards": true
        },
        {
          "Debit cards": true
        },
        {
          "NFC mobile payments": true
        },
        {
          "Credit cards": true
        }
      ]
    },
    "gasPrices": [],
    "url": "https://www.google.com/maps/search/?api=1&query=Delaware%20Apothecary%20by%20Apotheco%20Pharmacy&query_place_id=ChIJkQZmESUBx4kRUVxZTqyRzA8",
    "searchPageUrl": "https://www.google.com/maps/search/independent%20pharmacy%20Newark%20DE/@55.584301372022004,-157.4754430303149,13z?hl=en",
    "searchString": "independent pharmacy Newark DE",
    "language": "en",
    "rank": 3,
    "isAdvertisement": false,
    "imageUrl": "https://lh3.googleusercontent.com/p/AF1QipP5wWMFZblzKYNVijZPO8bZB2hNVLeLsZB6EhqA=w408-h272-k-no",
    "kgmid": "/g/11fkv02fvj",
    "classification": "independent",
    "is_independent": true,
    "is_compounding": false,
    "confidence": 0.9,
    "source": "perplexity",
    "method": "llm"
  },
  {
    "title": "Clover Pharmacy & Wellness",
    "price": null,
    "categoryName": "Pharmacy",
    "address": "6170 Thornton Ave Suite E, Newark, CA 94560",
    "neighborhood": null,
    "street": "6170 Thornton Ave Suite E",
    "city": "Newark",
    "postalCode": "94560",
    "state": "California",
    "countryCode": "US",
    "website": "http://www.clover-pharmacy.com/",
    "phone": "(510) 961-1288",
    "phoneUnformatted": "+15109611288",
    "claimThisBusiness": false,
    "location": {
      "lat": 37.5358815,
      "lng": -122.0310285
    },
    "totalScore": 4.7,
    "permanentlyClosed": false,
    "temporarilyClosed": false,
    "placeId": null,
    "categories": [
      "Pharmacy",
      "Drug store",
      "Medical laboratory",
      "Medical supply store",
      "Vitamin & supplements store"
    ],
    "fid": "0x808fbf1b3dbdd433:0x161d94fc9a2917f6",
    "cid": "1593593655798077430",
    "reviewsCount": 34,
    "imagesCount": 27,
    "imageCategories": [],
    "scrapedAt": "2025-06-22T07:29:20.948Z",
    "googleFoodUrl": null,
    "hotelAds": [],
    "openingHours": [
      {
        "day": "Monday",
        "hours": "9:30\u202fAM to 5\u202fPM"
      },
      {
        "day": "Tuesday",
        "hours": "9:30\u202fAM to 5\u202fPM"
      },
      {
        "day": "Wednesday",
        "hours": "9:30\u202fAM to 5\u202fPM"
      },
      {
        "day": "Thursday",
        "hours": "9:30\u202fAM to 5\u202fPM"
      },
      {
        "day": "Friday",
        "hours": "9:30\u202fAM to 5\u202fPM"
      },
      {
        "day": "Saturday",
        "hours": "Closed"
      },
      {
        "day": "Sunday",
        "hours": "Closed"
      }
    ],
    "peopleAlsoSearch": [],
    "placesTags": [],
    "reviewsTags": [],
    "additionalInfo": {
      "From the business": [
        {
          "Identifies as women-owned": true
        }
      ],
      "Service options": [
        {
          "Delivery": true
        },
        {
          "In-store pickup": true
        },
        {
          "In-store shopping": true
        },
        {
          "Onsite services": true
        },
        {
          "Cantonese": true
        }
      ],
      "Accessibility": [
        {
          "Wheelchair accessible entrance": true
        },
        {
          "Wheelchair accessible parking lot": true
        },
        {
          "Wheelchair accessible restroom": false
        },
        {
          "Wheelchair accessible seating": false
        }
      ],
      "Crowd": [
        {
          "LGBTQ+ friendly": true
        }
      ],
      "Planning": [
        {
          "Quick visit": true
        }
      ],
      "Payments": [
        {
          "Credit cards": true
        },
        {
          "Debit cards": true
        },
        {
          "NFC mobile payments": true
        },
        {
          "Credit cards": true
        }
      ]
    },
    "gasPrices": [],
    "url": "https://www.google.com/maps/search/?api=1&query=Clover%20Pharmacy%20%26%20Wellness&query_place_id=ChIJM9S9PRu_j4AR9hcpmvyUHRY",
    "searchPageUrl": "https://www.google.com/maps/search/independent%20pharmacy%20Newark%20DE/@55.584301372022004,-157.4754430303149,13z?hl=en",
    "searchString": "independent pharmacy Newark DE",
    "language": "en",
    "rank": 4,
    "isAdvertisement": false,
    "imageUrl": "https://lh3.googleusercontent.com/p/AF1QipO7xpCsJA0k7V-d1NJWLEjwAOraJ7Pm6gIcZ4s4=w408-h272-k-no",
    "kgmid": "/g/1tgb__wh",
    "classification": "independent",
    "is_independent": true,
    "is_compounding": false,
    "confidence": 0.85,
    "source": "perplexity",
    "method": "llm"
  },
  {
    "title": "GLASGOW PHARMACY",
    "price": null,
    "categoryName": "Pharmacy",
    "address": "3625 Wrangle Hill Rd, Bear, DE 19701",
    "neighborhood": null,
    "street": "3625 Wrangle Hill Rd",
    "city": "Bear",
    "postalCode": "19701",
    "state": "Delaware",
    "countryCode": "US",
    "website": "https://www.glasgowpharmacy.com/",
    "phone": "(302) 838-8700",
    "phoneUnformatted": "+13028388700",
    "claimThisBusiness": false,
    "location": {
      "lat": 39.5842459,
      "lng": -75.6836412
    },
    "totalScore": 3.9,
    "permanentlyClosed": false,
    "temporarilyClosed": false,
    "placeId": null,
    "categories": [
      "Pharmacy",
      "Chemical manufacturer"
    ],
    "fid": "0x89c7a871db95614b:0x8d36aaf9fcc76209",
    "cid": "10175508398754718217",
    "reviewsCount": 26,
    "imagesCount": 2,
    "imageCategories": [],
    "scrapedAt": "2025-06-22T07:29:20.948Z",
    "googleFoodUrl": null,
    "hotelAds": [],
    "openingHours": [
      {
        "day": "Monday",
        "hours": "9\u202fAM to 6\u202fPM"
      },
      {
        "day": "Tuesday",
        "hours": "9\u202fAM to 6\u202fPM"
      },
      {
        "day": "Wednesday",
        "hours": "9\u202fAM to 6\u202fPM"
      },
      {
        "day": "Thursday",
        "hours": "9\u202fAM to 6\u202fPM"
      },
      {
        "day": "Friday",
        "hours": "9\u202fAM to 6\u202fPM"
      },
      {
        "day": "Saturday",
        "hours": "Closed"
      },
      {
        "day": "Sunday",
        "hours": "Closed"
      }
    ],
    "peopleAlsoSearch": [],
    "placesTags": [],
    "reviewsTags": [],
    "additionalInfo": {
      "From the business": [
        {
          "Small business": true
        }
      ],
      "Service options": [
        {
          "Delivery": true
        },
        {
          "In-store pickup": true
        },
        {
          "In-store shopping": true
        }
      ],
      "Accessibility": [
        {
          "Wheelchair accessible entrance": true
        },
        {
          "Wheelchair accessible parking lot": true
        }
      ],
      "Planning": [
        {
          "Quick visit": true
        }
      ],
      "Payments": [
        {
          "Credit cards": true
        },
        {
          "Debit cards": true
        },
        {
          "NFC mobile payments": true
        },
        {
          "Credit cards": true
        }
      ]
    },
    "gasPrices": [],
    "url": "https://www.google.com/maps/search/?api=1&query=GLASGOW%20PHARMACY&query_place_id=ChIJS2GV23Gox4kRCWLH_PmqNo0",
    "searchPageUrl": "https://www.google.com/maps/search/independent%20pharmacy%20Newark%20DE/@55.584301372022004,-157.4754430303149,13z?hl=en",
    "searchString": "independent pharmacy Newark DE",
    "language": "en",
    "rank": 5,
    "isAdvertisement": false,
    "imageUrl": "https://lh3.googleusercontent.com/p/AF1QipNz3lq-vZrgsUiwGQ_QTyzNmeb9W4pEp72Tull_=w427-h240-k-no",
    "kgmid": "/g/11g69hb093",
    "classification": "independent",
    "is_independent": true,
    "is_compounding": false,
    "confidence": 0.9,
    "source": "perplexity",
    "method": "llm"
  },
  {
    "title": "Prices Corner Pharmacy",
    "price": null,
    "categoryName": "Pharmacy",
    "address": "3311 Old Capitol Trl Suite B, Wilmington, DE 19808",
    "neighborhood": null,
    "street": "3311 Old Capitol Trl Suite B",
    "city": "Wilmington",
    "postalCode": "19808",
    "state": "Delaware",
    "countryCode": "US",
    "website": "https://www.pricescornerpharmacy.com/",
    "phone": "(302) 668-1470",
    "phoneUnformatted": "+13026681470",
    "claimThisBusiness": false,
    "location": {
      "lat": 39.7333124,
      "lng": -75.6259347
    },
    "totalScore": 5,
    "permanentlyClosed": false,
    "temporarilyClosed": false,
    "placeId": null,
    "categories": [
      "Pharmacy"
    ],
    "fid": "0x89c7010829361335:0xa05b2b39372b87a",
    "cid": "722179799605491834",
    "reviewsCount": 83,
    "imagesCount": 21,
    "imageCategories": [],
    "scrapedAt": "2025-06-22T07:29:20.948Z",
    "googleFoodUrl": null,
    "hotelAds": [],
    "openingHours": [
      {
        "day": "Monday",
        "hours": "9\u202fAM to 6\u202fPM"
      },
      {
        "day": "Tuesday",
        "hours": "9\u202fAM to 6\u202fPM"
      },
      {
        "day": "Wednesday",
        "hours": "9\u202fAM to 6\u202fPM"
      },
      {
        "day": "Thursday",
        "hours": "9\u202fAM to 6\u202fPM"
      },
      {
        "day": "Friday",
        "hours": "9\u202fAM to 6\u202fPM"
      },
      {
        "day": "Saturday",
        "hours": "9\u202fAM to 2\u202fPM"
      },
      {
        "day": "Sunday",
        "hours": "Closed"
      }
    ],
    "peopleAlsoSearch": [],
    "placesTags": [],
    "reviewsTags": [],
    "additionalInfo": {
      "From the business": [
        {
          "Small business": true
        }
      ],
      "Service options": [
        {
          "Delivery": true
        },
        {
          "In-store pickup": true
        },
        {
          "Onsite services": true
        },
        {
          "Same-day delivery": true
        }
      ],
      "Accessibility": [
        {
          "Wheelchair accessible entrance": true
        },
        {
          "Wheelchair accessible parking lot": true
        }
      ],
      "Planning": [
        {
          "Quick visit": true
        }
      ],
      "Payments": [
        {
          "Checks": true
        },
        {
          "Credit cards": true
        },
        {
          "Debit cards": true
        },
        {
          "NFC mobile payments": true
        },
        {
          "Credit cards": true
        }
      ]
    },
    "gasPrices": [],
    "url": "https://www.google.com/maps/search/?api=1&query=Prices%20Corner%20Pharmacy&query_place_id=ChIJNRM2KQgBx4kRerhyk7OyBQo",
    "searchPageUrl": "https://www.google.com/maps/search/independent%20pharmacy%20Newark%20DE/@55.584301372022004,-157.4754430303149,13z?hl=en",
    "searchString": "independent pharmacy Newark DE",
    "language": "en",
    "rank": 6,
    "isAdvertisement": false,
    "imageUrl": "https://lh3.googleusercontent.com/p/AF1QipNIF4mZ2JRKda8oeYRhEJG4SkmpZAPVOm4OrEuX=w408-h306-k-no",
    "kgmid": "/g/11hgsmtv54",
    "classification": "independent",
    "is_independent": true,
    "is_compounding": false,
    "confidence": 0.9,
    "source": "perplexity",
    "method": "llm"
  },
  {
    "title": "CVS Pharmacy",
    "price": null,
    "categoryName": "Pharmacy",
    "address": "366 E Chestnut Hill Rd, Newark, DE 19713",
    "neighborhood": null,
    "street": "366 E Chestnut Hill Rd",
    "city": "Newark",
    "postalCode": "19713",
    "state": "Delaware",
    "countryCode": "US",
    "website": "https://www.cvs.com/store-locator/newark-de-pharmacies/366-e-chestnut-hill-rd-newark-de-19713/storeid=10103?WT.mc_id=LS_GOOGLE_RX_10103",
    "phone": "(302) 368-3246",
    "phoneUnformatted": "+13023683246",
    "claimThisBusiness": false,
    "location": {
      "lat": 39.6630142,
      "lng": -75.727288
    },
    "totalScore": 3.4,
    "permanentlyClosed": false,
    "temporarilyClosed": false,
    "placeId": null,
    "categories": [
      "Pharmacy"
    ],
    "fid": "0x89c7a9f0cb8fa693:0x4d8e4400ece440c7",
    "cid": "5588478958378434759",
    "reviewsCount": 37,
    "imagesCount": 8,
    "imageCategories": [],
    "scrapedAt": "2025-06-22T07:29:20.948Z",
    "googleFoodUrl": null,
    "hotelAds": [],
    "openingHours": [
      {
        "day": "Monday",
        "hours": "8\u202fAM to 1:30\u202fPM, 2 to 8\u202fPM"
      },
      {
        "day": "Tuesday",
        "hours": "8\u202fAM to 1:30\u202fPM, 2 to 8\u202fPM"
      },
      {
        "day": "Wednesday",
        "hours": "8\u202fAM to 1:30\u202fPM, 2 to 8\u202fPM"
      },
      {
        "day": "Thursday",
        "hours": "8\u202fAM to 1:30\u202fPM, 2 to 8\u202fPM"
      },
      {
        "day": "Friday",
        "hours": "8\u202fAM to 1:30\u202fPM, 2 to 8\u202fPM"
      },
      {
        "day": "Saturday",
        "hours": "9\u202fAM to 1:30\u202fPM, 2 to 6\u202fPM"
      },
      {
        "day": "Sunday",
        "hours": "10\u202fAM to 1:30\u202fPM, 2 to 5\u202fPM"
      }
    ],
    "peopleAlsoSearch": [],
    "placesTags": [],
    "reviewsTags": [],
    "additionalInfo": {
      "Service options": [
        {
          "Delivery": true
        },
        {
          "Drive-through": true
        },
        {
          "In-store shopping": true
        },
        {
          "Onsite services": true
        }
      ],
      "Accessibility": [
        {
          "Wheelchair accessible entrance": true
        },
        {
          "Wheelchair accessible parking lot": true
        }
      ],
      "Offerings": [
        {
          "Medication disposal": true
        },
        {
          "Naloxone": true
        },
        {
          "Passport photos": true
        }
      ],
      "Amenities": [
        {
          "Wi-Fi": true
        },
        {
          "Free Wi-Fi": true
        }
      ],
      "Crowd": [
        {
          "LGBTQ+ friendly": true
        },
        {
          "Transgender safespace": true
        }
      ],
      "Planning": [
        {
          "Quick visit": true
        }
      ],
      "Payments": [
        {
          "Credit cards": true
        },
        {
          "Debit cards": true
        },
        {
          "NFC mobile payments": true
        },
        {
          "SNAP/EBT": true
        },
        {
          "Credit cards": true
        }
      ]
    },
    "gasPrices": [],
    "url": "https://www.google.com/maps/search/?api=1&query=CVS%20Pharmacy&query_place_id=ChIJk6aPy_Cpx4kRx0Dk7ABEjk0",
    "searchPageUrl": "https://www.google.com/maps/search/independent%20pharmacy%20Newark%20DE/@55.584301372022004,-157.4754430303149,13z?hl=en",
    "searchString": "independent pharmacy Newark DE",
    "language": "en",
    "rank": 7,
    "isAdvertisement": false,
    "imageUrl": "https://lh3.googleusercontent.com/p/AF1QipMdJfkUlolq7nsvvfFvRfDs7S5_s235Ve-Ghy6C=w408-h272-k-no",
    "kgmid": "/g/11c46885pr",
    "classification": "chain",
    "is_independent": false,
    "is_compounding": false,
    "confidence": 1.0,
    "source": "perplexity",
    "method": "llm"
  },
  {
    "title": "CVS Pharmacy",
    "price": null,
    "categoryName": "Pharmacy",
    "address": "604 Corner Ketch Rd, Newark, DE 19711",
    "neighborhood": null,
    "street": "604 Corner Ketch Rd",
    "city": "Newark",
    "postalCode": "19711",
    "state": "Delaware",
    "countryCode": "US",
    "website": "https://www.cvs.com/store-locator/newark-de-pharmacies/604-corner-ketch-rd-newark-de-19711/storeid=10376?WT.mc_id=LS_GOOGLE_RX_10376",
    "phone": "(302) 235-5509",
    "phoneUnformatted": "+13022355509",
    "claimThisBusiness": false,
    "location": {
      "lat": 39.7403311,
      "lng": -75.7250036
    },
    "totalScore": 4,
    "permanentlyClosed": false,
    "temporarilyClosed": false,
    "placeId": null,
    "categories": [
      "Pharmacy"
    ],
    "fid": "0x89c7abea7609577f:0xb09d29e17e67f11c",
    "cid": "12726374170484011292",
    "reviewsCount": 17,
    "imagesCount": 10,
    "imageCategories": [],
    "scrapedAt": "2025-06-22T07:29:20.948Z",
    "googleFoodUrl": null,
    "hotelAds": [],
    "openingHours": [
      {
        "day": "Monday",
        "hours": "9\u202fAM to 1:30\u202fPM, 2 to 7\u202fPM"
      },
      {
        "day": "Tuesday",
        "hours": "9\u202fAM to 1:30\u202fPM, 2 to 7\u202fPM"
      },
      {
        "day": "Wednesday",
        "hours": "9\u202fAM to 1:30\u202fPM, 2 to 7\u202fPM"
      },
      {
        "day": "Thursday",
        "hours": "9\u202fAM to 1:30\u202fPM, 2 to 7\u202fPM"
      },
      {
        "day": "Friday",
        "hours": "9\u202fAM to 1:30\u202fPM, 2 to 7\u202fPM"
      },
      {
        "day": "Saturday",
        "hours": "10\u202fAM to 1:30\u202fPM, 2 to 6\u202fPM"
      },
      {
        "day": "Sunday",
        "hours": "11\u202fAM to 1:30\u202fPM, 2 to 5\u202fPM"
      }
    ],
    "peopleAlsoSearch": [],
    "placesTags": [],
    "reviewsTags": [],
    "additionalInfo": {
      "Service options": [
        {
          "Delivery": true
        },
        {
          "Drive-through": true
        },
        {
          "In-store pickup": true
        },
        {
          "In-store shopping": true
        },
        {
          "Onsite services": true
        }
      ],
      "Accessibility": [
        {
          "Wheelchair accessible entrance": true
        },
        {
          "Wheelchair accessible parking lot": true
        }
      ],
      "Offerings": [
        {
          "Passport photos": true
        }
      ],
      "Crowd": [
        {
          "LGBTQ+ friendly": true
        },
        {
          "Transgender safespace": true
        }
      ],
      "Planning": [
        {
          "Quick visit": true
        }
      ],
      "Payments": [
        {
          "Credit cards": true
        },
        {
          "Debit cards": true
        },
        {
          "NFC mobile payments": true
        },
        {
          "SNAP/EBT": true
        },
        {
          "Credit cards": true
        }
      ]
    },
    "gasPrices": [],
    "url": "https://www.google.com/maps/search/?api=1&query=CVS%20Pharmacy&query_place_id=ChIJf1cJduqrx4kRHPFnfuEpnbA",
    "searchPageUrl": "https://www.google.com/maps/search/independent%20pharmacy%20Newark%20DE/@55.584301372022004,-157.4754430303149,13z?hl=en",
    "searchString": "independent pharmacy Newark DE",
    "language": "en",
    "rank": 8,
    "isAdvertisement": false,
    "imageUrl": "https://lh3.googleusercontent.com/p/AF1QipPPglbX2yvM-fbi_jfYTJaQHL-CPd6Y3UIAN9y7=w408-h272-k-no",
    "kgmid": "/g/11f77b2g33",
    "classification": "chain",
    "is_independent": false,
    "is_compounding": false,
    "confidence": 1.0,
    "source": "perplexity",
    "method": "llm"
  },
  {
    "title": "ACME Markets Pharmacy",
    "price": "$$",
    "categoryName": "Pharmacy",
    "address": "100 College Sq, Newark, DE 19711",
    "neighborhood": null,
    "street": "100 College Sq",
    "city": "Newark",
    "postalCode": "19711",
    "state": "Delaware",
    "countryCode": "US",
    "website": "https://local.pharmacy.acmemarkets.com/de/newark/100-college-square.html",
    "phone": "(302) 286-0415",
    "phoneUnformatted": "+13022860415",
    "claimThisBusiness": false,
    "location": {
      "lat": 39.6824387,
      "lng": -75.7354056
    },
    "totalScore": 3.1,
    "permanentlyClosed": false,
    "temporarilyClosed": false,
    "placeId": null,
    "categories": [
      "Pharmacy",
      "Drug store",
      "Vitamin & supplements store"
    ],
    "fid": "0x89c7aa1648c34065:0x8c2d6fe1d3fdc8b1",
    "cid": "10100852554976839857",
    "reviewsCount": 18,
    "imagesCount": 6,
    "imageCategories": [],
    "scrapedAt": "2025-06-22T07:29:20.949Z",
    "googleFoodUrl": null,
    "hotelAds": [],
    "openingHours": [
      {
        "day": "Monday",
        "hours": "9\u202fAM to 9\u202fPM"
      },
      {
        "day": "Tuesday",
        "hours": "9\u202fAM to 9\u202fPM"
      },
      {
        "day": "Wednesday",
        "hours": "9\u202fAM to 9\u202fPM"
      },
      {
        "day": "Thursday",
        "hours": "9\u202fAM to 9\u202fPM"
      },
      {
        "day": "Friday",
        "hours": "9\u202fAM to 9\u202fPM"
      },
      {
        "day": "Saturday",
        "hours": "9\u202fAM to 6\u202fPM"
      },
      {
        "day": "Sunday",
        "hours": "9\u202fAM to 4\u202fPM"
      }
    ],
    "peopleAlsoSearch": [],
    "placesTags": [],
    "reviewsTags": [],
    "additionalInfo": {
      "Service options": [
        {
          "Delivery": true
        },
        {
          "In-store pickup": true
        },
        {
          "In-store shopping": true
        },
        {
          "Same-day delivery": true
        }
      ],
      "Accessibility": [
        {
          "Wheelchair accessible entrance": true
        },
        {
          "Wheelchair accessible parking lot": true
        }
      ],
      "Crowd": [
        {
          "LGBTQ+ friendly": true
        }
      ],
      "Planning": [
        {
          "Appointment required": true
        },
        {
          "Quick visit": true
        }
      ],
      "Payments": [
        {
          "Checks": true
        },
        {
          "Debit cards": true
        },
        {
          "NFC mobile payments": true
        },
        {
          "Credit cards": true
        }
      ]
    },
    "gasPrices": [],
    "url": "https://www.google.com/maps/search/?api=1&query=ACME%20Markets%20Pharmacy&query_place_id=ChIJZUDDSBaqx4kRscj90-FvLYw",
    "searchPageUrl": "https://www.google.com/maps/search/independent%20pharmacy%20Newark%20DE/@55.584301372022004,-157.4754430303149,13z?hl=en",
    "searchString": "independent pharmacy Newark DE",
    "language": "en",
    "rank": 9,
    "isAdvertisement": false,
    "imageUrl": "https://lh3.googleusercontent.com/p/AF1QipMjBcn7Ny0B7HpZM055j32IK6eNIvWIT68DslFB=w426-h240-k-no",
    "kgmid": "/g/11gzh8w_v",
    "classification": "chain",
    "is_independent": false,
    "is_compounding": false,
    "confidence": 0.95,
    "source": "perplexity",
    "method": "llm"
  },
  {
    "title": "ACME Markets Pharmacy",
    "price": "$$",
    "categoryName": "Pharmacy",
    "address": "100 Suburban Dr, Newark, DE 19711",
    "neighborhood": null,
    "street": "100 Suburban Dr",
    "city": "Newark",
    "postalCode": "19711",
    "state": "Delaware",
    "countryCode": "US",
    "website": "https://local.pharmacy.acmemarkets.com/de/newark/100-suburban-dr.html",
    "phone": "(302) 453-2335",
    "phoneUnformatted": "+13024532335",
    "claimThisBusiness": false,
    "location": {
      "lat": 39.6680165,
      "lng": -75.7755328
    },
    "totalScore": 4.1,
    "permanentlyClosed": false,
    "temporarilyClosed": false,
    "placeId": null,
    "categories": [
      "Pharmacy",
      "Drug store",
      "Vitamin & supplements store"
    ],
    "fid": "0x89c7a96468633a55:0x537ebab4ee4b0e7e",
    "cid": "6016451438468337278",
    "reviewsCount": 19,
    "imagesCount": 3,
    "imageCategories": [],
    "scrapedAt": "2025-06-22T07:29:20.949Z",
    "googleFoodUrl": null,
    "hotelAds": [],
    "openingHours": [
      {
        "day": "Monday",
        "hours": "9\u202fAM to 2\u202fPM, 2:30 to 8\u202fPM"
      },
      {
        "day": "Tuesday",
        "hours": "9\u202fAM to 2\u202fPM, 2:30 to 8\u202fPM"
      },
      {
        "day": "Wednesday",
        "hours": "9\u202fAM to 2\u202fPM, 2:30 to 8\u202fPM"
      },
      {
        "day": "Thursday",
        "hours": "9\u202fAM to 2\u202fPM, 2:30 to 8\u202fPM"
      },
      {
        "day": "Friday",
        "hours": "9\u202fAM to 2\u202fPM, 2:30 to 8\u202fPM"
      },
      {
        "day": "Saturday",
        "hours": "9\u202fAM to 5\u202fPM"
      },
      {
        "day": "Sunday",
        "hours": "9\u202fAM to 4\u202fPM"
      }
    ],
    "peopleAlsoSearch": [],
    "placesTags": [],
    "reviewsTags": [],
    "additionalInfo": {
      "Service options": [
        {
          "Delivery": true
        },
        {
          "In-store pickup": true
        },
        {
          "In-store shopping": true
        },
        {
          "Same-day delivery": true
        }
      ],
      "Accessibility": [
        {
          "Wheelchair accessible entrance": true
        },
        {
          "Wheelchair accessible parking lot": true
        }
      ],
      "Crowd": [
        {
          "LGBTQ+ friendly": true
        }
      ],
      "Planning": [
        {
          "Appointment required": true
        },
        {
          "Quick visit": true
        }
      ],
      "Payments": [
        {
          "Checks": true
        },
        {
          "Debit cards": true
        },
        {
          "Credit cards": true
        }
      ]
    },
    "gasPrices": [],
    "url": "https://www.google.com/maps/search/?api=1&query=ACME%20Markets%20Pharmacy&query_place_id=ChIJVTpjaGSpx4kRfg5L7rS6flM",
    "searchPageUrl": "https://www.google.com/maps/search/independent%20pharmacy%20Newark%20DE/@55.584301372022004,-157.4754430303149,13z?hl=en",
    "searchString": "independent pharmacy Newark DE",
    "language": "en",
    "rank": 10,
    "isAdvertisement": false,
    "imageUrl": "https://lh3.googleusercontent.com/p/AF1QipOLMuhYaK01VImXzqKfdSWdNL29W4q4SLGYp0Gf=w427-h240-k-no",
    "kgmid": "/g/11ckkt13l9",
    "classification": "chain",
    "is_independent": false,
    "is_compounding": false,
    "confidence": 0.95,
    "source": "perplexity",
    "method": "llm"
  },
  {
    "title": "CVS Pharmacy",
    "price": null,
    "categoryName": "Pharmacy",
    "address": "45 E Main St, Newark, DE 19711",
    "neighborhood": null,
    "street": "45 E Main St",
    "city": "Newark",
    "postalCode": "19711",
    "state": "Delaware",
    "countryCode": "US",
    "website": "https://www.cvs.com/store-locator/newark-de-pharmacies/45-east-main-st-newark-de-19711/storeid=11472?WT.mc_id=LS_GOOGLE_RX_11472",
    "phone": "(302) 533-3537",
    "phoneUnformatted": "+13025333537",
    "claimThisBusiness": false,
    "location": {
      "lat": 39.6828943,
      "lng": -75.7516615
    },
    "totalScore": 3.8,
    "permanentlyClosed": false,
    "temporarilyClosed": false,
    "placeId": null,
    "categories": [
      "Pharmacy"
    ],
    "fid": "0x89c7abcb5715ef1f:0xe5b11081919a61c3",
    "cid": "16551028254242922947",
    "reviewsCount": 4,
    "imagesCount": 8,
    "imageCategories": [],
    "scrapedAt": "2025-06-22T07:29:20.949Z",
    "googleFoodUrl": null,
    "hotelAds": [],
    "openingHours": [
      {
        "day": "Monday",
        "hours": "9\u202fAM to 1:30\u202fPM, 2 to 7\u202fPM"
      },
      {
        "day": "Tuesday",
        "hours": "9\u202fAM to 1:30\u202fPM, 2 to 7\u202fPM"
      },
      {
        "day": "Wednesday",
        "hours": "9\u202fAM to 1:30\u202fPM, 2 to 7\u202fPM"
      },
      {
        "day": "Thursday",
        "hours": "9\u202fAM to 1:30\u202fPM, 2 to 7\u202fPM"
      },
      {
        "day": "Friday",
        "hours": "9\u202fAM to 1:30\u202fPM, 2 to 7\u202fPM"
      },
      {
        "day": "Saturday",
        "hours": "10\u202fAM to 1:30\u202fPM, 2 to 4\u202fPM"
      },
      {
        "day": "Sunday",
        "hours": "10\u202fAM to 1:30\u202fPM, 2 to 4\u202fPM"
      }
    ],
    "peopleAlsoSearch": [],
    "placesTags": [],
    "reviewsTags": [],
    "additionalInfo": {
      "Service options": [
        {
          "Delivery": true
        },
        {
          "In-store shopping": true
        },
        {
          "Onsite services": true
        }
      ],
      "Accessibility": [
        {
          "Wheelchair accessible entrance": true
        },
        {
          "Wheelchair accessible parking lot": true
        }
      ],
      "Crowd": [
        {
          "LGBTQ+ friendly": true
        },
        {
          "Transgender safespace": true
        }
      ],
      "Planning": [
        {
          "Quick visit": true
        }
      ],
      "Payments": [
        {
          "Credit cards": true
        },
        {
          "Debit cards": true
        },
        {
          "NFC mobile payments": true
        },
        {
          "SNAP/EBT": true
        },
        {
          "Credit cards": true
        }
      ]
    },
    "gasPrices": [],
    "url": "https://www.google.com/maps/search/?api=1&query=CVS%20Pharmacy&query_place_id=ChIJH-8VV8urx4kRw2GakYEQseU",
    "searchPageUrl": "https://www.google.com/maps/search/independent%20pharmacy%20Newark%20DE/@55.584301372022004,-157.4754430303149,13z?hl=en",
    "searchString": "independent pharmacy Newark DE",
    "language": "en",
    "rank": 11,
    "isAdvertisement": false,
    "imageUrl": "https://lh3.googleusercontent.com/p/AF1QipOVP7WIVOOg7JGoczFIVzwxI2oA5-WTUD8aoz22=w408-h272-k-no",
    "kgmid": "/g/11q98hltzk",
    "classification": "chain",
    "is_independent": false,
    "is_compounding": false,
    "confidence": 1.0,
    "source": "perplexity",
    "method": "llm"
  },
  {
    "title": "ChristianaCare Retail Pharmacy at Christiana Hospital",
    "price": null,
    "categoryName": "Pharmacy",
    "address": "4755 Ogletown Stanton Rd, Newark, DE 19718",
    "neighborhood": null,
    "street": "4755 Ogletown Stanton Rd",
    "city": "Newark",
    "postalCode": "19718",
    "state": "Delaware",
    "countryCode": "US",
    "website": "https://www.christianacare.org/pharmacy",
    "phone": "(302) 733-2182",
    "phoneUnformatted": "+13027332182",
    "claimThisBusiness": false,
    "location": {
      "lat": 39.6882208,
      "lng": -75.6696022
    },
    "totalScore": 2.8,
    "permanentlyClosed": false,
    "temporarilyClosed": false,
    "placeId": null,
    "categories": [
      "Pharmacy"
    ],
    "fid": "0x89c700e235764d31:0x8e8cbdfbd734098d",
    "cid": "10271793739470211469",
    "reviewsCount": 22,
    "imagesCount": 3,
    "imageCategories": [],
    "scrapedAt": "2025-06-22T07:29:20.949Z",
    "googleFoodUrl": null,
    "hotelAds": [],
    "openingHours": [
      {
        "day": "Monday",
        "hours": "8\u202fAM to 8\u202fPM"
      },
      {
        "day": "Tuesday",
        "hours": "8\u202fAM to 8\u202fPM"
      },
      {
        "day": "Wednesday",
        "hours": "8\u202fAM to 8\u202fPM"
      },
      {
        "day": "Thursday",
        "hours": "8\u202fAM to 8\u202fPM"
      },
      {
        "day": "Friday",
        "hours": "8\u202fAM to 8\u202fPM"
      },
      {
        "day": "Saturday",
        "hours": "9\u202fAM to 5\u202fPM"
      },
      {
        "day": "Sunday",
        "hours": "9\u202fAM to 5\u202fPM"
      }
    ],
    "peopleAlsoSearch": [],
    "placesTags": [],
    "reviewsTags": [],
    "additionalInfo": {
      "Accessibility": [
        {
          "Wheelchair accessible entrance": true
        },
        {
          "Wheelchair accessible parking lot": true
        }
      ],
      "Payments": [
        {
          "Credit cards": true
        },
        {
          "Debit cards": true
        },
        {
          "NFC mobile payments": true
        },
        {
          "Credit cards": true
        }
      ]
    },
    "gasPrices": [],
    "url": "https://www.google.com/maps/search/?api=1&query=ChristianaCare%20Retail%20Pharmacy%20at%20Christiana%20Hospital&query_place_id=ChIJMU12NeIAx4kRjQk01_u9jI4",
    "searchPageUrl": "https://www.google.com/maps/search/independent%20pharmacy%20Newark%20DE/@55.584301372022004,-157.4754430303149,13z?hl=en",
    "searchString": "independent pharmacy Newark DE",
    "language": "en",
    "rank": 12,
    "isAdvertisement": false,
    "imageUrl": "https://lh3.googleusercontent.com/gps-cs-s/AC9h4nqJKDP8AJhMTstLCfwo-lxMeKlarJ2OWSbntafjbVrSfF1dGjDdFT3Eman67cQ5_Vk0p0q3pb-VR2Pw4mmyXDdnMDkvIAf6UXnl1gtbh6s3rCpCMDyvT2VLd8UX7UQh8FS00T7Y=w408-h544-k-no",
    "kgmid": "/g/1q6jcltyf",
    "classification": "independent",
    "is_independent": true,
    "is_compounding": false,
    "confidence": 0.85,
    "source": "perplexity",
    "method": "llm"
  },
  {
    "title": "Walgreens Pharmacy",
    "description": "Department of the Walgreens chain providing prescription medications & other health-related items.",
    "price": "$$",
    "categoryName": "Pharmacy",
    "address": "216 Suburban Dr, Newark, DE 19711",
    "neighborhood": null,
    "street": "216 Suburban Dr",
    "city": "Newark",
    "postalCode": "19711",
    "state": "Delaware",
    "countryCode": "US",
    "website": "https://www.walgreens.com/locator/walgreens-216+suburban+dr-newark-de-19711/id=11028",
    "phone": "(302) 456-6760",
    "phoneUnformatted": "+13024566760",
    "claimThisBusiness": false,
    "location": {
      "lat": 39.6685523,
      "lng": -75.7766198
    },
    "totalScore": 3.2,
    "permanentlyClosed": false,
    "temporarilyClosed": false,
    "placeId": null,
    "categories": [
      "Pharmacy"
    ],
    "fid": "0x89c7a9668f50b42f:0x6f8de573bba2fe85",
    "cid": "8038333195158224517",
    "reviewsCount": 9,
    "imagesCount": 4,
    "imageCategories": [],
    "scrapedAt": "2025-06-22T07:29:20.949Z",
    "googleFoodUrl": null,
    "hotelAds": [],
    "openingHours": [
      {
        "day": "Monday",
        "hours": "9:30\u202fAM to 1:30\u202fPM, 2 to 6\u202fPM"
      },
      {
        "day": "Tuesday",
        "hours": "9:30\u202fAM to 1:30\u202fPM, 2 to 6\u202fPM"
      },
      {
        "day": "Wednesday",
        "hours": "9:30\u202fAM to 1:30\u202fPM, 2 to 6\u202fPM"
      },
      {
        "day": "Thursday",
        "hours": "9:30\u202fAM to 1:30\u202fPM, 2 to 6\u202fPM"
      },
      {
        "day": "Friday",
        "hours": "9:30\u202fAM to 1:30\u202fPM, 2 to 6\u202fPM"
      },
      {
        "day": "Saturday",
        "hours": "Closed"
      },
      {
        "day": "Sunday",
        "hours": "Closed"
      }
    ],
    "additionalOpeningHours": {
      "Drive through": [
        {
          "day": "Monday",
          "hours": "9:30\u202fAM\u20131:30\u202fPM"
        },
        {
          "day": "Tuesday",
          "hours": "9:30\u202fAM\u20131:30\u202fPM"
        },
        {
          "day": "Wednesday",
          "hours": "9:30\u202fAM\u20131:30\u202fPM"
        },
        {
          "day": "Thursday",
          "hours": "9:30\u202fAM\u20131:30\u202fPM"
        },
        {
          "day": "Friday",
          "hours": "9:30\u202fAM\u20131:30\u202fPM"
        },
        {
          "day": "Saturday",
          "hours": "Closed"
        },
        {
          "day": "Sunday",
          "hours": "Closed"
        }
      ]
    },
    "peopleAlsoSearch": [],
    "placesTags": [],
    "reviewsTags": [],
    "additionalInfo": {
      "Service options": [
        {
          "Delivery": true
        },
        {
          "Drive-through": true
        },
        {
          "In-store pickup": true
        }
      ],
      "Accessibility": [
        {
          "Wheelchair accessible entrance": true
        },
        {
          "Wheelchair accessible parking lot": true
        }
      ],
      "Offerings": [
        {
          "Medication disposal": true
        },
        {
          "Naloxone": true
        }
      ],
      "Planning": [
        {
          "Quick visit": true
        }
      ],
      "Payments": [
        {
          "Checks": true
        },
        {
          "Credit cards": true
        },
        {
          "Debit cards": true
        }
      ]
    },
    "gasPrices": [],
    "url": "https://www.google.com/maps/search/?api=1&query=Walgreens%20Pharmacy&query_place_id=ChIJL7RQj2apx4kRhf6iu3PljW8",
    "searchPageUrl": "https://www.google.com/maps/search/independent%20pharmacy%20Newark%20DE/@55.584301372022004,-157.4754430303149,13z?hl=en",
    "searchString": "independent pharmacy Newark DE",
    "language": "en",
    "rank": 13,
    "isAdvertisement": false,
    "imageUrl": "https://lh3.googleusercontent.com/gps-cs-s/AC9h4nrc1wm2F3dLYxNKnHeKcrkaQryqoonKkL0MRN0-EIVsLQnB9SD87ArI8ZyflOsO_mR5jyhvKbnGlKi4OX-tumA2813WIcJbVhjOsuQ9so1TEdnIonFYY4gzCdWcxrrwlxJhTMCZaQ=w426-h240-k-no",
    "kgmid": "/g/11cn95lgnw",
    "classification": "chain",
    "is_independent": false,
    "is_compounding": false,
    "confidence": 1.0,
    "source": "perplexity",
    "method": "llm"
  },
  {
    "title": "Rite Aid Pharmacy",
    "price": "$$",
    "categoryName": "Pharmacy",
    "address": "400 Peoples Plaza, Newark, DE 19702",
    "neighborhood": null,
    "street": "400 Peoples Plaza",
    "city": "Newark",
    "postalCode": "19702",
    "state": "Delaware",
    "countryCode": "US",
    "website": "https://www.riteaid.com/locations/de/newark/400-peoples-plaza.html",
    "phone": "(302) 834-0532",
    "phoneUnformatted": "+13028340532",
    "claimThisBusiness": false,
    "location": {
      "lat": 39.6024665,
      "lng": -75.7452798
    },
    "totalScore": 3.9,
    "permanentlyClosed": false,
    "temporarilyClosed": true,
    "placeId": null,
    "categories": [
      "Pharmacy"
    ],
    "fid": "0x89c7a86edaf72af7:0xbd975ca8b2114822",
    "cid": "13661489874263427106",
    "reviewsCount": 48,
    "imagesCount": 16,
    "imageCategories": [],
    "scrapedAt": "2025-06-22T07:29:20.949Z",
    "googleFoodUrl": null,
    "hotelAds": [],
    "openingHours": [],
    "additionalOpeningHours": {
      "Drive through": [
        {
          "day": "Monday",
          "hours": "9\u202fAM\u20138\u202fPM"
        },
        {
          "day": "Tuesday",
          "hours": "9\u202fAM\u20138\u202fPM"
        },
        {
          "day": "Wednesday",
          "hours": "9\u202fAM\u20138\u202fPM"
        },
        {
          "day": "Thursday",
          "hours": "9\u202fAM\u20138\u202fPM"
        },
        {
          "day": "Friday",
          "hours": "9\u202fAM\u20138\u202fPM"
        },
        {
          "day": "Saturday",
          "hours": "9\u202fAM\u20136\u202fPM"
        },
        {
          "day": "Sunday",
          "hours": "10\u202fAM\u20136\u202fPM"
        }
      ]
    },
    "peopleAlsoSearch": [],
    "placesTags": [],
    "reviewsTags": [],
    "additionalInfo": {
      "Service options": [
        {
          "Delivery": true
        },
        {
          "In-store pickup": true
        }
      ],
      "Accessibility": [
        {
          "Wheelchair accessible parking lot": true
        }
      ],
      "Offerings": [
        {
          "Naloxone": true
        }
      ],
      "Planning": [
        {
          "Quick visit": true
        }
      ],
      "Payments": [
        {
          "Checks": true
        },
        {
          "Credit cards": true
        },
        {
          "Debit cards": true
        },
        {
          "NFC mobile payments": true
        },
        {
          "SNAP/EBT": true
        },
        {
          "Credit cards": true
        }
      ]
    },
    "gasPrices": [],
    "url": "https://www.google.com/maps/search/?api=1&query=Rite%20Aid%20Pharmacy&query_place_id=ChIJ9yr32m6ox4kRIkgRsqhcl70",
    "searchPageUrl": "https://www.google.com/maps/search/independent%20pharmacy%20Newark%20DE/@55.584301372022004,-157.4754430303149,13z?hl=en",
    "searchString": "independent pharmacy Newark DE",
    "language": "en",
    "rank": 14,
    "isAdvertisement": false,
    "imageUrl": "https://lh3.googleusercontent.com/p/AF1QipNYljZgy4wV7ITed9h2UiWTEgtY3C7nmIwjwtGX=w408-h406-k-no",
    "kgmid": "/g/1tl9njjj",
    "classification": "chain",
    "is_independent": false,
    "is_compounding": false,
    "confidence": 1.0,
    "source": "perplexity",
    "method": "llm"
  },
  {
    "title": "Penn Pharmacy",
    "price": null,
    "categoryName": "Pharmacy",
    "address": "95 Ferry St, Newark, NJ 07105",
    "neighborhood": "Ironbound",
    "street": "95 Ferry St",
    "city": "Newark",
    "postalCode": "07105",
    "state": "New Jersey",
    "countryCode": "US",
    "website": "https://www.pennrxnj.com/",
    "phone": "(973) 732-9181",
    "phoneUnformatted": "+19737329181",
    "claimThisBusiness": false,
    "location": {
      "lat": 40.7308073,
      "lng": -74.1613977
    },
    "totalScore": 5,
    "permanentlyClosed": false,
    "temporarilyClosed": false,
    "placeId": null,
    "categories": [
      "Pharmacy"
    ],
    "fid": "0x89c253e3fecb724d:0xa90d76dc510808f8",
    "cid": "12181523255731423480",
    "reviewsCount": 182,
    "imagesCount": 13,
    "imageCategories": [],
    "scrapedAt": "2025-06-22T07:29:21.069Z",
    "googleFoodUrl": null,
    "hotelAds": [],
    "openingHours": [
      {
        "day": "Monday",
        "hours": "9\u202fAM to 7\u202fPM"
      },
      {
        "day": "Tuesday",
        "hours": "9\u202fAM to 7\u202fPM"
      },
      {
        "day": "Wednesday",
        "hours": "9\u202fAM to 7\u202fPM"
      },
      {
        "day": "Thursday",
        "hours": "9\u202fAM to 7\u202fPM"
      },
      {
        "day": "Friday",
        "hours": "9\u202fAM to 7\u202fPM"
      },
      {
        "day": "Saturday",
        "hours": "9\u202fAM to 7\u202fPM"
      },
      {
        "day": "Sunday",
        "hours": "Closed"
      }
    ],
    "additionalOpeningHours": {
      "Delivery": [
        {
          "day": "Monday",
          "hours": "9\u202fAM\u20135\u202fPM"
        },
        {
          "day": "Tuesday",
          "hours": "9\u202fAM\u20135\u202fPM"
        },
        {
          "day": "Wednesday",
          "hours": "9\u202fAM\u20135\u202fPM"
        },
        {
          "day": "Thursday",
          "hours": "9\u202fAM\u20135\u202fPM"
        },
        {
          "day": "Friday",
          "hours": "9\u202fAM\u20135\u202fPM"
        },
        {
          "day": "Saturday",
          "hours": "Closed"
        },
        {
          "day": "Sunday",
          "hours": "Closed"
        }
      ]
    },
    "peopleAlsoSearch": [],
    "placesTags": [],
    "reviewsTags": [],
    "additionalInfo": {
      "From the business": [
        {
          "Small business": true
        }
      ],
      "Service options": [
        {
          "Delivery": true
        }
      ],
      "Payments": [
        {
          "Credit cards": true
        },
        {
          "Debit cards": true
        },
        {
          "NFC mobile payments": true
        },
        {
          "Credit cards": true
        }
      ]
    },
    "gasPrices": [],
    "url": "https://www.google.com/maps/search/?api=1&query=Penn%20Pharmacy&query_place_id=ChIJTXLL_uNTwokR-AgIUdx2Dak",
    "searchPageUrl": "https://www.google.com/maps/search/independent%20pharmacy%20Newark%20DE/@60.5810187217634,-172.4041423571576,12z?hl=en",
    "searchString": "independent pharmacy Newark DE",
    "language": "en",
    "rank": 13,
    "isAdvertisement": false,
    "imageUrl": "https://lh3.googleusercontent.com/p/AF1QipMy9edggYpI4sdWUXOUw69FFTVx5XWgm5tp9Vig=w408-h306-k-no",
    "kgmid": "/g/11jt2g_wth",
    "classification": "independent",
    "is_independent": true,
    "is_compounding": false,
    "confidence": 0.9,
    "source": "perplexity",
    "method": "llm"
  },
  {
    "title": "Liss Pharmacy",
    "price": null,
    "categoryName": "Pharmacy",
    "address": "794 Mt Prospect Ave, Newark, NJ 07104",
    "neighborhood": "Forest Hill",
    "street": "794 Mt Prospect Ave",
    "city": "Newark",
    "postalCode": "07104",
    "state": "New Jersey",
    "countryCode": "US",
    "website": "http://www.lisspharmacy.com/",
    "phone": "(973) 483-4749",
    "phoneUnformatted": "+19734834749",
    "claimThisBusiness": false,
    "location": {
      "lat": 40.7793581,
      "lng": -74.1641281
    },
    "totalScore": 4.1,
    "permanentlyClosed": false,
    "temporarilyClosed": false,
    "placeId": null,
    "categories": [
      "Pharmacy",
      "Drug store",
      "Medical equipment supplier",
      "Surgical supply store"
    ],
    "fid": "0x89c2545341f13817:0x57d02ceb245812e5",
    "cid": "6327606864894235365",
    "reviewsCount": 90,
    "imagesCount": 77,
    "imageCategories": [],
    "scrapedAt": "2025-06-22T07:29:21.069Z",
    "googleFoodUrl": null,
    "hotelAds": [],
    "openingHours": [
      {
        "day": "Monday",
        "hours": "9\u202fAM to 7\u202fPM"
      },
      {
        "day": "Tuesday",
        "hours": "9\u202fAM to 7\u202fPM"
      },
      {
        "day": "Wednesday",
        "hours": "9\u202fAM to 7\u202fPM"
      },
      {
        "day": "Thursday",
        "hours": "9\u202fAM to 7\u202fPM"
      },
      {
        "day": "Friday",
        "hours": "9\u202fAM to 7\u202fPM"
      },
      {
        "day": "Saturday",
        "hours": "9\u202fAM to 4\u202fPM"
      },
      {
        "day": "Sunday",
        "hours": "9\u202fAM to 2\u202fPM"
      }
    ],
    "peopleAlsoSearch": [],
    "placesTags": [],
    "reviewsTags": [],
    "additionalInfo": {
      "From the business": [
        {
          "Small business": true
        }
      ],
      "Service options": [
        {
          "Delivery": true
        },
        {
          "In-store pickup": true
        },
        {
          "In-store shopping": true
        },
        {
          "Onsite services": true
        },
        {
          "Same-day delivery": true
        }
      ],
      "Accessibility": [
        {
          "Wheelchair accessible entrance": true
        },
        {
          "Wheelchair accessible parking lot": true
        }
      ],
      "Planning": [
        {
          "Quick visit": true
        }
      ],
      "Payments": [
        {
          "Credit cards": true
        },
        {
          "Debit cards": true
        },
        {
          "NFC mobile payments": true
        },
        {
          "Credit cards": true
        }
      ]
    },
    "gasPrices": [],
    "url": "https://www.google.com/maps/search/?api=1&query=Liss%20Pharmacy&query_place_id=ChIJFzjxQVNUwokR5RJYJOss0Fc",
    "searchPageUrl": "https://www.google.com/maps/search/independent%20pharmacy%20Newark%20DE/@60.5810187217634,-172.4041423571576,12z?hl=en",
    "searchString": "independent pharmacy Newark DE",
    "language": "en",
    "rank": 14,
    "isAdvertisement": false,
    "imageUrl": "https://lh3.googleusercontent.com/p/AF1QipMk270q8_r8xrFbElA8Jl_OxctQteIY8rpla60a=w408-h264-k-no",
    "kgmid": "/g/1tp_79c2",
    "classification": "independent",
    "is_independent": true,
    "is_compounding": false,
    "confidence": 0.9,
    "source": "perplexity",
    "method": "llm"
  },
  {
    "title": "Fourth Avenue Pharmacy",
    "price": null,
    "categoryName": "Pharmacy",
    "address": "329 Roseville Ave, Newark, NJ 07107",
    "neighborhood": "Upper Roseville",
    "street": "329 Roseville Ave",
    "city": "Newark",
    "postalCode": "07107",
    "state": "New Jersey",
    "countryCode": "US",
    "website": "http://www.fourthavepharmacy.com/",
    "phone": "(973) 483-3872",
    "phoneUnformatted": "+19734833872",
    "claimThisBusiness": false,
    "location": {
      "lat": 40.7621402,
      "lng": -74.1874258
    },
    "totalScore": 4.1,
    "permanentlyClosed": false,
    "temporarilyClosed": false,
    "placeId": null,
    "categories": [
      "Pharmacy",
      "Drug store",
      "Notary public",
      "Vitamin & supplements store"
    ],
    "fid": "0x89c25493716a13ff:0xc1494d19012863c2",
    "cid": "13927748092408914882",
    "reviewsCount": 28,
    "imagesCount": 6,
    "imageCategories": [],
    "scrapedAt": "2025-06-22T07:29:22.810Z",
    "googleFoodUrl": null,
    "hotelAds": [],
    "openingHours": [
      {
        "day": "Monday",
        "hours": "9\u202fAM to 6\u202fPM"
      },
      {
        "day": "Tuesday",
        "hours": "9\u202fAM to 6\u202fPM"
      },
      {
        "day": "Wednesday",
        "hours": "9\u202fAM to 6\u202fPM"
      },
      {
        "day": "Thursday",
        "hours": "9\u202fAM to 6\u202fPM"
      },
      {
        "day": "Friday",
        "hours": "9\u202fAM to 6\u202fPM"
      },
      {
        "day": "Saturday",
        "hours": "9\u202fAM to 3\u202fPM"
      },
      {
        "day": "Sunday",
        "hours": "Closed"
      }
    ],
    "peopleAlsoSearch": [],
    "placesTags": [],
    "reviewsTags": [],
    "additionalInfo": {
      "From the business": [
        {
          "Small business": true
        }
      ],
      "Service options": [
        {
          "Delivery": true
        },
        {
          "In-store pickup": true
        },
        {
          "Same-day delivery": true
        }
      ],
      "Planning": [
        {
          "Quick visit": true
        }
      ],
      "Payments": [
        {
          "Credit cards": true
        },
        {
          "Debit cards": true
        },
        {
          "NFC mobile payments": true
        },
        {
          "Credit cards": true
        }
      ]
    },
    "gasPrices": [],
    "url": "https://www.google.com/maps/search/?api=1&query=Fourth%20Avenue%20Pharmacy&query_place_id=ChIJ_xNqcZNUwokRwmMoARlNScE",
    "searchPageUrl": "https://www.google.com/maps/search/independent%20pharmacy%20Newark%20DE/@69.21166763186608,-153.11051097135197,9z?hl=en",
    "searchString": "independent pharmacy Newark DE",
    "language": "en",
    "rank": 7,
    "isAdvertisement": false,
    "imageUrl": "https://lh3.googleusercontent.com/p/AF1QipPHsZHaD1HtDjGygiVuuTzQQwXqGTDBBGbdwsfi=w408-h306-k-no",
    "kgmid": "/g/1tr7dq20",
    "classification": "independent",
    "is_independent": true,
    "is_compounding": false,
    "confidence": 0.9,
    "source": "perplexity",
    "method": "llm"
  },
  {
    "title": "Gateway Pharmacy",
    "price": null,
    "categoryName": "Pharmacy",
    "address": "1 Gateway Ctr C125, Newark, NJ 07102",
    "neighborhood": "Central Ward",
    "street": "1 Gateway Ctr C125",
    "city": "Newark",
    "postalCode": "07102",
    "state": "New Jersey",
    "countryCode": "US",
    "website": "http://www.pharmacynewark.com/",
    "phone": "(973) 732-6900",
    "phoneUnformatted": "+19737326900",
    "claimThisBusiness": false,
    "location": {
      "lat": 40.7344571,
      "lng": -74.1657213
    },
    "totalScore": 5,
    "permanentlyClosed": false,
    "temporarilyClosed": false,
    "placeId": null,
    "categories": [
      "Pharmacy",
      "Health food store",
      "Herb shop",
      "Natural goods store",
      "Vitamin & supplements store"
    ],
    "fid": "0x89c253838543e53d:0x89aa3d9cdf7d141f",
    "cid": "9919808873210647583",
    "reviewsCount": 80,
    "imagesCount": 6,
    "imageCategories": [],
    "scrapedAt": "2025-06-22T07:29:22.811Z",
    "googleFoodUrl": null,
    "hotelAds": [],
    "openingHours": [
      {
        "day": "Monday",
        "hours": "8:30\u202fAM to 6:30\u202fPM"
      },
      {
        "day": "Tuesday",
        "hours": "8:30\u202fAM to 6:30\u202fPM"
      },
      {
        "day": "Wednesday",
        "hours": "8:30\u202fAM to 6:30\u202fPM"
      },
      {
        "day": "Thursday",
        "hours": "8:30\u202fAM to 6:30\u202fPM"
      },
      {
        "day": "Friday",
        "hours": "8:30\u202fAM to 6:30\u202fPM"
      },
      {
        "day": "Saturday",
        "hours": "Closed"
      },
      {
        "day": "Sunday",
        "hours": "Closed"
      }
    ],
    "peopleAlsoSearch": [],
    "placesTags": [],
    "reviewsTags": [],
    "additionalInfo": {
      "From the business": [
        {
          "Small business": true
        }
      ],
      "Service options": [
        {
          "Delivery": true
        },
        {
          "In-store pickup": true
        },
        {
          "Onsite services": true
        }
      ],
      "Accessibility": [
        {
          "Wheelchair accessible entrance": true
        }
      ],
      "Planning": [
        {
          "Quick visit": true
        }
      ],
      "Payments": [
        {
          "Credit cards": true
        },
        {
          "Debit cards": true
        },
        {
          "NFC mobile payments": true
        },
        {
          "Credit cards": true
        }
      ]
    },
    "gasPrices": [],
    "url": "https://www.google.com/maps/search/?api=1&query=Gateway%20Pharmacy&query_place_id=ChIJPeVDhYNTwokRHxR935w9qok",
    "searchPageUrl": "https://www.google.com/maps/search/independent%20pharmacy%20Newark%20DE/@69.21166763186608,-153.11051097135197,9z?hl=en",
    "searchString": "independent pharmacy Newark DE",
    "language": "en",
    "rank": 10,
    "isAdvertisement": false,
    "imageUrl": "https://lh3.googleusercontent.com/gps-cs-s/AC9h4nr3QZrN3V9OwYq43j3Qs_9gIfN2seFMXXIIqRyo2GDnxQOJYqasr167pM3NpYqMae7M6mlIGTseXNTlCXqRqNCZzW9BTmN8u7PzSohGVOLzmkZtS98u01aGzltWFj8_GoBQH4A=w408-h306-k-no",
    "kgmid": "/g/1pp2txhwt",
    "classification": "independent",
    "is_independent": true,
    "is_compounding": false,
    "confidence": 0.85,
    "source": "perplexity",
    "method": "llm"
  },
  {
    "title": "Newark Veterinary Pharmacy, LLC",
    "price": null,
    "categoryName": "Pharmacy",
    "address": "103 Carson Dr, Bear, DE 19701",
    "neighborhood": null,
    "street": "103 Carson Dr",
    "city": "Bear",
    "postalCode": "19701",
    "state": "Delaware",
    "countryCode": "US",
    "website": "https://newarkveterinarypharmacy.godaddysites.com/",
    "phone": "(866) 436-1794",
    "phoneUnformatted": "+18664361794",
    "claimThisBusiness": false,
    "location": {
      "lat": 39.6089377,
      "lng": -75.6905698
    },
    "totalScore": 5,
    "permanentlyClosed": false,
    "temporarilyClosed": false,
    "placeId": null,
    "categories": [
      "Pharmacy",
      "Pet supply store",
      "Veterinary pharmacy"
    ],
    "fid": "0x89c70704d22537f5:0xed40620febb25770",
    "cid": "17095772006016767856",
    "reviewsCount": 1,
    "imagesCount": 2,
    "imageCategories": [],
    "scrapedAt": "2025-06-22T07:29:22.811Z",
    "googleFoodUrl": null,
    "hotelAds": [],
    "openingHours": [
      {
        "day": "Monday",
        "hours": "8\u202fAM to 4\u202fPM"
      },
      {
        "day": "Tuesday",
        "hours": "8\u202fAM to 4\u202fPM"
      },
      {
        "day": "Wednesday",
        "hours": "8\u202fAM to 4\u202fPM"
      },
      {
        "day": "Thursday",
        "hours": "8\u202fAM to 4\u202fPM"
      },
      {
        "day": "Friday",
        "hours": "8\u202fAM to 4\u202fPM"
      },
      {
        "day": "Saturday",
        "hours": "Closed"
      },
      {
        "day": "Sunday",
        "hours": "Closed"
      }
    ],
    "additionalOpeningHours": {
      "Pickup": [
        {
          "day": "Monday",
          "hours": "8\u202fAM\u20134\u202fPM"
        },
        {
          "day": "Tuesday",
          "hours": "8\u202fAM\u20134\u202fPM"
        },
        {
          "day": "Wednesday",
          "hours": "8\u202fAM\u20134\u202fPM"
        },
        {
          "day": "Thursday",
          "hours": "8\u202fAM\u20134\u202fPM"
        },
        {
          "day": "Friday",
          "hours": "8\u202fAM\u20134\u202fPM"
        },
        {
          "day": "Saturday",
          "hours": "Closed"
        },
        {
          "day": "Sunday",
          "hours": "Closed"
        }
      ]
    },
    "peopleAlsoSearch": [],
    "placesTags": [],
    "reviewsTags": [],
    "additionalInfo": {
      "From the business": [
        {
          "Identifies as women-owned": true
        },
        {
          "Small business": true
        }
      ],
      "Accessibility": [
        {
          "Wheelchair accessible entrance": true
        },
        {
          "Wheelchair accessible parking lot": true
        }
      ],
      "Payments": [
        {
          "Checks": true
        },
        {
          "Credit cards": true
        },
        {
          "Debit cards": true
        },
        {
          "Credit cards": true
        }
      ]
    },
    "gasPrices": [],
    "url": "https://www.google.com/maps/search/?api=1&query=Newark%20Veterinary%20Pharmacy%2C%20LLC&query_place_id=ChIJ9Tcl0gQHx4kRcFey6w9iQO0",
    "searchPageUrl": "https://www.google.com/maps/search/independent%20pharmacy%20Newark%20DE/@69.21166763186608,-153.11051097135197,9z?hl=en",
    "searchString": "independent pharmacy Newark DE",
    "language": "en",
    "rank": 11,
    "isAdvertisement": false,
    "imageUrl": "https://streetviewpixels-pa.googleapis.com/v1/thumbnail?panoid=am4USPtf5Tbs51LZE_NRrQ&cb_client=search.gws-prod.gps&w=408&h=240&yaw=263.62946&pitch=0&thumbfov=100",
    "kgmid": "/g/11sb0mvj0r",
    "classification": "independent",
    "is_independent": true,
    "is_compounding": false,
    "confidence": 0.9,
    "source": "perplexity",
    "method": "llm"
  }
]