[
  {
    "title": "Lincoln Pharmacy",
    "price": null,
    "categoryName": "Pharmacy",
    "address": "3300 A St STE 100, Lincoln, NE 68510",
    "neighborhood": "40th&A",
    "street": "3300 A St STE 100",
    "city": "Lincoln",
    "postalCode": "68510",
    "state": "Nebraska",
    "countryCode": "US",
    "website": "https://www.lincoln-rx.com/",
    "phone": "(402) 817-7978",
    "phoneUnformatted": "+14028177978",
    "claimThisBusiness": false,
    "location": {
      "lat": 40.799193,
      "lng": -96.6726389
    },
    "totalScore": 4.7,
    "permanentlyClosed": false,
    "temporarilyClosed": false,
    "placeId": null,
    "categories": [
      "Pharmacy",
      "Drug store"
    ],
    "fid": "0x8796bf04e8ae723b:0x35635e74b440c698",
    "cid": "3847022362037896856",
    "reviewsCount": 57,
    "imagesCount": 38,
    "imageCategories": [],
    "scrapedAt": "2025-06-22T08:37:08.869Z",
    "googleFoodUrl": null,
    "hotelAds": [],
    "openingHours": [
      {
        "day": "Monday",
        "hours": "8:30\u202fAM to 6\u202fPM"
      },
      {
        "day": "Tuesday",
        "hours": "8:30\u202fAM to 6\u202fPM"
      },
      {
        "day": "Wednesday",
        "hours": "8:30\u202fAM to 6\u202fPM"
      },
      {
        "day": "Thursday",
        "hours": "8:30\u202fAM to 6\u202fPM"
      },
      {
        "day": "Friday",
        "hours": "8:30\u202fAM to 6\u202fPM"
      },
      {
        "day": "Saturday",
        "hours": "10\u202fAM to 4\u202fPM"
      },
      {
        "day": "Sunday",
        "hours": "Closed"
      }
    ],
    "peopleAlsoSearch": [],
    "placesTags": [],
    "reviewsTags": [],
    "additionalInfo": {
      "From the business": [
        {
          "Small business": true
        }
      ],
      "Service options": [
        {
          "Delivery": true
        },
        {
          "Drive-through": true
        },
        {
          "In-store pickup": true
        },
        {
          "Same-day delivery": true
        }
      ],
      "Accessibility": [
        {
          "Wheelchair accessible entrance": true
        },
        {
          "Wheelchair accessible parking lot": true
        },
        {
          "Wheelchair accessible restroom": true
        },
        {
          "Wheelchair accessible seating": true
        }
      ],
      "Offerings": [
        {
          "Medication disposal": true
        }
      ],
      "Planning": [
        {
          "Quick visit": true
        }
      ],
      "Payments": [
        {
          "Credit cards": true
        },
        {
          "Debit cards": true
        },
        {
          "NFC mobile payments": true
        },
        {
          "Credit cards": true
        }
      ]
    },
    "gasPrices": [],
    "url": "https://www.google.com/maps/search/?api=1&query=Lincoln%20Pharmacy&query_place_id=ChIJO3Ku6AS_locRmMZAtHReYzU",
    "searchPageUrl": "https://www.google.com/maps/search/independent%20pharmacy%20Lincoln%20NE/@21.362194516217112,-158.48932096002528,11z?hl=en",
    "searchString": "independent pharmacy Lincoln NE",
    "language": "en",
    "rank": 1,
    "isAdvertisement": false,
    "imageUrl": "https://lh3.googleusercontent.com/p/AF1QipOxUmezTazP_8s1vKqIoC-Rhy-xwuvwx_Tnu5hA=w408-h544-k-no",
    "kgmid": "/g/11h7rncj87",
    "classification": "independent",
    "is_independent": true,
    "is_compounding": false,
    "confidence": 0.9,
    "source": "perplexity",
    "method": "llm",
    "query_location": "lincoln_ne"
  },
  {
    "title": "Nebraska LTC Pharmacy",
    "price": null,
    "categoryName": "Pharmacy",
    "address": "3901 Normal Blvd STE 203, Lincoln, NE 68506",
    "neighborhood": null,
    "street": "3901 Normal Blvd STE 203",
    "city": "Lincoln",
    "postalCode": "68506",
    "state": "Nebraska",
    "countryCode": "US",
    "website": "https://www.facebook.com/NebraskaLTCpharmacy/",
    "phone": "(402) 328-0231",
    "phoneUnformatted": "+14023280231",
    "claimThisBusiness": false,
    "location": {
      "lat": 40.7907176,
      "lng": -96.6640895
    },
    "totalScore": 4.8,
    "permanentlyClosed": false,
    "temporarilyClosed": false,
    "placeId": null,
    "categories": [
      "Pharmacy"
    ],
    "fid": "0x8796be3366494563:0xcf19fe3a226672db",
    "cid": "14923238365907546843",
    "reviewsCount": 20,
    "imagesCount": 2,
    "imageCategories": [],
    "scrapedAt": "2025-06-22T08:37:08.871Z",
    "googleFoodUrl": null,
    "hotelAds": [],
    "openingHours": [
      {
        "day": "Monday",
        "hours": "8:30\u202fAM to 6\u202fPM"
      },
      {
        "day": "Tuesday",
        "hours": "8:30\u202fAM to 6\u202fPM"
      },
      {
        "day": "Wednesday",
        "hours": "8:30\u202fAM to 6\u202fPM"
      },
      {
        "day": "Thursday",
        "hours": "8:30\u202fAM to 6\u202fPM"
      },
      {
        "day": "Friday",
        "hours": "8:30\u202fAM to 6\u202fPM"
      },
      {
        "day": "Saturday",
        "hours": "Closed"
      },
      {
        "day": "Sunday",
        "hours": "Closed"
      }
    ],
    "peopleAlsoSearch": [],
    "placesTags": [],
    "reviewsTags": [],
    "additionalInfo": {
      "From the business": [
        {
          "Small business": true
        }
      ],
      "Service options": [
        {
          "Delivery": true
        },
        {
          "In-store pickup": true
        },
        {
          "Onsite services": true
        }
      ],
      "Accessibility": [
        {
          "Wheelchair accessible entrance": true
        },
        {
          "Wheelchair accessible parking lot": true
        }
      ],
      "Offerings": [
        {
          "Medication disposal": true
        }
      ],
      "Payments": [
        {
          "Credit cards": true
        }
      ]
    },
    "gasPrices": [],
    "url": "https://www.google.com/maps/search/?api=1&query=Nebraska%20LTC%20Pharmacy&query_place_id=ChIJY0VJZjO-locR23JmIjr-Gc8",
    "searchPageUrl": "https://www.google.com/maps/search/independent%20pharmacy%20Lincoln%20NE/@21.362194516217112,-158.48932096002528,11z?hl=en",
    "searchString": "independent pharmacy Lincoln NE",
    "language": "en",
    "rank": 2,
    "isAdvertisement": false,
    "imageUrl": "https://lh3.googleusercontent.com/p/AF1QipP4acMeh7dzVE4S1H3lhHw7AQT6hRnflmZLfJAL=w512-h240-k-no",
    "kgmid": "/g/1thsrwvg",
    "classification": "independent",
    "is_independent": true,
    "is_compounding": false,
    "confidence": 0.85,
    "source": "perplexity",
    "method": "llm",
    "query_location": "lincoln_ne"
  },
  {
    "title": "Wellness Pharmacy,Inc./ Specialty Compounding",
    "price": null,
    "categoryName": "Pharmacy",
    "address": "4640 Champlain Dr #113, Lincoln, NE 68521",
    "neighborhood": "Bicentennial Estates",
    "street": "4640 Champlain Dr #113",
    "city": "Lincoln",
    "postalCode": "68521",
    "state": "Nebraska",
    "countryCode": "US",
    "website": "http://wellnesspharmacylincoln.com/",
    "phone": "(402) 413-9950",
    "phoneUnformatted": "+14024139950",
    "claimThisBusiness": false,
    "location": {
      "lat": 40.8580455,
      "lng": -96.6825868
    },
    "totalScore": 5,
    "permanentlyClosed": false,
    "temporarilyClosed": false,
    "placeId": null,
    "categories": [
      "Pharmacy",
      "Health consultant",
      "Vitamin & supplements store"
    ],
    "fid": "0x8796b947b2903a25:0x7283a555ba634c33",
    "cid": "8251620729890753587",
    "reviewsCount": 21,
    "imagesCount": 29,
    "imageCategories": [],
    "scrapedAt": "2025-06-22T08:37:08.871Z",
    "googleFoodUrl": null,
    "hotelAds": [],
    "openingHours": [
      {
        "day": "Monday",
        "hours": "9\u202fAM to 5:30\u202fPM"
      },
      {
        "day": "Tuesday",
        "hours": "9\u202fAM to 5:30\u202fPM"
      },
      {
        "day": "Wednesday",
        "hours": "9\u202fAM to 5:30\u202fPM"
      },
      {
        "day": "Thursday",
        "hours": "9\u202fAM to 5:30\u202fPM"
      },
      {
        "day": "Friday",
        "hours": "9\u202fAM to 5:30\u202fPM"
      },
      {
        "day": "Saturday",
        "hours": "Closed"
      },
      {
        "day": "Sunday",
        "hours": "Closed"
      }
    ],
    "peopleAlsoSearch": [],
    "placesTags": [],
    "reviewsTags": [],
    "additionalInfo": {
      "From the business": [
        {
          "Identifies as women-owned": true
        },
        {
          "Small business": true
        }
      ],
      "Service options": [
        {
          "Curbside pickup": true
        },
        {
          "Delivery": true
        },
        {
          "In-store pickup": true
        },
        {
          "In-store shopping": true
        }
      ],
      "Accessibility": [
        {
          "Wheelchair accessible entrance": true
        },
        {
          "Wheelchair accessible parking lot": true
        }
      ],
      "Payments": [
        {
          "Credit cards": true
        },
        {
          "Debit cards": true
        },
        {
          "NFC mobile payments": true
        },
        {
          "Credit cards": true
        }
      ]
    },
    "gasPrices": [],
    "url": "https://www.google.com/maps/search/?api=1&query=Wellness%20Pharmacy%2CInc.%2F%20Specialty%20Compounding&query_place_id=ChIJJTqQske5locRM0xjulWlg3I",
    "searchPageUrl": "https://www.google.com/maps/search/independent%20pharmacy%20Lincoln%20NE/@21.362194516217112,-158.48932096002528,11z?hl=en",
    "searchString": "independent pharmacy Lincoln NE",
    "language": "en",
    "rank": 3,
    "isAdvertisement": false,
    "imageUrl": "https://lh3.googleusercontent.com/p/AF1QipMhTy7UX4rqZY0y15hPj66ARuwig5BgWDAaq8_c=w408-h306-k-no",
    "kgmid": "/g/11bzv_ff99",
    "classification": "independent",
    "is_independent": true,
    "is_compounding": true,
    "confidence": 0.95,
    "source": "perplexity",
    "method": "llm",
    "query_location": "lincoln_ne"
  },
  {
    "title": "Pharmacy Solutions",
    "price": null,
    "categoryName": "Pharmacy",
    "address": "5750 Hidcote Dr, Lincoln, NE 68516",
    "neighborhood": null,
    "street": "5750 Hidcote Dr",
    "city": "Lincoln",
    "postalCode": "68516",
    "state": "Nebraska",
    "countryCode": "US",
    "website": "http://www.pharmacysolutionslincoln.com/",
    "phone": "(402) 486-3383",
    "phoneUnformatted": "+14024863383",
    "claimThisBusiness": false,
    "location": {
      "lat": 40.7399682,
      "lng": -96.6423077
    },
    "totalScore": 4.8,
    "permanentlyClosed": false,
    "temporarilyClosed": false,
    "placeId": null,
    "categories": [
      "Pharmacy",
      "Homeopathic pharmacy"
    ],
    "fid": "0x8796964286de7797:0xd9a6a64c36e6b130",
    "cid": "15683405598633144624",
    "reviewsCount": 68,
    "imagesCount": 19,
    "imageCategories": [],
    "scrapedAt": "2025-06-22T08:37:08.871Z",
    "googleFoodUrl": null,
    "hotelAds": [],
    "openingHours": [
      {
        "day": "Monday",
        "hours": "8:30\u202fAM to 5\u202fPM"
      },
      {
        "day": "Tuesday",
        "hours": "8:30\u202fAM to 6\u202fPM"
      },
      {
        "day": "Wednesday",
        "hours": "8:30\u202fAM to 5\u202fPM"
      },
      {
        "day": "Thursday",
        "hours": "8:30\u202fAM to 5\u202fPM"
      },
      {
        "day": "Friday",
        "hours": "8:30\u202fAM to 5\u202fPM"
      },
      {
        "day": "Saturday",
        "hours": "Closed"
      },
      {
        "day": "Sunday",
        "hours": "Closed"
      }
    ],
    "peopleAlsoSearch": [],
    "placesTags": [],
    "reviewsTags": [],
    "additionalInfo": {
      "From the business": [
        {
          "Identifies as women-owned": true
        },
        {
          "Small business": true
        }
      ],
      "Service options": [
        {
          "Curbside pickup": true
        },
        {
          "Delivery": true
        },
        {
          "In-store pickup": true
        },
        {
          "In-store shopping": true
        },
        {
          "English": true
        }
      ],
      "Accessibility": [
        {
          "Wheelchair accessible entrance": true
        },
        {
          "Wheelchair accessible parking lot": true
        },
        {
          "Wheelchair accessible restroom": true
        },
        {
          "Wheelchair accessible seating": true
        }
      ],
      "Amenities": [
        {
          "Gender-neutral restroom": true
        }
      ],
      "Crowd": [
        {
          "LGBTQ+ friendly": true
        },
        {
          "Transgender safespace": true
        }
      ],
      "Payments": [
        {
          "Checks": true
        },
        {
          "Credit cards": true
        },
        {
          "Debit cards": true
        },
        {
          "NFC mobile payments": true
        },
        {
          "Credit cards": true
        }
      ],
      "Parking": [
        {
          "Free parking garage": true
        },
        {
          "Free parking lot": true
        },
        {
          "Free street parking": true
        },
        {
          "On-site parking": true
        }
      ]
    },
    "gasPrices": [],
    "url": "https://www.google.com/maps/search/?api=1&query=Pharmacy%20Solutions&query_place_id=ChIJl3fehkKWlocRMLHmNkymptk",
    "searchPageUrl": "https://www.google.com/maps/search/independent%20pharmacy%20Lincoln%20NE/@21.362194516217112,-158.48932096002528,11z?hl=en",
    "searchString": "independent pharmacy Lincoln NE",
    "language": "en",
    "rank": 4,
    "isAdvertisement": false,
    "imageUrl": "https://lh3.googleusercontent.com/gps-cs-s/AC9h4nooKxVtEE-mgq4MRn3iO0FsTzC0I2tiqJ0DsiR4YQtgE2QZhUjhUEksqMHWg2EMI1getXclcvjhnP32xon793yrPno01RB1Q8vvZ8hqTr7Z70YYVCnKF2qtwu8I9gvLJKNXGhMd=w408-h725-k-no",
    "kgmid": "/g/1jgm4sqdg",
    "classification": "independent",
    "is_independent": true,
    "is_compounding": false,
    "confidence": 0.85,
    "source": "perplexity",
    "method": "llm",
    "query_location": "lincoln_ne"
  },
  {
    "title": "Neighborhood LTC Pharmacy",
    "price": null,
    "categoryName": "Pharmacy",
    "address": "1265 S Cotner Blvd Suite 30, Lincoln, NE 68510",
    "neighborhood": null,
    "street": "1265 S Cotner Blvd Suite 30",
    "city": "Lincoln",
    "postalCode": "68510",
    "state": "Nebraska",
    "countryCode": "US",
    "website": "http://www.neighborhoodrx.com/",
    "phone": "(402) 488-1184",
    "phoneUnformatted": "+14024881184",
    "claimThisBusiness": false,
    "location": {
      "lat": 40.8004258,
      "lng": -96.6508668
    },
    "totalScore": 4.3,
    "permanentlyClosed": false,
    "temporarilyClosed": false,
    "placeId": null,
    "categories": [
      "Pharmacy"
    ],
    "fid": "0x8796bc35e2c20d7b:0xfae16fbeb1a0a4bd",
    "cid": "18077853244056446141",
    "reviewsCount": 8,
    "imagesCount": 1,
    "imageCategories": [],
    "scrapedAt": "2025-06-22T08:37:08.872Z",
    "googleFoodUrl": null,
    "hotelAds": [],
    "openingHours": [
      {
        "day": "Monday",
        "hours": "9\u202fAM to 5:30\u202fPM"
      },
      {
        "day": "Tuesday",
        "hours": "9\u202fAM to 5:30\u202fPM"
      },
      {
        "day": "Wednesday",
        "hours": "9\u202fAM to 5:30\u202fPM"
      },
      {
        "day": "Thursday",
        "hours": "9\u202fAM to 5:30\u202fPM"
      },
      {
        "day": "Friday",
        "hours": "9\u202fAM to 5:30\u202fPM"
      },
      {
        "day": "Saturday",
        "hours": "10\u202fAM to 2\u202fPM"
      },
      {
        "day": "Sunday",
        "hours": "Closed"
      }
    ],
    "peopleAlsoSearch": [],
    "placesTags": [],
    "reviewsTags": [],
    "additionalInfo": {
      "Service options": [
        {
          "Delivery": true
        },
        {
          "Drive-through": true
        }
      ],
      "Accessibility": [
        {
          "Wheelchair accessible entrance": true
        },
        {
          "Wheelchair accessible parking lot": true
        }
      ],
      "Offerings": [
        {
          "Medication disposal": true
        }
      ],
      "Payments": [
        {
          "Credit cards": true
        }
      ]
    },
    "gasPrices": [],
    "url": "https://www.google.com/maps/search/?api=1&query=Neighborhood%20LTC%20Pharmacy&query_place_id=ChIJew3C4jW8locRvaSgsb5v4fo",
    "searchPageUrl": "https://www.google.com/maps/search/independent%20pharmacy%20Lincoln%20NE/@21.362194516217112,-158.48932096002528,11z?hl=en",
    "searchString": "independent pharmacy Lincoln NE",
    "language": "en",
    "rank": 5,
    "isAdvertisement": false,
    "imageUrl": "https://streetviewpixels-pa.googleapis.com/v1/thumbnail?panoid=rcHKI56kc1Srhyy4rcIINw&cb_client=search.gws-prod.gps&w=408&h=240&yaw=197.10112&pitch=0&thumbfov=100",
    "kgmid": "/g/11bw1zqgkc",
    "classification": "independent",
    "is_independent": true,
    "is_compounding": false,
    "confidence": 0.9,
    "source": "perplexity",
    "method": "llm",
    "query_location": "lincoln_ne"
  },
  {
    "title": "Genoa Healthcare",
    "price": null,
    "categoryName": "Pharmacy",
    "address": "2202 S 11th St, Lincoln, NE 68502",
    "neighborhood": "Irvingdale",
    "street": "2202 S 11th St",
    "city": "Lincoln",
    "postalCode": "68502",
    "state": "Nebraska",
    "countryCode": "US",
    "website": "https://www.genoahealthcare.com/",
    "phone": "(402) 975-6015",
    "phoneUnformatted": "+14029756015",
    "claimThisBusiness": false,
    "location": {
      "lat": 40.7906329,
      "lng": -96.7050452
    },
    "totalScore": 4.3,
    "permanentlyClosed": false,
    "temporarilyClosed": false,
    "placeId": "ChIJEazpwT-_locR2JGqS160NyU",
    "categories": [
      "Pharmacy"
    ],
    "fid": "0x8796bf3fc1e9ac11:0x2537b45e4baa91d8",
    "cid": "2681810420211814872",
    "reviewsCount": 4,
    "imagesCount": 1,
    "imageCategories": [],
    "scrapedAt": "2025-06-22T08:37:08.872Z",
    "googleFoodUrl": null,
    "hotelAds": [],
    "openingHours": [
      {
        "day": "Monday",
        "hours": "8:30\u202fAM to 12:30\u202fPM, 1 to 5\u202fPM"
      },
      {
        "day": "Tuesday",
        "hours": "8:30\u202fAM to 12:30\u202fPM, 1 to 5\u202fPM"
      },
      {
        "day": "Wednesday",
        "hours": "8:30\u202fAM to 12:30\u202fPM, 1 to 5\u202fPM"
      },
      {
        "day": "Thursday",
        "hours": "8:30\u202fAM to 12:30\u202fPM, 1 to 5\u202fPM"
      },
      {
        "day": "Friday",
        "hours": "8:30\u202fAM to 12:30\u202fPM, 1 to 5\u202fPM"
      },
      {
        "day": "Saturday",
        "hours": "Closed"
      },
      {
        "day": "Sunday",
        "hours": "Closed"
      }
    ],
    "peopleAlsoSearch": [],
    "placesTags": [],
    "reviewsTags": [],
    "additionalInfo": {
      "Accessibility": [
        {
          "Wheelchair accessible entrance": true
        },
        {
          "Wheelchair accessible parking lot": true
        }
      ]
    },
    "gasPrices": [],
    "url": "https://www.google.com/maps/search/?api=1&query=Genoa%20Healthcare&query_place_id=ChIJEazpwT-_locR2JGqS160NyU",
    "searchPageUrl": "https://www.google.com/maps/search/independent%20pharmacy%20Lincoln%20NE/@21.362194516217112,-158.48932096002528,11z?hl=en",
    "searchString": "independent pharmacy Lincoln NE",
    "language": "en",
    "rank": 6,
    "isAdvertisement": false,
    "imageUrl": "https://streetviewpixels-pa.googleapis.com/v1/thumbnail?panoid=Q7HtrvRaboSx8-0oAJ3PKA&cb_client=search.gws-prod.gps&w=408&h=240&yaw=91.081665&pitch=0&thumbfov=100",
    "kgmid": "/g/11vspgmq14",
    "classification": "chain",
    "is_independent": false,
    "confidence": 1.0,
    "source": "rule-based"
  },
  {
    "title": "Senior Rx Care Pharmacy",
    "price": null,
    "categoryName": "Pharmacy",
    "address": "5501 Alvo Rd, Lincoln, NE 68514",
    "neighborhood": null,
    "street": "5501 Alvo Rd",
    "city": "Lincoln",
    "postalCode": "68514",
    "state": "Nebraska",
    "countryCode": "US",
    "website": "https://seniorrxpharmacy.com/",
    "phone": "(888) 486-4404",
    "phoneUnformatted": "+18884864404",
    "claimThisBusiness": false,
    "location": {
      "lat": 40.885305,
      "lng": -96.644891
    },
    "permanentlyClosed": false,
    "temporarilyClosed": false,
    "placeId": null,
    "categories": [
      "Pharmacy"
    ],
    "fid": "0x8796bb1a1934da3b:0x20c9ef7e388b2e37",
    "cid": "2362682804926098999",
    "reviewsCount": 0,
    "imagesCount": null,
    "imageCategories": [],
    "scrapedAt": "2025-06-22T08:37:09.333Z",
    "googleFoodUrl": null,
    "hotelAds": [],
    "openingHours": [
      {
        "day": "Monday",
        "hours": "Open 24 hours"
      },
      {
        "day": "Tuesday",
        "hours": "Open 24 hours"
      },
      {
        "day": "Wednesday",
        "hours": "Open 24 hours"
      },
      {
        "day": "Thursday",
        "hours": "Open 24 hours"
      },
      {
        "day": "Friday",
        "hours": "Open 24 hours"
      },
      {
        "day": "Saturday",
        "hours": "Open 24 hours"
      },
      {
        "day": "Sunday",
        "hours": "Open 24 hours"
      }
    ],
    "peopleAlsoSearch": [],
    "placesTags": [],
    "reviewsTags": [],
    "additionalInfo": {
      "Accessibility": [
        {
          "Wheelchair accessible entrance": true
        },
        {
          "Wheelchair accessible parking lot": true
        }
      ],
      "Payments": [
        {
          "Credit cards": true
        },
        {
          "Debit cards": true
        },
        {
          "Credit cards": true
        }
      ]
    },
    "gasPrices": [],
    "url": "https://www.google.com/maps/search/?api=1&query=Senior%20Rx%20Care%20Pharmacy&query_place_id=ChIJO9o0GRq7locRNy6LOH7vySA",
    "searchPageUrl": "https://www.google.com/maps/search/independent%20pharmacy%20Lincoln%20NE/@64.88496417543536,-168.0057016382483,13z?hl=en",
    "searchString": "independent pharmacy Lincoln NE",
    "language": "en",
    "rank": 6,
    "isAdvertisement": false,
    "kgmid": "/g/11p61w00v9",
    "classification": "independent",
    "is_independent": true,
    "is_compounding": false,
    "confidence": 0.9,
    "source": "perplexity",
    "method": "llm",
    "query_location": "lincoln_ne"
  },
  {
    "title": "Stockwell Pharmacy",
    "price": null,
    "categoryName": "Pharmacy",
    "address": "3811 S 27th St, Lincoln, NE 68502",
    "neighborhood": "Country Club",
    "street": "3811 S 27th St",
    "city": "Lincoln",
    "postalCode": "68502",
    "state": "Nebraska",
    "countryCode": "US",
    "website": "http://stockwellpharmacyne.com/",
    "phone": "(402) 423-8588",
    "phoneUnformatted": "+14024238588",
    "claimThisBusiness": false,
    "location": {
      "lat": 40.7746966,
      "lng": -96.6833174
    },
    "totalScore": 4.3,
    "permanentlyClosed": false,
    "temporarilyClosed": false,
    "placeId": null,
    "categories": [
      "Pharmacy",
      "Medical supply store"
    ],
    "fid": "0x8796be183af6871f:0xff3675651fbc35c9",
    "cid": "18390015205598574025",
    "reviewsCount": 22,
    "imagesCount": 2,
    "imageCategories": [],
    "scrapedAt": "2025-06-22T08:37:27.551Z",
    "googleFoodUrl": null,
    "hotelAds": [],
    "openingHours": [
      {
        "day": "Monday",
        "hours": "8\u202fAM to 6\u202fPM"
      },
      {
        "day": "Tuesday",
        "hours": "8\u202fAM to 6\u202fPM"
      },
      {
        "day": "Wednesday",
        "hours": "8\u202fAM to 6\u202fPM"
      },
      {
        "day": "Thursday",
        "hours": "8\u202fAM to 6\u202fPM"
      },
      {
        "day": "Friday",
        "hours": "8\u202fAM to 6\u202fPM"
      },
      {
        "day": "Saturday",
        "hours": "9\u202fAM to 2\u202fPM"
      },
      {
        "day": "Sunday",
        "hours": "10\u202fAM to 1\u202fPM"
      }
    ],
    "peopleAlsoSearch": [],
    "placesTags": [],
    "reviewsTags": [],
    "additionalInfo": {
      "From the business": [
        {
          "Small business": true
        }
      ],
      "Service options": [
        {
          "Delivery": true
        },
        {
          "In-store pickup": true
        },
        {
          "Onsite services": true
        },
        {
          "Same-day delivery": true
        }
      ],
      "Accessibility": [
        {
          "Wheelchair accessible entrance": true
        },
        {
          "Wheelchair accessible parking lot": true
        }
      ],
      "Offerings": [
        {
          "Medication disposal": true
        }
      ],
      "Planning": [
        {
          "Quick visit": true
        }
      ],
      "Payments": [
        {
          "Credit cards": true
        },
        {
          "Debit cards": true
        },
        {
          "NFC mobile payments": true
        },
        {
          "Credit cards": true
        }
      ]
    },
    "gasPrices": [],
    "url": "https://www.google.com/maps/search/?api=1&query=Stockwell%20Pharmacy&query_place_id=ChIJH4f2Ohi-locRyTW8H2V1Nv8",
    "searchPageUrl": "https://www.google.com/maps/search/independent%20pharmacy%20Lincoln%20NE/@-10.854439234915702,-171.0091333514526,13z?hl=en",
    "searchString": "independent pharmacy Lincoln NE",
    "language": "en",
    "rank": 6,
    "isAdvertisement": false,
    "imageUrl": "https://lh3.googleusercontent.com/p/AF1QipPd3fH9w1PNnCO7ppcXbVySpNaD66jcrqS-tnBn=w426-h240-k-no",
    "kgmid": "/g/1tpll75q",
    "classification": "independent",
    "is_independent": true,
    "is_compounding": false,
    "confidence": 0.9,
    "source": "perplexity",
    "method": "llm",
    "query_location": "lincoln_ne"
  },
  {
    "title": "Neighborhood LTC Pharmacy",
    "price": null,
    "categoryName": "Pharmacy",
    "address": "5625 O St Suite 101, Lincoln, NE 68510",
    "neighborhood": "Eastridge",
    "street": "5625 O St Suite 101",
    "city": "Lincoln",
    "postalCode": "68510",
    "state": "Nebraska",
    "countryCode": "US",
    "website": "https://www.neighborhoodrx.com/",
    "phone": "(402) 488-1184",
    "phoneUnformatted": "+14024881184",
    "claimThisBusiness": false,
    "location": {
      "lat": 40.8131229,
      "lng": -96.6435239
    },
    "permanentlyClosed": false,
    "temporarilyClosed": false,
    "placeId": null,
    "categories": [
      "Pharmacy"
    ],
    "fid": "0x8796bd1c54ad8975:0xe2a59c85bdd1eaab",
    "cid": "16331631721958206123",
    "reviewsCount": 0,
    "imagesCount": 1,
    "imageCategories": [],
    "scrapedAt": "2025-06-22T08:37:54.135Z",
    "googleFoodUrl": null,
    "hotelAds": [],
    "openingHours": [
      {
        "day": "Monday",
        "hours": "9\u202fAM to 5\u202fPM"
      },
      {
        "day": "Tuesday",
        "hours": "9\u202fAM to 5\u202fPM"
      },
      {
        "day": "Wednesday",
        "hours": "9\u202fAM to 5\u202fPM"
      },
      {
        "day": "Thursday",
        "hours": "9\u202fAM to 5\u202fPM"
      },
      {
        "day": "Friday",
        "hours": "9\u202fAM to 5\u202fPM"
      },
      {
        "day": "Saturday",
        "hours": "9\u202fAM to 5\u202fPM"
      },
      {
        "day": "Sunday",
        "hours": "9\u202fAM to 5\u202fPM"
      }
    ],
    "peopleAlsoSearch": [],
    "placesTags": [],
    "reviewsTags": [],
    "additionalInfo": {
      "Accessibility": [
        {
          "Wheelchair accessible entrance": true
        },
        {
          "Wheelchair accessible parking lot": true
        }
      ],
      "Planning": [
        {
          "Quick visit": true
        }
      ],
      "Payments": [
        {
          "Credit cards": true
        }
      ]
    },
    "gasPrices": [],
    "url": "https://www.google.com/maps/search/?api=1&query=Neighborhood%20LTC%20Pharmacy&query_place_id=ChIJdYmtVBy9locRq-rRvYWcpeI",
    "searchPageUrl": "https://www.google.com/maps/search/independent%20pharmacy%20Lincoln%20NE/@64.34834014395538,-143.9041190859444,9z?hl=en",
    "searchString": "independent pharmacy Lincoln NE",
    "language": "en",
    "rank": 7,
    "isAdvertisement": false,
    "imageUrl": "https://streetviewpixels-pa.googleapis.com/v1/thumbnail?panoid=ISwcSSgqzjDnrHXxGDk6Mg&cb_client=search.gws-prod.gps&w=408&h=240&yaw=187.19518&pitch=0&thumbfov=100",
    "kgmid": "/g/11t455n_tz",
    "classification": "independent",
    "is_independent": true,
    "is_compounding": false,
    "confidence": 0.9,
    "source": "perplexity",
    "method": "llm",
    "query_location": "lincoln_ne"
  },
  {
    "title": "CVS Pharmacy",
    "price": null,
    "categoryName": "Pharmacy",
    "address": "7002 O St, Lincoln, NE 68510",
    "neighborhood": "Meadowlane",
    "street": "7002 O St",
    "city": "Lincoln",
    "postalCode": "68510",
    "state": "Nebraska",
    "countryCode": "US",
    "website": "https://www.cvs.com/store-locator/lincoln-ne-pharmacies/7002-o-street-lincoln-ne-68510/storeid=8626?WT.mc_id=LS_GOOGLE_RX_8626",
    "phone": "(402) 489-6399",
    "phoneUnformatted": "+14024896399",
    "claimThisBusiness": false,
    "location": {
      "lat": 40.8138179,
      "lng": -96.6241078
    },
    "totalScore": 3.3,
    "permanentlyClosed": false,
    "temporarilyClosed": false,
    "placeId": "ChIJbSlrZVG8locRwrCDoXijHWE",
    "categories": [
      "Pharmacy"
    ],
    "fid": "0x8796bc51656b296d:0x611da378a183b0c2",
    "cid": "6997929134504784066",
    "reviewsCount": 46,
    "imagesCount": 35,
    "imageCategories": [],
    "scrapedAt": "2025-06-22T08:37:54.135Z",
    "googleFoodUrl": null,
    "hotelAds": [],
    "openingHours": [
      {
        "day": "Monday",
        "hours": "12\u202fAM to 1:30\u202fPM, 2\u202fPM to 12\u202fAM"
      },
      {
        "day": "Tuesday",
        "hours": "12\u202fAM to 1:30\u202fPM, 2\u202fPM to 12\u202fAM"
      },
      {
        "day": "Wednesday",
        "hours": "12\u202fAM to 1:30\u202fPM, 2\u202fPM to 12\u202fAM"
      },
      {
        "day": "Thursday",
        "hours": "12\u202fAM to 1:30\u202fPM, 2\u202fPM to 12\u202fAM"
      },
      {
        "day": "Friday",
        "hours": "12\u202fAM to 1:30\u202fPM, 2\u202fPM to 12\u202fAM"
      },
      {
        "day": "Saturday",
        "hours": "12\u202fAM to 1:30\u202fPM, 2\u202fPM to 12\u202fAM"
      },
      {
        "day": "Sunday",
        "hours": "12\u202fAM to 1:30\u202fPM, 2\u202fPM to 12\u202fAM"
      }
    ],
    "peopleAlsoSearch": [],
    "placesTags": [],
    "reviewsTags": [],
    "additionalInfo": {
      "Service options": [
        {
          "Delivery": true
        },
        {
          "Drive-through": true
        },
        {
          "In-store pickup": true
        },
        {
          "In-store shopping": true
        },
        {
          "Onsite services": true
        }
      ],
      "Accessibility": [
        {
          "Wheelchair accessible entrance": true
        },
        {
          "Wheelchair accessible parking lot": true
        }
      ],
      "Offerings": [
        {
          "Medication disposal": true
        },
        {
          "Naloxone": true
        },
        {
          "Passport photos": true
        }
      ],
      "Crowd": [
        {
          "LGBTQ+ friendly": true
        },
        {
          "Transgender safespace": true
        }
      ],
      "Planning": [
        {
          "Appointment required": true
        },
        {
          "Quick visit": true
        }
      ],
      "Payments": [
        {
          "Credit cards": true
        },
        {
          "Debit cards": true
        },
        {
          "NFC mobile payments": true
        },
        {
          "Credit cards": true
        }
      ]
    },
    "gasPrices": [],
    "url": "https://www.google.com/maps/search/?api=1&query=CVS%20Pharmacy&query_place_id=ChIJbSlrZVG8locRwrCDoXijHWE",
    "searchPageUrl": "https://www.google.com/maps/search/independent%20pharmacy%20Lincoln%20NE/@64.34834014395538,-143.9041190859444,9z?hl=en",
    "searchString": "independent pharmacy Lincoln NE",
    "language": "en",
    "rank": 8,
    "isAdvertisement": false,
    "imageUrl": "https://lh3.googleusercontent.com/p/AF1QipOBiGn_TiBSEwybaVJsScftYuE-ok_SgpDhdFIS=w408-h272-k-no",
    "kgmid": "/g/11c467fl1c",
    "classification": "chain",
    "is_independent": false,
    "confidence": 1.0,
    "source": "rule-based"
  },
  {
    "title": "RelyCare Pharmacy",
    "price": null,
    "categoryName": "Pharmacy",
    "address": "1221 N Cotner Blvd #1, Lincoln, NE 68505",
    "neighborhood": "Bethany",
    "street": "1221 N Cotner Blvd #1",
    "city": "Lincoln",
    "postalCode": "68505",
    "state": "Nebraska",
    "countryCode": "US",
    "website": "http://www.relycare.net/",
    "phone": "(402) 466-7283",
    "phoneUnformatted": "+14024667283",
    "claimThisBusiness": false,
    "location": {
      "lat": 40.8256702,
      "lng": -96.6329567
    },
    "totalScore": 4.2,
    "permanentlyClosed": false,
    "temporarilyClosed": false,
    "placeId": null,
    "categories": [
      "Pharmacy",
      "Home health care service"
    ],
    "fid": "0x8796bc4324b19c11:0x2c1878ca5c95058b",
    "cid": "3177422347641881995",
    "reviewsCount": 28,
    "imagesCount": 13,
    "imageCategories": [],
    "scrapedAt": "2025-06-22T08:37:54.135Z",
    "googleFoodUrl": null,
    "hotelAds": [],
    "openingHours": [
      {
        "day": "Monday",
        "hours": "9\u202fAM to 6\u202fPM"
      },
      {
        "day": "Tuesday",
        "hours": "9\u202fAM to 6\u202fPM"
      },
      {
        "day": "Wednesday",
        "hours": "9\u202fAM to 6\u202fPM"
      },
      {
        "day": "Thursday",
        "hours": "9\u202fAM to 6\u202fPM"
      },
      {
        "day": "Friday",
        "hours": "9\u202fAM to 6\u202fPM"
      },
      {
        "day": "Saturday",
        "hours": "9\u202fAM to 3\u202fPM"
      },
      {
        "day": "Sunday",
        "hours": "Closed"
      }
    ],
    "peopleAlsoSearch": [],
    "placesTags": [],
    "reviewsTags": [],
    "additionalInfo": {
      "From the business": [
        {
          "Small business": true
        }
      ],
      "Service options": [
        {
          "Delivery": true
        },
        {
          "Drive-through": true
        },
        {
          "In-store pickup": true
        },
        {
          "Same-day delivery": true
        }
      ],
      "Accessibility": [
        {
          "Wheelchair accessible entrance": true
        },
        {
          "Wheelchair accessible parking lot": true
        }
      ],
      "Offerings": [
        {
          "Medication disposal": true
        }
      ],
      "Planning": [
        {
          "Quick visit": true
        }
      ],
      "Payments": [
        {
          "Credit cards": true
        },
        {
          "Debit cards": true
        },
        {
          "NFC mobile payments": true
        },
        {
          "Credit cards": true
        }
      ]
    },
    "gasPrices": [],
    "url": "https://www.google.com/maps/search/?api=1&query=RelyCare%20Pharmacy&query_place_id=ChIJEZyxJEO8locRiwWVXMp4GCw",
    "searchPageUrl": "https://www.google.com/maps/search/independent%20pharmacy%20Lincoln%20NE/@64.34834014395538,-143.9041190859444,9z?hl=en",
    "searchString": "independent pharmacy Lincoln NE",
    "language": "en",
    "rank": 10,
    "isAdvertisement": false,
    "imageUrl": "https://lh3.googleusercontent.com/p/AF1QipOqixaLUl7anlw3df5W5ddBcxgeK_jEeogd3JS0=w408-h272-k-no",
    "kgmid": "/g/1tcxk869",
    "classification": "independent",
    "is_independent": true,
    "is_compounding": false,
    "confidence": 0.85,
    "source": "perplexity",
    "method": "llm",
    "query_location": "lincoln_ne"
  },
  {
    "title": "Genoa Healthcare",
    "price": null,
    "categoryName": "Pharmacy",
    "address": "2301 O St #3, Lincoln, NE 68510",
    "neighborhood": "Downtown",
    "street": "2301 O St #3",
    "city": "Lincoln",
    "postalCode": "68510",
    "state": "Nebraska",
    "countryCode": "US",
    "website": "http://www.genoahealthcare.com/",
    "phone": "(402) 817-0165",
    "phoneUnformatted": "+14028170165",
    "claimThisBusiness": false,
    "location": {
      "lat": 40.8130411,
      "lng": -96.6877058
    },
    "totalScore": 4.4,
    "permanentlyClosed": false,
    "temporarilyClosed": false,
    "placeId": "ChIJ_____8CXlocRtljWjULSsT4",
    "categories": [
      "Pharmacy",
      "Walk-in clinic"
    ],
    "fid": "0x879697c0ffffffff:0x3eb1d2428dd658b6",
    "cid": "4517623084518627510",
    "reviewsCount": 38,
    "imagesCount": 1,
    "imageCategories": [],
    "scrapedAt": "2025-06-22T08:37:58.262Z",
    "googleFoodUrl": null,
    "hotelAds": [],
    "openingHours": [
      {
        "day": "Monday",
        "hours": "8:30\u202fAM to 5\u202fPM"
      },
      {
        "day": "Tuesday",
        "hours": "8:30\u202fAM to 5\u202fPM"
      },
      {
        "day": "Wednesday",
        "hours": "8:30\u202fAM to 5\u202fPM"
      },
      {
        "day": "Thursday",
        "hours": "8:30\u202fAM to 5\u202fPM"
      },
      {
        "day": "Friday",
        "hours": "8:30\u202fAM to 5\u202fPM"
      },
      {
        "day": "Saturday",
        "hours": "Closed"
      },
      {
        "day": "Sunday",
        "hours": "Closed"
      }
    ],
    "peopleAlsoSearch": [],
    "placesTags": [],
    "reviewsTags": [],
    "additionalInfo": {
      "Service options": [
        {
          "Delivery": true
        }
      ],
      "Accessibility": [
        {
          "Wheelchair accessible entrance": true
        },
        {
          "Wheelchair accessible parking lot": true
        }
      ],
      "Offerings": [
        {
          "Medication disposal": true
        }
      ],
      "Payments": [
        {
          "Credit cards": true
        }
      ]
    },
    "gasPrices": [],
    "url": "https://www.google.com/maps/search/?api=1&query=Genoa%20Healthcare&query_place_id=ChIJ_____8CXlocRtljWjULSsT4",
    "searchPageUrl": "https://www.google.com/maps/search/independent%20pharmacy%20Lincoln%20NE/@-0.5783026530908715,-159.93028070145297,13z?hl=en",
    "searchString": "independent pharmacy Lincoln NE",
    "language": "en",
    "rank": 11,
    "isAdvertisement": false,
    "imageUrl": "https://streetviewpixels-pa.googleapis.com/v1/thumbnail?panoid=f1j7rlzjhxN7jGW9jX-Qkg&cb_client=search.gws-prod.gps&w=408&h=240&yaw=182.67882&pitch=0&thumbfov=100",
    "kgmid": "/g/11f2wcsfmz",
    "classification": "chain",
    "is_independent": false,
    "confidence": 1.0,
    "source": "rule-based"
  },
  {
    "title": "Genoa Healthcare",
    "price": null,
    "categoryName": "Pharmacy",
    "address": "9100 Andermatt Dr Ste 2, Lincoln, NE 68526",
    "neighborhood": null,
    "street": "9100 Andermatt Dr Ste 2",
    "city": "Lincoln",
    "postalCode": "68526",
    "state": "Nebraska",
    "countryCode": "US",
    "website": "https://www.genoahealthcare.com/",
    "phone": "(402) 975-6002",
    "phoneUnformatted": "+14029756002",
    "claimThisBusiness": false,
    "location": {
      "lat": 40.7335633,
      "lng": -96.5931464
    },
    "totalScore": 3.7,
    "permanentlyClosed": false,
    "temporarilyClosed": false,
    "placeId": "ChIJVTwrgKyXlocRww4D_4jwlM4",
    "categories": [
      "Pharmacy"
    ],
    "fid": "0x879697ac802b3c55:0xce94f088ff030ec3",
    "cid": "14885787139550940867",
    "reviewsCount": 3,
    "imagesCount": 1,
    "imageCategories": [],
    "scrapedAt": "2025-06-22T08:37:58.262Z",
    "googleFoodUrl": null,
    "hotelAds": [],
    "openingHours": [
      {
        "day": "Monday",
        "hours": "8:30\u202fAM to 5:30\u202fPM"
      },
      {
        "day": "Tuesday",
        "hours": "8:30\u202fAM to 5:30\u202fPM"
      },
      {
        "day": "Wednesday",
        "hours": "8:30\u202fAM to 5:30\u202fPM"
      },
      {
        "day": "Thursday",
        "hours": "8:30\u202fAM to 5:30\u202fPM"
      },
      {
        "day": "Friday",
        "hours": "8:30\u202fAM to 3\u202fPM"
      },
      {
        "day": "Saturday",
        "hours": "Closed"
      },
      {
        "day": "Sunday",
        "hours": "Closed"
      }
    ],
    "peopleAlsoSearch": [],
    "placesTags": [],
    "reviewsTags": [],
    "additionalInfo": {
      "Accessibility": [
        {
          "Wheelchair accessible entrance": true
        },
        {
          "Wheelchair accessible parking lot": true
        }
      ],
      "Payments": [
        {
          "Credit cards": true
        }
      ]
    },
    "gasPrices": [],
    "url": "https://www.google.com/maps/search/?api=1&query=Genoa%20Healthcare&query_place_id=ChIJVTwrgKyXlocRww4D_4jwlM4",
    "searchPageUrl": "https://www.google.com/maps/search/independent%20pharmacy%20Lincoln%20NE/@-0.5783026530908715,-159.93028070145297,13z?hl=en",
    "searchString": "independent pharmacy Lincoln NE",
    "language": "en",
    "rank": 12,
    "isAdvertisement": false,
    "imageUrl": "https://streetviewpixels-pa.googleapis.com/v1/thumbnail?panoid=uIQlhBuFwq02JLd89OgyAg&cb_client=search.gws-prod.gps&w=408&h=240&yaw=6.589854&pitch=0&thumbfov=100",
    "kgmid": "/g/11kpv7cq82",
    "classification": "chain",
    "is_independent": false,
    "confidence": 1.0,
    "source": "rule-based"
  },
  {
    "title": "Kohll's Rx",
    "price": null,
    "categoryName": "Pharmacy",
    "address": "808 N 27th St, Lincoln, NE 68503",
    "neighborhood": "Hartley",
    "street": "808 N 27th St",
    "city": "Lincoln",
    "postalCode": "68503",
    "state": "Nebraska",
    "countryCode": "US",
    "website": "https://kohllsrx.com/?utm_source=google&utm_medium=local&utm_campaign=lincoln-location-website",
    "phone": "(402) 476-3342",
    "phoneUnformatted": "+14024763342",
    "claimThisBusiness": false,
    "location": {
      "lat": 40.8209317,
      "lng": -96.6819297
    },
    "locatedIn": "Kohll's Respiratory Department",
    "totalScore": 3.3,
    "permanentlyClosed": false,
    "temporarilyClosed": false,
    "placeId": null,
    "categories": [
      "Pharmacy",
      "Medical equipment supplier",
      "Mobility equipment supplier",
      "Motor scooter dealer",
      "Oxygen equipment supplier",
      "Wheelchair rental service",
      "Wheelchair store"
    ],
    "fid": "0x8796be93875f3f37:0xce4b998133fe804e",
    "cid": "14865143775268601934",
    "reviewsCount": 133,
    "imagesCount": 11,
    "imageCategories": [],
    "scrapedAt": "2025-06-22T08:37:58.262Z",
    "googleFoodUrl": null,
    "hotelAds": [],
    "openingHours": [
      {
        "day": "Monday",
        "hours": "8\u202fAM to 7\u202fPM"
      },
      {
        "day": "Tuesday",
        "hours": "8\u202fAM to 7\u202fPM"
      },
      {
        "day": "Wednesday",
        "hours": "8\u202fAM to 7\u202fPM"
      },
      {
        "day": "Thursday",
        "hours": "8\u202fAM to 7\u202fPM"
      },
      {
        "day": "Friday",
        "hours": "8\u202fAM to 7\u202fPM"
      },
      {
        "day": "Saturday",
        "hours": "9\u202fAM to 2\u202fPM"
      },
      {
        "day": "Sunday",
        "hours": "Closed"
      }
    ],
    "additionalOpeningHours": {
      "Kohll's Respiratory Department": [
        {
          "day": "Monday",
          "hours": "9\u202fAM\u20135\u202fPM"
        },
        {
          "day": "Tuesday",
          "hours": "9\u202fAM\u20135\u202fPM"
        },
        {
          "day": "Wednesday",
          "hours": "9\u202fAM\u20135\u202fPM"
        },
        {
          "day": "Thursday",
          "hours": "9\u202fAM\u20135\u202fPM"
        },
        {
          "day": "Friday",
          "hours": "9\u202fAM\u20135\u202fPM"
        },
        {
          "day": "Saturday",
          "hours": "Closed"
        },
        {
          "day": "Sunday",
          "hours": "Closed"
        }
      ]
    },
    "peopleAlsoSearch": [],
    "placesTags": [],
    "reviewsTags": [],
    "additionalInfo": {
      "Service options": [
        {
          "Delivery": true
        },
        {
          "In-store pickup": true
        },
        {
          "Onsite services": true
        },
        {
          "Same-day delivery": true
        }
      ],
      "Accessibility": [
        {
          "Wheelchair accessible entrance": true
        },
        {
          "Wheelchair accessible parking lot": true
        }
      ],
      "Offerings": [
        {
          "Medication disposal": true
        }
      ],
      "Planning": [
        {
          "Quick visit": true
        }
      ],
      "Payments": [
        {
          "Credit cards": true
        },
        {
          "Debit cards": true
        },
        {
          "Credit cards": true
        }
      ]
    },
    "gasPrices": [],
    "url": "https://www.google.com/maps/search/?api=1&query=Kohll's%20Rx&query_place_id=ChIJNz9fh5O-locRToD-M4GZS84",
    "searchPageUrl": "https://www.google.com/maps/search/independent%20pharmacy%20Lincoln%20NE/@-0.5783026530908715,-159.93028070145297,13z?hl=en",
    "searchString": "independent pharmacy Lincoln NE",
    "language": "en",
    "rank": 13,
    "isAdvertisement": false,
    "imageUrl": "https://lh3.googleusercontent.com/gps-cs-s/AC9h4nr5uqWONApagfciCUXP1D7oxrYyNFI-FrER_gNEf-UMlRVrjT779c1flkrRuaNEdaihDpKok3iTNsUCAV1_4om4cHZI0kqrFd8-JuPpNnw1sF5b5tc16IAoONffUkWfUOoltv4g=w426-h240-k-no",
    "kgmid": "/g/1td3m2lg",
    "classification": "independent",
    "is_independent": true,
    "is_compounding": false,
    "confidence": 0.95,
    "source": "perplexity",
    "method": "llm",
    "query_location": "lincoln_ne"
  },
  {
    "title": "Walgreens Pharmacy",
    "description": "Department of the Walgreens chain providing prescription medications & other health-related items.",
    "price": "$$",
    "categoryName": "Pharmacy",
    "address": "1301 O St, Lincoln, NE 68508",
    "neighborhood": "Downtown",
    "street": "1301 O St",
    "city": "Lincoln",
    "postalCode": "68508",
    "state": "Nebraska",
    "countryCode": "US",
    "website": "https://www.walgreens.com/locator/walgreens-1301+o+st-lincoln-ne-68508/id=541",
    "phone": "(402) 476-6898",
    "phoneUnformatted": "+14024766898",
    "claimThisBusiness": false,
    "location": {
      "lat": 40.8132184,
      "lng": -96.7023163
    },
    "totalScore": 4,
    "permanentlyClosed": false,
    "temporarilyClosed": false,
    "placeId": "ChIJgyVKlPy-locRjPMlqn5ud94",
    "categories": [
      "Pharmacy"
    ],
    "fid": "0x8796befc944a2583:0xde776e7eaa25f38c",
    "cid": "16030402888948118412",
    "reviewsCount": 6,
    "imagesCount": 3,
    "imageCategories": [],
    "scrapedAt": "2025-06-22T08:37:58.263Z",
    "googleFoodUrl": null,
    "hotelAds": [],
    "openingHours": [
      {
        "day": "Monday",
        "hours": "9\u202fAM to 1:30\u202fPM, 2 to 5\u202fPM"
      },
      {
        "day": "Tuesday",
        "hours": "9\u202fAM to 1:30\u202fPM, 2 to 5\u202fPM"
      },
      {
        "day": "Wednesday",
        "hours": "9\u202fAM to 1:30\u202fPM, 2 to 5\u202fPM"
      },
      {
        "day": "Thursday",
        "hours": "9\u202fAM to 1:30\u202fPM, 2 to 5\u202fPM"
      },
      {
        "day": "Friday",
        "hours": "9\u202fAM to 1:30\u202fPM, 2 to 5\u202fPM"
      },
      {
        "day": "Saturday",
        "hours": "Closed"
      },
      {
        "day": "Sunday",
        "hours": "Closed"
      }
    ],
    "additionalOpeningHours": {
      "Drive through": [
        {
          "day": "Monday",
          "hours": "9\u202fAM\u20131:30\u202fPM"
        },
        {
          "day": "Tuesday",
          "hours": "9\u202fAM\u20131:30\u202fPM"
        },
        {
          "day": "Wednesday",
          "hours": "9\u202fAM\u20131:30\u202fPM"
        },
        {
          "day": "Thursday",
          "hours": "9\u202fAM\u20131:30\u202fPM"
        },
        {
          "day": "Friday",
          "hours": "9\u202fAM\u20131:30\u202fPM"
        },
        {
          "day": "Saturday",
          "hours": "Closed"
        },
        {
          "day": "Sunday",
          "hours": "Closed"
        }
      ]
    },
    "peopleAlsoSearch": [],
    "placesTags": [],
    "reviewsTags": [],
    "additionalInfo": {
      "Service options": [
        {
          "Delivery": true
        },
        {
          "In-store pickup": true
        }
      ],
      "Accessibility": [
        {
          "Wheelchair accessible entrance": true
        },
        {
          "Wheelchair accessible parking lot": true
        }
      ],
      "Offerings": [
        {
          "Medication disposal": true
        },
        {
          "Naloxone": true
        }
      ],
      "Planning": [
        {
          "Quick visit": true
        }
      ],
      "Payments": [
        {
          "Credit cards": true
        },
        {
          "Debit cards": true
        },
        {
          "NFC mobile payments": true
        }
      ]
    },
    "gasPrices": [],
    "url": "https://www.google.com/maps/search/?api=1&query=Walgreens%20Pharmacy&query_place_id=ChIJgyVKlPy-locRjPMlqn5ud94",
    "searchPageUrl": "https://www.google.com/maps/search/independent%20pharmacy%20Lincoln%20NE/@-0.5783026530908715,-159.93028070145297,13z?hl=en",
    "searchString": "independent pharmacy Lincoln NE",
    "language": "en",
    "rank": 14,
    "isAdvertisement": false,
    "imageUrl": "https://lh3.googleusercontent.com/p/AF1QipP1lqyqbCoI22kwyxV9tKwc6omTUmaDEw9kQi5H=w525-h240-k-no",
    "kgmid": "/g/11cn94nz01",
    "classification": "chain",
    "is_independent": false,
    "confidence": 1.0,
    "source": "rule-based"
  },
  {
    "title": "Walgreens Pharmacy",
    "description": "Department of the Walgreens chain providing prescription medications & other health-related items.",
    "price": "$$",
    "categoryName": "Pharmacy",
    "address": "4000 S 70th St, Lincoln, NE 68506",
    "neighborhood": null,
    "street": "4000 S 70th St",
    "city": "Lincoln",
    "postalCode": "68506",
    "state": "Nebraska",
    "countryCode": "US",
    "website": "https://www.walgreens.com/locator/walgreens-4000+s+70th+st-lincoln-ne-68506/id=6884",
    "phone": "(402) 489-0338",
    "phoneUnformatted": "+14024890338",
    "claimThisBusiness": false,
    "location": {
      "lat": 40.7722828,
      "lng": -96.6241229
    },
    "totalScore": 2.7,
    "permanentlyClosed": false,
    "temporarilyClosed": false,
    "placeId": "ChIJ65IgDIG9locRrtO_LHt_KlU",
    "categories": [
      "Pharmacy"
    ],
    "fid": "0x8796bd810c2092eb:0x552a7f7b2cbfd3ae",
    "cid": "6136857609254196142",
    "reviewsCount": 23,
    "imagesCount": 3,
    "imageCategories": [],
    "scrapedAt": "2025-06-22T08:37:58.263Z",
    "googleFoodUrl": null,
    "hotelAds": [],
    "openingHours": [
      {
        "day": "Monday",
        "hours": "8\u202fAM to 1:30\u202fPM, 2 to 8\u202fPM"
      },
      {
        "day": "Tuesday",
        "hours": "8\u202fAM to 1:30\u202fPM, 2 to 8\u202fPM"
      },
      {
        "day": "Wednesday",
        "hours": "8\u202fAM to 1:30\u202fPM, 2 to 8\u202fPM"
      },
      {
        "day": "Thursday",
        "hours": "8\u202fAM to 1:30\u202fPM, 2 to 8\u202fPM"
      },
      {
        "day": "Friday",
        "hours": "8\u202fAM to 1:30\u202fPM, 2 to 8\u202fPM"
      },
      {
        "day": "Saturday",
        "hours": "9\u202fAM to 1:30\u202fPM, 2 to 6\u202fPM"
      },
      {
        "day": "Sunday",
        "hours": "10\u202fAM to 1:30\u202fPM, 2 to 6\u202fPM"
      }
    ],
    "additionalOpeningHours": {
      "Drive through": [
        {
          "day": "Monday",
          "hours": "8\u202fAM\u20131:30\u202fPM"
        },
        {
          "day": "Tuesday",
          "hours": "8\u202fAM\u20131:30\u202fPM"
        },
        {
          "day": "Wednesday",
          "hours": "8\u202fAM\u20131:30\u202fPM"
        },
        {
          "day": "Thursday",
          "hours": "8\u202fAM\u20131:30\u202fPM"
        },
        {
          "day": "Friday",
          "hours": "8\u202fAM\u20131:30\u202fPM"
        },
        {
          "day": "Saturday",
          "hours": "9\u202fAM\u20131:30\u202fPM"
        },
        {
          "day": "Sunday",
          "hours": "10\u202fAM\u20131:30\u202fPM"
        }
      ]
    },
    "peopleAlsoSearch": [],
    "placesTags": [],
    "reviewsTags": [],
    "additionalInfo": {
      "Service options": [
        {
          "Curbside pickup": true
        },
        {
          "Drive-through": true
        },
        {
          "In-store pickup": true
        },
        {
          "Onsite services": true
        }
      ],
      "Accessibility": [
        {
          "Wheelchair accessible entrance": true
        },
        {
          "Wheelchair accessible parking lot": true
        }
      ],
      "Offerings": [
        {
          "Medication disposal": true
        },
        {
          "Naloxone": true
        },
        {
          "Passport photos": true
        }
      ],
      "Planning": [
        {
          "Quick visit": true
        }
      ],
      "Payments": [
        {
          "Credit cards": true
        },
        {
          "Debit cards": true
        }
      ]
    },
    "gasPrices": [],
    "url": "https://www.google.com/maps/search/?api=1&query=Walgreens%20Pharmacy&query_place_id=ChIJ65IgDIG9locRrtO_LHt_KlU",
    "searchPageUrl": "https://www.google.com/maps/search/independent%20pharmacy%20Lincoln%20NE/@-0.5783026530908715,-159.93028070145297,13z?hl=en",
    "searchString": "independent pharmacy Lincoln NE",
    "language": "en",
    "rank": 16,
    "isAdvertisement": false,
    "imageUrl": "https://lh3.googleusercontent.com/p/AF1QipPp_n0RNBBLuywQAPHfMbeg8uqvEsIokgwFPks-=w525-h240-k-no",
    "kgmid": "/g/11cn95h2c6",
    "classification": "chain",
    "is_independent": false,
    "confidence": 1.0,
    "source": "rule-based"
  },
  {
    "title": "CVS Pharmacy",
    "price": null,
    "categoryName": "Pharmacy",
    "address": "2755 S 48th St, Lincoln, NE 68506",
    "neighborhood": null,
    "street": "2755 S 48th St",
    "city": "Lincoln",
    "postalCode": "68506",
    "state": "Nebraska",
    "countryCode": "US",
    "website": "https://www.cvs.com/store-locator/lincoln-ne-pharmacies/2755-south-48th-st-lincoln-ne-68506/storeid=8610?WT.mc_id=LS_GOOGLE_RX_8610",
    "phone": "(402) 484-5777",
    "phoneUnformatted": "+14024845777",
    "claimThisBusiness": false,
    "location": {
      "lat": 40.7848152,
      "lng": -96.6544837
    },
    "totalScore": 4.4,
    "permanentlyClosed": false,
    "temporarilyClosed": false,
    "placeId": "ChIJcfugtee9locRuT13IhBr2b4",
    "categories": [
      "Pharmacy"
    ],
    "fid": "0x8796bde7b5a0fb71:0xbed96b1022773db9",
    "cid": "13752140654194408889",
    "reviewsCount": 15,
    "imagesCount": 8,
    "imageCategories": [],
    "scrapedAt": "2025-06-22T08:37:58.263Z",
    "googleFoodUrl": null,
    "hotelAds": [],
    "openingHours": [
      {
        "day": "Monday",
        "hours": "9\u202fAM to 1:30\u202fPM, 2 to 7\u202fPM"
      },
      {
        "day": "Tuesday",
        "hours": "9\u202fAM to 1:30\u202fPM, 2 to 7\u202fPM"
      },
      {
        "day": "Wednesday",
        "hours": "9\u202fAM to 1:30\u202fPM, 2 to 7\u202fPM"
      },
      {
        "day": "Thursday",
        "hours": "9\u202fAM to 1:30\u202fPM, 2 to 7\u202fPM"
      },
      {
        "day": "Friday",
        "hours": "9\u202fAM to 1:30\u202fPM, 2 to 7\u202fPM"
      },
      {
        "day": "Saturday",
        "hours": "10\u202fAM to 1:30\u202fPM, 2 to 6\u202fPM"
      },
      {
        "day": "Sunday",
        "hours": "11\u202fAM to 1:30\u202fPM, 2 to 5\u202fPM"
      }
    ],
    "peopleAlsoSearch": [],
    "placesTags": [],
    "reviewsTags": [],
    "additionalInfo": {
      "Service options": [
        {
          "Delivery": true
        },
        {
          "Drive-through": true
        },
        {
          "In-store shopping": true
        },
        {
          "Onsite services": true
        }
      ],
      "Accessibility": [
        {
          "Wheelchair accessible entrance": true
        },
        {
          "Wheelchair accessible parking lot": true
        }
      ],
      "Offerings": [
        {
          "Medication disposal": true
        },
        {
          "Naloxone": true
        },
        {
          "Passport photos": true
        }
      ],
      "Crowd": [
        {
          "LGBTQ+ friendly": true
        },
        {
          "Transgender safespace": true
        }
      ],
      "Planning": [
        {
          "Quick visit": true
        }
      ],
      "Payments": [
        {
          "Credit cards": true
        },
        {
          "Debit cards": true
        },
        {
          "NFC mobile payments": true
        },
        {
          "SNAP/EBT": true
        },
        {
          "Credit cards": true
        }
      ]
    },
    "gasPrices": [],
    "url": "https://www.google.com/maps/search/?api=1&query=CVS%20Pharmacy&query_place_id=ChIJcfugtee9locRuT13IhBr2b4",
    "searchPageUrl": "https://www.google.com/maps/search/independent%20pharmacy%20Lincoln%20NE/@-0.5783026530908715,-159.93028070145297,13z?hl=en",
    "searchString": "independent pharmacy Lincoln NE",
    "language": "en",
    "rank": 17,
    "isAdvertisement": false,
    "imageUrl": "https://lh3.googleusercontent.com/p/AF1QipMwqwdK48EA6iGg1rlpVywwBDfktkdtVTIKWWbU=w408-h272-k-no",
    "kgmid": "/g/11c462tvj7",
    "classification": "chain",
    "is_independent": false,
    "confidence": 1.0,
    "source": "rule-based"
  },
  {
    "title": "Nebraska Medicine Pharmacy at University Health Center",
    "price": null,
    "categoryName": "Pharmacy",
    "address": "550 N 19th St level 1, Lincoln, NE 68588, United States",
    "neighborhood": null,
    "street": "550 N 19th St level 1",
    "city": "Lincoln",
    "postalCode": "68588",
    "state": "Nebraska",
    "countryCode": "US",
    "website": "https://health.unl.edu/pharmacy",
    "phone": "+1 402-472-7457",
    "phoneUnformatted": "+14024727457",
    "claimThisBusiness": false,
    "location": {
      "lat": 40.8182955,
      "lng": -96.6931362
    },
    "totalScore": 5,
    "permanentlyClosed": false,
    "temporarilyClosed": false,
    "placeId": "ChIJVVUV_e6-locRUeo2limteJw",
    "categories": [
      "Pharmacy"
    ],
    "fid": "0x8796beeefd155555:0x9c78ad299636ea51",
    "cid": "11274952061247482449",
    "reviewsCount": 1,
    "imagesCount": null,
    "imageCategories": [],
    "scrapedAt": "2025-06-22T08:38:09.535Z",
    "googleFoodUrl": null,
    "hotelAds": [],
    "openingHours": [
      {
        "day": "Monday",
        "hours": "8\u202fAM to 5:30\u202fPM"
      },
      {
        "day": "Tuesday",
        "hours": "8\u202fAM to 5:30\u202fPM"
      },
      {
        "day": "Wednesday",
        "hours": "8\u202fAM to 5:30\u202fPM"
      },
      {
        "day": "Thursday",
        "hours": "8\u202fAM to 5:30\u202fPM"
      },
      {
        "day": "Friday",
        "hours": "8\u202fAM to 5\u202fPM"
      },
      {
        "day": "Saturday",
        "hours": "9\u202fAM to 12:30\u202fPM"
      },
      {
        "day": "Sunday",
        "hours": "Closed"
      }
    ],
    "peopleAlsoSearch": [],
    "placesTags": [],
    "reviewsTags": [],
    "additionalInfo": {
      "Service options": [
        {
          "In-store pick-up": true
        },
        {
          "In-store shopping": true
        },
        {
          "Delivery": false
        },
        {
          "Same-day delivery": false
        }
      ],
      "Accessibility": [
        {
          "Wheelchair-accessible car park": true
        },
        {
          "Wheelchair-accessible entrance": true
        }
      ],
      "Payments": [
        {
          "Credit cards": true
        }
      ]
    },
    "gasPrices": [],
    "url": "https://www.google.com/maps/search/?api=1&query=Nebraska%20Medicine%20Pharmacy%20at%20University%20Health%20Center&query_place_id=ChIJVVUV_e6-locRUeo2limteJw",
    "searchPageUrl": "https://www.google.com/maps/search/independent%20pharmacy%20Lincoln%20NE/@65.73786228335844,-148.50731502864818,9z?hl=en",
    "searchString": "independent pharmacy Lincoln NE",
    "language": "en",
    "rank": 12,
    "isAdvertisement": false,
    "kgmid": "/g/11nh9c9_j2",
    "classification": "hospital",
    "is_independent": false,
    "confidence": 1.0,
    "source": "rule-based"
  },
  {
    "title": "CVS Pharmacy",
    "price": null,
    "categoryName": "Pharmacy",
    "address": "1550 South St, Lincoln, NE 68502, United States",
    "neighborhood": "Near South",
    "street": "1550 South St",
    "city": "Lincoln",
    "postalCode": "68502",
    "state": "Nebraska",
    "countryCode": "US",
    "website": "https://www.cvs.com/store-locator/lincoln-ne-pharmacies/1550-south-st-lincoln-ne-68502/storeid=473?WT.mc_id=LS_GOOGLE_RX_473",
    "phone": "+1 402-477-0397",
    "phoneUnformatted": "+14024770397",
    "claimThisBusiness": false,
    "location": {
      "lat": 40.7921764,
      "lng": -96.699018
    },
    "totalScore": 4.4,
    "permanentlyClosed": false,
    "temporarilyClosed": false,
    "placeId": "ChIJW2z-V06-locRzpL4xiw_W6A",
    "categories": [
      "Pharmacy"
    ],
    "fid": "0x8796be4e57fe6c5b:0xa05b3f2cc6f892ce",
    "cid": "11554898730498429646",
    "reviewsCount": 28,
    "imagesCount": 10,
    "imageCategories": [],
    "scrapedAt": "2025-06-22T08:38:09.535Z",
    "googleFoodUrl": null,
    "hotelAds": [],
    "openingHours": [
      {
        "day": "Monday",
        "hours": "9\u202fAM to 1:30\u202fPM, 2 to 8\u202fPM"
      },
      {
        "day": "Tuesday",
        "hours": "9\u202fAM to 1:30\u202fPM, 2 to 8\u202fPM"
      },
      {
        "day": "Wednesday",
        "hours": "9\u202fAM to 1:30\u202fPM, 2 to 8\u202fPM"
      },
      {
        "day": "Thursday",
        "hours": "9\u202fAM to 1:30\u202fPM, 2 to 8\u202fPM"
      },
      {
        "day": "Friday",
        "hours": "9\u202fAM to 1:30\u202fPM, 2 to 8\u202fPM"
      },
      {
        "day": "Saturday",
        "hours": "9\u202fAM to 1:30\u202fPM, 2 to 6\u202fPM"
      },
      {
        "day": "Sunday",
        "hours": "10\u202fAM to 1:30\u202fPM, 2 to 6\u202fPM"
      }
    ],
    "peopleAlsoSearch": [],
    "placesTags": [],
    "reviewsTags": [],
    "additionalInfo": {
      "Service options": [
        {
          "Delivery": true
        },
        {
          "Drive-through": true
        },
        {
          "In-store pick-up": true
        },
        {
          "In-store shopping": true
        }
      ],
      "Accessibility": [
        {
          "Wheelchair-accessible car park": true
        },
        {
          "Wheelchair-accessible entrance": true
        }
      ],
      "Offerings": [
        {
          "Medication disposal": true
        },
        {
          "Naloxone": true
        },
        {
          "Passport photos": true
        }
      ],
      "Crowd": [
        {
          "LGBTQ+ friendly": true
        },
        {
          "Transgender safe space": true
        }
      ],
      "Planning": [
        {
          "Quick visit": true
        }
      ],
      "Payments": [
        {
          "Credit cards": true
        },
        {
          "Debit cards": true
        },
        {
          "SNAP/EBT": true
        },
        {
          "Credit cards": true
        }
      ]
    },
    "gasPrices": [],
    "url": "https://www.google.com/maps/search/?api=1&query=CVS%20Pharmacy&query_place_id=ChIJW2z-V06-locRzpL4xiw_W6A",
    "searchPageUrl": "https://www.google.com/maps/search/independent%20pharmacy%20Lincoln%20NE/@65.73786228335844,-148.50731502864818,9z?hl=en",
    "searchString": "independent pharmacy Lincoln NE",
    "language": "en",
    "rank": 14,
    "isAdvertisement": false,
    "imageUrl": "https://lh3.googleusercontent.com/p/AF1QipNyi6ynlRBXke3c5mAD7dgqg767DjtN8FOPVuWW=w408-h272-k-no",
    "kgmid": "/g/11c468w6yw",
    "classification": "chain",
    "is_independent": false,
    "confidence": 1.0,
    "source": "rule-based"
  },
  {
    "title": "Independence Drug",
    "price": null,
    "categoryName": "Pharmacy",
    "address": "1074 Idaho St Ste 150, Elko, NV 89801",
    "neighborhood": null,
    "street": "1074 Idaho St Ste 150",
    "city": "Elko",
    "postalCode": "89801",
    "state": "Nevada",
    "countryCode": "US",
    "website": "https://independencedrug.com/",
    "phone": "(775) 264-4747",
    "phoneUnformatted": "+17752644747",
    "claimThisBusiness": false,
    "location": {
      "lat": 40.8369344,
      "lng": -115.7577507
    },
    "totalScore": 5,
    "permanentlyClosed": false,
    "temporarilyClosed": false,
    "placeId": null,
    "categories": [
      "Pharmacy"
    ],
    "fid": "0x80a6072c196133e3:0x9bebb2143819111",
    "cid": "702204343457255697",
    "reviewsCount": 13,
    "imagesCount": 2,
    "imageCategories": [],
    "scrapedAt": "2025-06-22T08:38:10.276Z",
    "googleFoodUrl": null,
    "hotelAds": [],
    "openingHours": [
      {
        "day": "Monday",
        "hours": "9\u202fAM to 6\u202fPM"
      },
      {
        "day": "Tuesday",
        "hours": "9\u202fAM to 6\u202fPM"
      },
      {
        "day": "Wednesday",
        "hours": "9\u202fAM to 6\u202fPM"
      },
      {
        "day": "Thursday",
        "hours": "9\u202fAM to 6\u202fPM"
      },
      {
        "day": "Friday",
        "hours": "9\u202fAM to 6\u202fPM"
      },
      {
        "day": "Saturday",
        "hours": "Closed"
      },
      {
        "day": "Sunday",
        "hours": "Closed"
      }
    ],
    "peopleAlsoSearch": [],
    "placesTags": [],
    "reviewsTags": [],
    "additionalInfo": {
      "Accessibility": [
        {
          "Wheelchair accessible entrance": true
        },
        {
          "Wheelchair accessible parking lot": true
        }
      ],
      "Planning": [
        {
          "Quick visit": true
        }
      ],
      "Payments": [
        {
          "Credit cards": true
        }
      ]
    },
    "gasPrices": [],
    "url": "https://www.google.com/maps/search/?api=1&query=Independence%20Drug&query_place_id=ChIJ4zNhGSwHpoAREZGBQyG7vgk",
    "searchPageUrl": "https://www.google.com/maps/search/independent%20pharmacy%20Lincoln%20NE/@39.68245004733214,-118.1483311994871,8z?hl=en",
    "searchString": "independent pharmacy Lincoln NE",
    "language": "en",
    "rank": 1,
    "isAdvertisement": false,
    "imageUrl": "https://lh3.googleusercontent.com/gps-cs-s/AC9h4nqYudXVV1AFoFJWR1ozAWoGNaUWh2uwlZF7DdTZMHA4Eb3F20SFre6YKIs-FCwfjx-xxgYQtzdrg4wZZO1sHVgHh-N76w_Yp1aJL93VLkoOBJOza9840XyWFs0oDIBHJpNxlmx6=w408-h661-k-no",
    "kgmid": "/g/11whm7y6hk",
    "classification": "independent",
    "is_independent": true,
    "is_compounding": false,
    "confidence": 0.9,
    "source": "perplexity",
    "method": "llm",
    "query_location": "lincoln_ne"
  }
]