[
  {
    "title": "Kelley-Ross Compounding Pharmacy",
    "price": null,
    "categoryName": "Pharmacy",
    "address": "805 Madison St #702, Seattle, WA 98104",
    "neighborhood": "Downtown Seattle",
    "street": "805 Madison St #702",
    "city": "Seattle",
    "postalCode": "98104",
    "state": "Washington",
    "countryCode": "US",
    "website": "https://www.kelley-ross.com/",
    "phone": "(206) 622-3565",
    "phoneUnformatted": "+12066223565",
    "claimThisBusiness": false,
    "location": {
      "lat": 47.6079435,
      "lng": -122.3278863
    },
    "totalScore": 4.6,
    "permanentlyClosed": false,
    "temporarilyClosed": false,
    "placeId": null,
    "categories": [
      "Pharmacy"
    ],
    "fid": "0x5490154b27f63eb7:0x5fbe5305f313f98a",
    "cid": "6899042964196293002",
    "reviewsCount": 38,
    "imagesCount": 2,
    "imageCategories": [],
    "scrapedAt": "2025-06-22T06:52:29.393Z",
    "googleFoodUrl": null,
    "hotelAds": [],
    "openingHours": [
      {
        "day": "Monday",
        "hours": "9\u202fAM to 5\u202fPM"
      },
      {
        "day": "Tuesday",
        "hours": "9\u202fAM to 5\u202fPM"
      },
      {
        "day": "Wednesday",
        "hours": "9\u202fAM to 5\u202fPM"
      },
      {
        "day": "Thursday",
        "hours": "9\u202fAM to 5\u202fPM"
      },
      {
        "day": "Friday",
        "hours": "9\u202fAM to 5\u202fPM"
      },
      {
        "day": "Saturday",
        "hours": "Closed"
      },
      {
        "day": "Sunday",
        "hours": "Closed"
      }
    ],
    "peopleAlsoSearch": [],
    "placesTags": [],
    "reviewsTags": [],
    "additionalInfo": {
      "From the business": [
        {
          "Identifies as veteran-owned": true
        }
      ],
      "Service options": [
        {
          "Curbside pickup": true
        },
        {
          "Delivery": true
        }
      ],
      "Accessibility": [
        {
          "Wheelchair accessible entrance": true
        },
        {
          "Wheelchair accessible parking lot": true
        }
      ],
      "Payments": [
        {
          "Credit cards": true
        },
        {
          "Debit cards": true
        }
      ]
    },
    "gasPrices": [],
    "url": "https://www.google.com/maps/search/?api=1&query=Kelley-Ross%20Compounding%20Pharmacy&query_place_id=ChIJtz72J0sVkFQRivkT8wVTvl8",
    "searchPageUrl": "https://www.google.com/maps/search/independent%20pharmacy%20Seattle%20WA/@63.653579074253855,-147.35651604297223,9z?hl=en",
    "searchString": "independent pharmacy Seattle WA",
    "language": "en",
    "rank": 1,
    "isAdvertisement": false,
    "imageUrl": "https://lh3.googleusercontent.com/gps-cs-s/AC9h4npoBe5Dv0AEWXUg_ns1xK7YAmWEvshAR3mITq_n5aVXrc1TvaBrvk_HDG0GflUoOXHBfbJGWsWFJwzyl31vToGhAjQcqdcQ5Z-FdqeXaWoJxfrA6x1aaE1hF-aEAj86WwLB2qI9=w408-h544-k-no",
    "kgmid": "/g/1pyctd7zw",
    "classification": "independent",
    "is_independent": true,
    "is_compounding": true,
    "confidence": 0.95,
    "source": "perplexity",
    "method": "llm"
  },
  {
    "title": "Nguyen's Pharmacy & Gifts Inc",
    "price": null,
    "categoryName": "Pharmacy",
    "address": "2120 Rainier Ave S # A, Seattle, WA 98144",
    "neighborhood": "Atlantic",
    "street": "2120 Rainier Ave S # A",
    "city": "Seattle",
    "postalCode": "98144",
    "state": "Washington",
    "countryCode": "US",
    "website": "http://nguyenpharmacy.com/",
    "phone": "(206) 323-9525",
    "phoneUnformatted": "+12063239525",
    "claimThisBusiness": false,
    "location": {
      "lat": 47.5839509,
      "lng": -122.3020751
    },
    "totalScore": 4.7,
    "permanentlyClosed": false,
    "temporarilyClosed": false,
    "placeId": null,
    "categories": [
      "Pharmacy",
      "Gift shop"
    ],
    "fid": "0x54906a8be11eb0b7:0xc5677aae83fcbf01",
    "cid": "14224472838030278401",
    "reviewsCount": 55,
    "imagesCount": 15,
    "imageCategories": [],
    "scrapedAt": "2025-06-22T06:52:29.394Z",
    "googleFoodUrl": null,
    "hotelAds": [],
    "openingHours": [
      {
        "day": "Monday",
        "hours": "9\u202fAM to 5\u202fPM"
      },
      {
        "day": "Tuesday",
        "hours": "9\u202fAM to 5\u202fPM"
      },
      {
        "day": "Wednesday",
        "hours": "9\u202fAM to 5\u202fPM"
      },
      {
        "day": "Thursday",
        "hours": "9\u202fAM to 5\u202fPM"
      },
      {
        "day": "Friday",
        "hours": "9\u202fAM to 5\u202fPM"
      },
      {
        "day": "Saturday",
        "hours": "Closed"
      },
      {
        "day": "Sunday",
        "hours": "Closed"
      }
    ],
    "peopleAlsoSearch": [],
    "placesTags": [],
    "reviewsTags": [],
    "additionalInfo": {
      "From the business": [
        {
          "Identifies as Asian-owned": true
        }
      ],
      "Service options": [
        {
          "Curbside pickup": true
        },
        {
          "Delivery": true
        },
        {
          "Drive-through": true
        },
        {
          "In-store pickup": true
        },
        {
          "In-store shopping": true
        },
        {
          "Same-day delivery": true
        },
        {
          "Vietnamese": true
        }
      ],
      "Accessibility": [
        {
          "Wheelchair accessible entrance": true
        },
        {
          "Wheelchair accessible parking lot": true
        }
      ],
      "Crowd": [
        {
          "LGBTQ+ friendly": true
        },
        {
          "Transgender safespace": true
        }
      ],
      "Planning": [
        {
          "Quick visit": true
        }
      ],
      "Payments": [
        {
          "Credit cards": true
        },
        {
          "Debit cards": true
        },
        {
          "NFC mobile payments": true
        },
        {
          "Credit cards": true
        }
      ]
    },
    "gasPrices": [],
    "url": "https://www.google.com/maps/search/?api=1&query=Nguyen's%20Pharmacy%20%26%20Gifts%20Inc&query_place_id=ChIJt7Ae4YtqkFQRAb_8g656Z8U",
    "searchPageUrl": "https://www.google.com/maps/search/independent%20pharmacy%20Seattle%20WA/@63.653579074253855,-147.35651604297223,9z?hl=en",
    "searchString": "independent pharmacy Seattle WA",
    "language": "en",
    "rank": 2,
    "isAdvertisement": false,
    "imageUrl": "https://lh3.googleusercontent.com/gps-cs-s/AC9h4nr9ji-_Uz4rfhqt684MOZAoq_FU1dMZx3sThNkoOoV9nS2Oq6VGtB0a2lbwYbodOUzXE9Y4zljZZx8lzHRRoSCZD_iJVI1jdK376klF6Nk-rj6WBSWUpi1tWZUUdw-2iH8c2AwXFA=w408-h306-k-no",
    "kgmid": "/g/113hqznx4",
    "classification": "independent",
    "is_independent": true,
    "is_compounding": false,
    "confidence": 0.9,
    "source": "perplexity",
    "method": "llm"
  },
  {
    "title": "Sy Pharmacy and Wellness",
    "price": null,
    "categoryName": "Pharmacy",
    "address": "3828 S Graham St unit b, Seattle, WA 98118",
    "neighborhood": "Rainier Valley",
    "street": "3828 S Graham St unit b",
    "city": "Seattle",
    "postalCode": "98118",
    "state": "Washington",
    "countryCode": "US",
    "website": "https://sypharmacywellness.com/",
    "phone": "(206) 880-7768",
    "phoneUnformatted": "+12068807768",
    "claimThisBusiness": false,
    "location": {
      "lat": 47.5462771,
      "lng": -122.2844282
    },
    "totalScore": 4.9,
    "permanentlyClosed": false,
    "temporarilyClosed": false,
    "placeId": null,
    "categories": [
      "Pharmacy"
    ],
    "fid": "0x54904113655c32fb:0xf22aa7c193aa9988",
    "cid": "17449944156048365960",
    "reviewsCount": 54,
    "imagesCount": 43,
    "imageCategories": [],
    "scrapedAt": "2025-06-22T06:52:29.394Z",
    "googleFoodUrl": null,
    "hotelAds": [],
    "openingHours": [
      {
        "day": "Monday",
        "hours": "9\u202fAM to 6\u202fPM"
      },
      {
        "day": "Tuesday",
        "hours": "9\u202fAM to 6\u202fPM"
      },
      {
        "day": "Wednesday",
        "hours": "9\u202fAM to 6\u202fPM"
      },
      {
        "day": "Thursday",
        "hours": "9\u202fAM to 6\u202fPM"
      },
      {
        "day": "Friday",
        "hours": "9\u202fAM to 6\u202fPM"
      },
      {
        "day": "Saturday",
        "hours": "9\u202fAM to 2\u202fPM"
      },
      {
        "day": "Sunday",
        "hours": "Closed"
      }
    ],
    "peopleAlsoSearch": [],
    "placesTags": [],
    "reviewsTags": [],
    "additionalInfo": {
      "From the business": [
        {
          "Small business": true
        }
      ],
      "Service options": [
        {
          "Delivery": true
        }
      ],
      "Accessibility": [
        {
          "Wheelchair accessible entrance": true
        },
        {
          "Wheelchair accessible parking lot": true
        }
      ],
      "Planning": [
        {
          "Quick visit": true
        }
      ],
      "Payments": [
        {
          "Credit cards": true
        },
        {
          "Debit cards": true
        },
        {
          "NFC mobile payments": true
        },
        {
          "Credit cards": true
        }
      ]
    },
    "gasPrices": [],
    "url": "https://www.google.com/maps/search/?api=1&query=Sy%20Pharmacy%20and%20Wellness&query_place_id=ChIJ-zJcZRNBkFQRiJmqk8GnKvI",
    "searchPageUrl": "https://www.google.com/maps/search/independent%20pharmacy%20Seattle%20WA/@63.653579074253855,-147.35651604297223,9z?hl=en",
    "searchString": "independent pharmacy Seattle WA",
    "language": "en",
    "rank": 3,
    "isAdvertisement": false,
    "imageUrl": "https://lh3.googleusercontent.com/gps-cs-s/AC9h4np54haUkl8UUxmNNkOc06iqgXAA__X8PbA-rPg601N3VecGhqgUFpR0jyPoBdW_jUyL91Uss5U_NrpVyXQE3H99or6PpPFRHNWnx3dzhgIRN0rfEvZhv3QQ9X21K9urg5KeXkPtnQ=w408-h544-k-no",
    "kgmid": "/g/11h42xqxy5",
    "classification": "independent",
    "is_independent": true,
    "is_compounding": false,
    "confidence": 0.9,
    "source": "perplexity",
    "method": "llm"
  },
  {
    "title": "Bob Johnson Pharmacy",
    "price": null,
    "categoryName": "Pharmacy",
    "address": "The Gj Building, 1407 NW 85th St, Seattle, WA 98117",
    "neighborhood": "Ballard",
    "street": "The Gj Building, 1407 NW 85th St",
    "city": "Seattle",
    "postalCode": "98117",
    "state": "Washington",
    "countryCode": "US",
    "website": "http://www.bobjohnsonspharmacy.com/",
    "phone": "(206) 782-5822",
    "phoneUnformatted": "+12067825822",
    "claimThisBusiness": false,
    "location": {
      "lat": 47.6904258,
      "lng": -122.3743956
    },
    "totalScore": 4.8,
    "permanentlyClosed": false,
    "temporarilyClosed": false,
    "placeId": null,
    "categories": [
      "Pharmacy"
    ],
    "fid": "0x54901682e77fc9e9:0xb74b2730b26aadc8",
    "cid": "13207693422299360712",
    "reviewsCount": 83,
    "imagesCount": 4,
    "imageCategories": [],
    "scrapedAt": "2025-06-22T06:52:29.395Z",
    "googleFoodUrl": null,
    "hotelAds": [],
    "openingHours": [
      {
        "day": "Monday",
        "hours": "9\u202fAM to 6\u202fPM"
      },
      {
        "day": "Tuesday",
        "hours": "9\u202fAM to 6\u202fPM"
      },
      {
        "day": "Wednesday",
        "hours": "9\u202fAM to 6\u202fPM"
      },
      {
        "day": "Thursday",
        "hours": "9\u202fAM to 6\u202fPM"
      },
      {
        "day": "Friday",
        "hours": "9\u202fAM to 6\u202fPM"
      },
      {
        "day": "Saturday",
        "hours": "9\u202fAM to 3\u202fPM"
      },
      {
        "day": "Sunday",
        "hours": "Closed"
      }
    ],
    "peopleAlsoSearch": [],
    "placesTags": [],
    "reviewsTags": [],
    "additionalInfo": {
      "From the business": [
        {
          "Small business": true
        }
      ],
      "Service options": [
        {
          "Curbside pickup": true
        },
        {
          "Delivery": true
        },
        {
          "In-store pickup": true
        },
        {
          "Same-day delivery": true
        }
      ],
      "Accessibility": [
        {
          "Wheelchair accessible entrance": true
        },
        {
          "Wheelchair accessible parking lot": true
        }
      ],
      "Planning": [
        {
          "Quick visit": true
        }
      ],
      "Payments": [
        {
          "Checks": true
        },
        {
          "Credit cards": true
        },
        {
          "Debit cards": true
        },
        {
          "NFC mobile payments": true
        },
        {
          "Credit cards": true
        }
      ]
    },
    "gasPrices": [],
    "url": "https://www.google.com/maps/search/?api=1&query=Bob%20Johnson%20Pharmacy&query_place_id=ChIJ6cl_54IWkFQRyK1qsjAnS7c",
    "searchPageUrl": "https://www.google.com/maps/search/independent%20pharmacy%20Seattle%20WA/@63.653579074253855,-147.35651604297223,9z?hl=en",
    "searchString": "independent pharmacy Seattle WA",
    "language": "en",
    "rank": 4,
    "isAdvertisement": false,
    "imageUrl": "https://lh3.googleusercontent.com/p/AF1QipOR7OSihMyVslEDjOKZhB1v4LFNZM5H993vPby-=w408-h306-k-no",
    "kgmid": "/g/1tkrlhlf",
    "classification": "independent",
    "is_independent": true,
    "is_compounding": false,
    "confidence": 0.9,
    "source": "perplexity",
    "method": "llm"
  },
  {
    "title": "Madison Park Pharmacy & Wellness Center",
    "price": null,
    "categoryName": "Pharmacy",
    "address": "4130 E Madison St, Seattle, WA 98112",
    "neighborhood": "Madison Park",
    "street": "4130 E Madison St",
    "city": "Seattle",
    "postalCode": "98112",
    "state": "Washington",
    "countryCode": "US",
    "website": "http://madisonparkpharmacy.com/",
    "phone": "(206) 347-4644",
    "phoneUnformatted": "+12063474644",
    "claimThisBusiness": false,
    "location": {
      "lat": 47.6355614,
      "lng": -122.2787496
    },
    "totalScore": 5,
    "permanentlyClosed": false,
    "temporarilyClosed": false,
    "placeId": null,
    "categories": [
      "Pharmacy"
    ],
    "fid": "0x5490151102fa7edd:0xd50c7f06e29aa40",
    "cid": "959486556084218432",
    "reviewsCount": 29,
    "imagesCount": 6,
    "imageCategories": [],
    "scrapedAt": "2025-06-22T06:52:29.395Z",
    "googleFoodUrl": null,
    "hotelAds": [],
    "openingHours": [
      {
        "day": "Monday",
        "hours": "9\u202fAM to 6\u202fPM"
      },
      {
        "day": "Tuesday",
        "hours": "9\u202fAM to 6\u202fPM"
      },
      {
        "day": "Wednesday",
        "hours": "9\u202fAM to 6\u202fPM"
      },
      {
        "day": "Thursday",
        "hours": "9\u202fAM to 6\u202fPM"
      },
      {
        "day": "Friday",
        "hours": "9\u202fAM to 6\u202fPM"
      },
      {
        "day": "Saturday",
        "hours": "10\u202fAM to 6\u202fPM"
      },
      {
        "day": "Sunday",
        "hours": "11\u202fAM to 4\u202fPM"
      }
    ],
    "peopleAlsoSearch": [],
    "placesTags": [],
    "reviewsTags": [],
    "additionalInfo": {
      "From the business": [
        {
          "Small business": true
        }
      ],
      "Accessibility": [
        {
          "Wheelchair accessible entrance": true
        }
      ],
      "Planning": [
        {
          "Quick visit": true
        }
      ],
      "Payments": [
        {
          "Credit cards": true
        }
      ]
    },
    "gasPrices": [],
    "url": "https://www.google.com/maps/search/?api=1&query=Madison%20Park%20Pharmacy%20%26%20Wellness%20Center&query_place_id=ChIJ3X76AhEVkFQRQKopbvDHUA0",
    "searchPageUrl": "https://www.google.com/maps/search/independent%20pharmacy%20Seattle%20WA/@63.653579074253855,-147.35651604297223,9z?hl=en",
    "searchString": "independent pharmacy Seattle WA",
    "language": "en",
    "rank": 5,
    "isAdvertisement": false,
    "imageUrl": "https://lh3.googleusercontent.com/p/AF1QipNlKMcurqncGB17zBS7tRa439VTh4lKERAsaizf=w408-h306-k-no",
    "kgmid": "/g/11ssq82h09",
    "classification": "independent",
    "is_independent": true,
    "is_compounding": false,
    "confidence": 0.9,
    "source": "perplexity",
    "method": "llm"
  },
  {
    "title": "Swedish Specialty Pharmacy - Seattle",
    "price": null,
    "categoryName": "Pharmacy",
    "address": "1221 Madison St, 03AR34 3rd Floor, Seattle, WA 98104",
    "neighborhood": "Downtown Seattle",
    "street": "1221 Madison St, 03AR34 3rd Floor",
    "city": "Seattle",
    "postalCode": "98104",
    "state": "WA",
    "countryCode": "US",
    "website": "https://www.swedish.org/locations/first-hill-campus/specialty-pharmacy?Is=location&y_source=1_OTU3NjgwNy03MTUtbG9jYXRpb24ud2Vic2l0ZQ%3D%3D",
    "phone": "(206) 386-6020",
    "phoneUnformatted": "+12063866020",
    "claimThisBusiness": false,
    "location": {
      "lat": 47.6098676,
      "lng": -122.3229008
    },
    "totalScore": 5,
    "permanentlyClosed": false,
    "temporarilyClosed": false,
    "placeId": null,
    "categories": [
      "Pharmacy",
      "Medical clinic"
    ],
    "fid": "0x54906ac9bcbd5075:0xf98f84d682402c5b",
    "cid": "17982737893956791387",
    "reviewsCount": 2,
    "imagesCount": 2,
    "imageCategories": [],
    "scrapedAt": "2025-06-22T06:52:29.395Z",
    "googleFoodUrl": null,
    "hotelAds": [],
    "openingHours": [
      {
        "day": "Monday",
        "hours": "9\u202fAM to 5\u202fPM"
      },
      {
        "day": "Tuesday",
        "hours": "9\u202fAM to 5\u202fPM"
      },
      {
        "day": "Wednesday",
        "hours": "9\u202fAM to 5\u202fPM"
      },
      {
        "day": "Thursday",
        "hours": "9\u202fAM to 5\u202fPM"
      },
      {
        "day": "Friday",
        "hours": "9\u202fAM to 5\u202fPM"
      },
      {
        "day": "Saturday",
        "hours": "Closed"
      },
      {
        "day": "Sunday",
        "hours": "Closed"
      }
    ],
    "peopleAlsoSearch": [],
    "placesTags": [],
    "reviewsTags": [],
    "additionalInfo": {
      "Service options": [
        {
          "Delivery": true
        },
        {
          "Same-day delivery": true
        },
        {
          "English": true
        }
      ],
      "Accessibility": [
        {
          "Wheelchair accessible entrance": true
        },
        {
          "Wheelchair accessible parking lot": true
        }
      ],
      "Offerings": [
        {
          "Medication disposal": true
        }
      ],
      "Payments": [
        {
          "Credit cards": true
        },
        {
          "Debit cards": true
        }
      ]
    },
    "gasPrices": [],
    "url": "https://www.google.com/maps/search/?api=1&query=Swedish%20Specialty%20Pharmacy%20-%20Seattle&query_place_id=ChIJdVC9vMlqkFQRWyxAgtaEj_k",
    "searchPageUrl": "https://www.google.com/maps/search/independent%20pharmacy%20Seattle%20WA/@63.653579074253855,-147.35651604297223,9z?hl=en",
    "searchString": "independent pharmacy Seattle WA",
    "language": "en",
    "rank": 6,
    "isAdvertisement": false,
    "imageUrl": "https://lh3.googleusercontent.com/p/AF1QipNH-N_KJBI2snHwHy9guA9ORQAqDtIyTvj93KsK=w408-h408-k-no",
    "kgmid": "/g/11c318vzh_",
    "classification": "independent",
    "is_independent": true,
    "is_compounding": false,
    "confidence": 0.9,
    "source": "perplexity",
    "method": "llm"
  },
  {
    "title": "AHF Pharmacy - Seattle Pike",
    "price": null,
    "categoryName": "Pharmacy",
    "address": "1016 E Pike St Ste 100, Seattle, WA 98122",
    "neighborhood": "Capitol Hill",
    "street": "1016 E Pike St Ste 100",
    "city": "Seattle",
    "postalCode": "98122",
    "state": "Washington",
    "countryCode": "US",
    "website": "https://ahfpharmacy.org/",
    "phone": "(206) 568-2486",
    "phoneUnformatted": "+12065682486",
    "claimThisBusiness": false,
    "location": {
      "lat": 47.6143897,
      "lng": -122.3186759
    },
    "totalScore": 5,
    "permanentlyClosed": false,
    "temporarilyClosed": false,
    "placeId": null,
    "categories": [
      "Pharmacy"
    ],
    "fid": "0x54906acc1b995cbb:0xb391b8d2e36fe755",
    "cid": "12939326420310550357",
    "reviewsCount": 13,
    "imagesCount": 4,
    "imageCategories": [],
    "scrapedAt": "2025-06-22T06:52:29.395Z",
    "googleFoodUrl": null,
    "hotelAds": [],
    "openingHours": [
      {
        "day": "Monday",
        "hours": "10\u202fAM to 7\u202fPM"
      },
      {
        "day": "Tuesday",
        "hours": "10\u202fAM to 7\u202fPM"
      },
      {
        "day": "Wednesday",
        "hours": "10\u202fAM to 7\u202fPM"
      },
      {
        "day": "Thursday",
        "hours": "10\u202fAM to 7\u202fPM"
      },
      {
        "day": "Friday",
        "hours": "10\u202fAM to 7\u202fPM"
      },
      {
        "day": "Saturday",
        "hours": "10\u202fAM to 7\u202fPM"
      },
      {
        "day": "Sunday",
        "hours": "Closed"
      }
    ],
    "peopleAlsoSearch": [],
    "placesTags": [],
    "reviewsTags": [],
    "additionalInfo": {
      "Accessibility": [
        {
          "Wheelchair accessible entrance": true
        }
      ],
      "Payments": [
        {
          "Credit cards": true
        },
        {
          "Debit cards": true
        },
        {
          "NFC mobile payments": true
        },
        {
          "Credit cards": true
        }
      ]
    },
    "gasPrices": [],
    "url": "https://www.google.com/maps/search/?api=1&query=AHF%20Pharmacy%20-%20Seattle%20Pike&query_place_id=ChIJu1yZG8xqkFQRVedv49K4kbM",
    "searchPageUrl": "https://www.google.com/maps/search/independent%20pharmacy%20Seattle%20WA/@63.653579074253855,-147.35651604297223,9z?hl=en",
    "searchString": "independent pharmacy Seattle WA",
    "language": "en",
    "rank": 7,
    "isAdvertisement": false,
    "imageUrl": "https://lh3.googleusercontent.com/gps-cs-s/AC9h4nod4FJklllvv4_o5AS-s209dP4UFOLpL344fiXwuKZFU44oF0zUwL4CKiq-y0xY5zv2T0e7yN3WekAIZDIY0JPsetDRdao592BY0FaFoD9-SWr6qQFb47fQD3Sk8jTyk8hqk5OMzA=w452-h240-k-no",
    "kgmid": "/g/1tdr7x41",
    "classification": "independent",
    "is_independent": true,
    "is_compounding": false,
    "confidence": 0.9,
    "source": "perplexity",
    "method": "llm"
  },
  {
    "title": "Kelley-Ross Pharmacy at 7th and Madison",
    "price": null,
    "categoryName": "Pharmacy",
    "address": "904 7th Ave #103, Seattle, WA 98104",
    "neighborhood": "Downtown Seattle",
    "street": "904 7th Ave #103",
    "city": "Seattle",
    "postalCode": "98104",
    "state": "Washington",
    "countryCode": "US",
    "website": "https://www.kelley-ross.com/",
    "phone": "(206) 324-6990",
    "phoneUnformatted": "+12063246990",
    "claimThisBusiness": false,
    "location": {
      "lat": 47.6071176,
      "lng": -122.3285305
    },
    "totalScore": 4.8,
    "permanentlyClosed": false,
    "temporarilyClosed": false,
    "placeId": null,
    "categories": [
      "Pharmacy"
    ],
    "fid": "0x54906acbe5be2fbf:0x9270043e8e3bae28",
    "cid": "10551938593649831464",
    "reviewsCount": 108,
    "imagesCount": 7,
    "imageCategories": [],
    "scrapedAt": "2025-06-22T06:52:29.395Z",
    "googleFoodUrl": null,
    "hotelAds": [],
    "openingHours": [
      {
        "day": "Monday",
        "hours": "9\u202fAM to 5:30\u202fPM"
      },
      {
        "day": "Tuesday",
        "hours": "9\u202fAM to 5:30\u202fPM"
      },
      {
        "day": "Wednesday",
        "hours": "9\u202fAM to 5:30\u202fPM"
      },
      {
        "day": "Thursday",
        "hours": "9\u202fAM to 5:30\u202fPM"
      },
      {
        "day": "Friday",
        "hours": "9\u202fAM to 5:30\u202fPM"
      },
      {
        "day": "Saturday",
        "hours": "Closed"
      },
      {
        "day": "Sunday",
        "hours": "Closed"
      }
    ],
    "peopleAlsoSearch": [],
    "placesTags": [],
    "reviewsTags": [],
    "additionalInfo": {
      "From the business": [
        {
          "Identifies as veteran-owned": true
        }
      ],
      "Service options": [
        {
          "Curbside pickup": true
        },
        {
          "Delivery": true
        },
        {
          "In-store shopping": true
        }
      ],
      "Accessibility": [
        {
          "Wheelchair accessible entrance": true
        },
        {
          "Wheelchair accessible parking lot": true
        }
      ],
      "Offerings": [
        {
          "Medication disposal": true
        }
      ],
      "Crowd": [
        {
          "LGBTQ+ friendly": true
        },
        {
          "Transgender safespace": true
        }
      ],
      "Payments": [
        {
          "Credit cards": true
        },
        {
          "Debit cards": true
        },
        {
          "NFC mobile payments": true
        },
        {
          "Credit cards": true
        }
      ]
    },
    "gasPrices": [],
    "url": "https://www.google.com/maps/search/?api=1&query=Kelley-Ross%20Pharmacy%20at%207th%20and%20Madison&query_place_id=ChIJvy--5ctqkFQRKK47jj4EcJI",
    "searchPageUrl": "https://www.google.com/maps/search/independent%20pharmacy%20Seattle%20WA/@63.653579074253855,-147.35651604297223,9z?hl=en",
    "searchString": "independent pharmacy Seattle WA",
    "language": "en",
    "rank": 8,
    "isAdvertisement": false,
    "imageUrl": "https://lh3.googleusercontent.com/gps-cs-s/AC9h4npmDm1sdu9huVGGgtPTctfZvZbHMwwU84CRHZdVpbzFlChN_9BSD4BgDvSWZJ_zIDZyq4SHBXtArM3-pSn93ArWN6yDhYP4eVpJyTkDIEd79kYjTX1MKOBmor44_lFJB6X4Qr7a=w408-h544-k-no",
    "kgmid": "/g/1tk1mpvj",
    "classification": "independent",
    "is_independent": true,
    "is_compounding": false,
    "confidence": 0.9,
    "source": "perplexity",
    "method": "llm"
  },
  {
    "title": "Kelley-Ross Capitol Hill Pharmacy",
    "price": null,
    "categoryName": "Pharmacy",
    "address": "400 E Pine St Suite 100B, Seattle, WA 98122",
    "neighborhood": "Capitol Hill",
    "street": "400 E Pine St Suite 100B",
    "city": "Seattle",
    "postalCode": "98122",
    "state": "Washington",
    "countryCode": "US",
    "website": "https://www.kelley-ross.com/capitol-hill/",
    "phone": "(206) 641-7766",
    "phoneUnformatted": "+12066417766",
    "claimThisBusiness": false,
    "location": {
      "lat": 47.6154336,
      "lng": -122.3264714
    },
    "totalScore": 4.8,
    "permanentlyClosed": false,
    "temporarilyClosed": false,
    "placeId": null,
    "categories": [
      "Pharmacy"
    ],
    "fid": "0x54906bc9fbfb05c7:0x4a20a93c393a11a7",
    "cid": "5341455234184647079",
    "reviewsCount": 22,
    "imagesCount": 4,
    "imageCategories": [],
    "scrapedAt": "2025-06-22T06:52:29.395Z",
    "googleFoodUrl": null,
    "hotelAds": [],
    "openingHours": [
      {
        "day": "Monday",
        "hours": "10:30\u202fAM to 2\u202fPM, 2:30 to 5:30\u202fPM"
      },
      {
        "day": "Tuesday",
        "hours": "10:30\u202fAM to 2\u202fPM, 2:30 to 5:30\u202fPM"
      },
      {
        "day": "Wednesday",
        "hours": "8:30\u202fAM to 12\u202fPM, 12:30 to 3\u202fPM"
      },
      {
        "day": "Thursday",
        "hours": "8:30\u202fAM to 12\u202fPM, 12:30 to 3:30\u202fPM"
      },
      {
        "day": "Friday",
        "hours": "8:30\u202fAM to 12\u202fPM, 12:30 to 5:30\u202fPM"
      },
      {
        "day": "Saturday",
        "hours": "Closed"
      },
      {
        "day": "Sunday",
        "hours": "Closed"
      }
    ],
    "peopleAlsoSearch": [],
    "placesTags": [],
    "reviewsTags": [],
    "additionalInfo": {
      "From the business": [
        {
          "Identifies as veteran-owned": true
        },
        {
          "Small business": true
        }
      ],
      "Service options": [
        {
          "Delivery": true
        }
      ],
      "Accessibility": [
        {
          "Wheelchair accessible entrance": true
        },
        {
          "Wheelchair accessible restroom": true
        },
        {
          "Wheelchair accessible seating": true
        }
      ],
      "Amenities": [
        {
          "Gender-neutral restroom": true
        }
      ],
      "Crowd": [
        {
          "LGBTQ+ friendly": true
        },
        {
          "Transgender safespace": true
        }
      ],
      "Payments": [
        {
          "Credit cards": true
        }
      ]
    },
    "gasPrices": [],
    "url": "https://www.google.com/maps/search/?api=1&query=Kelley-Ross%20Capitol%20Hill%20Pharmacy&query_place_id=ChIJxwX7-8lrkFQRpxE6OTypIEo",
    "searchPageUrl": "https://www.google.com/maps/search/independent%20pharmacy%20Seattle%20WA/@63.653579074253855,-147.35651604297223,9z?hl=en",
    "searchString": "independent pharmacy Seattle WA",
    "language": "en",
    "rank": 9,
    "isAdvertisement": false,
    "imageUrl": "https://lh3.googleusercontent.com/gps-cs-s/AC9h4nosLgRXcjNY37Lv_h0vyrZSCa6MbLLKbKXhVzPXJCdazOwPn4niFtUoQb4awof_szpraEHzP5oDzN3703F3SpPDVq059MANmdWN8E5GzOCQrTymLhCkQUYdiFVbwVgLQTvbXb3Z=w408-h440-k-no",
    "kgmid": "/g/11ts4jwp4z",
    "classification": "independent",
    "is_independent": true,
    "is_compounding": false,
    "confidence": 0.9,
    "source": "perplexity",
    "method": "llm"
  },
  {
    "title": "Prime Pharmacy Compounding & LTC",
    "price": null,
    "categoryName": "Pharmacy",
    "address": "64 Rainier Ave S # H, Renton, WA 98057",
    "neighborhood": null,
    "street": "64 Rainier Ave S # H",
    "city": "Renton",
    "postalCode": "98057",
    "state": "Washington",
    "countryCode": "US",
    "website": "http://theprimepharmacy.com/",
    "phone": "(206) 829-4908",
    "phoneUnformatted": "+12068294908",
    "claimThisBusiness": false,
    "location": {
      "lat": 47.4843692,
      "lng": -122.2159027
    },
    "totalScore": 5,
    "permanentlyClosed": false,
    "temporarilyClosed": false,
    "placeId": null,
    "categories": [
      "Pharmacy"
    ],
    "fid": "0x549043c14c7f5c75:0xf3d3990f67a57616",
    "cid": "17569554862744892950",
    "reviewsCount": 57,
    "imagesCount": 2,
    "imageCategories": [],
    "scrapedAt": "2025-06-22T06:52:29.396Z",
    "googleFoodUrl": null,
    "hotelAds": [],
    "openingHours": [
      {
        "day": "Monday",
        "hours": "9\u202fAM to 6\u202fPM"
      },
      {
        "day": "Tuesday",
        "hours": "9\u202fAM to 6\u202fPM"
      },
      {
        "day": "Wednesday",
        "hours": "9\u202fAM to 6\u202fPM"
      },
      {
        "day": "Thursday",
        "hours": "9\u202fAM to 6\u202fPM"
      },
      {
        "day": "Friday",
        "hours": "9\u202fAM to 6\u202fPM"
      },
      {
        "day": "Saturday",
        "hours": "10\u202fAM to 2\u202fPM"
      },
      {
        "day": "Sunday",
        "hours": "Closed"
      }
    ],
    "peopleAlsoSearch": [],
    "placesTags": [],
    "reviewsTags": [],
    "additionalInfo": {
      "From the business": [
        {
          "Small business": true
        }
      ],
      "Service options": [
        {
          "Delivery": true
        },
        {
          "In-store pickup": true
        },
        {
          "Same-day delivery": true
        }
      ],
      "Accessibility": [
        {
          "Wheelchair accessible entrance": true
        },
        {
          "Wheelchair accessible parking lot": true
        }
      ],
      "Payments": [
        {
          "Credit cards": true
        },
        {
          "Debit cards": true
        },
        {
          "NFC mobile payments": true
        },
        {
          "Credit cards": true
        }
      ]
    },
    "gasPrices": [],
    "url": "https://www.google.com/maps/search/?api=1&query=Prime%20Pharmacy%20Compounding%20%26%20LTC&query_place_id=ChIJdVx_TMFDkFQRFnalZw-Z0_M",
    "searchPageUrl": "https://www.google.com/maps/search/independent%20pharmacy%20Seattle%20WA/@63.653579074253855,-147.35651604297223,9z?hl=en",
    "searchString": "independent pharmacy Seattle WA",
    "language": "en",
    "rank": 10,
    "isAdvertisement": false,
    "imageUrl": "https://lh3.googleusercontent.com/gps-cs-s/AC9h4nrpTqnlFPegnhm-d-HmM8vE4IOyT6Gi67J6wqdt63-k7uFyCvLsXU8DMcNTzcglibNCVXf6l4XL1jyTX54jK-H410dBj11j-t24JoKTu79USChhTEOamZYMCwfP8orbbpoxIJCHZw=w408-h272-k-no",
    "kgmid": "/g/11h6tqddcn",
    "classification": "independent",
    "is_independent": true,
    "is_compounding": true,
    "confidence": 0.95,
    "source": "perplexity",
    "method": "llm"
  },
  {
    "title": "Chesterfield Pharmacy",
    "price": null,
    "categoryName": "Pharmacy",
    "address": "703 Columbia St, Seattle, WA 98104",
    "neighborhood": "Downtown Seattle",
    "street": "703 Columbia St",
    "city": "Seattle",
    "postalCode": "98104",
    "state": "Washington",
    "countryCode": "US",
    "website": "https://chesterfieldhealth.com/chesterfield-pharmacy/",
    "phone": "(206) 838-6070",
    "phoneUnformatted": "+12068386070",
    "claimThisBusiness": true,
    "location": {
      "lat": 47.6059766,
      "lng": -122.3280499
    },
    "totalScore": 4,
    "permanentlyClosed": false,
    "temporarilyClosed": false,
    "placeId": null,
    "categories": [
      "Pharmacy"
    ],
    "fid": "0x54906ab713e1b0d9:0x128d778a90bae0e0",
    "cid": "1336856101416263904",
    "reviewsCount": 5,
    "imagesCount": 1,
    "imageCategories": [],
    "scrapedAt": "2025-06-22T06:52:29.396Z",
    "googleFoodUrl": null,
    "hotelAds": [],
    "openingHours": [],
    "peopleAlsoSearch": [],
    "placesTags": [],
    "reviewsTags": [],
    "additionalInfo": {
      "Service options": [
        {
          "Delivery": true
        }
      ],
      "Accessibility": [
        {
          "Wheelchair accessible entrance": true
        }
      ],
      "Planning": [
        {
          "Quick visit": true
        }
      ],
      "Payments": [
        {
          "Credit cards": true
        },
        {
          "Debit cards": true
        },
        {
          "NFC mobile payments": true
        },
        {
          "Credit cards": true
        }
      ]
    },
    "gasPrices": [],
    "url": "https://www.google.com/maps/search/?api=1&query=Chesterfield%20Pharmacy&query_place_id=ChIJ2bDhE7dqkFQR4OC6kIp3jRI",
    "searchPageUrl": "https://www.google.com/maps/search/independent%20pharmacy%20Seattle%20WA/@63.653579074253855,-147.35651604297223,9z?hl=en",
    "searchString": "independent pharmacy Seattle WA",
    "language": "en",
    "rank": 11,
    "isAdvertisement": false,
    "imageUrl": "https://streetviewpixels-pa.googleapis.com/v1/thumbnail?panoid=JlhgmePSxTH8f3nC1IsiEA&cb_client=search.gws-prod.gps&w=408&h=240&yaw=115.41302&pitch=0&thumbfov=100",
    "kgmid": "/g/11cks65r_t",
    "classification": "independent",
    "is_independent": true,
    "is_compounding": false,
    "confidence": 0.9,
    "source": "perplexity",
    "method": "llm"
  },
  {
    "title": "Genoa Healthcare",
    "price": null,
    "categoryName": "Pharmacy",
    "address": "1600 E Olive St Building D, Seattle, WA 98122",
    "neighborhood": "Stevens",
    "street": "1600 E Olive St Building D",
    "city": "Seattle",
    "postalCode": "98122",
    "state": "Washington",
    "countryCode": "US",
    "website": "http://www.genoahealthcare.com/",
    "phone": "(425) 835-7110",
    "phoneUnformatted": "+14258357110",
    "claimThisBusiness": false,
    "location": {
      "lat": 47.6167509,
      "lng": -122.3104599
    },
    "totalScore": 4.5,
    "permanentlyClosed": false,
    "temporarilyClosed": false,
    "placeId": null,
    "categories": [
      "Pharmacy",
      "Nursing agency",
      "Physical therapist"
    ],
    "fid": "0x54906ad3caf13765:0xd2e684fd8eb6d3a1",
    "cid": "15196980217164256161",
    "reviewsCount": 25,
    "imagesCount": 1,
    "imageCategories": [],
    "scrapedAt": "2025-06-22T06:52:29.396Z",
    "googleFoodUrl": null,
    "hotelAds": [],
    "openingHours": [
      {
        "day": "Monday",
        "hours": "8:30\u202fAM to 5\u202fPM"
      },
      {
        "day": "Tuesday",
        "hours": "8:30\u202fAM to 5\u202fPM"
      },
      {
        "day": "Wednesday",
        "hours": "8:30\u202fAM to 5\u202fPM"
      },
      {
        "day": "Thursday",
        "hours": "8:30\u202fAM to 5\u202fPM"
      },
      {
        "day": "Friday",
        "hours": "8:30\u202fAM to 5\u202fPM"
      },
      {
        "day": "Saturday",
        "hours": "Closed"
      },
      {
        "day": "Sunday",
        "hours": "Closed"
      }
    ],
    "peopleAlsoSearch": [],
    "placesTags": [],
    "reviewsTags": [],
    "additionalInfo": {
      "Accessibility": [
        {
          "Wheelchair accessible entrance": true
        }
      ],
      "Payments": [
        {
          "Credit cards": true
        }
      ]
    },
    "gasPrices": [],
    "url": "https://www.google.com/maps/search/?api=1&query=Genoa%20Healthcare&query_place_id=ChIJZTfxytNqkFQRodO2jv2E5tI",
    "searchPageUrl": "https://www.google.com/maps/search/independent%20pharmacy%20Seattle%20WA/@63.653579074253855,-147.35651604297223,9z?hl=en",
    "searchString": "independent pharmacy Seattle WA",
    "language": "en",
    "rank": 12,
    "isAdvertisement": false,
    "imageUrl": "https://streetviewpixels-pa.googleapis.com/v1/thumbnail?panoid=_zvIa7J-wAtTxljcCavJ2A&cb_client=search.gws-prod.gps&w=408&h=240&yaw=9.211017&pitch=0&thumbfov=100",
    "kgmid": "/g/1tdj3xr0",
    "classification": "chain",
    "is_independent": false,
    "is_compounding": false,
    "confidence": 0.95,
    "source": "perplexity",
    "method": "llm"
  },
  {
    "title": "Quynh's Pharmacy",
    "price": null,
    "categoryName": "Pharmacy",
    "address": "1221 South Main St #103, Seattle, WA 98144",
    "neighborhood": "Atlantic",
    "street": "1221 South Main St #103",
    "city": "Seattle",
    "postalCode": "98144",
    "state": "Washington",
    "countryCode": "US",
    "phone": "(206) 323-6003",
    "phoneUnformatted": "+12063236003",
    "claimThisBusiness": false,
    "location": {
      "lat": 47.599736,
      "lng": -122.3161061
    },
    "totalScore": 5,
    "permanentlyClosed": false,
    "temporarilyClosed": false,
    "placeId": null,
    "categories": [
      "Pharmacy"
    ],
    "fid": "0x54906abfa0898ed7:0x49cd356b7aadbe96",
    "cid": "5317965470730403478",
    "reviewsCount": 6,
    "imagesCount": 7,
    "imageCategories": [],
    "scrapedAt": "2025-06-22T06:52:29.396Z",
    "googleFoodUrl": null,
    "hotelAds": [],
    "openingHours": [
      {
        "day": "Monday",
        "hours": "9\u202fAM to 5\u202fPM"
      },
      {
        "day": "Tuesday",
        "hours": "9\u202fAM to 5\u202fPM"
      },
      {
        "day": "Wednesday",
        "hours": "9\u202fAM to 5\u202fPM"
      },
      {
        "day": "Thursday",
        "hours": "9\u202fAM to 5\u202fPM"
      },
      {
        "day": "Friday",
        "hours": "9\u202fAM to 5\u202fPM"
      },
      {
        "day": "Saturday",
        "hours": "Closed"
      },
      {
        "day": "Sunday",
        "hours": "Closed"
      }
    ],
    "additionalOpeningHours": {
      "Delivery": [
        {
          "day": "Monday",
          "hours": "5\u20138\u202fPM"
        },
        {
          "day": "Tuesday",
          "hours": "5\u20138\u202fPM"
        },
        {
          "day": "Wednesday",
          "hours": "5\u20138\u202fPM"
        },
        {
          "day": "Thursday",
          "hours": "5\u20138\u202fPM"
        },
        {
          "day": "Friday",
          "hours": "5\u20138\u202fPM"
        },
        {
          "day": "Saturday",
          "hours": "Closed"
        },
        {
          "day": "Sunday",
          "hours": "Closed"
        }
      ]
    },
    "peopleAlsoSearch": [],
    "placesTags": [],
    "reviewsTags": [],
    "additionalInfo": {
      "From the business": [
        {
          "Identifies as Asian-owned": true
        },
        {
          "Identifies as women-owned": true
        },
        {
          "Small business": true
        }
      ],
      "Service options": [
        {
          "Delivery": true
        },
        {
          "Same-day delivery": true
        }
      ],
      "Accessibility": [
        {
          "Wheelchair accessible entrance": true
        },
        {
          "Wheelchair accessible restroom": true
        },
        {
          "Wheelchair accessible seating": true
        }
      ],
      "Amenities": [
        {
          "Gender-neutral restroom": true
        },
        {
          "Wi-Fi": true
        },
        {
          "Free Wi-Fi": true
        }
      ],
      "Crowd": [
        {
          "LGBTQ+ friendly": true
        },
        {
          "Transgender safespace": true
        }
      ],
      "Planning": [
        {
          "Quick visit": true
        }
      ],
      "Payments": [
        {
          "Checks": true
        },
        {
          "Credit cards": true
        },
        {
          "Debit cards": true
        },
        {
          "NFC mobile payments": true
        },
        {
          "Credit cards": true
        }
      ],
      "Parking": [
        {
          "Free parking lot": true
        },
        {
          "Free street parking": true
        }
      ]
    },
    "gasPrices": [],
    "url": "https://www.google.com/maps/search/?api=1&query=Quynh's%20Pharmacy&query_place_id=ChIJ146JoL9qkFQRlr6tems1zUk",
    "searchPageUrl": "https://www.google.com/maps/search/independent%20pharmacy%20Seattle%20WA/@63.653579074253855,-147.35651604297223,9z?hl=en",
    "searchString": "independent pharmacy Seattle WA",
    "language": "en",
    "rank": 13,
    "isAdvertisement": false,
    "imageUrl": "https://lh3.googleusercontent.com/p/AF1QipNH0SnF3tpZ7fPKaZKtEf4m4zeQs0A31sLov8xG=w408-h306-k-no",
    "kgmid": "/g/12618nr7d",
    "classification": "independent",
    "is_independent": true,
    "is_compounding": false,
    "confidence": 0.9,
    "source": "perplexity",
    "method": "llm"
  },
  {
    "title": "Cascadia Pharmacy Wallingford",
    "price": null,
    "categoryName": "Pharmacy",
    "address": "1815 N 45th St STE 110, Seattle, WA 98103",
    "neighborhood": "Wallingford",
    "street": "1815 N 45th St STE 110",
    "city": "Seattle",
    "postalCode": "98103",
    "state": "Washington",
    "countryCode": "US",
    "website": "https://www.cascadiapharmacy.com/",
    "phone": "(206) 385-6552",
    "phoneUnformatted": "+12063856552",
    "claimThisBusiness": false,
    "location": {
      "lat": 47.6612302,
      "lng": -122.3356935
    },
    "totalScore": 5,
    "permanentlyClosed": false,
    "temporarilyClosed": false,
    "placeId": null,
    "categories": [
      "Pharmacy"
    ],
    "fid": "0x549015e0c909eb09:0xaf69087244df8976",
    "cid": "12639643116066802038",
    "reviewsCount": 36,
    "imagesCount": 19,
    "imageCategories": [],
    "scrapedAt": "2025-06-22T06:52:29.396Z",
    "googleFoodUrl": null,
    "hotelAds": [],
    "openingHours": [
      {
        "day": "Monday",
        "hours": "9\u202fAM to 6\u202fPM"
      },
      {
        "day": "Tuesday",
        "hours": "9\u202fAM to 6\u202fPM"
      },
      {
        "day": "Wednesday",
        "hours": "9\u202fAM to 6\u202fPM"
      },
      {
        "day": "Thursday",
        "hours": "9\u202fAM to 6\u202fPM"
      },
      {
        "day": "Friday",
        "hours": "9\u202fAM to 6\u202fPM"
      },
      {
        "day": "Saturday",
        "hours": "10\u202fAM to 5\u202fPM"
      },
      {
        "day": "Sunday",
        "hours": "Closed"
      }
    ],
    "additionalOpeningHours": {
      "Delivery": [
        {
          "day": "Monday",
          "hours": "9\u202fAM\u20135\u202fPM"
        },
        {
          "day": "Tuesday",
          "hours": "9\u202fAM\u20135\u202fPM"
        },
        {
          "day": "Wednesday",
          "hours": "9\u202fAM\u20135\u202fPM"
        },
        {
          "day": "Thursday",
          "hours": "9\u202fAM\u20135\u202fPM"
        },
        {
          "day": "Friday",
          "hours": "9\u202fAM\u20135\u202fPM"
        },
        {
          "day": "Saturday",
          "hours": "Closed"
        },
        {
          "day": "Sunday",
          "hours": "Closed"
        }
      ],
      "Senior hours": [
        {
          "day": "Monday",
          "hours": "Closed"
        },
        {
          "day": "Tuesday",
          "hours": "9\u202fAM\u20136\u202fPM"
        },
        {
          "day": "Wednesday",
          "hours": "Closed"
        },
        {
          "day": "Thursday",
          "hours": "Closed"
        },
        {
          "day": "Friday",
          "hours": "Closed"
        },
        {
          "day": "Saturday",
          "hours": "Closed"
        },
        {
          "day": "Sunday",
          "hours": "Closed"
        }
      ]
    },
    "peopleAlsoSearch": [],
    "placesTags": [],
    "reviewsTags": [],
    "additionalInfo": {
      "From the business": [
        {
          "Identifies as women-owned": true
        },
        {
          "Small business": true
        }
      ],
      "Service options": [
        {
          "Delivery": true
        },
        {
          "In-store pickup": true
        },
        {
          "Onsite services": true
        }
      ],
      "Accessibility": [
        {
          "Wheelchair accessible entrance": true
        },
        {
          "Wheelchair accessible parking lot": true
        },
        {
          "Wheelchair accessible restroom": true
        },
        {
          "Wheelchair accessible seating": false
        }
      ],
      "Amenities": [
        {
          "Gender-neutral restroom": true
        }
      ],
      "Planning": [
        {
          "Quick visit": true
        }
      ],
      "Payments": [
        {
          "Credit cards": true
        }
      ],
      "Parking": [
        {
          "Free parking lot": true
        }
      ]
    },
    "gasPrices": [],
    "url": "https://www.google.com/maps/search/?api=1&query=Cascadia%20Pharmacy%20Wallingford&query_place_id=ChIJCesJyeAVkFQRdonfRHIIaa8",
    "searchPageUrl": "https://www.google.com/maps/search/independent%20pharmacy%20Seattle%20WA/@63.653579074253855,-147.35651604297223,9z?hl=en",
    "searchString": "independent pharmacy Seattle WA",
    "language": "en",
    "rank": 14,
    "isAdvertisement": false,
    "imageUrl": "https://lh3.googleusercontent.com/gps-cs-s/AC9h4nrWl-omHh17SUZ2WPTqi0exedQJyQVoSB3d6YuksKM2CPorxdnQkza1RdMsuq0oZ-MIXmaY5nBHiYTExYVJ5Vw4IYRHANf_F6Mb00GNU3Bpex1iT1bakm0oGlTt8Rxo_v7xRKQBaw=w408-h492-k-no",
    "kgmid": "/g/11w3db8k9n",
    "classification": "independent",
    "is_independent": true,
    "is_compounding": false,
    "confidence": 0.9,
    "source": "perplexity",
    "method": "llm"
  },
  {
    "title": "Othello Station Pharmacy",
    "price": null,
    "categoryName": "Pharmacy",
    "address": "4219 S Othello St SUITE 105 F, Seattle, WA 98118",
    "neighborhood": "Brighton",
    "street": "4219 S Othello St SUITE 105 F",
    "city": "Seattle",
    "postalCode": "98118",
    "state": "Washington",
    "countryCode": "US",
    "website": "http://www.othellostationrx.com/",
    "phone": "(206) 620-2400",
    "phoneUnformatted": "+12066202400",
    "claimThisBusiness": false,
    "location": {
      "lat": 47.5369263,
      "lng": -122.2801914
    },
    "totalScore": 4.8,
    "permanentlyClosed": false,
    "temporarilyClosed": false,
    "placeId": null,
    "categories": [
      "Pharmacy"
    ],
    "fid": "0x5490431cefcfdb93:0xdabef9070040d70c",
    "cid": "15762309554307651340",
    "reviewsCount": 111,
    "imagesCount": 38,
    "imageCategories": [],
    "scrapedAt": "2025-06-22T06:52:29.397Z",
    "googleFoodUrl": null,
    "hotelAds": [],
    "openingHours": [
      {
        "day": "Monday",
        "hours": "9\u202fAM to 7\u202fPM"
      },
      {
        "day": "Tuesday",
        "hours": "9\u202fAM to 7\u202fPM"
      },
      {
        "day": "Wednesday",
        "hours": "9\u202fAM to 7\u202fPM"
      },
      {
        "day": "Thursday",
        "hours": "9\u202fAM to 7\u202fPM"
      },
      {
        "day": "Friday",
        "hours": "9\u202fAM to 7\u202fPM"
      },
      {
        "day": "Saturday",
        "hours": "10\u202fAM to 4\u202fPM"
      },
      {
        "day": "Sunday",
        "hours": "Closed"
      }
    ],
    "peopleAlsoSearch": [],
    "placesTags": [],
    "reviewsTags": [],
    "additionalInfo": {
      "From the business": [
        {
          "Identifies as Black-owned": true
        },
        {
          "Small business": true
        }
      ],
      "Service options": [
        {
          "Curbside pickup": true
        },
        {
          "Delivery": true
        },
        {
          "In-store pickup": true
        },
        {
          "In-store shopping": true
        },
        {
          "Onsite services": true
        },
        {
          "Same-day delivery": true
        }
      ],
      "Accessibility": [
        {
          "Wheelchair accessible entrance": true
        },
        {
          "Wheelchair accessible parking lot": true
        }
      ],
      "Offerings": [
        {
          "Medication disposal": true
        }
      ],
      "Planning": [
        {
          "Quick visit": true
        }
      ],
      "Payments": [
        {
          "Credit cards": true
        },
        {
          "Debit cards": true
        },
        {
          "Credit cards": true
        }
      ]
    },
    "gasPrices": [],
    "url": "https://www.google.com/maps/search/?api=1&query=Othello%20Station%20Pharmacy&query_place_id=ChIJk9vP7xxDkFQRDNdAAAf5vto",
    "searchPageUrl": "https://www.google.com/maps/search/independent%20pharmacy%20Seattle%20WA/@63.653579074253855,-147.35651604297223,9z?hl=en",
    "searchString": "independent pharmacy Seattle WA",
    "language": "en",
    "rank": 15,
    "isAdvertisement": false,
    "imageUrl": "https://lh3.googleusercontent.com/gps-cs-s/AC9h4nq3ud2mhY2QnLO6o8JwIs4xAXhxV9Z7lwz71RwiMXwS9xg7Klj0aQ9orwvD2f1RUxTGHpY77I3u4zRpJuEt_4-u7wAo9eAuOJn3pkB7X4dMvbHOyLSq_gbn5n7ba5PaMKI_K6SS=w408-h544-k-no",
    "kgmid": "/g/11h2g45hbm",
    "classification": "independent",
    "is_independent": true,
    "is_compounding": false,
    "confidence": 0.9,
    "source": "perplexity",
    "method": "llm"
  },
  {
    "title": "Eastern's Pharmacy",
    "price": null,
    "categoryName": "Pharmacy",
    "address": "515 Minor Ave #120, Seattle, WA 98104",
    "neighborhood": "Yesler Terrace",
    "street": "515 Minor Ave #120",
    "city": "Seattle",
    "postalCode": "98104",
    "state": "Washington",
    "countryCode": "US",
    "website": "http://www.easternspharmacy.com/",
    "phone": "(206) 622-6094",
    "phoneUnformatted": "+12066226094",
    "claimThisBusiness": false,
    "location": {
      "lat": 47.6062712,
      "lng": -122.3218822
    },
    "totalScore": 4.6,
    "permanentlyClosed": false,
    "temporarilyClosed": false,
    "placeId": null,
    "categories": [
      "Pharmacy"
    ],
    "fid": "0x54906ac800a4837f:0xb44cca2df2716444",
    "cid": "12991981323746894916",
    "reviewsCount": 30,
    "imagesCount": 6,
    "imageCategories": [],
    "scrapedAt": "2025-06-22T06:52:29.397Z",
    "googleFoodUrl": null,
    "hotelAds": [],
    "openingHours": [
      {
        "day": "Monday",
        "hours": "8:30\u202fAM to 5\u202fPM"
      },
      {
        "day": "Tuesday",
        "hours": "8:30\u202fAM to 5\u202fPM"
      },
      {
        "day": "Wednesday",
        "hours": "8:30\u202fAM to 5\u202fPM"
      },
      {
        "day": "Thursday",
        "hours": "8:30\u202fAM to 5\u202fPM"
      },
      {
        "day": "Friday",
        "hours": "8:30\u202fAM to 5\u202fPM"
      },
      {
        "day": "Saturday",
        "hours": "Closed"
      },
      {
        "day": "Sunday",
        "hours": "Closed"
      }
    ],
    "peopleAlsoSearch": [],
    "placesTags": [],
    "reviewsTags": [],
    "additionalInfo": {
      "From the business": [
        {
          "Small business": true
        }
      ],
      "Service options": [
        {
          "Delivery": true
        },
        {
          "In-store pickup": true
        },
        {
          "In-store shopping": true
        },
        {
          "Same-day delivery": true
        }
      ],
      "Accessibility": [
        {
          "Wheelchair accessible entrance": true
        },
        {
          "Wheelchair accessible parking lot": true
        },
        {
          "Wheelchair accessible restroom": true
        },
        {
          "Wheelchair accessible seating": true
        }
      ],
      "Offerings": [
        {
          "Medication disposal": true
        }
      ],
      "Amenities": [
        {
          "Wi-Fi": true
        },
        {
          "Free Wi-Fi": true
        }
      ],
      "Crowd": [
        {
          "LGBTQ+ friendly": true
        }
      ],
      "Planning": [
        {
          "Quick visit": true
        }
      ],
      "Payments": [
        {
          "Credit cards": true
        },
        {
          "Debit cards": true
        },
        {
          "NFC mobile payments": true
        },
        {
          "Credit cards": true
        }
      ]
    },
    "gasPrices": [],
    "url": "https://www.google.com/maps/search/?api=1&query=Eastern's%20Pharmacy&query_place_id=ChIJf4OkAMhqkFQRRGRx8i3KTLQ",
    "searchPageUrl": "https://www.google.com/maps/search/independent%20pharmacy%20Seattle%20WA/@63.653579074253855,-147.35651604297223,9z?hl=en",
    "searchString": "independent pharmacy Seattle WA",
    "language": "en",
    "rank": 16,
    "isAdvertisement": false,
    "imageUrl": "https://lh3.googleusercontent.com/p/AF1QipMIJYyIIQt0eCr18r5gumz_Bs-McRkqZ6tpBP5t=w408-h306-k-no",
    "kgmid": "/g/1tp2_25z",
    "classification": "independent",
    "is_independent": true,
    "is_compounding": false,
    "confidence": 0.9,
    "source": "perplexity",
    "method": "llm"
  },
  {
    "title": "Virginia Mason Lindeman Pavilion Pharmacy",
    "price": null,
    "categoryName": "Pharmacy",
    "address": "1201 Terry Ave Level 2, Seattle, WA 98101",
    "neighborhood": "Downtown Seattle",
    "street": "1201 Terry Ave Level 2",
    "city": "Seattle",
    "postalCode": "98101",
    "state": "Washington",
    "countryCode": "US",
    "website": "https://www.vmfh.org/our-hospitals/virginia-mason-medical-center",
    "phone": "(206) 625-7202",
    "phoneUnformatted": "+12066257202",
    "claimThisBusiness": false,
    "location": {
      "lat": 47.6103958,
      "lng": -122.3281515
    },
    "totalScore": 3,
    "permanentlyClosed": false,
    "temporarilyClosed": false,
    "placeId": null,
    "categories": [
      "Pharmacy"
    ],
    "fid": "0x54906bf042fb2387:0x7e2224b3b067ba86",
    "cid": "9088867352164416134",
    "reviewsCount": 24,
    "imagesCount": 1,
    "imageCategories": [],
    "scrapedAt": "2025-06-22T06:52:29.397Z",
    "googleFoodUrl": null,
    "hotelAds": [],
    "openingHours": [
      {
        "day": "Monday",
        "hours": "8\u202fAM to 6\u202fPM"
      },
      {
        "day": "Tuesday",
        "hours": "8\u202fAM to 6\u202fPM"
      },
      {
        "day": "Wednesday",
        "hours": "8\u202fAM to 6\u202fPM"
      },
      {
        "day": "Thursday",
        "hours": "8\u202fAM to 6\u202fPM"
      },
      {
        "day": "Friday",
        "hours": "8\u202fAM to 6\u202fPM"
      },
      {
        "day": "Saturday",
        "hours": "Closed"
      },
      {
        "day": "Sunday",
        "hours": "Closed"
      }
    ],
    "peopleAlsoSearch": [],
    "placesTags": [],
    "reviewsTags": [],
    "additionalInfo": {
      "Accessibility": [
        {
          "Wheelchair accessible entrance": true
        },
        {
          "Wheelchair accessible parking lot": true
        }
      ],
      "Amenities": [
        {
          "Wi-Fi": true
        },
        {
          "Free Wi-Fi": true
        }
      ],
      "Payments": [
        {
          "Credit cards": true
        },
        {
          "Debit cards": true
        },
        {
          "NFC mobile payments": true
        },
        {
          "Credit cards": true
        }
      ]
    },
    "gasPrices": [],
    "url": "https://www.google.com/maps/search/?api=1&query=Virginia%20Mason%20Lindeman%20Pavilion%20Pharmacy&query_place_id=ChIJhyP7QvBrkFQRhrpnsLMkIn4",
    "searchPageUrl": "https://www.google.com/maps/search/independent%20pharmacy%20Seattle%20WA/@63.653579074253855,-147.35651604297223,9z?hl=en",
    "searchString": "independent pharmacy Seattle WA",
    "language": "en",
    "rank": 17,
    "isAdvertisement": false,
    "imageUrl": "https://streetviewpixels-pa.googleapis.com/v1/thumbnail?panoid=sQAz1IsFyE78UMuwhnl-vQ&cb_client=search.gws-prod.gps&w=408&h=240&yaw=222.8799&pitch=0&thumbfov=100",
    "kgmid": "/g/11n6lytvx7",
    "classification": "independent",
    "is_independent": true,
    "is_compounding": false,
    "confidence": 0.85,
    "source": "perplexity",
    "method": "llm"
  },
  {
    "title": "Katterman's Sand Point Pharmacy",
    "price": null,
    "categoryName": "Pharmacy",
    "address": "5400 Sand Point Way NE, Seattle, WA 98105",
    "neighborhood": "Laurelhurst",
    "street": "5400 Sand Point Way NE",
    "city": "Seattle",
    "postalCode": "98105",
    "state": "Washington",
    "countryCode": "US",
    "website": "http://www.kattermans.com/",
    "phone": "(206) 524-2211",
    "phoneUnformatted": "+12065242211",
    "claimThisBusiness": false,
    "location": {
      "lat": 47.6682096,
      "lng": -122.2771499
    },
    "totalScore": 4.7,
    "permanentlyClosed": false,
    "temporarilyClosed": false,
    "placeId": null,
    "categories": [
      "Pharmacy"
    ],
    "fid": "0x5490137c0a92c51d:0x25bc8401530dd31c",
    "cid": "2719193416248185628",
    "reviewsCount": 58,
    "imagesCount": 14,
    "imageCategories": [],
    "scrapedAt": "2025-06-22T06:52:29.397Z",
    "googleFoodUrl": null,
    "hotelAds": [],
    "openingHours": [
      {
        "day": "Monday",
        "hours": "9\u202fAM to 6\u202fPM"
      },
      {
        "day": "Tuesday",
        "hours": "9\u202fAM to 6\u202fPM"
      },
      {
        "day": "Wednesday",
        "hours": "9\u202fAM to 6\u202fPM"
      },
      {
        "day": "Thursday",
        "hours": "9\u202fAM to 6\u202fPM"
      },
      {
        "day": "Friday",
        "hours": "9\u202fAM to 6\u202fPM"
      },
      {
        "day": "Saturday",
        "hours": "10\u202fAM to 5\u202fPM"
      },
      {
        "day": "Sunday",
        "hours": "Closed"
      }
    ],
    "additionalOpeningHours": {
      "Delivery": [
        {
          "day": "Monday",
          "hours": "9\u202fAM\u20135\u202fPM"
        },
        {
          "day": "Tuesday",
          "hours": "9\u202fAM\u20135\u202fPM"
        },
        {
          "day": "Wednesday",
          "hours": "9\u202fAM\u20135\u202fPM"
        },
        {
          "day": "Thursday",
          "hours": "9\u202fAM\u20135\u202fPM"
        },
        {
          "day": "Friday",
          "hours": "9\u202fAM\u20135\u202fPM"
        },
        {
          "day": "Saturday",
          "hours": "Closed"
        },
        {
          "day": "Sunday",
          "hours": "Closed"
        }
      ]
    },
    "peopleAlsoSearch": [],
    "placesTags": [],
    "reviewsTags": [],
    "additionalInfo": {
      "From the business": [
        {
          "Identifies as Asian-owned": true
        },
        {
          "Identifies as women-owned": true
        },
        {
          "Small business": true
        }
      ],
      "Service options": [
        {
          "Delivery": true
        },
        {
          "In-store pickup": true
        }
      ],
      "Accessibility": [
        {
          "Wheelchair accessible entrance": true
        },
        {
          "Wheelchair accessible parking lot": true
        }
      ],
      "Planning": [
        {
          "Quick visit": true
        }
      ],
      "Payments": [
        {
          "Credit cards": true
        },
        {
          "Debit cards": true
        },
        {
          "NFC mobile payments": true
        },
        {
          "Credit cards": true
        }
      ]
    },
    "gasPrices": [],
    "url": "https://www.google.com/maps/search/?api=1&query=Katterman's%20Sand%20Point%20Pharmacy&query_place_id=ChIJHcWSCnwTkFQRHNMNUwGEvCU",
    "searchPageUrl": "https://www.google.com/maps/search/independent%20pharmacy%20Seattle%20WA/@63.653579074253855,-147.35651604297223,9z?hl=en",
    "searchString": "independent pharmacy Seattle WA",
    "language": "en",
    "rank": 18,
    "isAdvertisement": false,
    "imageUrl": "https://lh3.googleusercontent.com/gps-cs-s/AC9h4nrwE5jvwq-pAjION79yBYTS-5MpuBVLbyGBWzN6XgA4gCHKb3W0iKJu5FckarsghyEvaGGRNAPiJHvzb04LqexVx1zaALq5_if-nkW_z6WqV216XoLQ2YydlCrgLjKzJvOsY4M=w408-h306-k-no",
    "kgmid": "/g/1tkc1tjv",
    "classification": "independent",
    "is_independent": true,
    "is_compounding": false,
    "confidence": 0.9,
    "source": "perplexity",
    "method": "llm"
  },
  {
    "title": "Clark's Compounding Pharmacy",
    "price": null,
    "categoryName": "Pharmacy",
    "address": "15615 NE Bel Red Rd suite b, Bellevue, WA 98008",
    "neighborhood": "Northeast Bellevue",
    "street": "15615 NE Bel Red Rd suite b",
    "city": "Bellevue",
    "postalCode": "98008",
    "state": "Washington",
    "countryCode": "US",
    "website": "http://www.clarkspharmacywa.com/",
    "phone": "(425) 881-0222",
    "phoneUnformatted": "+14258810222",
    "claimThisBusiness": false,
    "location": {
      "lat": 47.633045,
      "lng": -122.1308566
    },
    "totalScore": 4.8,
    "permanentlyClosed": false,
    "temporarilyClosed": false,
    "placeId": null,
    "categories": [
      "Pharmacy",
      "Vitamin & supplements store"
    ],
    "fid": "0x54906d0a9e2d692d:0x6296afc2a2fa9112",
    "cid": "7104058712716382482",
    "reviewsCount": 112,
    "imagesCount": 19,
    "imageCategories": [],
    "scrapedAt": "2025-06-22T06:52:29.397Z",
    "googleFoodUrl": null,
    "hotelAds": [],
    "openingHours": [
      {
        "day": "Monday",
        "hours": "9\u202fAM to 6\u202fPM"
      },
      {
        "day": "Tuesday",
        "hours": "9\u202fAM to 6\u202fPM"
      },
      {
        "day": "Wednesday",
        "hours": "9\u202fAM to 6\u202fPM"
      },
      {
        "day": "Thursday",
        "hours": "9\u202fAM to 6\u202fPM"
      },
      {
        "day": "Friday",
        "hours": "9\u202fAM to 6\u202fPM"
      },
      {
        "day": "Saturday",
        "hours": "Closed"
      },
      {
        "day": "Sunday",
        "hours": "Closed"
      }
    ],
    "peopleAlsoSearch": [],
    "placesTags": [],
    "reviewsTags": [],
    "additionalInfo": {
      "From the business": [
        {
          "Identifies as women-owned": true
        },
        {
          "Small business": true
        }
      ],
      "Service options": [
        {
          "Curbside pickup": true
        },
        {
          "Delivery": true
        },
        {
          "In-store pickup": true
        },
        {
          "In-store shopping": true
        },
        {
          "Onsite services": true
        }
      ],
      "Accessibility": [
        {
          "Wheelchair accessible entrance": true
        },
        {
          "Wheelchair accessible parking lot": true
        }
      ],
      "Planning": [
        {
          "Quick visit": true
        }
      ],
      "Payments": [
        {
          "Checks": true
        },
        {
          "Credit cards": true
        },
        {
          "Debit cards": true
        },
        {
          "NFC mobile payments": true
        },
        {
          "Credit cards": true
        }
      ]
    },
    "gasPrices": [],
    "url": "https://www.google.com/maps/search/?api=1&query=Clark's%20Compounding%20Pharmacy&query_place_id=ChIJLWktngptkFQREpH6osKvlmI",
    "searchPageUrl": "https://www.google.com/maps/search/independent%20pharmacy%20Seattle%20WA/@63.653579074253855,-147.35651604297223,9z?hl=en",
    "searchString": "independent pharmacy Seattle WA",
    "language": "en",
    "rank": 19,
    "isAdvertisement": false,
    "imageUrl": "https://lh3.googleusercontent.com/p/AF1QipMElIHCbmVDLiwys680wVf0-qgcIjisoMCJaqR3=w408-h306-k-no",
    "kgmid": "/g/1tjkfhlq",
    "classification": "independent",
    "is_independent": true,
    "is_compounding": true,
    "confidence": 0.95,
    "source": "perplexity",
    "method": "llm"
  },
  {
    "title": "Credena Health Pharmacy First Hill",
    "price": null,
    "categoryName": "Pharmacy",
    "address": "747 Broadway Suite ET Suite ET-144, Seattle, WA 98122",
    "neighborhood": "Downtown Seattle",
    "street": "747 Broadway Suite ET Suite ET-144",
    "city": "Seattle",
    "postalCode": "98122",
    "state": "WA",
    "countryCode": "US",
    "website": "https://www.providence.org/credena-health/locations/first-hill",
    "phone": "(206) 386-6030",
    "phoneUnformatted": "+12063866030",
    "claimThisBusiness": false,
    "location": {
      "lat": 47.6088664,
      "lng": -122.3219066
    },
    "totalScore": 4.3,
    "permanentlyClosed": false,
    "temporarilyClosed": false,
    "placeId": null,
    "categories": [
      "Pharmacy"
    ],
    "fid": "0x54906bd38d8240fb:0x3c2ba6830b241f8e",
    "cid": "4335742148032077710",
    "reviewsCount": 7,
    "imagesCount": 1,
    "imageCategories": [],
    "scrapedAt": "2025-06-22T06:52:29.397Z",
    "googleFoodUrl": null,
    "hotelAds": [],
    "openingHours": [
      {
        "day": "Monday",
        "hours": "9\u202fAM to 6\u202fPM"
      },
      {
        "day": "Tuesday",
        "hours": "9\u202fAM to 6\u202fPM"
      },
      {
        "day": "Wednesday",
        "hours": "9\u202fAM to 6\u202fPM"
      },
      {
        "day": "Thursday",
        "hours": "9\u202fAM to 6\u202fPM"
      },
      {
        "day": "Friday",
        "hours": "9\u202fAM to 6\u202fPM"
      },
      {
        "day": "Saturday",
        "hours": "9\u202fAM to 5\u202fPM"
      },
      {
        "day": "Sunday",
        "hours": "9\u202fAM to 5\u202fPM"
      }
    ],
    "peopleAlsoSearch": [],
    "placesTags": [],
    "reviewsTags": [],
    "additionalInfo": {
      "Service options": [
        {
          "Delivery": true
        }
      ],
      "Accessibility": [
        {
          "Wheelchair accessible entrance": true
        },
        {
          "Wheelchair accessible parking lot": true
        }
      ],
      "Payments": [
        {
          "Credit cards": true
        },
        {
          "Debit cards": true
        },
        {
          "Credit cards": true
        }
      ]
    },
    "gasPrices": [],
    "url": "https://www.google.com/maps/search/?api=1&query=Credena%20Health%20Pharmacy%20First%20Hill&query_place_id=ChIJ-0CCjdNrkFQRjh8kC4OmKzw",
    "searchPageUrl": "https://www.google.com/maps/search/independent%20pharmacy%20Seattle%20WA/@63.653579074253855,-147.35651604297223,9z?hl=en",
    "searchString": "independent pharmacy Seattle WA",
    "language": "en",
    "rank": 20,
    "isAdvertisement": false,
    "imageUrl": "https://streetviewpixels-pa.googleapis.com/v1/thumbnail?panoid=OimSTyFWuviiNrEuA563Gw&cb_client=search.gws-prod.gps&w=408&h=240&yaw=282.19174&pitch=0&thumbfov=100",
    "kgmid": "/g/11smjcgnpg",
    "classification": "independent",
    "is_independent": true,
    "is_compounding": false,
    "confidence": 0.9,
    "source": "perplexity",
    "method": "llm"
  }
]