[
  {
    "title": "PharMerica \u2013 Sioux Falls, SD",
    "price": null,
    "categoryName": "Pharmacy",
    "address": "1507 W 51st St, Sioux Falls, SD 57105",
    "neighborhood": null,
    "street": "1507 W 51st St",
    "city": "Sioux Falls",
    "postalCode": "57105",
    "state": "South Dakota",
    "countryCode": "US",
    "website": "https://pharmerica.com/location/pharmerica-sioux-falls-sd/",
    "phone": "(800) 547-7329",
    "phoneUnformatted": "+18005477329",
    "claimThisBusiness": false,
    "location": {
      "lat": 43.5071052,
      "lng": -96.7437937
    },
    "totalScore": 1,
    "permanentlyClosed": false,
    "temporarilyClosed": false,
    "placeId": null,
    "categories": [
      "Pharmacy"
    ],
    "fid": "0x878eb6049ed01f25:0x10ed8b5496e10b84",
    "cid": "1219784269512117124",
    "reviewsCount": 3,
    "imagesCount": 1,
    "imageCategories": [],
    "scrapedAt": "2025-06-22T09:42:36.154Z",
    "googleFoodUrl": null,
    "hotelAds": [],
    "openingHours": [
      {
        "day": "Monday",
        "hours": "Open 24 hours"
      },
      {
        "day": "Tuesday",
        "hours": "Open 24 hours"
      },
      {
        "day": "Wednesday",
        "hours": "Open 24 hours"
      },
      {
        "day": "Thursday",
        "hours": "Open 24 hours"
      },
      {
        "day": "Friday",
        "hours": "Open 24 hours"
      },
      {
        "day": "Saturday",
        "hours": "Open 24 hours"
      },
      {
        "day": "Sunday",
        "hours": "Open 24 hours"
      }
    ],
    "peopleAlsoSearch": [],
    "placesTags": [],
    "reviewsTags": [],
    "additionalInfo": {
      "Accessibility": [
        {
          "Wheelchair accessible entrance": true
        },
        {
          "Wheelchair accessible parking lot": true
        }
      ],
      "Payments": [
        {
          "Credit cards": true
        }
      ]
    },
    "gasPrices": [],
    "url": "https://www.google.com/maps/search/?api=1&query=PharMerica%20%E2%80%93%20Sioux%20Falls%2C%20SD&query_place_id=ChIJJR_QngS2jocRhAvhllSL7RA",
    "searchPageUrl": "https://www.google.com/maps/search/independent%20pharmacy%20Sioux%20Falls%20SD/@60.874534795447715,-145.05491807162034,9z?hl=en",
    "searchString": "independent pharmacy Sioux Falls SD",
    "language": "en",
    "rank": 1,
    "isAdvertisement": false,
    "imageUrl": "https://streetviewpixels-pa.googleapis.com/v1/thumbnail?panoid=eKnOMINBqWKtlsgFxXU-WQ&cb_client=search.gws-prod.gps&w=408&h=240&yaw=152.33391&pitch=0&thumbfov=100",
    "kgmid": "/g/1ts1n3vh",
    "classification": "chain",
    "is_independent": false,
    "is_compounding": false,
    "confidence": 0.9,
    "source": "perplexity",
    "method": "llm"
  },
  {
    "title": "CareTrends Pharmacy",
    "price": null,
    "categoryName": "Pharmacy",
    "address": "6709 S Minnesota Ave STE 105, Sioux Falls, SD 57108",
    "neighborhood": null,
    "street": "6709 S Minnesota Ave STE 105",
    "city": "Sioux Falls",
    "postalCode": "57108",
    "state": "South Dakota",
    "countryCode": "US",
    "website": "http://www.caretrends.com/",
    "phone": "(605) 338-9383",
    "phoneUnformatted": "+16053389383",
    "claimThisBusiness": true,
    "location": {
      "lat": 43.4840092,
      "lng": -96.7287513
    },
    "totalScore": 5,
    "permanentlyClosed": false,
    "temporarilyClosed": false,
    "placeId": null,
    "categories": [
      "Pharmacy",
      "Convenience store",
      "Home health care service"
    ],
    "fid": "0x878eb6482f3a5ae3:0x8b782b565020fcb2",
    "cid": "10049830218188782770",
    "reviewsCount": 5,
    "imagesCount": null,
    "imageCategories": [],
    "scrapedAt": "2025-06-22T09:42:36.155Z",
    "googleFoodUrl": null,
    "hotelAds": [],
    "openingHours": [
      {
        "day": "Monday",
        "hours": "8:30\u202fAM to 5:30\u202fPM"
      },
      {
        "day": "Tuesday",
        "hours": "8:30\u202fAM to 5:30\u202fPM"
      },
      {
        "day": "Wednesday",
        "hours": "8:30\u202fAM to 5:30\u202fPM"
      },
      {
        "day": "Thursday",
        "hours": "8:30\u202fAM to 5:30\u202fPM"
      },
      {
        "day": "Friday",
        "hours": "8:30\u202fAM to 5:30\u202fPM"
      },
      {
        "day": "Saturday",
        "hours": "Closed"
      },
      {
        "day": "Sunday",
        "hours": "Closed"
      }
    ],
    "peopleAlsoSearch": [],
    "placesTags": [],
    "reviewsTags": [],
    "additionalInfo": {
      "Service options": [
        {
          "Delivery": true
        },
        {
          "In-store pickup": true
        }
      ],
      "Accessibility": [
        {
          "Wheelchair accessible entrance": true
        },
        {
          "Wheelchair accessible parking lot": true
        }
      ],
      "Payments": [
        {
          "Credit cards": true
        },
        {
          "Debit cards": true
        },
        {
          "Credit cards": true
        }
      ]
    },
    "gasPrices": [],
    "url": "https://www.google.com/maps/search/?api=1&query=CareTrends%20Pharmacy&query_place_id=ChIJ41o6L0i2jocRsvwgUFYreIs",
    "searchPageUrl": "https://www.google.com/maps/search/independent%20pharmacy%20Sioux%20Falls%20SD/@60.874534795447715,-145.05491807162034,9z?hl=en",
    "searchString": "independent pharmacy Sioux Falls SD",
    "language": "en",
    "rank": 2,
    "isAdvertisement": false,
    "kgmid": "/g/1260wzx3w",
    "classification": "independent",
    "is_independent": true,
    "is_compounding": false,
    "confidence": 0.85,
    "source": "perplexity",
    "method": "llm"
  },
  {
    "title": "Pharmacy Specialties & Clinic, Inc.",
    "price": null,
    "categoryName": "Pharmacy",
    "address": "2333 W 57th St, Sioux Falls, SD 57108",
    "neighborhood": null,
    "street": "2333 W 57th St",
    "city": "Sioux Falls",
    "postalCode": "57108",
    "state": "South Dakota",
    "countryCode": "US",
    "website": "http://www.rxpsi.com/",
    "phone": "(605) 334-1672",
    "phoneUnformatted": "+16053341672",
    "claimThisBusiness": true,
    "location": {
      "lat": 43.4992652,
      "lng": -96.755537
    },
    "totalScore": 4,
    "permanentlyClosed": false,
    "temporarilyClosed": false,
    "placeId": null,
    "categories": [
      "Pharmacy",
      "Health consultant",
      "Pain control clinic"
    ],
    "fid": "0x878ec9e17b4539cf:0xba766dd84376dd26",
    "cid": "13436047313918680358",
    "reviewsCount": 24,
    "imagesCount": 1,
    "imageCategories": [],
    "scrapedAt": "2025-06-22T09:42:36.155Z",
    "googleFoodUrl": null,
    "hotelAds": [],
    "openingHours": [
      {
        "day": "Monday",
        "hours": "8:30\u202fAM to 5:30\u202fPM"
      },
      {
        "day": "Tuesday",
        "hours": "8:30\u202fAM to 5:30\u202fPM"
      },
      {
        "day": "Wednesday",
        "hours": "8:30\u202fAM to 5:30\u202fPM"
      },
      {
        "day": "Thursday",
        "hours": "8:30\u202fAM to 5:30\u202fPM"
      },
      {
        "day": "Friday",
        "hours": "8:30\u202fAM to 5:30\u202fPM"
      },
      {
        "day": "Saturday",
        "hours": "Closed"
      },
      {
        "day": "Sunday",
        "hours": "Closed"
      }
    ],
    "peopleAlsoSearch": [],
    "placesTags": [],
    "reviewsTags": [],
    "additionalInfo": {
      "Service options": [
        {
          "In-store pickup": true
        }
      ],
      "Accessibility": [
        {
          "Wheelchair accessible entrance": true
        },
        {
          "Wheelchair accessible parking lot": true
        }
      ],
      "Payments": [
        {
          "Credit cards": true
        },
        {
          "Debit cards": true
        },
        {
          "NFC mobile payments": true
        },
        {
          "Credit cards": true
        }
      ]
    },
    "gasPrices": [],
    "url": "https://www.google.com/maps/search/?api=1&query=Pharmacy%20Specialties%20%26%20Clinic%2C%20Inc.&query_place_id=ChIJzzlFe-HJjocRJt12Q9htdro",
    "searchPageUrl": "https://www.google.com/maps/search/independent%20pharmacy%20Sioux%20Falls%20SD/@60.874534795447715,-145.05491807162034,9z?hl=en",
    "searchString": "independent pharmacy Sioux Falls SD",
    "language": "en",
    "rank": 3,
    "isAdvertisement": false,
    "imageUrl": "https://streetviewpixels-pa.googleapis.com/v1/thumbnail?panoid=uDeZkI2Ze0hlNCyvbpWwiA&cb_client=search.gws-prod.gps&w=408&h=240&yaw=189.87535&pitch=0&thumbfov=100",
    "kgmid": "/g/1tdzx6n6",
    "classification": "independent",
    "is_independent": true,
    "is_compounding": false,
    "confidence": 0.85,
    "source": "perplexity",
    "method": "llm"
  },
  {
    "title": "Your Pharmacy",
    "price": null,
    "categoryName": "Pharmacy",
    "address": "2503 East 54th St N, Sioux Falls, SD 57104, United States",
    "neighborhood": null,
    "street": "2503 East 54th St N",
    "city": "Sioux Falls",
    "postalCode": "57104",
    "state": "South Dakota",
    "countryCode": "US",
    "phone": "+1 605-978-3900",
    "phoneUnformatted": "+16059783900",
    "claimThisBusiness": true,
    "location": {
      "lat": 43.5941113,
      "lng": -96.6941431
    },
    "totalScore": 2,
    "permanentlyClosed": false,
    "temporarilyClosed": false,
    "placeId": null,
    "categories": [
      "Pharmacy"
    ],
    "fid": "0x87894ad2a3e14e95:0x4a53b15d62a65760",
    "cid": "5355819396518795104",
    "reviewsCount": 4,
    "imagesCount": 1,
    "imageCategories": [],
    "scrapedAt": "2025-06-22T09:42:54.106Z",
    "googleFoodUrl": null,
    "hotelAds": [],
    "openingHours": [],
    "peopleAlsoSearch": [],
    "placesTags": [],
    "reviewsTags": [],
    "additionalInfo": {
      "Accessibility": [
        {
          "Wheelchair-accessible car park": true
        },
        {
          "Wheelchair-accessible entrance": true
        }
      ],
      "Payments": [
        {
          "Credit cards": true
        }
      ]
    },
    "gasPrices": [],
    "url": "https://www.google.com/maps/search/?api=1&query=Your%20Pharmacy&query_place_id=ChIJlU7ho9JKiYcRYFemYl2xU0o",
    "searchPageUrl": "https://www.google.com/maps/search/independent%20pharmacy%20Sioux%20Falls%20SD/@56.01120730753697,-134.6977272005368,9z?hl=en",
    "searchString": "independent pharmacy Sioux Falls SD",
    "language": "en",
    "rank": 3,
    "isAdvertisement": false,
    "imageUrl": "https://streetviewpixels-pa.googleapis.com/v1/thumbnail?panoid=3tFEb1NWXwtq5ssZJs8awg&cb_client=search.gws-prod.gps&w=408&h=240&yaw=176.49992&pitch=0&thumbfov=100",
    "kgmid": "/g/1262_8twn",
    "classification": "independent",
    "is_independent": true,
    "is_compounding": false,
    "confidence": 0.85,
    "source": "perplexity",
    "method": "llm"
  },
  {
    "title": "Avera Specialty Pharmacy \u2014 Sioux Falls",
    "price": null,
    "categoryName": "Pharmacy",
    "address": "4101 W Memory Cir Suite 135, Sioux Falls, SD 57107",
    "neighborhood": null,
    "street": "4101 W Memory Cir Suite 135",
    "city": "Sioux Falls",
    "postalCode": "57107",
    "state": "South Dakota",
    "countryCode": "US",
    "website": "https://www.avera.org/locations/profile/avera-specialty-pharmacy-sioux-falls?y_source=1_MTIyMTIzMDQtNzE1LWxvY2F0aW9uLndlYnNpdGU%3D",
    "phone": "(605) 322-8300",
    "phoneUnformatted": "+16053228300",
    "claimThisBusiness": false,
    "location": {
      "lat": 43.636844,
      "lng": -96.776865
    },
    "totalScore": 3.8,
    "permanentlyClosed": false,
    "temporarilyClosed": false,
    "placeId": null,
    "categories": [
      "Pharmacy"
    ],
    "fid": "0x878eb565334968dd:0x69911d6c99e931b7",
    "cid": "7606893597881348535",
    "reviewsCount": 16,
    "imagesCount": 3,
    "imageCategories": [],
    "scrapedAt": "2025-06-22T09:43:11.461Z",
    "googleFoodUrl": null,
    "hotelAds": [],
    "openingHours": [
      {
        "day": "Monday",
        "hours": "8\u202fAM to 5:30\u202fPM"
      },
      {
        "day": "Tuesday",
        "hours": "8\u202fAM to 5:30\u202fPM"
      },
      {
        "day": "Wednesday",
        "hours": "8\u202fAM to 5:30\u202fPM"
      },
      {
        "day": "Thursday",
        "hours": "8\u202fAM to 5:30\u202fPM"
      },
      {
        "day": "Friday",
        "hours": "8\u202fAM to 5:30\u202fPM"
      },
      {
        "day": "Saturday",
        "hours": "Closed"
      },
      {
        "day": "Sunday",
        "hours": "Closed"
      }
    ],
    "peopleAlsoSearch": [],
    "placesTags": [],
    "reviewsTags": [],
    "additionalInfo": {
      "Service options": [
        {
          "Delivery": true
        }
      ],
      "Accessibility": [
        {
          "Wheelchair accessible entrance": true
        },
        {
          "Wheelchair accessible parking lot": true
        }
      ],
      "Payments": [
        {
          "Credit cards": true
        },
        {
          "Debit cards": true
        },
        {
          "Credit cards": true
        }
      ]
    },
    "gasPrices": [],
    "url": "https://www.google.com/maps/search/?api=1&query=Avera%20Specialty%20Pharmacy%20%E2%80%94%20Sioux%20Falls&query_place_id=ChIJ3WhJM2W1jocRtzHpmWwdkWk",
    "searchPageUrl": "https://www.google.com/maps/search/independent%20pharmacy%20Sioux%20Falls%20SD/@36.81849750000001,-105.48342742835163,8z?hl=en",
    "searchString": "independent pharmacy Sioux Falls SD",
    "language": "en",
    "rank": 5,
    "isAdvertisement": false,
    "imageUrl": "https://lh3.googleusercontent.com/p/AF1QipNyjcSQMErIDjPnqL9L43UJtjVyLLpu5xmMQep4=w408-h306-k-no",
    "kgmid": "/g/1td6n4kv",
    "classification": "independent",
    "is_independent": true,
    "is_compounding": false,
    "confidence": 0.9,
    "source": "perplexity",
    "method": "llm"
  },
  {
    "title": "Avera Pharmacy \u2014 McKennan Campus",
    "price": null,
    "categoryName": "Pharmacy",
    "address": "1325 S Cliff Ave Ste Cp, Sioux Falls, SD 57105",
    "neighborhood": "All Saints",
    "street": "1325 S Cliff Ave Ste Cp",
    "city": "Sioux Falls",
    "postalCode": "57105",
    "state": "South Dakota",
    "countryCode": "US",
    "website": "https://www.avera.org/locations/profile/avera-mckennan-campus-pharmacy-sioux-falls/?y_source=1_MTIyMTIzMjYtNzE1LWxvY2F0aW9uLndlYnNpdGU%3D",
    "phone": "(605) 322-8326",
    "phoneUnformatted": "+16053228326",
    "claimThisBusiness": false,
    "location": {
      "lat": 43.534202,
      "lng": -96.7147829
    },
    "totalScore": 5,
    "permanentlyClosed": false,
    "temporarilyClosed": false,
    "placeId": null,
    "categories": [
      "Pharmacy",
      "Surgeon"
    ],
    "fid": "0x878eb5c88bdfa7c1:0xbcf4167b14d64514",
    "cid": "13615532291334227220",
    "reviewsCount": 6,
    "imagesCount": 3,
    "imageCategories": [],
    "scrapedAt": "2025-06-22T09:43:11.461Z",
    "googleFoodUrl": null,
    "hotelAds": [],
    "openingHours": [
      {
        "day": "Monday",
        "hours": "8\u202fAM to 8\u202fPM"
      },
      {
        "day": "Tuesday",
        "hours": "8\u202fAM to 8\u202fPM"
      },
      {
        "day": "Wednesday",
        "hours": "8\u202fAM to 8\u202fPM"
      },
      {
        "day": "Thursday",
        "hours": "8\u202fAM to 8\u202fPM"
      },
      {
        "day": "Friday",
        "hours": "8\u202fAM to 8\u202fPM"
      },
      {
        "day": "Saturday",
        "hours": "9\u202fAM to 5\u202fPM"
      },
      {
        "day": "Sunday",
        "hours": "9\u202fAM to 5\u202fPM"
      }
    ],
    "peopleAlsoSearch": [],
    "placesTags": [],
    "reviewsTags": [],
    "additionalInfo": {
      "Service options": [
        {
          "In-store pickup": true
        }
      ],
      "Accessibility": [
        {
          "Wheelchair accessible entrance": true
        },
        {
          "Wheelchair accessible parking lot": true
        }
      ],
      "Offerings": [
        {
          "Medication disposal": true
        }
      ],
      "Amenities": [
        {
          "Wi-Fi": true
        },
        {
          "Free Wi-Fi": true
        }
      ],
      "Payments": [
        {
          "Credit cards": true
        }
      ]
    },
    "gasPrices": [],
    "url": "https://www.google.com/maps/search/?api=1&query=Avera%20Pharmacy%20%E2%80%94%20McKennan%20Campus&query_place_id=ChIJwaffi8i1jocRFEXWFHsW9Lw",
    "searchPageUrl": "https://www.google.com/maps/search/independent%20pharmacy%20Sioux%20Falls%20SD/@36.81849750000001,-105.48342742835163,8z?hl=en",
    "searchString": "independent pharmacy Sioux Falls SD",
    "language": "en",
    "rank": 6,
    "isAdvertisement": false,
    "imageUrl": "https://lh3.googleusercontent.com/p/AF1QipPv97xxFtW63pEfo7XlAIbgOiksY_W-iEbsD63I=w408-h306-k-no",
    "kgmid": "/g/1tksnw6b",
    "classification": "independent",
    "is_independent": true,
    "is_compounding": false,
    "confidence": 0.9,
    "source": "perplexity",
    "method": "llm"
  },
  {
    "title": "Avera Pharmacy \u2014 69th & Louise",
    "price": null,
    "categoryName": "Pharmacy",
    "address": "6100 S Louise Ave Suite 1100, Sioux Falls, SD 57108",
    "neighborhood": null,
    "street": "6100 S Louise Ave Suite 1100",
    "city": "Sioux Falls",
    "postalCode": "57108",
    "state": "South Dakota",
    "countryCode": "US",
    "website": "https://www.avera.org/locations/profile/avera-pharmacy-69th-louise-sioux-falls/?y_source=1_MTQ3MjI2NjMtNzE1LWxvY2F0aW9uLndlYnNpdGU%3D",
    "phone": "(605) 504-1351",
    "phoneUnformatted": "+16055041351",
    "claimThisBusiness": false,
    "location": {
      "lat": 43.4890102,
      "lng": -96.7656418
    },
    "totalScore": 5,
    "permanentlyClosed": false,
    "temporarilyClosed": false,
    "placeId": null,
    "categories": [
      "Pharmacy"
    ],
    "fid": "0x878ec9d802adaa79:0xe442356ec80677b6",
    "cid": "16447767539029014454",
    "reviewsCount": 6,
    "imagesCount": 49,
    "imageCategories": [],
    "scrapedAt": "2025-06-22T09:43:11.461Z",
    "googleFoodUrl": null,
    "hotelAds": [],
    "openingHours": [
      {
        "day": "Monday",
        "hours": "8\u202fAM to 5\u202fPM"
      },
      {
        "day": "Tuesday",
        "hours": "8\u202fAM to 5\u202fPM"
      },
      {
        "day": "Wednesday",
        "hours": "8\u202fAM to 5\u202fPM"
      },
      {
        "day": "Thursday",
        "hours": "8\u202fAM to 5\u202fPM"
      },
      {
        "day": "Friday",
        "hours": "8\u202fAM to 5\u202fPM"
      },
      {
        "day": "Saturday",
        "hours": "Closed"
      },
      {
        "day": "Sunday",
        "hours": "Closed"
      }
    ],
    "peopleAlsoSearch": [],
    "placesTags": [],
    "reviewsTags": [],
    "additionalInfo": {
      "Service options": [
        {
          "In-store pickup": true
        }
      ],
      "Accessibility": [
        {
          "Wheelchair accessible entrance": true
        },
        {
          "Wheelchair accessible parking lot": true
        }
      ],
      "Payments": [
        {
          "Credit cards": true
        },
        {
          "Debit cards": true
        },
        {
          "NFC mobile payments": true
        },
        {
          "Credit cards": true
        }
      ]
    },
    "gasPrices": [],
    "url": "https://www.google.com/maps/search/?api=1&query=Avera%20Pharmacy%20%E2%80%94%2069th%20%26%20Louise&query_place_id=ChIJeaqtAtjJjocRtncGyG41QuQ",
    "searchPageUrl": "https://www.google.com/maps/search/independent%20pharmacy%20Sioux%20Falls%20SD/@36.81849750000001,-105.48342742835163,8z?hl=en",
    "searchString": "independent pharmacy Sioux Falls SD",
    "language": "en",
    "rank": 7,
    "isAdvertisement": false,
    "imageUrl": "https://lh3.googleusercontent.com/gps-cs-s/AC9h4nou2HO9Jekbn04w3KErFguWtD20Qh8qX2w1XhYUr5vBbTKQtqaikpId1-A38Cyb_Te6ranyh7o5FQOOvq3hA1jh0Gw7BUd8VKCHVmoxQfseYQdxdsYYNiMuiTdcp9akIESruZyt_g=w408-h307-k-no",
    "kgmid": "/g/11hf1btmjt",
    "classification": "independent",
    "is_independent": true,
    "is_compounding": false,
    "confidence": 0.9,
    "source": "perplexity",
    "method": "llm"
  },
  {
    "title": "Avera Compounding Pharmacy - Delivery Only",
    "price": null,
    "categoryName": "Pharmacy",
    "address": "911 E 20th St Suite 201, Sioux Falls, SD 57105",
    "neighborhood": "All Saints",
    "street": "911 E 20th St Suite 201",
    "city": "Sioux Falls",
    "postalCode": "57105",
    "state": "South Dakota",
    "countryCode": "US",
    "website": "https://www.avera.org/locations/profile/avera-compounding-pharmacy-sioux-falls?y_source=1_MTIyMTIzNTgtNzE1LWxvY2F0aW9uLndlYnNpdGU%3D",
    "phone": "(605) 322-3940",
    "phoneUnformatted": "+16053223940",
    "claimThisBusiness": false,
    "location": {
      "lat": 43.5346104,
      "lng": -96.7141978
    },
    "permanentlyClosed": false,
    "temporarilyClosed": false,
    "placeId": null,
    "categories": [
      "Pharmacy"
    ],
    "fid": "0x878eb541d18c7bab:0x2e9373e8a5509875",
    "cid": "3356153590364280949",
    "reviewsCount": 0,
    "imagesCount": 1,
    "imageCategories": [],
    "scrapedAt": "2025-06-22T09:43:11.461Z",
    "googleFoodUrl": null,
    "hotelAds": [],
    "openingHours": [
      {
        "day": "Monday",
        "hours": "8\u202fAM to 4:30\u202fPM"
      },
      {
        "day": "Tuesday",
        "hours": "8\u202fAM to 4:30\u202fPM"
      },
      {
        "day": "Wednesday",
        "hours": "8\u202fAM to 4:30\u202fPM"
      },
      {
        "day": "Thursday",
        "hours": "8\u202fAM to 4:30\u202fPM"
      },
      {
        "day": "Friday",
        "hours": "8\u202fAM to 4:30\u202fPM"
      },
      {
        "day": "Saturday",
        "hours": "Closed"
      },
      {
        "day": "Sunday",
        "hours": "Closed"
      }
    ],
    "peopleAlsoSearch": [],
    "placesTags": [],
    "reviewsTags": [],
    "additionalInfo": {
      "Service options": [
        {
          "Delivery": true
        },
        {
          "Same-day delivery": true
        },
        {
          "In-store shopping": false
        }
      ],
      "Accessibility": [
        {
          "Wheelchair accessible entrance": true
        },
        {
          "Wheelchair accessible parking lot": true
        }
      ],
      "Payments": [
        {
          "Credit cards": true
        },
        {
          "Debit cards": true
        },
        {
          "Credit cards": true
        }
      ]
    },
    "gasPrices": [],
    "url": "https://www.google.com/maps/search/?api=1&query=Avera%20Compounding%20Pharmacy%20-%20Delivery%20Only&query_place_id=ChIJq3uM0UG1jocRdZhQpehzky4",
    "searchPageUrl": "https://www.google.com/maps/search/independent%20pharmacy%20Sioux%20Falls%20SD/@36.81849750000001,-105.48342742835163,8z?hl=en",
    "searchString": "independent pharmacy Sioux Falls SD",
    "language": "en",
    "rank": 8,
    "isAdvertisement": false,
    "imageUrl": "https://streetviewpixels-pa.googleapis.com/v1/thumbnail?panoid=H5M4BP6rvJOxwiUu4KbLkQ&cb_client=search.gws-prod.gps&w=408&h=240&yaw=174.20784&pitch=0&thumbfov=100",
    "kgmid": "/g/11fktzbk0z",
    "classification": "independent",
    "is_independent": true,
    "is_compounding": true,
    "confidence": 0.95,
    "source": "perplexity",
    "method": "llm"
  },
  {
    "title": "Lewis Pharmacy - Ellis Rd",
    "price": null,
    "categoryName": "Pharmacy",
    "address": "2525 S Ellis Rd, Sioux Falls, SD 57106",
    "neighborhood": null,
    "street": "2525 S Ellis Rd",
    "city": "Sioux Falls",
    "postalCode": "57106",
    "state": "South Dakota",
    "countryCode": "US",
    "website": "https://www.lewisdrug.com/stores/lewis-ellis-rd-sioux-falls#pharmacy",
    "phone": "(605) 367-2410",
    "phoneUnformatted": "+16053672410",
    "claimThisBusiness": false,
    "location": {
      "lat": 43.5199759,
      "lng": -96.8319492
    },
    "totalScore": 4.6,
    "permanentlyClosed": false,
    "temporarilyClosed": false,
    "placeId": null,
    "categories": [
      "Pharmacy",
      "Drug store"
    ],
    "fid": "0x878ecbd331ec0191:0x88961004fb6a2a6",
    "cid": "615129478078046886",
    "reviewsCount": 15,
    "imagesCount": null,
    "imageCategories": [],
    "scrapedAt": "2025-06-22T09:43:11.461Z",
    "googleFoodUrl": null,
    "hotelAds": [],
    "openingHours": [
      {
        "day": "Monday",
        "hours": "8\u202fAM to 9\u202fPM"
      },
      {
        "day": "Tuesday",
        "hours": "8\u202fAM to 9\u202fPM"
      },
      {
        "day": "Wednesday",
        "hours": "8\u202fAM to 9\u202fPM"
      },
      {
        "day": "Thursday",
        "hours": "8\u202fAM to 9\u202fPM"
      },
      {
        "day": "Friday",
        "hours": "8\u202fAM to 9\u202fPM"
      },
      {
        "day": "Saturday",
        "hours": "8\u202fAM to 9\u202fPM"
      },
      {
        "day": "Sunday",
        "hours": "8\u202fAM to 9\u202fPM"
      }
    ],
    "peopleAlsoSearch": [],
    "placesTags": [],
    "reviewsTags": [],
    "additionalInfo": {
      "Service options": [
        {
          "Curbside pickup": true
        },
        {
          "Drive-through": true
        },
        {
          "In-store pickup": true
        },
        {
          "In-store shopping": true
        }
      ],
      "Accessibility": [
        {
          "Wheelchair accessible entrance": true
        },
        {
          "Wheelchair accessible parking lot": true
        }
      ],
      "Planning": [
        {
          "Quick visit": true
        }
      ],
      "Payments": [
        {
          "Credit cards": true
        },
        {
          "SNAP/EBT": true
        }
      ]
    },
    "gasPrices": [],
    "url": "https://www.google.com/maps/search/?api=1&query=Lewis%20Pharmacy%20-%20Ellis%20Rd&query_place_id=ChIJkQHsMdPLjocRpqK2TwBhiQg",
    "searchPageUrl": "https://www.google.com/maps/search/independent%20pharmacy%20Sioux%20Falls%20SD/@36.81849750000001,-105.48342742835163,8z?hl=en",
    "searchString": "independent pharmacy Sioux Falls SD",
    "language": "en",
    "rank": 9,
    "isAdvertisement": false,
    "kgmid": "/g/11j0snst65",
    "classification": "independent",
    "is_independent": true,
    "is_compounding": false,
    "confidence": 0.9,
    "source": "perplexity",
    "method": "llm"
  },
  {
    "title": "Avera Pharmacy \u2014 7th Ave",
    "price": null,
    "categoryName": "Pharmacy",
    "address": "1200 S 7th Ave, Sioux Falls, SD 57105",
    "neighborhood": "All Saints",
    "street": "1200 S 7th Ave",
    "city": "Sioux Falls",
    "postalCode": "57105",
    "state": "South Dakota",
    "countryCode": "US",
    "website": "https://www.avera.org/locations/profile/avera-pharmacy-7th-ave-sioux-falls/?y_source=1_MTIyMTIzNjYtNzE1LWxvY2F0aW9uLndlYnNpdGU%3D",
    "phone": "(605) 322-8357",
    "phoneUnformatted": "+16053228357",
    "claimThisBusiness": false,
    "location": {
      "lat": 43.5352034,
      "lng": -96.7158797
    },
    "totalScore": 5,
    "permanentlyClosed": false,
    "temporarilyClosed": false,
    "placeId": null,
    "categories": [
      "Pharmacy"
    ],
    "fid": "0x878eb5c810d2a501:0x5f3cf128fab5b569",
    "cid": "6862625090512991593",
    "reviewsCount": 4,
    "imagesCount": 2,
    "imageCategories": [],
    "scrapedAt": "2025-06-22T09:43:11.461Z",
    "googleFoodUrl": null,
    "hotelAds": [],
    "openingHours": [
      {
        "day": "Monday",
        "hours": "8:30\u202fAM to 5:30\u202fPM"
      },
      {
        "day": "Tuesday",
        "hours": "8:30\u202fAM to 5:30\u202fPM"
      },
      {
        "day": "Wednesday",
        "hours": "8:30\u202fAM to 5:30\u202fPM"
      },
      {
        "day": "Thursday",
        "hours": "8:30\u202fAM to 5:30\u202fPM"
      },
      {
        "day": "Friday",
        "hours": "8:30\u202fAM to 5:30\u202fPM"
      },
      {
        "day": "Saturday",
        "hours": "Closed"
      },
      {
        "day": "Sunday",
        "hours": "Closed"
      }
    ],
    "peopleAlsoSearch": [],
    "placesTags": [],
    "reviewsTags": [],
    "additionalInfo": {
      "Service options": [
        {
          "In-store pickup": true
        }
      ],
      "Accessibility": [
        {
          "Wheelchair accessible entrance": true
        },
        {
          "Wheelchair accessible parking lot": true
        }
      ],
      "Offerings": [
        {
          "Medication disposal": true
        }
      ],
      "Amenities": [
        {
          "Wi-Fi": true
        },
        {
          "Free Wi-Fi": true
        }
      ],
      "Payments": [
        {
          "Credit cards": true
        },
        {
          "Debit cards": true
        },
        {
          "NFC mobile payments": true
        },
        {
          "Credit cards": true
        }
      ]
    },
    "gasPrices": [],
    "url": "https://www.google.com/maps/search/?api=1&query=Avera%20Pharmacy%20%E2%80%94%207th%20Ave&query_place_id=ChIJAaXSEMi1jocRabW1-ijxPF8",
    "searchPageUrl": "https://www.google.com/maps/search/independent%20pharmacy%20Sioux%20Falls%20SD/@36.81849750000001,-105.48342742835163,8z?hl=en",
    "searchString": "independent pharmacy Sioux Falls SD",
    "language": "en",
    "rank": 10,
    "isAdvertisement": false,
    "imageUrl": "https://lh3.googleusercontent.com/p/AF1QipOchyzNUlzE7A90mdxwAsuw77_C9cpusfP45Ch-=w408-h306-k-no",
    "kgmid": "/g/1tf6bjz2",
    "classification": "independent",
    "is_independent": true,
    "is_compounding": false,
    "confidence": 0.9,
    "source": "perplexity",
    "method": "llm"
  },
  {
    "title": "Lewis Pharmacy - 10th & Cliff",
    "price": null,
    "categoryName": "Pharmacy",
    "address": "1301 E 10th St Unit 100, Sioux Falls, SD 57103",
    "neighborhood": null,
    "street": "1301 E 10th St Unit 100",
    "city": "Sioux Falls",
    "postalCode": "57103",
    "state": "South Dakota",
    "countryCode": "US",
    "website": "https://www.lewisdrug.com/stores/lewis-10th-cliff-sioux-falls#pharmacy",
    "phone": "(605) 367-2310",
    "phoneUnformatted": "+16053672310",
    "claimThisBusiness": false,
    "location": {
      "lat": 43.5458944,
      "lng": -96.7094763
    },
    "totalScore": 3.8,
    "permanentlyClosed": false,
    "temporarilyClosed": false,
    "placeId": null,
    "categories": [
      "Pharmacy",
      "Drug store"
    ],
    "fid": "0x878eb562ea52c9d7:0x755fe18ba8039f46",
    "cid": "8457726615160594246",
    "reviewsCount": 15,
    "imagesCount": null,
    "imageCategories": [],
    "scrapedAt": "2025-06-22T09:43:11.461Z",
    "googleFoodUrl": null,
    "hotelAds": [],
    "openingHours": [
      {
        "day": "Monday",
        "hours": "9\u202fAM to 8\u202fPM"
      },
      {
        "day": "Tuesday",
        "hours": "9\u202fAM to 8\u202fPM"
      },
      {
        "day": "Wednesday",
        "hours": "9\u202fAM to 8\u202fPM"
      },
      {
        "day": "Thursday",
        "hours": "9\u202fAM to 8\u202fPM"
      },
      {
        "day": "Friday",
        "hours": "9\u202fAM to 8\u202fPM"
      },
      {
        "day": "Saturday",
        "hours": "9\u202fAM to 6\u202fPM"
      },
      {
        "day": "Sunday",
        "hours": "10\u202fAM to 6\u202fPM"
      }
    ],
    "peopleAlsoSearch": [],
    "placesTags": [],
    "reviewsTags": [],
    "additionalInfo": {
      "Service options": [
        {
          "Curbside pickup": true
        },
        {
          "Drive-through": true
        },
        {
          "In-store pickup": true
        },
        {
          "In-store shopping": true
        }
      ],
      "Accessibility": [
        {
          "Wheelchair accessible entrance": true
        },
        {
          "Wheelchair accessible parking lot": true
        }
      ],
      "Planning": [
        {
          "Quick visit": true
        }
      ],
      "Payments": [
        {
          "Credit cards": true
        }
      ]
    },
    "gasPrices": [],
    "url": "https://www.google.com/maps/search/?api=1&query=Lewis%20Pharmacy%20-%2010th%20%26%20Cliff&query_place_id=ChIJ18lS6mK1jocRRp8DqIvhX3U",
    "searchPageUrl": "https://www.google.com/maps/search/independent%20pharmacy%20Sioux%20Falls%20SD/@36.81849750000001,-105.48342742835163,8z?hl=en",
    "searchString": "independent pharmacy Sioux Falls SD",
    "language": "en",
    "rank": 11,
    "isAdvertisement": false,
    "kgmid": "/g/11j0slj2yw",
    "classification": "chain",
    "is_independent": false,
    "is_compounding": false,
    "confidence": 0.95,
    "source": "perplexity",
    "method": "llm"
  },
  {
    "title": "Lewis Pharmacy - 10th & Phillips Avenue",
    "price": null,
    "categoryName": "Pharmacy",
    "address": "136 S Phillips Ave #102, Sioux Falls, SD 57104",
    "neighborhood": "Downtown",
    "street": "136 S Phillips Ave #102",
    "city": "Sioux Falls",
    "postalCode": "57104",
    "state": "South Dakota",
    "countryCode": "US",
    "website": "https://www.lewisdrug.com/stores/lewis-10th-cliff-sioux-falls#pharmacy",
    "phone": "(605) 367-2390",
    "phoneUnformatted": "+16053672390",
    "claimThisBusiness": false,
    "location": {
      "lat": 43.546142,
      "lng": -96.7263823
    },
    "totalScore": 4.6,
    "permanentlyClosed": false,
    "temporarilyClosed": false,
    "placeId": null,
    "categories": [
      "Pharmacy",
      "Drug store"
    ],
    "fid": "0x878eb5d197bc89bf:0x385d83ba2a2f4743",
    "cid": "4061547274552952643",
    "reviewsCount": 21,
    "imagesCount": 1,
    "imageCategories": [],
    "scrapedAt": "2025-06-22T09:43:11.461Z",
    "googleFoodUrl": null,
    "hotelAds": [],
    "openingHours": [
      {
        "day": "Monday",
        "hours": "9\u202fAM to 6\u202fPM"
      },
      {
        "day": "Tuesday",
        "hours": "9\u202fAM to 6\u202fPM"
      },
      {
        "day": "Wednesday",
        "hours": "9\u202fAM to 6\u202fPM"
      },
      {
        "day": "Thursday",
        "hours": "9\u202fAM to 6\u202fPM"
      },
      {
        "day": "Friday",
        "hours": "9\u202fAM to 6\u202fPM"
      },
      {
        "day": "Saturday",
        "hours": "Closed"
      },
      {
        "day": "Sunday",
        "hours": "Closed"
      }
    ],
    "peopleAlsoSearch": [],
    "placesTags": [],
    "reviewsTags": [],
    "additionalInfo": {
      "Service options": [
        {
          "In-store pickup": true
        },
        {
          "In-store shopping": true
        }
      ],
      "Accessibility": [
        {
          "Wheelchair accessible entrance": true
        },
        {
          "Wheelchair accessible parking lot": true
        }
      ],
      "Planning": [
        {
          "Quick visit": true
        }
      ],
      "Payments": [
        {
          "Credit cards": true
        }
      ]
    },
    "gasPrices": [],
    "url": "https://www.google.com/maps/search/?api=1&query=Lewis%20Pharmacy%20-%2010th%20%26%20Phillips%20Avenue&query_place_id=ChIJv4m8l9G1jocRQ0cvKrqDXTg",
    "searchPageUrl": "https://www.google.com/maps/search/independent%20pharmacy%20Sioux%20Falls%20SD/@36.81849750000001,-105.48342742835163,8z?hl=en",
    "searchString": "independent pharmacy Sioux Falls SD",
    "language": "en",
    "rank": 12,
    "isAdvertisement": false,
    "imageUrl": "https://streetviewpixels-pa.googleapis.com/v1/thumbnail?panoid=r85Hcp_7fhdW5IiLoOwDkg&cb_client=search.gws-prod.gps&w=408&h=240&yaw=46.21678&pitch=0&thumbfov=100",
    "kgmid": "/g/11j0slgqx5",
    "classification": "chain",
    "is_independent": false,
    "is_compounding": false,
    "confidence": 0.95,
    "source": "perplexity",
    "method": "llm"
  },
  {
    "title": "Lewis Pharmacy - 12th & Kiwanis",
    "price": null,
    "categoryName": "Pharmacy",
    "address": "2700 W 12th St, Sioux Falls, SD 57104",
    "neighborhood": null,
    "street": "2700 W 12th St",
    "city": "Sioux Falls",
    "postalCode": "57104",
    "state": "South Dakota",
    "countryCode": "US",
    "website": "https://www.lewisdrug.com/stores/lewis-12th-kiwanis-sioux-falls-sd#pharmacy",
    "phone": "(605) 367-2210",
    "phoneUnformatted": "+16053672210",
    "claimThisBusiness": false,
    "location": {
      "lat": 43.5447399,
      "lng": -96.7615543
    },
    "totalScore": 4.1,
    "permanentlyClosed": false,
    "temporarilyClosed": false,
    "placeId": null,
    "categories": [
      "Pharmacy",
      "Drug store"
    ],
    "fid": "0x878ecbcb3abccb65:0x89bb402e98cc80ed",
    "cid": "9924596772717232365",
    "reviewsCount": 21,
    "imagesCount": 2,
    "imageCategories": [],
    "scrapedAt": "2025-06-22T09:43:11.461Z",
    "googleFoodUrl": null,
    "hotelAds": [],
    "openingHours": [
      {
        "day": "Monday",
        "hours": "9\u202fAM to 8\u202fPM"
      },
      {
        "day": "Tuesday",
        "hours": "9\u202fAM to 8\u202fPM"
      },
      {
        "day": "Wednesday",
        "hours": "9\u202fAM to 8\u202fPM"
      },
      {
        "day": "Thursday",
        "hours": "9\u202fAM to 8\u202fPM"
      },
      {
        "day": "Friday",
        "hours": "9\u202fAM to 8\u202fPM"
      },
      {
        "day": "Saturday",
        "hours": "9\u202fAM to 6\u202fPM"
      },
      {
        "day": "Sunday",
        "hours": "10\u202fAM to 6\u202fPM"
      }
    ],
    "peopleAlsoSearch": [],
    "placesTags": [],
    "reviewsTags": [],
    "additionalInfo": {
      "Service options": [
        {
          "Curbside pickup": true
        },
        {
          "Drive-through": true
        },
        {
          "In-store pickup": true
        },
        {
          "In-store shopping": true
        }
      ],
      "Accessibility": [
        {
          "Wheelchair accessible entrance": true
        },
        {
          "Wheelchair accessible parking lot": true
        }
      ],
      "Planning": [
        {
          "Quick visit": true
        }
      ],
      "Payments": [
        {
          "Credit cards": true
        }
      ]
    },
    "gasPrices": [],
    "url": "https://www.google.com/maps/search/?api=1&query=Lewis%20Pharmacy%20-%2012th%20%26%20Kiwanis&query_place_id=ChIJZcu8OsvLjocR7YDMmC5Au4k",
    "searchPageUrl": "https://www.google.com/maps/search/independent%20pharmacy%20Sioux%20Falls%20SD/@36.81849750000001,-105.48342742835163,8z?hl=en",
    "searchString": "independent pharmacy Sioux Falls SD",
    "language": "en",
    "rank": 13,
    "isAdvertisement": false,
    "imageUrl": "https://streetviewpixels-pa.googleapis.com/v1/thumbnail?panoid=Tz9AQa9yB6RcLTqIuBC2Tw&cb_client=search.gws-prod.gps&w=408&h=240&yaw=34.306423&pitch=0&thumbfov=100",
    "kgmid": "/g/11h89mw5c6",
    "classification": "chain",
    "is_independent": false,
    "is_compounding": false,
    "confidence": 0.95,
    "source": "perplexity",
    "method": "llm"
  },
  {
    "title": "Lewis Pharmacy - 69th & Louise",
    "price": null,
    "categoryName": "Pharmacy",
    "address": "6109 S Louise Ave, Sioux Falls, SD 57108",
    "neighborhood": null,
    "street": "6109 S Louise Ave",
    "city": "Sioux Falls",
    "postalCode": "57108",
    "state": "South Dakota",
    "countryCode": "US",
    "website": "https://www.lewisdrug.com/stores/lewis-69th-louise-sioux-falls#pharmacy",
    "phone": "(605) 367-2510",
    "phoneUnformatted": "+16053672510",
    "claimThisBusiness": false,
    "location": {
      "lat": 43.4888119,
      "lng": -96.7685259
    },
    "totalScore": 4.1,
    "permanentlyClosed": false,
    "temporarilyClosed": false,
    "placeId": null,
    "categories": [
      "Pharmacy",
      "Drug store"
    ],
    "fid": "0x878ec95ccf9c508d:0xd3b294f4ae3230c3",
    "cid": "15254418666472747203",
    "reviewsCount": 39,
    "imagesCount": 1,
    "imageCategories": [],
    "scrapedAt": "2025-06-22T09:43:11.461Z",
    "googleFoodUrl": null,
    "hotelAds": [],
    "openingHours": [
      {
        "day": "Monday",
        "hours": "8\u202fAM to 9\u202fPM"
      },
      {
        "day": "Tuesday",
        "hours": "8\u202fAM to 9\u202fPM"
      },
      {
        "day": "Wednesday",
        "hours": "8\u202fAM to 9\u202fPM"
      },
      {
        "day": "Thursday",
        "hours": "8\u202fAM to 9\u202fPM"
      },
      {
        "day": "Friday",
        "hours": "8\u202fAM to 9\u202fPM"
      },
      {
        "day": "Saturday",
        "hours": "9\u202fAM to 9\u202fPM"
      },
      {
        "day": "Sunday",
        "hours": "10\u202fAM to 9\u202fPM"
      }
    ],
    "peopleAlsoSearch": [],
    "placesTags": [],
    "reviewsTags": [],
    "additionalInfo": {
      "Service options": [
        {
          "Curbside pickup": true
        },
        {
          "Drive-through": true
        },
        {
          "In-store pickup": true
        },
        {
          "In-store shopping": true
        }
      ],
      "Accessibility": [
        {
          "Wheelchair accessible entrance": true
        },
        {
          "Wheelchair accessible parking lot": true
        }
      ],
      "Amenities": [
        {
          "Wi-Fi": true
        },
        {
          "Free Wi-Fi": true
        }
      ],
      "Planning": [
        {
          "Quick visit": true
        }
      ],
      "Payments": [
        {
          "Credit cards": true
        },
        {
          "NFC mobile payments": true
        }
      ]
    },
    "gasPrices": [],
    "url": "https://www.google.com/maps/search/?api=1&query=Lewis%20Pharmacy%20-%2069th%20%26%20Louise&query_place_id=ChIJjVCcz1zJjocRwzAyrvSUstM",
    "searchPageUrl": "https://www.google.com/maps/search/independent%20pharmacy%20Sioux%20Falls%20SD/@36.81849750000001,-105.48342742835163,8z?hl=en",
    "searchString": "independent pharmacy Sioux Falls SD",
    "language": "en",
    "rank": 14,
    "isAdvertisement": false,
    "imageUrl": "https://streetviewpixels-pa.googleapis.com/v1/thumbnail?panoid=LLDO3Eukf259S14aV_or7A&cb_client=search.gws-prod.gps&w=408&h=240&yaw=324.20078&pitch=0&thumbfov=100",
    "kgmid": "/g/11h3bjv1nx",
    "classification": "chain",
    "is_independent": false,
    "is_compounding": false,
    "confidence": 0.95,
    "source": "perplexity",
    "method": "llm"
  },
  {
    "title": "Avera Pharmacy \u2014 Behavioral Health Campus",
    "price": null,
    "categoryName": "Pharmacy",
    "address": "4400 W 69th St Suite 300, Sioux Falls, SD 57108",
    "neighborhood": null,
    "street": "4400 W 69th St Suite 300",
    "city": "Sioux Falls",
    "postalCode": "57108",
    "state": "South Dakota",
    "countryCode": "US",
    "website": "https://www.avera.org/locations/profile/avera-pharmacy-behavioral-health-campus-sioux-falls/?y_source=1_MTIyMTIzNTktNzE1LWxvY2F0aW9uLndlYnNpdGU%3D",
    "phone": "(605) 322-5948",
    "phoneUnformatted": "+16053225948",
    "claimThisBusiness": false,
    "location": {
      "lat": 43.4911183,
      "lng": -96.7786143
    },
    "totalScore": 4.3,
    "permanentlyClosed": false,
    "temporarilyClosed": false,
    "placeId": null,
    "categories": [
      "Pharmacy"
    ],
    "fid": "0x878ec9bc596c86dd:0x5170abb3c8b7383e",
    "cid": "5868379103118702654",
    "reviewsCount": 8,
    "imagesCount": 13,
    "imageCategories": [],
    "scrapedAt": "2025-06-22T09:43:11.461Z",
    "googleFoodUrl": null,
    "hotelAds": [],
    "openingHours": [
      {
        "day": "Monday",
        "hours": "9\u202fAM to 5:30\u202fPM"
      },
      {
        "day": "Tuesday",
        "hours": "9\u202fAM to 5:30\u202fPM"
      },
      {
        "day": "Wednesday",
        "hours": "9\u202fAM to 5:30\u202fPM"
      },
      {
        "day": "Thursday",
        "hours": "9\u202fAM to 5:30\u202fPM"
      },
      {
        "day": "Friday",
        "hours": "9\u202fAM to 5:30\u202fPM"
      },
      {
        "day": "Saturday",
        "hours": "Closed"
      },
      {
        "day": "Sunday",
        "hours": "Closed"
      }
    ],
    "peopleAlsoSearch": [],
    "placesTags": [],
    "reviewsTags": [],
    "additionalInfo": {
      "Service options": [
        {
          "Delivery": true
        }
      ],
      "Accessibility": [
        {
          "Wheelchair accessible entrance": true
        },
        {
          "Wheelchair accessible parking lot": true
        }
      ],
      "Offerings": [
        {
          "Medication disposal": true
        }
      ],
      "Amenities": [
        {
          "Wi-Fi": true
        },
        {
          "Free Wi-Fi": true
        }
      ],
      "Payments": [
        {
          "Credit cards": true
        },
        {
          "Debit cards": true
        },
        {
          "NFC mobile payments": true
        },
        {
          "Credit cards": true
        }
      ]
    },
    "gasPrices": [],
    "url": "https://www.google.com/maps/search/?api=1&query=Avera%20Pharmacy%20%E2%80%94%20Behavioral%20Health%20Campus&query_place_id=ChIJ3YZsWbzJjocRPji3yLOrcFE",
    "searchPageUrl": "https://www.google.com/maps/search/independent%20pharmacy%20Sioux%20Falls%20SD/@36.81849750000001,-105.48342742835163,8z?hl=en",
    "searchString": "independent pharmacy Sioux Falls SD",
    "language": "en",
    "rank": 15,
    "isAdvertisement": false,
    "imageUrl": "https://lh3.googleusercontent.com/gps-cs-s/AC9h4nr2WtU38BIsfWUXODcDoI8lAwh_bdqpePRdH3gHwDgv8SaIzzApQtjJMehiWGE2OOZp0pkbsoOuB0fswHHa4fC7VlAf-Xek-5fm5APoHWDvJbEg-oEPm8PtIw9Z_sy91lr0qA=w426-h240-k-no",
    "kgmid": "/g/12631qyyr",
    "classification": "independent",
    "is_independent": true,
    "is_compounding": false,
    "confidence": 0.85,
    "source": "perplexity",
    "method": "llm"
  },
  {
    "title": "Lewis Pharmacy Sanford",
    "price": null,
    "categoryName": "Pharmacy",
    "address": "1205 S Grange Ave MB 2, Sioux Falls, SD 57105",
    "neighborhood": null,
    "street": "1205 S Grange Ave MB 2",
    "city": "Sioux Falls",
    "postalCode": "57105",
    "state": "South Dakota",
    "countryCode": "US",
    "website": "https://www.lewisdrug.com/stores/lewis-clinic-pharmacy-at-sanford-grange-avenue",
    "phone": "(605) 367-2620",
    "phoneUnformatted": "+16053672620",
    "claimThisBusiness": false,
    "location": {
      "lat": 43.5344609,
      "lng": -96.7430329
    },
    "totalScore": 5,
    "permanentlyClosed": false,
    "temporarilyClosed": false,
    "placeId": null,
    "categories": [
      "Pharmacy",
      "Drug store"
    ],
    "fid": "0x878eb5f33eccf293:0x8a1b613fcec41611",
    "cid": "9951654728285034001",
    "reviewsCount": 8,
    "imagesCount": 5,
    "imageCategories": [],
    "scrapedAt": "2025-06-22T09:43:11.461Z",
    "googleFoodUrl": null,
    "hotelAds": [],
    "openingHours": [
      {
        "day": "Monday",
        "hours": "8\u202fAM to 5:30\u202fPM"
      },
      {
        "day": "Tuesday",
        "hours": "8\u202fAM to 5:30\u202fPM"
      },
      {
        "day": "Wednesday",
        "hours": "8\u202fAM to 5:30\u202fPM"
      },
      {
        "day": "Thursday",
        "hours": "8\u202fAM to 5:30\u202fPM"
      },
      {
        "day": "Friday",
        "hours": "8\u202fAM to 5:30\u202fPM"
      },
      {
        "day": "Saturday",
        "hours": "Closed"
      },
      {
        "day": "Sunday",
        "hours": "Closed"
      }
    ],
    "peopleAlsoSearch": [],
    "placesTags": [],
    "reviewsTags": [],
    "additionalInfo": {
      "Service options": [
        {
          "Curbside pickup": true
        },
        {
          "In-store pickup": true
        },
        {
          "In-store shopping": true
        }
      ],
      "Accessibility": [
        {
          "Wheelchair accessible entrance": true
        },
        {
          "Wheelchair accessible parking lot": true
        }
      ],
      "Amenities": [
        {
          "Wi-Fi": true
        },
        {
          "Free Wi-Fi": true
        }
      ],
      "Planning": [
        {
          "Quick visit": true
        }
      ],
      "Payments": [
        {
          "Checks": true
        },
        {
          "Credit cards": true
        },
        {
          "Debit cards": true
        }
      ]
    },
    "gasPrices": [],
    "url": "https://www.google.com/maps/search/?api=1&query=Lewis%20Pharmacy%20Sanford&query_place_id=ChIJk_LMPvO1jocRERbEzj9hG4o",
    "searchPageUrl": "https://www.google.com/maps/search/independent%20pharmacy%20Sioux%20Falls%20SD/@36.81849750000001,-105.48342742835163,8z?hl=en",
    "searchString": "independent pharmacy Sioux Falls SD",
    "language": "en",
    "rank": 16,
    "isAdvertisement": false,
    "imageUrl": "https://lh3.googleusercontent.com/p/AF1QipNvHlRqOc2X8wpiSE8d4AYDelR4EqQsqesI1RQ=w408-h270-k-no",
    "kgmid": "/g/1tkc2ly2",
    "classification": "chain",
    "is_independent": false,
    "is_compounding": false,
    "confidence": 0.95,
    "source": "perplexity",
    "method": "llm"
  },
  {
    "title": "Lewis Pharmacy - 41st & Marion",
    "price": null,
    "categoryName": "Pharmacy",
    "address": "5500 W 41st St, Sioux Falls, SD 57106",
    "neighborhood": null,
    "street": "5500 W 41st St",
    "city": "Sioux Falls",
    "postalCode": "57106",
    "state": "South Dakota",
    "countryCode": "US",
    "website": "https://www.lewisdrug.com/stores/lewis-41st-marion-sioux-falls#pharmacy",
    "phone": "(605) 367-2610",
    "phoneUnformatted": "+16053672610",
    "claimThisBusiness": false,
    "location": {
      "lat": 43.5154439,
      "lng": -96.7932704
    },
    "totalScore": 4.4,
    "permanentlyClosed": false,
    "temporarilyClosed": false,
    "placeId": null,
    "categories": [
      "Pharmacy",
      "Drug store"
    ],
    "fid": "0x878ecbb380ed8c15:0x1ff700be81da8556",
    "cid": "2303310552645666134",
    "reviewsCount": 8,
    "imagesCount": 1,
    "imageCategories": [],
    "scrapedAt": "2025-06-22T09:43:11.461Z",
    "googleFoodUrl": null,
    "hotelAds": [],
    "openingHours": [
      {
        "day": "Monday",
        "hours": "9\u202fAM to 8\u202fPM"
      },
      {
        "day": "Tuesday",
        "hours": "9\u202fAM to 8\u202fPM"
      },
      {
        "day": "Wednesday",
        "hours": "9\u202fAM to 8\u202fPM"
      },
      {
        "day": "Thursday",
        "hours": "9\u202fAM to 8\u202fPM"
      },
      {
        "day": "Friday",
        "hours": "9\u202fAM to 8\u202fPM"
      },
      {
        "day": "Saturday",
        "hours": "9\u202fAM to 6\u202fPM"
      },
      {
        "day": "Sunday",
        "hours": "10\u202fAM to 6\u202fPM"
      }
    ],
    "peopleAlsoSearch": [],
    "placesTags": [],
    "reviewsTags": [],
    "additionalInfo": {
      "Service options": [
        {
          "Curbside pickup": true
        },
        {
          "In-store pickup": true
        },
        {
          "In-store shopping": true
        }
      ],
      "Accessibility": [
        {
          "Wheelchair accessible entrance": true
        },
        {
          "Wheelchair accessible parking lot": true
        }
      ],
      "Planning": [
        {
          "Quick visit": true
        }
      ],
      "Payments": [
        {
          "Credit cards": true
        }
      ]
    },
    "gasPrices": [],
    "url": "https://www.google.com/maps/search/?api=1&query=Lewis%20Pharmacy%20-%2041st%20%26%20Marion&query_place_id=ChIJFYztgLPLjocRVoXagb4A9x8",
    "searchPageUrl": "https://www.google.com/maps/search/independent%20pharmacy%20Sioux%20Falls%20SD/@36.81849750000001,-105.48342742835163,8z?hl=en",
    "searchString": "independent pharmacy Sioux Falls SD",
    "language": "en",
    "rank": 18,
    "isAdvertisement": false,
    "imageUrl": "https://streetviewpixels-pa.googleapis.com/v1/thumbnail?panoid=3nVyhMwaVnOaEp6uKbPXtA&cb_client=search.gws-prod.gps&w=408&h=240&yaw=278.7434&pitch=0&thumbfov=100",
    "kgmid": "/g/11j0tbzzxk",
    "classification": "independent",
    "is_independent": true,
    "is_compounding": false,
    "confidence": 0.9,
    "source": "perplexity",
    "method": "llm"
  },
  {
    "title": "Avera Pharmacy \u2014 Plaza 2",
    "price": null,
    "categoryName": "Pharmacy",
    "address": "1301 S Cliff Ave Plaza 2, Suite 225, Sioux Falls, SD 57105",
    "neighborhood": "McKennan Hospital",
    "street": "1301 S Cliff Ave Plaza 2, Suite 225",
    "city": "Sioux Falls",
    "postalCode": "57105",
    "state": "South Dakota",
    "countryCode": "US",
    "website": "https://www.avera.org/locations/profile/avera-pharmacy-plaza-2-sioux-falls/?y_source=1_ODI1MzIyNTAtNzE1LWxvY2F0aW9uLndlYnNpdGU%3D",
    "phone": "(605) 504-0491",
    "phoneUnformatted": "+16055040491",
    "claimThisBusiness": false,
    "location": {
      "lat": 43.5341039,
      "lng": -96.7121055
    },
    "totalScore": 5,
    "permanentlyClosed": false,
    "temporarilyClosed": false,
    "placeId": null,
    "categories": [
      "Pharmacy"
    ],
    "fid": "0x878eb5b34295b85b:0x96d13d5b3e6159a4",
    "cid": "10867534837919603108",
    "reviewsCount": 1,
    "imagesCount": 2,
    "imageCategories": [],
    "scrapedAt": "2025-06-22T09:43:11.461Z",
    "googleFoodUrl": null,
    "hotelAds": [],
    "openingHours": [
      {
        "day": "Monday",
        "hours": "8:30\u202fAM to 5\u202fPM"
      },
      {
        "day": "Tuesday",
        "hours": "8:30\u202fAM to 5\u202fPM"
      },
      {
        "day": "Wednesday",
        "hours": "8:30\u202fAM to 5\u202fPM"
      },
      {
        "day": "Thursday",
        "hours": "8:30\u202fAM to 5\u202fPM"
      },
      {
        "day": "Friday",
        "hours": "8:30\u202fAM to 5\u202fPM"
      },
      {
        "day": "Saturday",
        "hours": "Closed"
      },
      {
        "day": "Sunday",
        "hours": "Closed"
      }
    ],
    "peopleAlsoSearch": [],
    "placesTags": [],
    "reviewsTags": [],
    "additionalInfo": {
      "Accessibility": [
        {
          "Wheelchair accessible entrance": true
        },
        {
          "Wheelchair accessible parking lot": true
        }
      ],
      "Payments": [
        {
          "Credit cards": true
        },
        {
          "Debit cards": true
        },
        {
          "NFC mobile payments": true
        },
        {
          "Credit cards": true
        }
      ]
    },
    "gasPrices": [],
    "url": "https://www.google.com/maps/search/?api=1&query=Avera%20Pharmacy%20%E2%80%94%20Plaza%202&query_place_id=ChIJW7iVQrO1jocRpFlhPls90ZY",
    "searchPageUrl": "https://www.google.com/maps/search/independent%20pharmacy%20Sioux%20Falls%20SD/@36.81849750000001,-105.48342742835163,8z?hl=en",
    "searchString": "independent pharmacy Sioux Falls SD",
    "language": "en",
    "rank": 19,
    "isAdvertisement": false,
    "imageUrl": "https://streetviewpixels-pa.googleapis.com/v1/thumbnail?panoid=028j-RYEwyrwNJPqsLUGnQ&cb_client=search.gws-prod.gps&w=408&h=240&yaw=359.21567&pitch=0&thumbfov=100",
    "kgmid": "/g/11tt6f12rf",
    "classification": "independent",
    "is_independent": true,
    "is_compounding": false,
    "confidence": 0.9,
    "source": "perplexity",
    "method": "llm"
  },
  {
    "title": "CVS Pharmacy",
    "description": "Drugstore chain selling a variety of beauty & health products, plus some grocery & household items.",
    "price": null,
    "categoryName": "Pharmacy",
    "address": "1021 S Highline Pl, Sioux Falls, SD 57110",
    "neighborhood": null,
    "street": "1021 S Highline Pl",
    "city": "Sioux Falls",
    "postalCode": "57110",
    "state": "South Dakota",
    "countryCode": "US",
    "website": "https://www.cvs.com/store-locator/sioux-falls-sd-pharmacies/1021-s-highline-pl-sioux-falls-sd-57110/storeid=17566?WT.mc_id=LS_GOOGLE_RX_17566",
    "phone": "(605) 333-5601",
    "phoneUnformatted": "+16053335601",
    "claimThisBusiness": false,
    "location": {
      "lat": 43.5384221,
      "lng": -96.65546
    },
    "totalScore": 4,
    "permanentlyClosed": false,
    "temporarilyClosed": false,
    "placeId": null,
    "categories": [
      "Pharmacy"
    ],
    "fid": "0x878eb38c36597305:0x978ba62a18b96066",
    "cid": "10920004421223538790",
    "reviewsCount": 21,
    "imagesCount": 5,
    "imageCategories": [],
    "scrapedAt": "2025-06-22T09:43:11.461Z",
    "googleFoodUrl": null,
    "hotelAds": [],
    "openingHours": [
      {
        "day": "Monday",
        "hours": "9\u202fAM to 1:30\u202fPM, 2 to 8\u202fPM"
      },
      {
        "day": "Tuesday",
        "hours": "9\u202fAM to 1:30\u202fPM, 2 to 8\u202fPM"
      },
      {
        "day": "Wednesday",
        "hours": "9\u202fAM to 1:30\u202fPM, 2 to 8\u202fPM"
      },
      {
        "day": "Thursday",
        "hours": "9\u202fAM to 1:30\u202fPM, 2 to 8\u202fPM"
      },
      {
        "day": "Friday",
        "hours": "9\u202fAM to 1:30\u202fPM, 2 to 8\u202fPM"
      },
      {
        "day": "Saturday",
        "hours": "9\u202fAM to 1:30\u202fPM, 2 to 6\u202fPM"
      },
      {
        "day": "Sunday",
        "hours": "9\u202fAM to 1:30\u202fPM, 2 to 6\u202fPM"
      }
    ],
    "peopleAlsoSearch": [],
    "placesTags": [],
    "reviewsTags": [],
    "additionalInfo": {
      "Service options": [
        {
          "Delivery": true
        },
        {
          "In-store shopping": true
        },
        {
          "Onsite services": true
        }
      ],
      "Accessibility": [
        {
          "Wheelchair accessible entrance": true
        },
        {
          "Wheelchair accessible parking lot": true
        }
      ],
      "Offerings": [
        {
          "Naloxone": true
        }
      ],
      "Amenities": [
        {
          "Wi-Fi": true
        }
      ],
      "Crowd": [
        {
          "LGBTQ+ friendly": true
        },
        {
          "Transgender safespace": true
        }
      ],
      "Planning": [
        {
          "Quick visit": true
        }
      ],
      "Payments": [
        {
          "Credit cards": true
        },
        {
          "Debit cards": true
        },
        {
          "Credit cards": true
        }
      ]
    },
    "gasPrices": [],
    "url": "https://www.google.com/maps/search/?api=1&query=CVS%20Pharmacy&query_place_id=ChIJBXNZNoyzjocRZmC5GCqmi5c",
    "searchPageUrl": "https://www.google.com/maps/search/independent%20pharmacy%20Sioux%20Falls%20SD/@36.81849750000001,-105.48342742835163,8z?hl=en",
    "searchString": "independent pharmacy Sioux Falls SD",
    "language": "en",
    "rank": 20,
    "isAdvertisement": false,
    "imageUrl": "https://lh3.googleusercontent.com/p/AF1QipO01DMFrwJPr_2n4Q_4WdcvZUFGVjy5R2nhxml5=w408-h272-k-no",
    "kgmid": "/g/1thbx4n4",
    "classification": "chain",
    "is_independent": false,
    "is_compounding": false,
    "confidence": 1.0,
    "source": "perplexity",
    "method": "llm"
  }
]