[
  {
    "title": "Beach Pharmacy",
    "price": null,
    "categoryName": "Pharmacy",
    "address": "3198 Pacific Ave #124, Virginia Beach, VA 23451",
    "neighborhood": "North Virginia Beach",
    "street": "3198 Pacific Ave #124",
    "city": "Virginia Beach",
    "postalCode": "23451",
    "state": "Virginia",
    "countryCode": "US",
    "website": "https://m.facebook.com/pg/Beach-Pharmacy-195250217156937/about/",
    "phone": "(757) 965-3036",
    "phoneUnformatted": "+17579653036",
    "claimThisBusiness": false,
    "location": {
      "lat": 36.8603925,
      "lng": -75.9804966
    },
    "totalScore": 4.8,
    "permanentlyClosed": false,
    "temporarilyClosed": false,
    "placeId": null,
    "categories": [
      "Pharmacy"
    ],
    "fid": "0x89bae9654184a2dd:0xc19da0dece255a19",
    "cid": "13951484099465402905",
    "reviewsCount": 51,
    "imagesCount": 14,
    "imageCategories": [],
    "scrapedAt": "2025-06-22T06:43:29.337Z",
    "googleFoodUrl": null,
    "hotelAds": [],
    "openingHours": [
      {
        "day": "Monday",
        "hours": "9\u202fAM to 7\u202fPM"
      },
      {
        "day": "Tuesday",
        "hours": "9\u202fAM to 7\u202fPM"
      },
      {
        "day": "Wednesday",
        "hours": "9\u202fAM to 7\u202fPM"
      },
      {
        "day": "Thursday",
        "hours": "9\u202fAM to 7\u202fPM"
      },
      {
        "day": "Friday",
        "hours": "9\u202fAM to 7\u202fPM"
      },
      {
        "day": "Saturday",
        "hours": "9\u202fAM to 5\u202fPM"
      },
      {
        "day": "Sunday",
        "hours": "12 to 5\u202fPM"
      }
    ],
    "peopleAlsoSearch": [],
    "placesTags": [],
    "reviewsTags": [],
    "additionalInfo": {
      "Service options": [
        {
          "In-store pickup": true
        }
      ],
      "Accessibility": [
        {
          "Wheelchair accessible entrance": true
        },
        {
          "Wheelchair accessible parking lot": true
        }
      ],
      "Planning": [
        {
          "Quick visit": true
        }
      ],
      "Payments": [
        {
          "Credit cards": true
        }
      ]
    },
    "gasPrices": [],
    "url": "https://www.google.com/maps/search/?api=1&query=Beach%20Pharmacy&query_place_id=ChIJ3aKEQWXpuokRGVolzt6gncE",
    "searchPageUrl": "https://www.google.com/maps/search/independent%20pharmacy%20Virginia%20Beach%20VA/@60.874534795447715,-165.7692998137874,9z?hl=en",
    "searchString": "independent pharmacy Virginia Beach VA",
    "language": "en",
    "rank": 1,
    "isAdvertisement": false,
    "imageUrl": "https://lh3.googleusercontent.com/gps-cs-s/AC9h4nr2OZw_OU9feFGCjHEllvauDf-eYnGZF3Pom_8aNWflh5IT5pQiBkuFPVZlUdpC5bR8kEsMpRZ2ZXJcE4pgPNv3FMNAhlP0qSQY8W0QODTt1mkn0BsKcC6xNjxurHoNNQE94r-1=w426-h240-k-no",
    "kgmid": "/g/1hc88bd4h",
    "classification": "independent",
    "is_independent": true,
    "is_compounding": false,
    "confidence": 0.85,
    "source": "perplexity",
    "method": "llm"
  },
  {
    "title": "Pharmacy Innovations",
    "price": null,
    "categoryName": "Pharmacy",
    "address": "3636 Virginia Beach Blvd Ste 107C, Virginia Beach, VA 23452",
    "neighborhood": "North Central",
    "street": "3636 Virginia Beach Blvd Ste 107C",
    "city": "Virginia Beach",
    "postalCode": "23452",
    "state": "Virginia",
    "countryCode": "US",
    "website": "http://pharmacyinnovations.net/",
    "phone": "(757) 934-0533",
    "phoneUnformatted": "+17579340533",
    "claimThisBusiness": false,
    "location": {
      "lat": 36.841563,
      "lng": -76.097283
    },
    "totalScore": 4.6,
    "permanentlyClosed": false,
    "temporarilyClosed": false,
    "placeId": "ChIJ9f__WGuVuokRxV0L2xx0DMo",
    "categories": [
      "Pharmacy"
    ],
    "fid": "0x89ba956b58fffff5:0xca0c741cdb0b5dc5",
    "cid": "14559139362664832453",
    "reviewsCount": 30,
    "imagesCount": 1,
    "imageCategories": [],
    "scrapedAt": "2025-06-22T06:43:29.338Z",
    "googleFoodUrl": null,
    "hotelAds": [],
    "openingHours": [
      {
        "day": "Monday",
        "hours": "9\u202fAM to 5:30\u202fPM"
      },
      {
        "day": "Tuesday",
        "hours": "9\u202fAM to 5:30\u202fPM"
      },
      {
        "day": "Wednesday",
        "hours": "9\u202fAM to 5:30\u202fPM"
      },
      {
        "day": "Thursday",
        "hours": "9\u202fAM to 5:30\u202fPM"
      },
      {
        "day": "Friday",
        "hours": "9\u202fAM to 5:30\u202fPM"
      },
      {
        "day": "Saturday",
        "hours": "Closed"
      },
      {
        "day": "Sunday",
        "hours": "Closed"
      }
    ],
    "peopleAlsoSearch": [],
    "placesTags": [],
    "reviewsTags": [],
    "additionalInfo": {
      "Service options": [
        {
          "Delivery": true
        },
        {
          "In-store pickup": true
        },
        {
          "Same-day delivery": true
        }
      ],
      "Accessibility": [
        {
          "Wheelchair accessible entrance": true
        },
        {
          "Wheelchair accessible parking lot": true
        }
      ],
      "Payments": [
        {
          "Credit cards": true
        },
        {
          "Debit cards": true
        },
        {
          "NFC mobile payments": true
        },
        {
          "Credit cards": true
        }
      ]
    },
    "gasPrices": [],
    "url": "https://www.google.com/maps/search/?api=1&query=Pharmacy%20Innovations&query_place_id=ChIJ9f__WGuVuokRxV0L2xx0DMo",
    "searchPageUrl": "https://www.google.com/maps/search/independent%20pharmacy%20Virginia%20Beach%20VA/@60.874534795447715,-165.7692998137874,9z?hl=en",
    "searchString": "independent pharmacy Virginia Beach VA",
    "language": "en",
    "rank": 2,
    "isAdvertisement": false,
    "imageUrl": "https://streetviewpixels-pa.googleapis.com/v1/thumbnail?panoid=75LgWiZT4E6fasolIcA9LQ&cb_client=search.gws-prod.gps&w=408&h=240&yaw=19.75732&pitch=0&thumbfov=100",
    "kgmid": "/g/11clt7tsl7",
    "classification": "hospital",
    "is_independent": false,
    "confidence": 1.0,
    "source": "rule-based"
  },
  {
    "title": "IPS Compounding",
    "price": null,
    "categoryName": "Pharmacy",
    "address": "2697 International Pkwy, Virginia Beach, VA 23452",
    "neighborhood": null,
    "street": "2697 International Pkwy",
    "city": "Virginia Beach",
    "postalCode": "23452",
    "state": "Virginia",
    "countryCode": "US",
    "website": "https://ipscompounding.com/contact-us/",
    "phone": "(855) 297-9798",
    "phoneUnformatted": "+18552979798",
    "claimThisBusiness": true,
    "location": {
      "lat": 36.8148082,
      "lng": -76.064034
    },
    "totalScore": 5,
    "permanentlyClosed": false,
    "temporarilyClosed": false,
    "placeId": null,
    "categories": [
      "Pharmacy"
    ],
    "fid": "0x89baeaa06d8d07e7:0x7c2cb6763962de62",
    "cid": "8947727178563509858",
    "reviewsCount": 1,
    "imagesCount": 1,
    "imageCategories": [],
    "scrapedAt": "2025-06-22T06:43:29.338Z",
    "googleFoodUrl": null,
    "hotelAds": [],
    "openingHours": [
      {
        "day": "Monday",
        "hours": "7\u202fAM to 3\u202fPM"
      },
      {
        "day": "Tuesday",
        "hours": "7\u202fAM to 3\u202fPM"
      },
      {
        "day": "Wednesday",
        "hours": "7\u202fAM to 3\u202fPM"
      },
      {
        "day": "Thursday",
        "hours": "7\u202fAM to 3\u202fPM"
      },
      {
        "day": "Friday",
        "hours": "7\u202fAM to 3\u202fPM"
      },
      {
        "day": "Saturday",
        "hours": "Closed"
      },
      {
        "day": "Sunday",
        "hours": "Closed"
      }
    ],
    "peopleAlsoSearch": [],
    "placesTags": [],
    "reviewsTags": [],
    "additionalInfo": {
      "Accessibility": [
        {
          "Wheelchair accessible entrance": true
        },
        {
          "Wheelchair accessible parking lot": true
        }
      ]
    },
    "gasPrices": [],
    "url": "https://www.google.com/maps/search/?api=1&query=IPS%20Compounding&query_place_id=ChIJ5weNbaDquokRYt5iOXa2LHw",
    "searchPageUrl": "https://www.google.com/maps/search/independent%20pharmacy%20Virginia%20Beach%20VA/@60.874534795447715,-165.7692998137874,9z?hl=en",
    "searchString": "independent pharmacy Virginia Beach VA",
    "language": "en",
    "rank": 3,
    "isAdvertisement": false,
    "imageUrl": "https://streetviewpixels-pa.googleapis.com/v1/thumbnail?panoid=fgC66SJeBe1-m2SPGkrUtA&cb_client=search.gws-prod.gps&w=408&h=240&yaw=44.255615&pitch=0&thumbfov=100",
    "kgmid": "/g/11h5q8mm8h",
    "classification": "independent",
    "is_independent": true,
    "is_compounding": true,
    "confidence": 0.95,
    "source": "perplexity",
    "method": "llm"
  },
  {
    "title": "KEMPSVILLE PHARMACY",
    "price": null,
    "categoryName": "Pharmacy",
    "address": "5277 Princess Anne Rd #323, Virginia Beach, VA 23462",
    "neighborhood": null,
    "street": "5277 Princess Anne Rd #323",
    "city": "Virginia Beach",
    "postalCode": "23462",
    "state": "Virginia",
    "countryCode": "US",
    "website": "https://kempsvillepharmacy.com/",
    "phone": "(757) 904-0016",
    "phoneUnformatted": "+17579040016",
    "claimThisBusiness": false,
    "location": {
      "lat": 36.8272557,
      "lng": -76.1679234
    },
    "totalScore": 4.6,
    "permanentlyClosed": false,
    "temporarilyClosed": false,
    "placeId": null,
    "categories": [
      "Pharmacy"
    ],
    "fid": "0x89ba951d90487ae7:0xe3e5362037c59418",
    "cid": "16421591128278930456",
    "reviewsCount": 10,
    "imagesCount": 1,
    "imageCategories": [],
    "scrapedAt": "2025-06-22T06:43:29.338Z",
    "googleFoodUrl": null,
    "hotelAds": [],
    "openingHours": [
      {
        "day": "Monday",
        "hours": "9\u202fAM to 5\u202fPM"
      },
      {
        "day": "Tuesday",
        "hours": "9\u202fAM to 5\u202fPM"
      },
      {
        "day": "Wednesday",
        "hours": "9\u202fAM to 5\u202fPM"
      },
      {
        "day": "Thursday",
        "hours": "9\u202fAM to 5\u202fPM"
      },
      {
        "day": "Friday",
        "hours": "9\u202fAM to 5\u202fPM"
      },
      {
        "day": "Saturday",
        "hours": "Closed"
      },
      {
        "day": "Sunday",
        "hours": "Closed"
      }
    ],
    "peopleAlsoSearch": [],
    "placesTags": [],
    "reviewsTags": [],
    "additionalInfo": {
      "Accessibility": [
        {
          "Wheelchair accessible entrance": true
        },
        {
          "Wheelchair accessible parking lot": true
        }
      ],
      "Payments": [
        {
          "Credit cards": true
        }
      ]
    },
    "gasPrices": [],
    "url": "https://www.google.com/maps/search/?api=1&query=KEMPSVILLE%20PHARMACY&query_place_id=ChIJ53pIkB2VuokRGJTFNyA25eM",
    "searchPageUrl": "https://www.google.com/maps/search/independent%20pharmacy%20Virginia%20Beach%20VA/@60.874534795447715,-165.7692998137874,9z?hl=en",
    "searchString": "independent pharmacy Virginia Beach VA",
    "language": "en",
    "rank": 4,
    "isAdvertisement": false,
    "imageUrl": "https://streetviewpixels-pa.googleapis.com/v1/thumbnail?panoid=9FAy4XigIJWQb0YxW04IkA&cb_client=search.gws-prod.gps&w=408&h=240&yaw=202.51768&pitch=0&thumbfov=100",
    "kgmid": "/g/11y3x1x51w",
    "classification": "independent",
    "is_independent": true,
    "is_compounding": false,
    "confidence": 0.9,
    "source": "perplexity",
    "method": "llm"
  },
  {
    "title": "Tricare Prime Pharmacy",
    "price": null,
    "categoryName": "Pharmacy",
    "address": "2100 Lynnhaven Pkwy #101, Virginia Beach, VA 23456",
    "neighborhood": null,
    "street": "2100 Lynnhaven Pkwy #101",
    "city": "Virginia Beach",
    "postalCode": "23456",
    "state": "Virginia",
    "countryCode": "US",
    "website": "https://portsmouth.tricare.mil/Clinics/Virginia-Beach-TPC",
    "phone": "(757) 953-6708",
    "phoneUnformatted": "+17579536708",
    "claimThisBusiness": true,
    "location": {
      "lat": 36.7888689,
      "lng": -76.1255238
    },
    "totalScore": 2.9,
    "permanentlyClosed": false,
    "temporarilyClosed": false,
    "placeId": null,
    "categories": [
      "Pharmacy"
    ],
    "fid": "0x89babfd23f4ebe45:0xfb8e323c2e85466c",
    "cid": "18126480784272737900",
    "reviewsCount": 41,
    "imagesCount": 7,
    "imageCategories": [],
    "scrapedAt": "2025-06-22T06:43:29.338Z",
    "googleFoodUrl": null,
    "hotelAds": [],
    "openingHours": [
      {
        "day": "Monday",
        "hours": "7:30\u202fAM to 3:30\u202fPM"
      },
      {
        "day": "Tuesday",
        "hours": "8\u202fAM to 3:30\u202fPM"
      },
      {
        "day": "Wednesday",
        "hours": "7:30\u202fAM to 3:30\u202fPM"
      },
      {
        "day": "Thursday",
        "hours": "7:30\u202fAM to 3:30\u202fPM"
      },
      {
        "day": "Friday",
        "hours": "7:30\u202fAM to 3:30\u202fPM"
      },
      {
        "day": "Saturday",
        "hours": "Closed"
      },
      {
        "day": "Sunday",
        "hours": "Closed"
      }
    ],
    "peopleAlsoSearch": [],
    "placesTags": [],
    "reviewsTags": [],
    "additionalInfo": {
      "Accessibility": [
        {
          "Wheelchair accessible entrance": true
        },
        {
          "Wheelchair accessible parking lot": true
        }
      ],
      "Payments": [
        {
          "Credit cards": true
        }
      ]
    },
    "gasPrices": [],
    "url": "https://www.google.com/maps/search/?api=1&query=Tricare%20Prime%20Pharmacy&query_place_id=ChIJRb5OP9K_uokRbEaFLjwyjvs",
    "searchPageUrl": "https://www.google.com/maps/search/independent%20pharmacy%20Virginia%20Beach%20VA/@60.874534795447715,-165.7692998137874,9z?hl=en",
    "searchString": "independent pharmacy Virginia Beach VA",
    "language": "en",
    "rank": 5,
    "isAdvertisement": false,
    "imageUrl": "https://lh3.googleusercontent.com/gps-cs-s/AC9h4nrlKRAu2w90AZsiRNAm0v-JJ6dPZB-1cu5y_cK2wOW8fVFQhz_mnr16lGsBDfc7lzWcM_QfNBmFqb6VydmydEUWuKFf-PgKZp4AFykBXiX14QtGstYLP5saiR1zRjaPX0Mn4O8J=w408-h544-k-no",
    "kgmid": "/g/11j354yq5x",
    "classification": "hospital",
    "is_independent": false,
    "is_compounding": false,
    "confidence": 0.95,
    "source": "perplexity",
    "method": "llm"
  },
  {
    "title": "CVS Pharmacy",
    "price": null,
    "categoryName": "Pharmacy",
    "address": "1701 Independence Blvd, Virginia Beach, VA 23455",
    "neighborhood": "Northwest",
    "street": "1701 Independence Blvd",
    "city": "Virginia Beach",
    "postalCode": "23455",
    "state": "Virginia",
    "countryCode": "US",
    "website": "https://www.cvs.com/store-locator/virginia-beach-va-pharmacies/1701-independence-blvd-virginia-beach-va-23455/storeid=8938?WT.mc_id=LS_GOOGLE_RX_8938",
    "phone": "(757) 460-2607",
    "phoneUnformatted": "+17574602607",
    "claimThisBusiness": false,
    "location": {
      "lat": 36.8936841,
      "lng": -76.1426773
    },
    "totalScore": 4.3,
    "permanentlyClosed": false,
    "temporarilyClosed": false,
    "placeId": "ChIJOUIvkmWUuokRJK8l6qfpPG4",
    "categories": [
      "Pharmacy"
    ],
    "fid": "0x89ba9465922f4239:0x6e3ce9a7ea25af24",
    "cid": "7943480750171860772",
    "reviewsCount": 25,
    "imagesCount": 8,
    "imageCategories": [],
    "scrapedAt": "2025-06-22T06:43:29.338Z",
    "googleFoodUrl": null,
    "hotelAds": [],
    "openingHours": [
      {
        "day": "Monday",
        "hours": "9\u202fAM to 1:30\u202fPM, 2 to 8\u202fPM"
      },
      {
        "day": "Tuesday",
        "hours": "9\u202fAM to 1:30\u202fPM, 2 to 8\u202fPM"
      },
      {
        "day": "Wednesday",
        "hours": "9\u202fAM to 1:30\u202fPM, 2 to 8\u202fPM"
      },
      {
        "day": "Thursday",
        "hours": "9\u202fAM to 1:30\u202fPM, 2 to 8\u202fPM"
      },
      {
        "day": "Friday",
        "hours": "9\u202fAM to 1:30\u202fPM, 2 to 8\u202fPM"
      },
      {
        "day": "Saturday",
        "hours": "10\u202fAM to 1:30\u202fPM, 2 to 5\u202fPM"
      },
      {
        "day": "Sunday",
        "hours": "10\u202fAM to 1:30\u202fPM, 2 to 5\u202fPM"
      }
    ],
    "peopleAlsoSearch": [],
    "placesTags": [],
    "reviewsTags": [],
    "additionalInfo": {
      "Service options": [
        {
          "Delivery": true
        },
        {
          "Drive-through": true
        },
        {
          "In-store pickup": true
        },
        {
          "In-store shopping": true
        }
      ],
      "Accessibility": [
        {
          "Wheelchair accessible entrance": true
        },
        {
          "Wheelchair accessible parking lot": true
        }
      ],
      "Offerings": [
        {
          "Naloxone": true
        },
        {
          "Passport photos": true
        }
      ],
      "Crowd": [
        {
          "LGBTQ+ friendly": true
        },
        {
          "Transgender safespace": true
        }
      ],
      "Planning": [
        {
          "Quick visit": true
        }
      ],
      "Payments": [
        {
          "Credit cards": true
        },
        {
          "Debit cards": true
        },
        {
          "NFC mobile payments": true
        },
        {
          "SNAP/EBT": true
        },
        {
          "Credit cards": true
        }
      ]
    },
    "gasPrices": [],
    "url": "https://www.google.com/maps/search/?api=1&query=CVS%20Pharmacy&query_place_id=ChIJOUIvkmWUuokRJK8l6qfpPG4",
    "searchPageUrl": "https://www.google.com/maps/search/independent%20pharmacy%20Virginia%20Beach%20VA/@60.874534795447715,-165.7692998137874,9z?hl=en",
    "searchString": "independent pharmacy Virginia Beach VA",
    "language": "en",
    "rank": 6,
    "isAdvertisement": false,
    "imageUrl": "https://lh3.googleusercontent.com/p/AF1QipNLZIo500KsfVYNI7we9TG3sLSGGN6i1WS6CtR-=w408-h272-k-no",
    "kgmid": "/g/11c460jh_r",
    "classification": "chain",
    "is_independent": false,
    "confidence": 1.0,
    "source": "rule-based"
  },
  {
    "title": "Walgreens Pharmacy",
    "description": "Department of the Walgreens chain providing prescription medications & other health-related items.",
    "price": "$$",
    "categoryName": "Pharmacy",
    "address": "801 Independence Blvd, Virginia Beach, VA 23455",
    "neighborhood": "Northwest",
    "street": "801 Independence Blvd",
    "city": "Virginia Beach",
    "postalCode": "23455",
    "state": "Virginia",
    "countryCode": "US",
    "website": "https://www.walgreens.com/locator/walgreens-801+independence+blvd-virginia+beach-va-23455/id=4527",
    "phone": "(757) 519-9877",
    "phoneUnformatted": "+17575199877",
    "claimThisBusiness": false,
    "location": {
      "lat": 36.8660728,
      "lng": -76.133029
    },
    "totalScore": 2.6,
    "permanentlyClosed": false,
    "temporarilyClosed": false,
    "placeId": "ChIJZbtxaVWUuokRjuHirOC8MBc",
    "categories": [
      "Pharmacy"
    ],
    "fid": "0x89ba94556971bb65:0x1730bce0ace2e18e",
    "cid": "1671043134913700238",
    "reviewsCount": 16,
    "imagesCount": 3,
    "imageCategories": [],
    "scrapedAt": "2025-06-22T06:43:29.338Z",
    "googleFoodUrl": null,
    "hotelAds": [],
    "openingHours": [
      {
        "day": "Monday",
        "hours": "9\u202fAM to 1:30\u202fPM, 2 to 9\u202fPM"
      },
      {
        "day": "Tuesday",
        "hours": "9\u202fAM to 1:30\u202fPM, 2 to 9\u202fPM"
      },
      {
        "day": "Wednesday",
        "hours": "9\u202fAM to 1:30\u202fPM, 2 to 9\u202fPM"
      },
      {
        "day": "Thursday",
        "hours": "9\u202fAM to 1:30\u202fPM, 2 to 9\u202fPM"
      },
      {
        "day": "Friday",
        "hours": "9\u202fAM to 1:30\u202fPM, 2 to 9\u202fPM"
      },
      {
        "day": "Saturday",
        "hours": "9\u202fAM to 1:30\u202fPM, 2 to 6\u202fPM"
      },
      {
        "day": "Sunday",
        "hours": "10\u202fAM to 1:30\u202fPM, 2 to 6\u202fPM"
      }
    ],
    "additionalOpeningHours": {
      "Drive through": [
        {
          "day": "Monday",
          "hours": "9\u202fAM\u20131:30\u202fPM"
        },
        {
          "day": "Tuesday",
          "hours": "9\u202fAM\u20131:30\u202fPM"
        },
        {
          "day": "Wednesday",
          "hours": "9\u202fAM\u20131:30\u202fPM"
        },
        {
          "day": "Thursday",
          "hours": "9\u202fAM\u20131:30\u202fPM"
        },
        {
          "day": "Friday",
          "hours": "9\u202fAM\u20131:30\u202fPM"
        },
        {
          "day": "Saturday",
          "hours": "9\u202fAM\u20131:30\u202fPM"
        },
        {
          "day": "Sunday",
          "hours": "10\u202fAM\u20131:30\u202fPM"
        }
      ]
    },
    "peopleAlsoSearch": [],
    "placesTags": [],
    "reviewsTags": [],
    "additionalInfo": {
      "Service options": [
        {
          "Drive-through": true
        },
        {
          "In-store pickup": true
        },
        {
          "Onsite services": true
        }
      ],
      "Accessibility": [
        {
          "Wheelchair accessible entrance": true
        },
        {
          "Wheelchair accessible parking lot": true
        }
      ],
      "Offerings": [
        {
          "Naloxone": true
        }
      ],
      "Planning": [
        {
          "Quick visit": true
        }
      ],
      "Payments": [
        {
          "Credit cards": true
        },
        {
          "Debit cards": true
        }
      ]
    },
    "gasPrices": [],
    "url": "https://www.google.com/maps/search/?api=1&query=Walgreens%20Pharmacy&query_place_id=ChIJZbtxaVWUuokRjuHirOC8MBc",
    "searchPageUrl": "https://www.google.com/maps/search/independent%20pharmacy%20Virginia%20Beach%20VA/@60.874534795447715,-165.7692998137874,9z?hl=en",
    "searchString": "independent pharmacy Virginia Beach VA",
    "language": "en",
    "rank": 7,
    "isAdvertisement": false,
    "imageUrl": "https://lh3.googleusercontent.com/p/AF1QipMIRFRyyTlPYIy5lLaQ3H5CtbESNLS9ME2ccF7-=w525-h240-k-no",
    "kgmid": "/g/11cn9553pj",
    "classification": "chain",
    "is_independent": false,
    "confidence": 1.0,
    "source": "rule-based"
  },
  {
    "title": "BEDEI COMPOUNDING PHARMACY SERVICES",
    "price": null,
    "categoryName": "Pharmacy",
    "address": "3921 Poplar Hill Rd, Chesapeake, VA 23321",
    "neighborhood": "Western Branch North",
    "street": "3921 Poplar Hill Rd",
    "city": "Chesapeake",
    "postalCode": "23321",
    "state": "Virginia",
    "countryCode": "US",
    "website": "http://bedeipharmacy.com/",
    "phone": "(757) 320-5141",
    "phoneUnformatted": "+17573205141",
    "claimThisBusiness": false,
    "location": {
      "lat": 36.8635787,
      "lng": -76.4001238
    },
    "totalScore": 4.3,
    "permanentlyClosed": false,
    "temporarilyClosed": false,
    "placeId": null,
    "categories": [
      "Pharmacy"
    ],
    "fid": "0x89ba953f995753cf:0xb839c9221679dbc3",
    "cid": "13274862524894403523",
    "reviewsCount": 29,
    "imagesCount": 11,
    "imageCategories": [],
    "scrapedAt": "2025-06-22T06:43:29.339Z",
    "googleFoodUrl": null,
    "hotelAds": [],
    "openingHours": [
      {
        "day": "Monday",
        "hours": "9\u202fAM to 5\u202fPM"
      },
      {
        "day": "Tuesday",
        "hours": "9\u202fAM to 5\u202fPM"
      },
      {
        "day": "Wednesday",
        "hours": "9\u202fAM to 5\u202fPM"
      },
      {
        "day": "Thursday",
        "hours": "9\u202fAM to 5\u202fPM"
      },
      {
        "day": "Friday",
        "hours": "9\u202fAM to 5\u202fPM"
      },
      {
        "day": "Saturday",
        "hours": "Closed"
      },
      {
        "day": "Sunday",
        "hours": "Closed"
      }
    ],
    "peopleAlsoSearch": [],
    "placesTags": [],
    "reviewsTags": [],
    "additionalInfo": {
      "From the business": [
        {
          "Small business": true
        }
      ],
      "Service options": [
        {
          "Delivery": true
        },
        {
          "In-store pickup": true
        },
        {
          "In-store shopping": true
        },
        {
          "English": true
        }
      ],
      "Accessibility": [
        {
          "Wheelchair accessible entrance": true
        },
        {
          "Wheelchair accessible parking lot": true
        }
      ],
      "Payments": [
        {
          "Checks": true
        },
        {
          "Credit cards": true
        },
        {
          "Debit cards": true
        },
        {
          "NFC mobile payments": true
        },
        {
          "Credit cards": true
        }
      ]
    },
    "gasPrices": [],
    "url": "https://www.google.com/maps/search/?api=1&query=BEDEI%20COMPOUNDING%20PHARMACY%20SERVICES&query_place_id=ChIJz1NXmT-VuokRw9t5FiLJObg",
    "searchPageUrl": "https://www.google.com/maps/search/independent%20pharmacy%20Virginia%20Beach%20VA/@60.874534795447715,-165.7692998137874,9z?hl=en",
    "searchString": "independent pharmacy Virginia Beach VA",
    "language": "en",
    "rank": 8,
    "isAdvertisement": false,
    "imageUrl": "https://lh3.googleusercontent.com/gps-cs-s/AC9h4nrObl_3eKhYyGph4yTNmoohbbQHnlXJ_2REOlyZRt2qmAfIWbSUYIimidQyTX7Ibh700snoawvDQo4p7mMwm-QWd3o0RrqvG2dOsmPb2Jv3bfSj-WThlddYKivcrHQSNdeHvF2m=w426-h240-k-no",
    "kgmid": "/g/11bwqmq7px",
    "classification": "independent",
    "is_independent": true,
    "is_compounding": true,
    "confidence": 0.95,
    "source": "perplexity",
    "method": "llm"
  },
  {
    "title": "Walgreens Pharmacy",
    "description": "Department of the Walgreens chain providing prescription medications & other health-related items.",
    "price": "$$",
    "categoryName": "Pharmacy",
    "address": "3376 Virginia Beach Blvd, Virginia Beach, VA 23452",
    "neighborhood": "North Central",
    "street": "3376 Virginia Beach Blvd",
    "city": "Virginia Beach",
    "postalCode": "23452",
    "state": "Virginia",
    "countryCode": "US",
    "website": "https://www.walgreens.com/locator/walgreens-3376+virginia+beach+blvd-virginia+beach-va-23452/id=6790",
    "phone": "(757) 340-8013",
    "phoneUnformatted": "+17573408013",
    "claimThisBusiness": false,
    "location": {
      "lat": 36.8423757,
      "lng": -76.0900594
    },
    "locatedIn": "Walgreens",
    "totalScore": 3.3,
    "permanentlyClosed": false,
    "temporarilyClosed": false,
    "placeId": "ChIJR_oEQDSVuokR81rRbfyvLxw",
    "categories": [
      "Pharmacy"
    ],
    "fid": "0x89ba95344004fa47:0x1c2faffc6dd15af3",
    "cid": "2031035455676439283",
    "reviewsCount": 122,
    "imagesCount": 22,
    "imageCategories": [],
    "scrapedAt": "2025-06-22T06:43:29.339Z",
    "googleFoodUrl": null,
    "hotelAds": [],
    "openingHours": [
      {
        "day": "Monday",
        "hours": "9\u202fAM to 1:30\u202fPM, 2 to 9\u202fPM"
      },
      {
        "day": "Tuesday",
        "hours": "9\u202fAM to 1:30\u202fPM, 2 to 9\u202fPM"
      },
      {
        "day": "Wednesday",
        "hours": "9\u202fAM to 1:30\u202fPM, 2 to 9\u202fPM"
      },
      {
        "day": "Thursday",
        "hours": "9\u202fAM to 1:30\u202fPM, 2 to 9\u202fPM"
      },
      {
        "day": "Friday",
        "hours": "9\u202fAM to 1:30\u202fPM, 2 to 9\u202fPM"
      },
      {
        "day": "Saturday",
        "hours": "9\u202fAM to 1:30\u202fPM, 2 to 6\u202fPM"
      },
      {
        "day": "Sunday",
        "hours": "9\u202fAM to 1:30\u202fPM, 2 to 6\u202fPM"
      }
    ],
    "additionalOpeningHours": {
      "Walgreens": [
        {
          "day": "Monday",
          "hours": "7\u202fAM\u201310\u202fPM"
        },
        {
          "day": "Tuesday",
          "hours": "7\u202fAM\u201310\u202fPM"
        },
        {
          "day": "Wednesday",
          "hours": "7\u202fAM\u201310\u202fPM"
        },
        {
          "day": "Thursday",
          "hours": "7\u202fAM\u201310\u202fPM"
        },
        {
          "day": "Friday",
          "hours": "7\u202fAM\u201310\u202fPM"
        },
        {
          "day": "Saturday",
          "hours": "7\u202fAM\u201310\u202fPM"
        },
        {
          "day": "Sunday",
          "hours": "7\u202fAM\u201310\u202fPM"
        }
      ],
      "Walgreens Photo": [
        {
          "day": "Monday",
          "hours": "7\u202fAM\u201310\u202fPM"
        },
        {
          "day": "Tuesday",
          "hours": "7\u202fAM\u201310\u202fPM"
        },
        {
          "day": "Wednesday",
          "hours": "7\u202fAM\u201310\u202fPM"
        },
        {
          "day": "Thursday",
          "hours": "7\u202fAM\u201310\u202fPM"
        },
        {
          "day": "Friday",
          "hours": "7\u202fAM\u201310\u202fPM"
        },
        {
          "day": "Saturday",
          "hours": "7\u202fAM\u201310\u202fPM"
        },
        {
          "day": "Sunday",
          "hours": "7\u202fAM\u201310\u202fPM"
        }
      ],
      "Drive through": [
        {
          "day": "Monday",
          "hours": "9\u202fAM\u20131:30\u202fPM"
        },
        {
          "day": "Tuesday",
          "hours": "9\u202fAM\u20131:30\u202fPM"
        },
        {
          "day": "Wednesday",
          "hours": "9\u202fAM\u20131:30\u202fPM"
        },
        {
          "day": "Thursday",
          "hours": "9\u202fAM\u20131:30\u202fPM"
        },
        {
          "day": "Friday",
          "hours": "9\u202fAM\u20131:30\u202fPM"
        },
        {
          "day": "Saturday",
          "hours": "9\u202fAM\u20131:30\u202fPM"
        },
        {
          "day": "Sunday",
          "hours": "9\u202fAM\u20131:30\u202fPM"
        }
      ]
    },
    "peopleAlsoSearch": [],
    "placesTags": [],
    "reviewsTags": [],
    "additionalInfo": {
      "Service options": [
        {
          "Curbside pickup": true
        },
        {
          "Drive-through": true
        },
        {
          "In-store pickup": true
        },
        {
          "Onsite services": true
        }
      ],
      "Accessibility": [
        {
          "Wheelchair accessible entrance": true
        },
        {
          "Wheelchair accessible parking lot": true
        }
      ],
      "Offerings": [
        {
          "Medication disposal": true
        },
        {
          "Naloxone": true
        },
        {
          "Passport photos": true
        }
      ],
      "Planning": [
        {
          "Quick visit": true
        }
      ],
      "Payments": [
        {
          "Credit cards": true
        },
        {
          "Debit cards": true
        },
        {
          "NFC mobile payments": true
        },
        {
          "Credit cards": true
        }
      ]
    },
    "gasPrices": [],
    "url": "https://www.google.com/maps/search/?api=1&query=Walgreens%20Pharmacy&query_place_id=ChIJR_oEQDSVuokR81rRbfyvLxw",
    "searchPageUrl": "https://www.google.com/maps/search/independent%20pharmacy%20Virginia%20Beach%20VA/@60.874534795447715,-165.7692998137874,9z?hl=en",
    "searchString": "independent pharmacy Virginia Beach VA",
    "language": "en",
    "rank": 9,
    "isAdvertisement": false,
    "imageUrl": "https://lh3.googleusercontent.com/gps-cs-s/AC9h4nrSbU-_xyDhh7Jk-DzTukpsp2S2PtTB_ijbgipNUWbz66qzYfDQoImZ8qY7X6YhN3r0JOML6_k2lN8hAnLumxJhAHiooWjZG-eQv7ixNF1JFTUEkuGHpcASC98vxSojsFWNTbsumw=w408-h408-k-no",
    "kgmid": "/g/1tfwqwbv",
    "classification": "chain",
    "is_independent": false,
    "confidence": 1.0,
    "source": "rule-based"
  },
  {
    "title": "CVS Pharmacy",
    "price": null,
    "categoryName": "Pharmacy",
    "address": "2089 Salem Rd, Virginia Beach, VA 23456",
    "neighborhood": null,
    "street": "2089 Salem Rd",
    "city": "Virginia Beach",
    "postalCode": "23456",
    "state": "Virginia",
    "countryCode": "US",
    "website": "https://www.cvs.com/store-locator/virginia-beach-va-pharmacies/2089-salem-rd-virginia-beach-va-23456/storeid=10018?WT.mc_id=LS_GOOGLE_RX_10018",
    "phone": "(757) 471-2202",
    "phoneUnformatted": "+17574712202",
    "claimThisBusiness": false,
    "location": {
      "lat": 36.7689821,
      "lng": -76.1239391
    },
    "totalScore": 4.8,
    "permanentlyClosed": false,
    "temporarilyClosed": false,
    "placeId": "ChIJLYYh0AS_uokROeWfRPO9-10",
    "categories": [
      "Pharmacy"
    ],
    "fid": "0x89babf04d021862d:0x5dfbbdf3449fe539",
    "cid": "6772215317207704889",
    "reviewsCount": 19,
    "imagesCount": 16,
    "imageCategories": [],
    "scrapedAt": "2025-06-22T06:43:29.339Z",
    "googleFoodUrl": null,
    "hotelAds": [],
    "openingHours": [
      {
        "day": "Monday",
        "hours": "9\u202fAM to 1:30\u202fPM, 2 to 9\u202fPM"
      },
      {
        "day": "Tuesday",
        "hours": "9\u202fAM to 1:30\u202fPM, 2 to 9\u202fPM"
      },
      {
        "day": "Wednesday",
        "hours": "9\u202fAM to 1:30\u202fPM, 2 to 9\u202fPM"
      },
      {
        "day": "Thursday",
        "hours": "9\u202fAM to 1:30\u202fPM, 2 to 9\u202fPM"
      },
      {
        "day": "Friday",
        "hours": "9\u202fAM to 1:30\u202fPM, 2 to 9\u202fPM"
      },
      {
        "day": "Saturday",
        "hours": "11\u202fAM to 1:30\u202fPM, 2 to 6\u202fPM"
      },
      {
        "day": "Sunday",
        "hours": "11\u202fAM to 1:30\u202fPM, 2 to 6\u202fPM"
      }
    ],
    "peopleAlsoSearch": [],
    "placesTags": [],
    "reviewsTags": [],
    "additionalInfo": {
      "Service options": [
        {
          "Delivery": true
        },
        {
          "Drive-through": true
        },
        {
          "In-store shopping": true
        },
        {
          "Onsite services": true
        }
      ],
      "Accessibility": [
        {
          "Wheelchair accessible entrance": true
        },
        {
          "Wheelchair accessible parking lot": true
        }
      ],
      "Offerings": [
        {
          "Naloxone": true
        },
        {
          "Passport photos": true
        }
      ],
      "Crowd": [
        {
          "LGBTQ+ friendly": true
        },
        {
          "Transgender safespace": true
        }
      ],
      "Planning": [
        {
          "Quick visit": true
        }
      ],
      "Payments": [
        {
          "Credit cards": true
        },
        {
          "Debit cards": true
        },
        {
          "NFC mobile payments": true
        },
        {
          "Credit cards": true
        }
      ]
    },
    "gasPrices": [],
    "url": "https://www.google.com/maps/search/?api=1&query=CVS%20Pharmacy&query_place_id=ChIJLYYh0AS_uokROeWfRPO9-10",
    "searchPageUrl": "https://www.google.com/maps/search/independent%20pharmacy%20Virginia%20Beach%20VA/@60.874534795447715,-165.7692998137874,9z?hl=en",
    "searchString": "independent pharmacy Virginia Beach VA",
    "language": "en",
    "rank": 10,
    "isAdvertisement": false,
    "imageUrl": "https://lh3.googleusercontent.com/p/AF1QipN3QJjraAGLt5Nu-1QmFToe5szgdI2m8Iu6qUE=w408-h272-k-no",
    "kgmid": "/g/11c467bv6j",
    "classification": "chain",
    "is_independent": false,
    "confidence": 1.0,
    "source": "rule-based"
  },
  {
    "title": "CVS Pharmacy",
    "price": null,
    "categoryName": "Pharmacy",
    "address": "2060 S Independence Blvd, Virginia Beach, VA 23453",
    "neighborhood": null,
    "street": "2060 S Independence Blvd",
    "city": "Virginia Beach",
    "postalCode": "23453",
    "state": "Virginia",
    "countryCode": "US",
    "website": "https://www.cvs.com/store-locator/virginia-beach-va-pharmacies/2060-s-independence-blvd-virginia-beach-va-23453/storeid=16479?WT.mc_id=LS_GOOGLE_RX_16479",
    "phone": "(757) 416-1785",
    "phoneUnformatted": "+17574161785",
    "claimThisBusiness": false,
    "location": {
      "lat": 36.7879356,
      "lng": -76.1089813
    },
    "totalScore": 3.2,
    "permanentlyClosed": false,
    "temporarilyClosed": false,
    "placeId": "ChIJU0G1Ub2_uokRUQ3jmbYcbUw",
    "categories": [
      "Pharmacy"
    ],
    "fid": "0x89babfbd51b54153:0x4c6d1cb699e30d51",
    "cid": "5507089489935404369",
    "reviewsCount": 30,
    "imagesCount": 16,
    "imageCategories": [],
    "scrapedAt": "2025-06-22T06:43:29.339Z",
    "googleFoodUrl": null,
    "hotelAds": [],
    "openingHours": [
      {
        "day": "Monday",
        "hours": "9\u202fAM to 1:30\u202fPM, 2 to 7\u202fPM"
      },
      {
        "day": "Tuesday",
        "hours": "9\u202fAM to 1:30\u202fPM, 2 to 7\u202fPM"
      },
      {
        "day": "Wednesday",
        "hours": "9\u202fAM to 1:30\u202fPM, 2 to 7\u202fPM"
      },
      {
        "day": "Thursday",
        "hours": "9\u202fAM to 1:30\u202fPM, 2 to 7\u202fPM"
      },
      {
        "day": "Friday",
        "hours": "9\u202fAM to 1:30\u202fPM, 2 to 7\u202fPM"
      },
      {
        "day": "Saturday",
        "hours": "10\u202fAM to 1:30\u202fPM, 2 to 6\u202fPM"
      },
      {
        "day": "Sunday",
        "hours": "11\u202fAM to 1:30\u202fPM, 2 to 5\u202fPM"
      }
    ],
    "peopleAlsoSearch": [],
    "placesTags": [],
    "reviewsTags": [],
    "additionalInfo": {
      "Service options": [
        {
          "Delivery": true
        },
        {
          "In-store shopping": true
        },
        {
          "Onsite services": true
        }
      ],
      "Accessibility": [
        {
          "Wheelchair accessible entrance": true
        },
        {
          "Wheelchair accessible parking lot": true
        }
      ],
      "Offerings": [
        {
          "Naloxone": true
        }
      ],
      "Amenities": [
        {
          "Wi-Fi": true
        }
      ],
      "Crowd": [
        {
          "LGBTQ+ friendly": true
        },
        {
          "Transgender safespace": true
        }
      ],
      "Planning": [
        {
          "Quick visit": true
        }
      ],
      "Payments": [
        {
          "Credit cards": true
        },
        {
          "Debit cards": true
        },
        {
          "Credit cards": true
        }
      ]
    },
    "gasPrices": [],
    "url": "https://www.google.com/maps/search/?api=1&query=CVS%20Pharmacy&query_place_id=ChIJU0G1Ub2_uokRUQ3jmbYcbUw",
    "searchPageUrl": "https://www.google.com/maps/search/independent%20pharmacy%20Virginia%20Beach%20VA/@60.874534795447715,-165.7692998137874,9z?hl=en",
    "searchString": "independent pharmacy Virginia Beach VA",
    "language": "en",
    "rank": 11,
    "isAdvertisement": false,
    "imageUrl": "https://lh3.googleusercontent.com/p/AF1QipOBg-8U47wBg3RLdHUJaK56zITUsZLbNz-lQIdn=w408-h272-k-no",
    "kgmid": "/g/1v29cy6m",
    "classification": "chain",
    "is_independent": false,
    "confidence": 1.0,
    "source": "rule-based"
  },
  {
    "title": "Bayview SRC Pharmacy",
    "price": null,
    "categoryName": "Pharmacy",
    "address": "710 E Little Creek Rd, Norfolk, VA 23518",
    "neighborhood": null,
    "street": "710 E Little Creek Rd",
    "city": "Norfolk",
    "postalCode": "23518",
    "state": "Virginia",
    "countryCode": "US",
    "website": "http://www.bayviewsrcpharmacy.com/",
    "phone": "(757) 819-4636",
    "phoneUnformatted": "+17578194636",
    "claimThisBusiness": false,
    "location": {
      "lat": 36.9164716,
      "lng": -76.253372
    },
    "totalScore": 4.8,
    "permanentlyClosed": false,
    "temporarilyClosed": false,
    "placeId": null,
    "categories": [
      "Pharmacy",
      "Drug store"
    ],
    "fid": "0x89ba974bf9070961:0x2a5fa90aeba20312",
    "cid": "3053344936748516114",
    "reviewsCount": 50,
    "imagesCount": 15,
    "imageCategories": [],
    "scrapedAt": "2025-06-22T06:43:29.339Z",
    "googleFoodUrl": null,
    "hotelAds": [],
    "openingHours": [
      {
        "day": "Monday",
        "hours": "9\u202fAM to 6\u202fPM"
      },
      {
        "day": "Tuesday",
        "hours": "9\u202fAM to 6\u202fPM"
      },
      {
        "day": "Wednesday",
        "hours": "9\u202fAM to 6\u202fPM"
      },
      {
        "day": "Thursday",
        "hours": "9\u202fAM to 6\u202fPM"
      },
      {
        "day": "Friday",
        "hours": "9\u202fAM to 6\u202fPM"
      },
      {
        "day": "Saturday",
        "hours": "9\u202fAM to 2\u202fPM"
      },
      {
        "day": "Sunday",
        "hours": "Closed"
      }
    ],
    "peopleAlsoSearch": [],
    "placesTags": [],
    "reviewsTags": [],
    "additionalInfo": {
      "From the business": [
        {
          "Small business": true
        }
      ],
      "Service options": [
        {
          "Delivery": true
        },
        {
          "In-store pickup": true
        },
        {
          "Onsite services": true
        },
        {
          "Same-day delivery": true
        }
      ],
      "Accessibility": [
        {
          "Wheelchair accessible entrance": true
        },
        {
          "Wheelchair accessible parking lot": true
        }
      ],
      "Planning": [
        {
          "Quick visit": true
        }
      ],
      "Payments": [
        {
          "Checks": true
        },
        {
          "Credit cards": true
        },
        {
          "Debit cards": true
        },
        {
          "NFC mobile payments": true
        },
        {
          "Credit cards": true
        }
      ]
    },
    "gasPrices": [],
    "url": "https://www.google.com/maps/search/?api=1&query=Bayview%20SRC%20Pharmacy&query_place_id=ChIJYQkH-UuXuokREgOi6wqpXyo",
    "searchPageUrl": "https://www.google.com/maps/search/independent%20pharmacy%20Virginia%20Beach%20VA/@60.874534795447715,-165.7692998137874,9z?hl=en",
    "searchString": "independent pharmacy Virginia Beach VA",
    "language": "en",
    "rank": 12,
    "isAdvertisement": false,
    "imageUrl": "https://lh3.googleusercontent.com/p/AF1QipOOOCo7_K7z35haBIdxYoCheChv-l7eG_Nh8ZPI=w408-h306-k-no",
    "kgmid": "/g/11cly5ty_q",
    "classification": "independent",
    "is_independent": true,
    "is_compounding": false,
    "confidence": 0.9,
    "source": "perplexity",
    "method": "llm"
  },
  {
    "title": "Kroger Pharmacy",
    "price": "$$",
    "categoryName": "Pharmacy",
    "address": "1800 Republic Rd, Virginia Beach, VA 23454",
    "neighborhood": "North Virginia Beach",
    "street": "1800 Republic Rd",
    "city": "Virginia Beach",
    "postalCode": "23454",
    "state": "Virginia",
    "countryCode": "US",
    "website": "https://www.kroger.com/rx/pharmacy/details/029/00533?cid=loc_02900533P_gmb",
    "phone": "(757) 422-4520",
    "phoneUnformatted": "+17574224520",
    "claimThisBusiness": false,
    "location": {
      "lat": 36.8523425,
      "lng": -76.0281483
    },
    "totalScore": 3.3,
    "permanentlyClosed": false,
    "temporarilyClosed": false,
    "placeId": "ChIJBXCtrFLquokRV5pof8Ko6P8",
    "categories": [
      "Pharmacy",
      "Drug store",
      "Health counselor",
      "Home health care service"
    ],
    "fid": "0x89baea52acad7005:0xffe8a8c27f689a57",
    "cid": "18440174227583179351",
    "reviewsCount": 12,
    "imagesCount": 14,
    "imageCategories": [],
    "scrapedAt": "2025-06-22T06:43:29.339Z",
    "googleFoodUrl": null,
    "hotelAds": [],
    "openingHours": [
      {
        "day": "Monday",
        "hours": "9\u202fAM to 1\u202fPM, 1:30 to 8\u202fPM"
      },
      {
        "day": "Tuesday",
        "hours": "9\u202fAM to 1\u202fPM, 1:30 to 8\u202fPM"
      },
      {
        "day": "Wednesday",
        "hours": "9\u202fAM to 1\u202fPM, 1:30 to 8\u202fPM"
      },
      {
        "day": "Thursday",
        "hours": "9\u202fAM to 1\u202fPM, 1:30 to 8\u202fPM"
      },
      {
        "day": "Friday",
        "hours": "9\u202fAM to 1\u202fPM, 1:30 to 8\u202fPM"
      },
      {
        "day": "Saturday",
        "hours": "9\u202fAM to 1\u202fPM, 1:30 to 6\u202fPM"
      },
      {
        "day": "Sunday",
        "hours": "10\u202fAM to 1\u202fPM, 1:30 to 5\u202fPM"
      }
    ],
    "peopleAlsoSearch": [],
    "placesTags": [],
    "reviewsTags": [],
    "additionalInfo": {
      "Service options": [
        {
          "Curbside pickup": true
        },
        {
          "Delivery": true
        },
        {
          "In-store pickup": true
        },
        {
          "In-store shopping": true
        },
        {
          "Same-day delivery": true
        }
      ],
      "Accessibility": [
        {
          "Wheelchair accessible entrance": true
        },
        {
          "Wheelchair accessible parking lot": true
        },
        {
          "Wheelchair accessible restroom": true
        },
        {
          "Wheelchair accessible seating": true
        }
      ],
      "Offerings": [
        {
          "Passport photos": true
        }
      ],
      "Crowd": [
        {
          "LGBTQ+ friendly": true
        },
        {
          "Transgender safespace": true
        }
      ],
      "Planning": [
        {
          "Quick visit": true
        }
      ],
      "Payments": [
        {
          "Checks": true
        },
        {
          "Credit cards": true
        },
        {
          "Debit cards": true
        },
        {
          "NFC mobile payments": true
        },
        {
          "Credit cards": true
        }
      ]
    },
    "gasPrices": [],
    "url": "https://www.google.com/maps/search/?api=1&query=Kroger%20Pharmacy&query_place_id=ChIJBXCtrFLquokRV5pof8Ko6P8",
    "searchPageUrl": "https://www.google.com/maps/search/independent%20pharmacy%20Virginia%20Beach%20VA/@60.874534795447715,-165.7692998137874,9z?hl=en",
    "searchString": "independent pharmacy Virginia Beach VA",
    "language": "en",
    "rank": 13,
    "isAdvertisement": false,
    "imageUrl": "https://lh3.googleusercontent.com/p/AF1QipOtr_vcra8Iv_odg3_2qqWzyUdUjF8qyubnlRQt=w426-h240-k-no",
    "kgmid": "/g/1tg_bd0d",
    "classification": "chain",
    "is_independent": false,
    "confidence": 1.0,
    "source": "rule-based"
  },
  {
    "title": "PharMerica- Virginia Beach, VA",
    "price": null,
    "categoryName": "Pharmacy",
    "address": "247 Expressway Ct #247, Virginia Beach, VA 23462, United States",
    "neighborhood": "Northwest",
    "street": "247 Expressway Ct #247",
    "city": "Virginia Beach",
    "postalCode": "23462",
    "state": "Virginia",
    "countryCode": "US",
    "website": "https://pharmerica.com/",
    "phone": "+1 800-371-9920",
    "phoneUnformatted": "+18003719920",
    "claimThisBusiness": false,
    "location": {
      "lat": 36.841397,
      "lng": -76.1622266
    },
    "permanentlyClosed": false,
    "temporarilyClosed": false,
    "placeId": "ChIJOY5NsJKVuokRe4UkGyhnM5g",
    "categories": [
      "Pharmacy"
    ],
    "fid": "0x89ba9592b04d8e39:0x983367281b24857b",
    "cid": "10967222939529020795",
    "reviewsCount": 0,
    "imagesCount": 1,
    "imageCategories": [],
    "scrapedAt": "2025-06-22T06:43:30.140Z",
    "googleFoodUrl": null,
    "hotelAds": [],
    "openingHours": [
      {
        "day": "Monday",
        "hours": "Open 24 hours"
      },
      {
        "day": "Tuesday",
        "hours": "Open 24 hours"
      },
      {
        "day": "Wednesday",
        "hours": "Open 24 hours"
      },
      {
        "day": "Thursday",
        "hours": "Open 24 hours"
      },
      {
        "day": "Friday",
        "hours": "Open 24 hours"
      },
      {
        "day": "Saturday",
        "hours": "Open 24 hours"
      },
      {
        "day": "Sunday",
        "hours": "Open 24 hours"
      }
    ],
    "peopleAlsoSearch": [],
    "placesTags": [],
    "reviewsTags": [],
    "additionalInfo": {
      "Accessibility": [
        {
          "Wheelchair-accessible car park": true
        },
        {
          "Wheelchair-accessible entrance": true
        }
      ]
    },
    "gasPrices": [],
    "url": "https://www.google.com/maps/search/?api=1&query=PharMerica-%20Virginia%20Beach%2C%20VA&query_place_id=ChIJOY5NsJKVuokRe4UkGyhnM5g",
    "searchPageUrl": "https://www.google.com/maps/search/independent%20pharmacy%20Virginia%20Beach%20VA/@28.541186802821304,-178.19202668985028,12z?hl=en",
    "searchString": "independent pharmacy Virginia Beach VA",
    "language": "en",
    "rank": 3,
    "isAdvertisement": false,
    "imageUrl": "https://streetviewpixels-pa.googleapis.com/v1/thumbnail?panoid=tCppAkJ3G6X6Q-LTBmL-xQ&cb_client=search.gws-prod.gps&w=408&h=240&yaw=8.589831&pitch=0&thumbfov=100",
    "kgmid": "/g/11w2jr18dx",
    "classification": "hospital",
    "is_independent": false,
    "confidence": 1.0,
    "source": "rule-based"
  },
  {
    "title": "Walgreens Pharmacy",
    "description": "Department of the Walgreens chain providing prescription medications & other health-related items.",
    "price": "$$",
    "categoryName": "Pharmacy",
    "address": "4500 Virginia Beach Blvd, Virginia Beach, VA 23462",
    "neighborhood": "Northwest",
    "street": "4500 Virginia Beach Blvd",
    "city": "Virginia Beach",
    "postalCode": "23462",
    "state": "Virginia",
    "countryCode": "US",
    "website": "https://www.walgreens.com/locator/walgreens-4500+virginia+beach+blvd-virginia+beach-va-23462/id=15087",
    "phone": "(757) 490-4651",
    "phoneUnformatted": "+17574904651",
    "claimThisBusiness": false,
    "location": {
      "lat": 36.8439306,
      "lng": -76.1316919
    },
    "totalScore": 2.1,
    "permanentlyClosed": false,
    "temporarilyClosed": false,
    "placeId": "ChIJZSyhpQqVuokRprkI-UEoOyA",
    "categories": [
      "Pharmacy"
    ],
    "fid": "0x89ba950aa5a12c65:0x203b2841f908b9a6",
    "cid": "2322494296655706534",
    "reviewsCount": 24,
    "imagesCount": 3,
    "imageCategories": [],
    "scrapedAt": "2025-06-22T06:43:31.195Z",
    "googleFoodUrl": null,
    "hotelAds": [],
    "openingHours": [
      {
        "day": "Monday",
        "hours": "9\u202fAM to 1:30\u202fPM, 2 to 7\u202fPM"
      },
      {
        "day": "Tuesday",
        "hours": "9\u202fAM to 1:30\u202fPM, 2 to 7\u202fPM"
      },
      {
        "day": "Wednesday",
        "hours": "9\u202fAM to 1:30\u202fPM, 2 to 7\u202fPM"
      },
      {
        "day": "Thursday",
        "hours": "9\u202fAM to 1:30\u202fPM, 2 to 7\u202fPM"
      },
      {
        "day": "Friday",
        "hours": "9\u202fAM to 1:30\u202fPM, 2 to 7\u202fPM"
      },
      {
        "day": "Saturday",
        "hours": "Closed"
      },
      {
        "day": "Sunday",
        "hours": "Closed"
      }
    ],
    "additionalOpeningHours": {
      "Drive through": [
        {
          "day": "Monday",
          "hours": "9\u202fAM\u20131:30\u202fPM"
        },
        {
          "day": "Tuesday",
          "hours": "9\u202fAM\u20131:30\u202fPM"
        },
        {
          "day": "Wednesday",
          "hours": "9\u202fAM\u20131:30\u202fPM"
        },
        {
          "day": "Thursday",
          "hours": "9\u202fAM\u20131:30\u202fPM"
        },
        {
          "day": "Friday",
          "hours": "9\u202fAM\u20131:30\u202fPM"
        },
        {
          "day": "Saturday",
          "hours": "Closed"
        },
        {
          "day": "Sunday",
          "hours": "Closed"
        }
      ]
    },
    "peopleAlsoSearch": [],
    "placesTags": [],
    "reviewsTags": [],
    "additionalInfo": {
      "Service options": [
        {
          "Drive-through": true
        },
        {
          "In-store pickup": true
        },
        {
          "Onsite services": true
        }
      ],
      "Accessibility": [
        {
          "Wheelchair accessible entrance": true
        },
        {
          "Wheelchair accessible parking lot": true
        }
      ],
      "Offerings": [
        {
          "Naloxone": true
        }
      ],
      "Planning": [
        {
          "Quick visit": true
        }
      ],
      "Payments": [
        {
          "Credit cards": true
        },
        {
          "Debit cards": true
        }
      ]
    },
    "gasPrices": [],
    "url": "https://www.google.com/maps/search/?api=1&query=Walgreens%20Pharmacy&query_place_id=ChIJZSyhpQqVuokRprkI-UEoOyA",
    "searchPageUrl": "https://www.google.com/maps/search/independent%20pharmacy%20Virginia%20Beach%20VA/@55.60268578706954,-156.08076678160276,12z?hl=en",
    "searchString": "independent pharmacy Virginia Beach VA",
    "language": "en",
    "rank": 7,
    "isAdvertisement": false,
    "imageUrl": "https://lh3.googleusercontent.com/p/AF1QipOtkITT-bbIOqLyW1dC5iK0iwKAScQhGaUHUPbI=w525-h240-k-no",
    "kgmid": "/g/11cn931vn1",
    "classification": "chain",
    "is_independent": false,
    "confidence": 1.0,
    "source": "rule-based"
  },
  {
    "title": "Harris Teeter Pharmacy",
    "price": null,
    "categoryName": "Pharmacy",
    "address": "1069 Independence Blvd, Virginia Beach, VA 23455",
    "neighborhood": "Northwest",
    "street": "1069 Independence Blvd",
    "city": "Virginia Beach",
    "postalCode": "23455",
    "state": "Virginia",
    "countryCode": "US",
    "website": "https://www.harristeeter.com/rx/pharmacy/details/097/00464?cid=loc_09700464P_gmb",
    "phone": "(757) 217-0246",
    "phoneUnformatted": "+17572170246",
    "claimThisBusiness": false,
    "location": {
      "lat": 36.8728754,
      "lng": -76.1359501
    },
    "totalScore": 4.4,
    "permanentlyClosed": false,
    "temporarilyClosed": false,
    "placeId": "ChIJiWh-D3-VuokRQ2nIxTDfyGA",
    "categories": [
      "Pharmacy",
      "Drug store",
      "Health counselor",
      "Home health care service"
    ],
    "fid": "0x89ba957f0f7e6889:0x60c8df30c5c86943",
    "cid": "6974069423552883011",
    "reviewsCount": 14,
    "imagesCount": 12,
    "imageCategories": [],
    "scrapedAt": "2025-06-22T06:43:31.196Z",
    "googleFoodUrl": null,
    "hotelAds": [],
    "openingHours": [
      {
        "day": "Monday",
        "hours": "9\u202fAM to 2\u202fPM, 2:30 to 8\u202fPM"
      },
      {
        "day": "Tuesday",
        "hours": "9\u202fAM to 2\u202fPM, 2:30 to 8\u202fPM"
      },
      {
        "day": "Wednesday",
        "hours": "9\u202fAM to 2\u202fPM, 2:30 to 8\u202fPM"
      },
      {
        "day": "Thursday",
        "hours": "9\u202fAM to 2\u202fPM, 2:30 to 8\u202fPM"
      },
      {
        "day": "Friday",
        "hours": "9\u202fAM to 2\u202fPM, 2:30 to 8\u202fPM"
      },
      {
        "day": "Saturday",
        "hours": "9\u202fAM to 2\u202fPM, 2:30 to 6\u202fPM"
      },
      {
        "day": "Sunday",
        "hours": "11\u202fAM to 2\u202fPM, 2:30 to 6\u202fPM"
      }
    ],
    "peopleAlsoSearch": [],
    "placesTags": [],
    "reviewsTags": [],
    "additionalInfo": {
      "Service options": [
        {
          "Curbside pickup": true
        },
        {
          "Delivery": true
        },
        {
          "In-store pickup": true
        },
        {
          "In-store shopping": true
        },
        {
          "Same-day delivery": true
        }
      ],
      "Accessibility": [
        {
          "Wheelchair accessible entrance": true
        },
        {
          "Wheelchair accessible parking lot": true
        },
        {
          "Wheelchair accessible restroom": true
        },
        {
          "Wheelchair accessible seating": true
        }
      ],
      "Crowd": [
        {
          "LGBTQ+ friendly": true
        },
        {
          "Transgender safespace": true
        }
      ],
      "Planning": [
        {
          "Quick visit": true
        }
      ],
      "Payments": [
        {
          "Checks": true
        },
        {
          "Credit cards": true
        },
        {
          "Debit cards": true
        },
        {
          "NFC mobile payments": true
        },
        {
          "Credit cards": true
        }
      ]
    },
    "gasPrices": [],
    "url": "https://www.google.com/maps/search/?api=1&query=Harris%20Teeter%20Pharmacy&query_place_id=ChIJiWh-D3-VuokRQ2nIxTDfyGA",
    "searchPageUrl": "https://www.google.com/maps/search/independent%20pharmacy%20Virginia%20Beach%20VA/@55.60268578706954,-156.08076678160276,12z?hl=en",
    "searchString": "independent pharmacy Virginia Beach VA",
    "language": "en",
    "rank": 10,
    "isAdvertisement": false,
    "imageUrl": "https://lh3.googleusercontent.com/p/AF1QipMLqvxuQ19G3eGmb7OKh9HP_kctFvDG0JN_N3Cn=w426-h240-k-no",
    "kgmid": "/g/11h54m9pjw",
    "classification": "chain",
    "is_independent": false,
    "confidence": 1.0,
    "source": "rule-based"
  },
  {
    "title": "CVS Pharmacy",
    "price": null,
    "categoryName": "Pharmacy",
    "address": "525 First Colonial Rd, Virginia Beach, VA 23451",
    "neighborhood": "North Virginia Beach",
    "street": "525 First Colonial Rd",
    "city": "Virginia Beach",
    "postalCode": "23451",
    "state": "Virginia",
    "countryCode": "US",
    "website": "https://www.cvs.com/store-locator/virginia-beach-va-pharmacies/525-first-colonial-rd-virginia-beach-va-23451/storeid=16432?WT.mc_id=LS_GOOGLE_RX_16432",
    "phone": "(757) 428-2666",
    "phoneUnformatted": "+17574282666",
    "claimThisBusiness": false,
    "location": {
      "lat": 36.8462575,
      "lng": -76.0223271
    },
    "totalScore": 3.2,
    "permanentlyClosed": false,
    "temporarilyClosed": false,
    "placeId": "ChIJq9tEiUvquokRJTRH8WkdiiA",
    "categories": [
      "Pharmacy"
    ],
    "fid": "0x89baea4b8944dbab:0x208a1d69f1473425",
    "cid": "2344718896856511525",
    "reviewsCount": 33,
    "imagesCount": 5,
    "imageCategories": [],
    "scrapedAt": "2025-06-22T06:43:31.196Z",
    "googleFoodUrl": null,
    "hotelAds": [],
    "openingHours": [
      {
        "day": "Monday",
        "hours": "9\u202fAM to 1:30\u202fPM, 2 to 7\u202fPM"
      },
      {
        "day": "Tuesday",
        "hours": "9\u202fAM to 1:30\u202fPM, 2 to 7\u202fPM"
      },
      {
        "day": "Wednesday",
        "hours": "9\u202fAM to 1:30\u202fPM, 2 to 7\u202fPM"
      },
      {
        "day": "Thursday",
        "hours": "9\u202fAM to 1:30\u202fPM, 2 to 7\u202fPM"
      },
      {
        "day": "Friday",
        "hours": "9\u202fAM to 1:30\u202fPM, 2 to 7\u202fPM"
      },
      {
        "day": "Saturday",
        "hours": "10\u202fAM to 1:30\u202fPM, 2 to 6\u202fPM"
      },
      {
        "day": "Sunday",
        "hours": "11\u202fAM to 1:30\u202fPM, 2 to 5\u202fPM"
      }
    ],
    "peopleAlsoSearch": [],
    "placesTags": [],
    "reviewsTags": [],
    "additionalInfo": {
      "Service options": [
        {
          "Delivery": true
        },
        {
          "In-store shopping": true
        },
        {
          "Onsite services": true
        }
      ],
      "Accessibility": [
        {
          "Wheelchair accessible entrance": true
        },
        {
          "Wheelchair accessible parking lot": true
        }
      ],
      "Offerings": [
        {
          "Naloxone": true
        }
      ],
      "Amenities": [
        {
          "Wi-Fi": true
        }
      ],
      "Crowd": [
        {
          "LGBTQ+ friendly": true
        },
        {
          "Transgender safespace": true
        }
      ],
      "Planning": [
        {
          "Quick visit": true
        }
      ],
      "Payments": [
        {
          "Credit cards": true
        },
        {
          "Debit cards": true
        },
        {
          "Credit cards": true
        }
      ]
    },
    "gasPrices": [],
    "url": "https://www.google.com/maps/search/?api=1&query=CVS%20Pharmacy&query_place_id=ChIJq9tEiUvquokRJTRH8WkdiiA",
    "searchPageUrl": "https://www.google.com/maps/search/independent%20pharmacy%20Virginia%20Beach%20VA/@55.60268578706954,-156.08076678160276,12z?hl=en",
    "searchString": "independent pharmacy Virginia Beach VA",
    "language": "en",
    "rank": 12,
    "isAdvertisement": false,
    "imageUrl": "https://lh3.googleusercontent.com/p/AF1QipMghZn7Rc8UuR-eT4gSl-xco0zrZ7PXWkS0KoZM=w408-h272-k-no",
    "kgmid": "/g/1thl_bkz",
    "classification": "chain",
    "is_independent": false,
    "confidence": 1.0,
    "source": "rule-based"
  },
  {
    "title": "Walmart Pharmacy",
    "price": "$",
    "categoryName": "Pharmacy",
    "address": "546 First Colonial Rd, Virginia Beach, VA 23451",
    "neighborhood": "North Virginia Beach",
    "street": "546 First Colonial Rd",
    "city": "Virginia Beach",
    "postalCode": "23451",
    "state": "Virginia",
    "countryCode": "US",
    "website": "https://www.walmart.com/store/5922-virginia-beach-va/pharmacy/?veh=seo_loc",
    "phone": "(757) 364-7614",
    "phoneUnformatted": "+17573647614",
    "claimThisBusiness": false,
    "location": {
      "lat": 36.8470619,
      "lng": -76.019743
    },
    "totalScore": 3.9,
    "permanentlyClosed": false,
    "temporarilyClosed": false,
    "placeId": "ChIJ4T00tUvquokR1T6iLpxcOYU",
    "categories": [
      "Pharmacy",
      "Herbal medicine store",
      "Medical supply store",
      "Parapharmacy",
      "Vitamin & supplements store"
    ],
    "fid": "0x89baea4bb5343de1:0x85395c9c2ea23ed5",
    "cid": "9599805906583961301",
    "reviewsCount": 18,
    "imagesCount": 4,
    "imageCategories": [],
    "scrapedAt": "2025-06-22T06:43:32.994Z",
    "googleFoodUrl": null,
    "hotelAds": [],
    "openingHours": [
      {
        "day": "Monday",
        "hours": "9\u202fAM to 7\u202fPM"
      },
      {
        "day": "Tuesday",
        "hours": "9\u202fAM to 7\u202fPM"
      },
      {
        "day": "Wednesday",
        "hours": "9\u202fAM to 7\u202fPM"
      },
      {
        "day": "Thursday",
        "hours": "9\u202fAM to 7\u202fPM"
      },
      {
        "day": "Friday",
        "hours": "9\u202fAM to 7\u202fPM"
      },
      {
        "day": "Saturday",
        "hours": "9\u202fAM to 7\u202fPM"
      },
      {
        "day": "Sunday",
        "hours": "10\u202fAM to 6\u202fPM"
      }
    ],
    "peopleAlsoSearch": [],
    "placesTags": [],
    "reviewsTags": [],
    "additionalInfo": {
      "Service options": [
        {
          "Delivery": true
        },
        {
          "In-store pickup": true
        }
      ],
      "Accessibility": [
        {
          "Wheelchair accessible entrance": true
        },
        {
          "Wheelchair accessible parking lot": true
        },
        {
          "Wheelchair accessible restroom": true
        }
      ],
      "Offerings": [
        {
          "Passport photos": true
        }
      ],
      "Amenities": [
        {
          "Wi-Fi": true
        },
        {
          "Free Wi-Fi": true
        }
      ],
      "Planning": [
        {
          "Quick visit": true
        }
      ],
      "Payments": [
        {
          "Credit cards": true
        },
        {
          "Debit cards": true
        },
        {
          "Credit cards": true
        }
      ]
    },
    "gasPrices": [],
    "url": "https://www.google.com/maps/search/?api=1&query=Walmart%20Pharmacy&query_place_id=ChIJ4T00tUvquokR1T6iLpxcOYU",
    "searchPageUrl": "https://www.google.com/maps/search/independent%20pharmacy%20Virginia%20Beach%20VA/@56.06259591293046,-155.26772981839719,12z?hl=en",
    "searchString": "independent pharmacy Virginia Beach VA",
    "language": "en",
    "rank": 12,
    "isAdvertisement": false,
    "imageUrl": "https://lh3.googleusercontent.com/p/AF1QipO7bJu2M2YUn0Py8YuINwf03QPJRrSAwYpGQv7k=w408-h306-k-no",
    "kgmid": "/g/11dfpqcj7q",
    "classification": "chain",
    "is_independent": false,
    "confidence": 1.0,
    "source": "rule-based"
  },
  {
    "title": "CVS Pharmacy",
    "price": null,
    "categoryName": "Pharmacy",
    "address": "4554 Virginia Beach Blvd Suite 500, Virginia Beach, VA 23462",
    "neighborhood": "Northwest",
    "street": "4554 Virginia Beach Blvd Suite 500",
    "city": "Virginia Beach",
    "postalCode": "23462",
    "state": "Virginia",
    "countryCode": "US",
    "website": "https://www.cvs.com/store-locator/virginia-beach-va-pharmacies/4554-virginia-beach-blvd-virginia-beach-va-23462/storeid=17627?WT.mc_id=LS_GOOGLE_RX_17627",
    "phone": "(757) 451-7661",
    "phoneUnformatted": "+17574517661",
    "claimThisBusiness": false,
    "location": {
      "lat": 36.8469194,
      "lng": -76.1332637
    },
    "totalScore": 4.2,
    "permanentlyClosed": false,
    "temporarilyClosed": false,
    "placeId": "ChIJ2cAbqgqVuokRQNuIQikzMw8",
    "categories": [
      "Pharmacy"
    ],
    "fid": "0x89ba950aaa1bc0d9:0xf3333294288db40",
    "cid": "1095275386684103488",
    "reviewsCount": 65,
    "imagesCount": 5,
    "imageCategories": [],
    "scrapedAt": "2025-06-22T06:43:37.072Z",
    "googleFoodUrl": null,
    "hotelAds": [],
    "openingHours": [
      {
        "day": "Monday",
        "hours": "9\u202fAM to 1:30\u202fPM, 2 to 7\u202fPM"
      },
      {
        "day": "Tuesday",
        "hours": "9\u202fAM to 1:30\u202fPM, 2 to 7\u202fPM"
      },
      {
        "day": "Wednesday",
        "hours": "9\u202fAM to 1:30\u202fPM, 2 to 7\u202fPM"
      },
      {
        "day": "Thursday",
        "hours": "9\u202fAM to 1:30\u202fPM, 2 to 7\u202fPM"
      },
      {
        "day": "Friday",
        "hours": "9\u202fAM to 1:30\u202fPM, 2 to 7\u202fPM"
      },
      {
        "day": "Saturday",
        "hours": "9\u202fAM to 1:30\u202fPM, 2 to 6\u202fPM"
      },
      {
        "day": "Sunday",
        "hours": "11\u202fAM to 1:30\u202fPM, 2 to 5\u202fPM"
      }
    ],
    "peopleAlsoSearch": [],
    "placesTags": [],
    "reviewsTags": [],
    "additionalInfo": {
      "Service options": [
        {
          "Delivery": true
        },
        {
          "In-store shopping": true
        },
        {
          "Onsite services": true
        }
      ],
      "Accessibility": [
        {
          "Wheelchair accessible entrance": true
        },
        {
          "Wheelchair accessible parking lot": true
        }
      ],
      "Offerings": [
        {
          "Naloxone": true
        }
      ],
      "Crowd": [
        {
          "LGBTQ+ friendly": true
        },
        {
          "Transgender safespace": true
        }
      ],
      "Planning": [
        {
          "Quick visit": true
        }
      ],
      "Payments": [
        {
          "Credit cards": true
        },
        {
          "Debit cards": true
        },
        {
          "Credit cards": true
        }
      ]
    },
    "gasPrices": [],
    "url": "https://www.google.com/maps/search/?api=1&query=CVS%20Pharmacy&query_place_id=ChIJ2cAbqgqVuokRQNuIQikzMw8",
    "searchPageUrl": "https://www.google.com/maps/search/independent%20pharmacy%20Virginia%20Beach%20VA/@19.332203365393863,-155.70742886840083,11z?hl=en",
    "searchString": "independent pharmacy Virginia Beach VA",
    "language": "en",
    "rank": 12,
    "isAdvertisement": false,
    "imageUrl": "https://lh3.googleusercontent.com/p/AF1QipPL0kiqp0ruWHtyaolQEN3wQI7Q3P7SOFRPBpx5=w408-h272-k-no",
    "kgmid": "/g/11xvx0jpf",
    "classification": "chain",
    "is_independent": false,
    "confidence": 1.0,
    "source": "rule-based"
  },
  {
    "title": "CVS Pharmacy",
    "price": null,
    "categoryName": "Pharmacy",
    "address": "4500 Princess Anne Rd, Virginia Beach, VA 23462",
    "neighborhood": null,
    "street": "4500 Princess Anne Rd",
    "city": "Virginia Beach",
    "postalCode": "23462",
    "state": "Virginia",
    "countryCode": "US",
    "website": "https://www.cvs.com/store-locator/virginia-beach-va-pharmacies/4500-princess-ann-rd-virginia-beach-va-23462/storeid=4935?WT.mc_id=LS_GOOGLE_RX_4935",
    "phone": "(757) 467-4659",
    "phoneUnformatted": "+17574674659",
    "claimThisBusiness": false,
    "location": {
      "lat": 36.8050619,
      "lng": -76.1324995
    },
    "totalScore": 3.3,
    "permanentlyClosed": false,
    "temporarilyClosed": false,
    "placeId": "ChIJ3xfJyTS-uokRzT-vSDjpJJQ",
    "categories": [
      "Pharmacy"
    ],
    "fid": "0x89babe34c9c917df:0x9424e93848af3fcd",
    "cid": "10674913444721803213",
    "reviewsCount": 18,
    "imagesCount": 8,
    "imageCategories": [],
    "scrapedAt": "2025-06-22T06:43:42.051Z",
    "googleFoodUrl": null,
    "hotelAds": [],
    "openingHours": [
      {
        "day": "Monday",
        "hours": "9\u202fAM to 1:30\u202fPM, 2 to 9\u202fPM"
      },
      {
        "day": "Tuesday",
        "hours": "9\u202fAM to 1:30\u202fPM, 2 to 9\u202fPM"
      },
      {
        "day": "Wednesday",
        "hours": "9\u202fAM to 1:30\u202fPM, 2 to 9\u202fPM"
      },
      {
        "day": "Thursday",
        "hours": "9\u202fAM to 1:30\u202fPM, 2 to 9\u202fPM"
      },
      {
        "day": "Friday",
        "hours": "9\u202fAM to 1:30\u202fPM, 2 to 9\u202fPM"
      },
      {
        "day": "Saturday",
        "hours": "9\u202fAM to 1:30\u202fPM, 2 to 6\u202fPM"
      },
      {
        "day": "Sunday",
        "hours": "10\u202fAM to 1:30\u202fPM, 2 to 6\u202fPM"
      }
    ],
    "peopleAlsoSearch": [],
    "placesTags": [],
    "reviewsTags": [],
    "additionalInfo": {
      "Service options": [
        {
          "Delivery": true
        },
        {
          "Drive-through": true
        },
        {
          "In-store pickup": true
        },
        {
          "In-store shopping": true
        }
      ],
      "Accessibility": [
        {
          "Wheelchair accessible entrance": true
        },
        {
          "Wheelchair accessible parking lot": true
        }
      ],
      "Offerings": [
        {
          "Naloxone": true
        },
        {
          "Passport photos": true
        }
      ],
      "Crowd": [
        {
          "LGBTQ+ friendly": true
        },
        {
          "Transgender safespace": true
        }
      ],
      "Planning": [
        {
          "Quick visit": true
        }
      ],
      "Payments": [
        {
          "Credit cards": true
        },
        {
          "Debit cards": true
        },
        {
          "NFC mobile payments": true
        },
        {
          "Credit cards": true
        }
      ]
    },
    "gasPrices": [],
    "url": "https://www.google.com/maps/search/?api=1&query=CVS%20Pharmacy&query_place_id=ChIJ3xfJyTS-uokRzT-vSDjpJJQ",
    "searchPageUrl": "https://www.google.com/maps/search/independent%20pharmacy%20Virginia%20Beach%20VA/@65.73786228335844,-143.9041190859444,9z?hl=en",
    "searchString": "independent pharmacy Virginia Beach VA",
    "language": "en",
    "rank": 15,
    "isAdvertisement": false,
    "imageUrl": "https://lh3.googleusercontent.com/p/AF1QipPtU3_TADrM27t6fUVLZ7R74_p6HnMh83-0alRI=w408-h272-k-no",
    "kgmid": "/g/11c4604wdl",
    "classification": "chain",
    "is_independent": false,
    "confidence": 1.0,
    "source": "rule-based"
  }
]