[
  {
    "title": "Blackstone Valley Community Health Pharmacy",
    "price": null,
    "categoryName": "Pharmacy",
    "address": "39 East Ave, Pawtucket, RI 02860",
    "neighborhood": null,
    "street": "39 East Ave",
    "city": "Pawtucket",
    "postalCode": "02860",
    "state": "Rhode Island",
    "countryCode": "US",
    "website": "https://www.bvchc.org/our-services/blackstone-valley-community-health-pharmacy",
    "phone": "(401) 642-2093",
    "phoneUnformatted": "+14016422093",
    "claimThisBusiness": false,
    "location": {
      "lat": 41.8766796,
      "lng": -71.3850774
    },
    "totalScore": 3.3,
    "permanentlyClosed": false,
    "temporarilyClosed": false,
    "placeId": "ChIJD-YOklRD5IkRMWQYWJSxOm0",
    "categories": [
      "Pharmacy"
    ],
    "fid": "0x89e44354920ee60f:0x6d3ab19458186431",
    "cid": "7870798549474632753",
    "reviewsCount": 4,
    "imagesCount": 1,
    "imageCategories": [],
    "scrapedAt": "2025-06-22T09:29:19.666Z",
    "googleFoodUrl": null,
    "hotelAds": [],
    "openingHours": [
      {
        "day": "Monday",
        "hours": "8\u202fAM to 5\u202fPM"
      },
      {
        "day": "Tuesday",
        "hours": "8\u202fAM to 5\u202fPM"
      },
      {
        "day": "Wednesday",
        "hours": "8\u202fAM to 5\u202fPM"
      },
      {
        "day": "Thursday",
        "hours": "8\u202fAM to 5\u202fPM"
      },
      {
        "day": "Friday",
        "hours": "8\u202fAM to 5\u202fPM"
      },
      {
        "day": "Saturday",
        "hours": "Closed"
      },
      {
        "day": "Sunday",
        "hours": "Closed"
      }
    ],
    "peopleAlsoSearch": [],
    "placesTags": [],
    "reviewsTags": [],
    "additionalInfo": {
      "Service options": [
        {
          "Heat pump installation recognized by the US Dept. of Energy": true
        },
        {
          "Delivery": true
        }
      ],
      "Accessibility": [
        {
          "Wheelchair accessible entrance": true
        },
        {
          "Wheelchair accessible parking lot": true
        }
      ],
      "Payments": [
        {
          "Credit cards": true
        }
      ]
    },
    "gasPrices": [],
    "url": "https://www.google.com/maps/search/?api=1&query=Blackstone%20Valley%20Community%20Health%20Pharmacy&query_place_id=ChIJD-YOklRD5IkRMWQYWJSxOm0",
    "searchPageUrl": "https://www.google.com/maps/search/independent%20pharmacy%20Pawtucket%20RI/@25.58561541405634,-171.5257266528475,13z?hl=en",
    "searchString": "independent pharmacy Pawtucket RI",
    "language": "en",
    "rank": 1,
    "isAdvertisement": false,
    "imageUrl": "https://streetviewpixels-pa.googleapis.com/v1/thumbnail?panoid=krnG5aNqmOwliLCGzR671Q&cb_client=search.gws-prod.gps&w=408&h=240&yaw=267.0134&pitch=0&thumbfov=100",
    "kgmid": "/g/11bwhb8qlj",
    "classification": "hospital",
    "is_independent": false,
    "confidence": 1.0,
    "source": "rule-based"
  },
  {
    "title": "Qol Meds",
    "price": null,
    "categoryName": "Pharmacy",
    "address": "101 Bacon St, Pawtucket, RI 02860",
    "neighborhood": null,
    "street": "101 Bacon St",
    "city": "Pawtucket",
    "postalCode": "02860",
    "state": "Rhode Island",
    "countryCode": "US",
    "phone": "(401) 722-0299",
    "phoneUnformatted": "+14017220299",
    "claimThisBusiness": true,
    "location": {
      "lat": 41.872079,
      "lng": -71.367219
    },
    "totalScore": 4,
    "permanentlyClosed": false,
    "temporarilyClosed": false,
    "placeId": null,
    "categories": [
      "Pharmacy"
    ],
    "fid": "0x89e45ca7031f4987:0x9e73824f9449c427",
    "cid": "11417612758616228903",
    "reviewsCount": 1,
    "imagesCount": 1,
    "imageCategories": [],
    "scrapedAt": "2025-06-22T09:29:19.667Z",
    "googleFoodUrl": null,
    "hotelAds": [],
    "openingHours": [
      {
        "day": "Monday",
        "hours": "8\u202fAM to 4:30\u202fPM"
      },
      {
        "day": "Tuesday",
        "hours": "8\u202fAM to 4:30\u202fPM"
      },
      {
        "day": "Wednesday",
        "hours": "8\u202fAM to 4:30\u202fPM"
      },
      {
        "day": "Thursday",
        "hours": "8\u202fAM to 4:30\u202fPM"
      },
      {
        "day": "Friday",
        "hours": "8\u202fAM to 4:30\u202fPM"
      },
      {
        "day": "Saturday",
        "hours": "Closed"
      },
      {
        "day": "Sunday",
        "hours": "Closed"
      }
    ],
    "peopleAlsoSearch": [],
    "placesTags": [],
    "reviewsTags": [],
    "additionalInfo": {
      "Accessibility": [
        {
          "Wheelchair accessible parking lot": true
        }
      ]
    },
    "gasPrices": [],
    "url": "https://www.google.com/maps/search/?api=1&query=Qol%20Meds&query_place_id=ChIJh0kfA6dc5IkRJ8RJlE-Cc54",
    "searchPageUrl": "https://www.google.com/maps/search/independent%20pharmacy%20Pawtucket%20RI/@25.58561541405634,-171.5257266528475,13z?hl=en",
    "searchString": "independent pharmacy Pawtucket RI",
    "language": "en",
    "rank": 2,
    "isAdvertisement": false,
    "imageUrl": "https://streetviewpixels-pa.googleapis.com/v1/thumbnail?panoid=sWrIZCMjyTN2VALljbzA-Q&cb_client=search.gws-prod.gps&w=408&h=240&yaw=337.9208&pitch=0&thumbfov=100",
    "kgmid": "/g/1tgwby1m",
    "classification": "independent",
    "is_independent": true,
    "is_compounding": false,
    "confidence": 0.85,
    "source": "perplexity",
    "method": "llm",
    "query_location": "pawtucket_ri"
  },
  {
    "title": "CVS Pharmacy",
    "description": "Drugstore chain selling a variety of beauty & health products, plus some grocery & household items.",
    "price": null,
    "categoryName": "Pharmacy",
    "address": "835 Newport Ave, Pawtucket, RI 02861, United States",
    "neighborhood": null,
    "street": "835 Newport Ave",
    "city": "Pawtucket",
    "postalCode": "02861",
    "state": "Rhode Island",
    "countryCode": "US",
    "website": "https://www.cvs.com/store-locator/pawtucket-ri-pharmacies/835-newport-ave-pawtucket-ri-02861/storeid=1042?WT.mc_id=LS_GOOGLE_RX_1042",
    "phone": "+1 401-726-0724",
    "phoneUnformatted": "+14017260724",
    "claimThisBusiness": false,
    "location": {
      "lat": 41.8785622,
      "lng": -71.3540391
    },
    "totalScore": 3.8,
    "permanentlyClosed": false,
    "temporarilyClosed": false,
    "placeId": "ChIJDfBrPJdc5IkRgPF42G3KyF0",
    "categories": [
      "Pharmacy"
    ],
    "fid": "0x89e45c973c6bf00d:0x5dc8ca6dd878f180",
    "cid": "6757873814001480064",
    "reviewsCount": 41,
    "imagesCount": 10,
    "imageCategories": [],
    "scrapedAt": "2025-06-22T09:29:22.485Z",
    "googleFoodUrl": null,
    "hotelAds": [],
    "openingHours": [
      {
        "day": "Monday",
        "hours": "12\u202fAM to 1:30\u202fPM, 2\u202fPM to 12\u202fAM"
      },
      {
        "day": "Tuesday",
        "hours": "12\u202fAM to 1:30\u202fPM, 2\u202fPM to 12\u202fAM"
      },
      {
        "day": "Wednesday",
        "hours": "12\u202fAM to 1:30\u202fPM, 2\u202fPM to 12\u202fAM"
      },
      {
        "day": "Thursday",
        "hours": "12\u202fAM to 1:30\u202fPM, 2\u202fPM to 12\u202fAM"
      },
      {
        "day": "Friday",
        "hours": "12\u202fAM to 1:30\u202fPM, 2\u202fPM to 12\u202fAM"
      },
      {
        "day": "Saturday",
        "hours": "12\u202fAM to 1:30\u202fPM, 2\u202fPM to 12\u202fAM"
      },
      {
        "day": "Sunday",
        "hours": "12\u202fAM to 1:30\u202fPM, 2\u202fPM to 12\u202fAM"
      }
    ],
    "peopleAlsoSearch": [],
    "placesTags": [],
    "reviewsTags": [],
    "additionalInfo": {
      "Service options": [
        {
          "Delivery": true
        },
        {
          "Drive-through": true
        },
        {
          "In-store shopping": true
        }
      ],
      "Accessibility": [
        {
          "Wheelchair-accessible car park": true
        },
        {
          "Wheelchair-accessible entrance": true
        }
      ],
      "Offerings": [
        {
          "Medication disposal": true
        },
        {
          "Naloxone": true
        },
        {
          "Passport photos": true
        }
      ],
      "Crowd": [
        {
          "LGBTQ+ friendly": true
        },
        {
          "Transgender safe space": true
        }
      ],
      "Planning": [
        {
          "Quick visit": true
        }
      ],
      "Payments": [
        {
          "Credit cards": true
        },
        {
          "Debit cards": true
        },
        {
          "NFC mobile payments": true
        },
        {
          "SNAP/EBT": true
        },
        {
          "Credit cards": true
        }
      ]
    },
    "gasPrices": [],
    "url": "https://www.google.com/maps/search/?api=1&query=CVS%20Pharmacy&query_place_id=ChIJDfBrPJdc5IkRgPF42G3KyF0",
    "searchPageUrl": "https://www.google.com/maps/search/independent%20pharmacy%20Pawtucket%20RI/@25.185508647904282,-168.06795219901204,13z?hl=en",
    "searchString": "independent pharmacy Pawtucket RI",
    "language": "en",
    "rank": 1,
    "isAdvertisement": false,
    "imageUrl": "https://lh3.googleusercontent.com/p/AF1QipPpExmFbwkqIvF8k-rIQ1KFlUfcBqR_dV9ULcMk=w408-h272-k-no",
    "kgmid": "/g/11c466ylp_",
    "classification": "chain",
    "is_independent": false,
    "confidence": 1.0,
    "source": "rule-based"
  },
  {
    "title": "Stop & Shop Pharmacy",
    "price": "$$",
    "categoryName": "Pharmacy",
    "address": "368 Cottage St. Suite 1, Pawtucket, RI 02861, United States",
    "neighborhood": null,
    "street": "368 Cottage St. Suite 1",
    "city": "Pawtucket",
    "postalCode": "02861",
    "state": "Rhode Island",
    "countryCode": "US",
    "website": "https://pharmacy.stopandshop.com/ri/pawtucket/368-cottage-street?y_source=1_MTEyMTM3ODYtNzE1LWxvY2F0aW9uLndlYnNpdGU%3D",
    "phone": "+1 401-722-6538",
    "phoneUnformatted": "+14017226538",
    "claimThisBusiness": false,
    "location": {
      "lat": 41.8870007,
      "lng": -71.3675013
    },
    "totalScore": 4.6,
    "permanentlyClosed": false,
    "temporarilyClosed": false,
    "placeId": "ChIJDwWshbhc5IkRx5g9Awc8ECM",
    "categories": [
      "Pharmacy"
    ],
    "fid": "0x89e45cb885ac050f:0x23103c07033d98c7",
    "cid": "2526585391771654343",
    "reviewsCount": 17,
    "imagesCount": 4,
    "imageCategories": [],
    "scrapedAt": "2025-06-22T09:29:22.486Z",
    "googleFoodUrl": null,
    "hotelAds": [],
    "openingHours": [
      {
        "day": "Monday",
        "hours": "8\u202fAM to 1:30\u202fPM, 2 to 8\u202fPM"
      },
      {
        "day": "Tuesday",
        "hours": "8\u202fAM to 1:30\u202fPM, 2 to 8\u202fPM"
      },
      {
        "day": "Wednesday",
        "hours": "8\u202fAM to 1:30\u202fPM, 2 to 8\u202fPM"
      },
      {
        "day": "Thursday",
        "hours": "8\u202fAM to 1:30\u202fPM, 2 to 8\u202fPM"
      },
      {
        "day": "Friday",
        "hours": "8\u202fAM to 1:30\u202fPM, 2 to 8\u202fPM"
      },
      {
        "day": "Saturday",
        "hours": "9\u202fAM to 1:30\u202fPM, 2 to 5\u202fPM"
      },
      {
        "day": "Sunday",
        "hours": "9\u202fAM to 1:30\u202fPM, 2 to 5\u202fPM"
      }
    ],
    "peopleAlsoSearch": [],
    "placesTags": [],
    "reviewsTags": [],
    "additionalInfo": {
      "Service options": [
        {
          "Delivery": true
        },
        {
          "In-store pick-up": true
        },
        {
          "On-site services": true
        }
      ],
      "Accessibility": [
        {
          "Wheelchair-accessible car park": true
        },
        {
          "Wheelchair-accessible entrance": true
        }
      ],
      "Amenities": [
        {
          "Wi-Fi": true
        },
        {
          "Free Wi-Fi": true
        }
      ],
      "Planning": [
        {
          "Quick visit": true
        }
      ],
      "Payments": [
        {
          "Credit cards": true
        }
      ]
    },
    "gasPrices": [],
    "url": "https://www.google.com/maps/search/?api=1&query=Stop%20%26%20Shop%20Pharmacy&query_place_id=ChIJDwWshbhc5IkRx5g9Awc8ECM",
    "searchPageUrl": "https://www.google.com/maps/search/independent%20pharmacy%20Pawtucket%20RI/@25.185508647904282,-168.06795219901204,13z?hl=en",
    "searchString": "independent pharmacy Pawtucket RI",
    "language": "en",
    "rank": 4,
    "isAdvertisement": false,
    "imageUrl": "https://lh3.googleusercontent.com/p/AF1QipPAxk4M352k1xhAU3iax-VqysdpWvJW6jVx9pcR=w408-h277-k-no",
    "kgmid": "/g/11gbmgc0m3",
    "classification": "chain",
    "is_independent": false,
    "confidence": 1.0,
    "source": "rule-based"
  },
  {
    "title": "CVS Pharmacy",
    "price": null,
    "categoryName": "Pharmacy",
    "address": "425 East Ave, Pawtucket, RI 02860, United States",
    "neighborhood": null,
    "street": "425 East Ave",
    "city": "Pawtucket",
    "postalCode": "02860",
    "state": "Rhode Island",
    "countryCode": "US",
    "website": "https://www.cvs.com/store-locator/pawtucket-ri-pharmacies/425-east-avenue-pawtucket-ri-02860/storeid=2234?WT.mc_id=LS_GOOGLE_RX_2234",
    "phone": "+1 401-722-8704",
    "phoneUnformatted": "+14017228704",
    "claimThisBusiness": false,
    "location": {
      "lat": 41.8671619,
      "lng": -71.3875105
    },
    "totalScore": 4.5,
    "permanentlyClosed": false,
    "temporarilyClosed": false,
    "placeId": "ChIJheXHIqxE5IkRMPtg5VmIBRw",
    "categories": [
      "Pharmacy"
    ],
    "fid": "0x89e444ac22c7e585:0x1c058859e560fb30",
    "cid": "2019169927627340592",
    "reviewsCount": 16,
    "imagesCount": 8,
    "imageCategories": [],
    "scrapedAt": "2025-06-22T09:29:22.486Z",
    "googleFoodUrl": null,
    "hotelAds": [],
    "openingHours": [
      {
        "day": "Monday",
        "hours": "9\u202fAM to 1:30\u202fPM, 2 to 8\u202fPM"
      },
      {
        "day": "Tuesday",
        "hours": "9\u202fAM to 1:30\u202fPM, 2 to 8\u202fPM"
      },
      {
        "day": "Wednesday",
        "hours": "9\u202fAM to 1:30\u202fPM, 2 to 8\u202fPM"
      },
      {
        "day": "Thursday",
        "hours": "9\u202fAM to 1:30\u202fPM, 2 to 8\u202fPM"
      },
      {
        "day": "Friday",
        "hours": "9\u202fAM to 1:30\u202fPM, 2 to 8\u202fPM"
      },
      {
        "day": "Saturday",
        "hours": "10\u202fAM to 1:30\u202fPM, 2 to 6\u202fPM"
      },
      {
        "day": "Sunday",
        "hours": "10\u202fAM to 1:30\u202fPM, 2 to 6\u202fPM"
      }
    ],
    "peopleAlsoSearch": [],
    "placesTags": [],
    "reviewsTags": [],
    "additionalInfo": {
      "Service options": [
        {
          "Delivery": true
        },
        {
          "Drive-through": true
        },
        {
          "In-store pick-up": true
        },
        {
          "In-store shopping": true
        },
        {
          "On-site services": true
        }
      ],
      "Accessibility": [
        {
          "Wheelchair-accessible car park": true
        },
        {
          "Wheelchair-accessible entrance": true
        }
      ],
      "Offerings": [
        {
          "Naloxone": true
        },
        {
          "Passport photos": true
        }
      ],
      "Crowd": [
        {
          "LGBTQ+ friendly": true
        },
        {
          "Transgender safe space": true
        }
      ],
      "Planning": [
        {
          "Quick visit": true
        }
      ],
      "Payments": [
        {
          "Credit cards": true
        },
        {
          "Debit cards": true
        },
        {
          "NFC mobile payments": true
        },
        {
          "SNAP/EBT": true
        },
        {
          "Credit cards": true
        }
      ]
    },
    "gasPrices": [],
    "url": "https://www.google.com/maps/search/?api=1&query=CVS%20Pharmacy&query_place_id=ChIJheXHIqxE5IkRMPtg5VmIBRw",
    "searchPageUrl": "https://www.google.com/maps/search/independent%20pharmacy%20Pawtucket%20RI/@25.185508647904282,-168.06795219901204,13z?hl=en",
    "searchString": "independent pharmacy Pawtucket RI",
    "language": "en",
    "rank": 5,
    "isAdvertisement": false,
    "imageUrl": "https://lh3.googleusercontent.com/p/AF1QipMIlzPyg1yx6b_3Xj1hFfUK0pk6Es1M0kjBbt9Y=w408-h272-k-no",
    "kgmid": "/g/11c467ts84",
    "classification": "chain",
    "is_independent": false,
    "confidence": 1.0,
    "source": "rule-based"
  },
  {
    "title": "CVS",
    "description": "Drugstore chain selling a variety of beauty & health products, plus some grocery & household items.",
    "price": null,
    "categoryName": "Drug store",
    "address": "835 Newport Ave, Pawtucket, RI 02861",
    "neighborhood": null,
    "street": "835 Newport Ave",
    "city": "Pawtucket",
    "postalCode": "02861",
    "state": "Rhode Island",
    "countryCode": "US",
    "website": "https://www.cvs.com/store-locator/pawtucket-ri-pharmacies/835-newport-ave-pawtucket-ri-02861/storeid=1042?WT.mc_id=LS_GOOGLE_FS_1042",
    "phone": "(401) 726-0724",
    "phoneUnformatted": "+14017260724",
    "claimThisBusiness": false,
    "location": {
      "lat": 41.8786961,
      "lng": -71.3539535
    },
    "locatedIn": "CVS Pharmacy",
    "totalScore": 3.2,
    "permanentlyClosed": false,
    "temporarilyClosed": false,
    "placeId": "ChIJdcKWPpdc5IkRaJ9ojx1ktF8",
    "categories": [
      "Drug store",
      "Beauty supply store",
      "Convenience store",
      "Cosmetics store",
      "Greeting card shop",
      "Perfume store",
      "Stationery store",
      "Vitamin & supplements store"
    ],
    "fid": "0x89e45c973e96c275:0x5fb4641d8f689f68",
    "cid": "6896247007533899624",
    "reviewsCount": 107,
    "imagesCount": 25,
    "imageCategories": [],
    "scrapedAt": "2025-06-22T09:29:23.471Z",
    "googleFoodUrl": null,
    "hotelAds": [],
    "openingHours": [
      {
        "day": "Monday",
        "hours": "Open 24 hours"
      },
      {
        "day": "Tuesday",
        "hours": "Open 24 hours"
      },
      {
        "day": "Wednesday",
        "hours": "Open 24 hours"
      },
      {
        "day": "Thursday",
        "hours": "Open 24 hours"
      },
      {
        "day": "Friday",
        "hours": "Open 24 hours"
      },
      {
        "day": "Saturday",
        "hours": "Open 24 hours"
      },
      {
        "day": "Sunday",
        "hours": "Open 24 hours"
      }
    ],
    "additionalOpeningHours": {
      "CVS Pharmacy": [
        {
          "day": "Monday",
          "hours": "12\u202fAM\u20131:30\u202fPM"
        },
        {
          "day": "Tuesday",
          "hours": "12\u202fAM\u20131:30\u202fPM"
        },
        {
          "day": "Wednesday",
          "hours": "12\u202fAM\u20131:30\u202fPM"
        },
        {
          "day": "Thursday",
          "hours": "12\u202fAM\u20131:30\u202fPM"
        },
        {
          "day": "Friday",
          "hours": "12\u202fAM\u20131:30\u202fPM"
        },
        {
          "day": "Saturday",
          "hours": "12\u202fAM\u20131:30\u202fPM"
        },
        {
          "day": "Sunday",
          "hours": "12\u202fAM\u20131:30\u202fPM"
        }
      ],
      "CVS Photo": [
        {
          "day": "Monday",
          "hours": "Open 24 hours"
        },
        {
          "day": "Tuesday",
          "hours": "Open 24 hours"
        },
        {
          "day": "Wednesday",
          "hours": "Open 24 hours"
        },
        {
          "day": "Thursday",
          "hours": "Open 24 hours"
        },
        {
          "day": "Friday",
          "hours": "Open 24 hours"
        },
        {
          "day": "Saturday",
          "hours": "Open 24 hours"
        },
        {
          "day": "Sunday",
          "hours": "Open 24 hours"
        }
      ]
    },
    "peopleAlsoSearch": [],
    "placesTags": [],
    "reviewsTags": [],
    "additionalInfo": {
      "Service options": [
        {
          "Delivery": true
        },
        {
          "Drive-through": true
        },
        {
          "In-store pickup": true
        },
        {
          "In-store shopping": true
        },
        {
          "Same-day delivery": false
        }
      ],
      "Accessibility": [
        {
          "Wheelchair accessible entrance": true
        },
        {
          "Wheelchair accessible parking lot": true
        }
      ],
      "Offerings": [
        {
          "Passport photos": true
        }
      ],
      "Crowd": [
        {
          "LGBTQ+ friendly": true
        },
        {
          "Transgender safespace": true
        }
      ],
      "Planning": [
        {
          "Quick visit": true
        }
      ],
      "Payments": [
        {
          "Credit cards": true
        },
        {
          "Debit cards": true
        },
        {
          "Credit cards": true
        }
      ]
    },
    "gasPrices": [],
    "url": "https://www.google.com/maps/search/?api=1&query=CVS&query_place_id=ChIJdcKWPpdc5IkRaJ9ojx1ktF8",
    "searchPageUrl": "https://www.google.com/maps/search/independent%20pharmacy%20Pawtucket%20RI/@64.82725809239226,-167.87036651474492,13z?hl=en",
    "searchString": "independent pharmacy Pawtucket RI",
    "language": "en",
    "rank": 4,
    "isAdvertisement": false,
    "imageUrl": "https://lh3.googleusercontent.com/gps-cs-s/AC9h4nqUQXyPMprbfgdhN0mbuxWE4HrFuejwhaZbobV-FsjyDOOwpGpUhxf9zn5wxGzrlzbo9XvSDFYrDQdbvYTDGj16nLg3qDUrmbzjENdVoakPEc3Fbc75bHAZWUZDVXlRWJOhWuo=w408-h306-k-no",
    "kgmid": "/g/1td_j8b2",
    "classification": "chain",
    "is_independent": false,
    "confidence": 1.0,
    "source": "rule-based"
  },
  {
    "title": "CVS Pharmacy",
    "price": null,
    "categoryName": "Pharmacy",
    "address": "601 Smithfield Ave, Pawtucket, RI 02860",
    "neighborhood": null,
    "street": "601 Smithfield Ave",
    "city": "Pawtucket",
    "postalCode": "02860",
    "state": "Rhode Island",
    "countryCode": "US",
    "website": "https://www.cvs.com/store-locator/pawtucket-ri-pharmacies/601-smithfield-avenue-pawtucket-ri-02860/storeid=670?WT.mc_id=LS_GOOGLE_RX_670",
    "phone": "(401) 727-1866",
    "phoneUnformatted": "+14017271866",
    "claimThisBusiness": false,
    "location": {
      "lat": 41.8790619,
      "lng": -71.4143128
    },
    "totalScore": 3.9,
    "permanentlyClosed": false,
    "temporarilyClosed": false,
    "placeId": "ChIJPYc5XWJD5IkRKbYOQZwfHHw",
    "categories": [
      "Pharmacy"
    ],
    "fid": "0x89e443625d39873d:0x7c1c1f9c410eb629",
    "cid": "8943057716017804841",
    "reviewsCount": 15,
    "imagesCount": 8,
    "imageCategories": [],
    "scrapedAt": "2025-06-22T09:29:23.471Z",
    "googleFoodUrl": null,
    "hotelAds": [],
    "openingHours": [
      {
        "day": "Monday",
        "hours": "8\u202fAM to 1:30\u202fPM, 2 to 9\u202fPM"
      },
      {
        "day": "Tuesday",
        "hours": "8\u202fAM to 1:30\u202fPM, 2 to 9\u202fPM"
      },
      {
        "day": "Wednesday",
        "hours": "8\u202fAM to 1:30\u202fPM, 2 to 9\u202fPM"
      },
      {
        "day": "Thursday",
        "hours": "8\u202fAM to 1:30\u202fPM, 2 to 9\u202fPM"
      },
      {
        "day": "Friday",
        "hours": "8\u202fAM to 1:30\u202fPM, 2 to 9\u202fPM"
      },
      {
        "day": "Saturday",
        "hours": "9\u202fAM to 1:30\u202fPM, 2 to 8\u202fPM"
      },
      {
        "day": "Sunday",
        "hours": "9\u202fAM to 1:30\u202fPM, 2 to 6\u202fPM"
      }
    ],
    "peopleAlsoSearch": [],
    "placesTags": [],
    "reviewsTags": [],
    "additionalInfo": {
      "Service options": [
        {
          "Delivery": true
        },
        {
          "Drive-through": true
        },
        {
          "In-store pickup": true
        },
        {
          "In-store shopping": true
        }
      ],
      "Accessibility": [
        {
          "Wheelchair accessible entrance": true
        },
        {
          "Wheelchair accessible parking lot": true
        }
      ],
      "Offerings": [
        {
          "Naloxone": true
        },
        {
          "Passport photos": true
        }
      ],
      "Crowd": [
        {
          "LGBTQ+ friendly": true
        },
        {
          "Transgender safespace": true
        }
      ],
      "Planning": [
        {
          "Quick visit": true
        }
      ],
      "Payments": [
        {
          "Credit cards": true
        },
        {
          "Debit cards": true
        },
        {
          "NFC mobile payments": true
        },
        {
          "SNAP/EBT": true
        },
        {
          "Credit cards": true
        }
      ]
    },
    "gasPrices": [],
    "url": "https://www.google.com/maps/search/?api=1&query=CVS%20Pharmacy&query_place_id=ChIJPYc5XWJD5IkRKbYOQZwfHHw",
    "searchPageUrl": "https://www.google.com/maps/search/independent%20pharmacy%20Pawtucket%20RI/@64.82725809239226,-167.87036651474492,13z?hl=en",
    "searchString": "independent pharmacy Pawtucket RI",
    "language": "en",
    "rank": 6,
    "isAdvertisement": false,
    "imageUrl": "https://lh3.googleusercontent.com/p/AF1QipO6JxtSZn83VkprOYU2WuIZX7C38pJq5GvtlA1Q=w408-h272-k-no",
    "kgmid": "/g/11c467flb_",
    "classification": "chain",
    "is_independent": false,
    "confidence": 1.0,
    "source": "rule-based"
  },
  {
    "title": "AJ Pharmacy/Compounding",
    "price": null,
    "categoryName": "Pharmacy",
    "address": "1017 Smith St Ste 1, Providence, RI 02908",
    "neighborhood": "Elmhurst",
    "street": "1017 Smith St Ste 1",
    "city": "Providence",
    "postalCode": "02908",
    "state": "Rhode Island",
    "countryCode": "US",
    "website": "https://www.ajpharmacyri.com/",
    "phone": "(401) 366-2800",
    "phoneUnformatted": "+14013662800",
    "claimThisBusiness": false,
    "location": {
      "lat": 41.8430858,
      "lng": -71.4457791
    },
    "totalScore": 4.4,
    "permanentlyClosed": false,
    "temporarilyClosed": false,
    "placeId": null,
    "categories": [
      "Pharmacy"
    ],
    "fid": "0x89e445c980241b51:0xf61ac3ba490f23e8",
    "cid": "17733701687581811688",
    "reviewsCount": 48,
    "imagesCount": 5,
    "imageCategories": [],
    "scrapedAt": "2025-06-22T09:29:23.472Z",
    "googleFoodUrl": null,
    "hotelAds": [],
    "openingHours": [
      {
        "day": "Monday",
        "hours": "9\u202fAM to 7\u202fPM"
      },
      {
        "day": "Tuesday",
        "hours": "9\u202fAM to 7\u202fPM"
      },
      {
        "day": "Wednesday",
        "hours": "9\u202fAM to 7\u202fPM"
      },
      {
        "day": "Thursday",
        "hours": "9\u202fAM to 7\u202fPM"
      },
      {
        "day": "Friday",
        "hours": "9\u202fAM to 7\u202fPM"
      },
      {
        "day": "Saturday",
        "hours": "10\u202fAM to 6\u202fPM"
      },
      {
        "day": "Sunday",
        "hours": "Closed"
      }
    ],
    "peopleAlsoSearch": [],
    "placesTags": [],
    "reviewsTags": [],
    "additionalInfo": {
      "From the business": [
        {
          "Identifies as women-owned": true
        },
        {
          "Small business": true
        }
      ],
      "Service options": [
        {
          "Curbside pickup": true
        },
        {
          "Delivery": true
        },
        {
          "In-store pickup": true
        },
        {
          "In-store shopping": true
        },
        {
          "Same-day delivery": true
        },
        {
          "Spanish": true
        }
      ],
      "Accessibility": [
        {
          "Wheelchair accessible entrance": true
        },
        {
          "Wheelchair accessible parking lot": true
        }
      ],
      "Planning": [
        {
          "Quick visit": true
        }
      ],
      "Payments": [
        {
          "Credit cards": true
        },
        {
          "Debit cards": true
        },
        {
          "NFC mobile payments": true
        },
        {
          "SNAP/EBT": true
        },
        {
          "Credit cards": true
        }
      ]
    },
    "gasPrices": [],
    "url": "https://www.google.com/maps/search/?api=1&query=AJ%20Pharmacy%2FCompounding&query_place_id=ChIJURskgMlF5IkR6CMPSbrDGvY",
    "searchPageUrl": "https://www.google.com/maps/search/independent%20pharmacy%20Pawtucket%20RI/@64.82725809239226,-167.87036651474492,13z?hl=en",
    "searchString": "independent pharmacy Pawtucket RI",
    "language": "en",
    "rank": 8,
    "isAdvertisement": false,
    "imageUrl": "https://lh3.googleusercontent.com/gps-cs-s/AC9h4noad574KV0PCkK3NZoMbX-YBkczcTKbTyBpu0-NqmetrbzjnUA_d9lh63MjTr2LWoX6PEj1aaQwI8WP2G3p3I2nl_8oi4rWiVvAmOagtMFRoYbGMeKuhS9NASccoicv7SzPmcpn=w408-h544-k-no",
    "kgmid": "/g/11jp_68myn",
    "classification": "independent",
    "is_independent": true,
    "is_compounding": true,
    "confidence": 0.95,
    "source": "perplexity",
    "method": "llm",
    "query_location": "pawtucket_ri"
  },
  {
    "title": "PharMerica - Warwick, RI",
    "price": null,
    "categoryName": "Pharmacy",
    "address": "83 Vermont Ave #2, Warwick, RI 02888, United States",
    "neighborhood": null,
    "street": "83 Vermont Ave #2",
    "city": "Warwick",
    "postalCode": "02888",
    "state": "Rhode Island",
    "countryCode": "US",
    "website": "https://pharmerica.com/location/pharmerica-warwick-ri/",
    "phone": "+1 800-446-1190",
    "phoneUnformatted": "+18004461190",
    "claimThisBusiness": false,
    "location": {
      "lat": 41.7403422,
      "lng": -71.4416217
    },
    "totalScore": 3,
    "permanentlyClosed": false,
    "temporarilyClosed": false,
    "placeId": null,
    "categories": [
      "Pharmacy"
    ],
    "fid": "0x89e44e8fd4df9d2d:0x5e52501b9ac0acf6",
    "cid": "6796582867146157302",
    "reviewsCount": 4,
    "imagesCount": 5,
    "imageCategories": [],
    "scrapedAt": "2025-06-22T09:29:40.069Z",
    "googleFoodUrl": null,
    "hotelAds": [],
    "openingHours": [
      {
        "day": "Monday",
        "hours": "Open 24 hours"
      },
      {
        "day": "Tuesday",
        "hours": "Open 24 hours"
      },
      {
        "day": "Wednesday",
        "hours": "Open 24 hours"
      },
      {
        "day": "Thursday",
        "hours": "Open 24 hours"
      },
      {
        "day": "Friday",
        "hours": "Open 24 hours"
      },
      {
        "day": "Saturday",
        "hours": "Open 24 hours"
      },
      {
        "day": "Sunday",
        "hours": "Open 24 hours"
      }
    ],
    "peopleAlsoSearch": [],
    "placesTags": [],
    "reviewsTags": [],
    "additionalInfo": {
      "Accessibility": [
        {
          "Wheelchair-accessible car park": true
        },
        {
          "Wheelchair-accessible entrance": true
        }
      ]
    },
    "gasPrices": [],
    "url": "https://www.google.com/maps/search/?api=1&query=PharMerica%20-%20Warwick%2C%20RI&query_place_id=ChIJLZ3f1I9O5IkR9qzAmhtQUl4",
    "searchPageUrl": "https://www.google.com/maps/search/independent%20pharmacy%20Pawtucket%20RI/@56.34792242500989,-169.76156469074218,12z?hl=en",
    "searchString": "independent pharmacy Pawtucket RI",
    "language": "en",
    "rank": 5,
    "isAdvertisement": false,
    "imageUrl": "https://lh3.googleusercontent.com/p/AF1QipOzf0OjPzLS3qYcdO1jzAeuwvQXSXZX904UMzhg=w408-h408-k-no",
    "kgmid": "/g/11g71fklfm",
    "classification": "chain",
    "is_independent": false,
    "is_compounding": false,
    "confidence": 0.95,
    "source": "perplexity",
    "method": "llm",
    "query_location": "pawtucket_ri"
  },
  {
    "title": "Park Ave Pharmacy",
    "price": null,
    "categoryName": "Pharmacy",
    "address": "1375 Park Ave, Cranston, RI 02920, United States",
    "neighborhood": null,
    "street": "1375 Park Ave",
    "city": "Cranston",
    "postalCode": "02920",
    "state": "Rhode Island",
    "countryCode": "US",
    "website": "http://www.parkavepharma.com/",
    "phone": "+1 401-228-1544",
    "phoneUnformatted": "+14012281544",
    "claimThisBusiness": false,
    "location": {
      "lat": 41.784246,
      "lng": -71.4595881
    },
    "totalScore": 4.9,
    "permanentlyClosed": false,
    "temporarilyClosed": false,
    "placeId": null,
    "categories": [
      "Pharmacy"
    ],
    "fid": "0x89e44fe487c88c3f:0x73b0c4c7ad1c8bd",
    "cid": "521023704509040829",
    "reviewsCount": 52,
    "imagesCount": 16,
    "imageCategories": [],
    "scrapedAt": "2025-06-22T09:30:01.335Z",
    "googleFoodUrl": null,
    "hotelAds": [],
    "openingHours": [
      {
        "day": "Monday",
        "hours": "9\u202fAM to 7\u202fPM"
      },
      {
        "day": "Tuesday",
        "hours": "9\u202fAM to 7\u202fPM"
      },
      {
        "day": "Wednesday",
        "hours": "9\u202fAM to 7\u202fPM"
      },
      {
        "day": "Thursday",
        "hours": "9\u202fAM to 7\u202fPM"
      },
      {
        "day": "Friday",
        "hours": "9\u202fAM to 7\u202fPM"
      },
      {
        "day": "Saturday",
        "hours": "9\u202fAM to 3\u202fPM"
      },
      {
        "day": "Sunday",
        "hours": "Closed"
      }
    ],
    "additionalOpeningHours": {
      "Pickup": [
        {
          "day": "Monday",
          "hours": "9\u202fam\u20137\u202fpm"
        },
        {
          "day": "Tuesday",
          "hours": "9\u202fam\u20137\u202fpm"
        },
        {
          "day": "Wednesday",
          "hours": "9\u202fam\u20137\u202fpm"
        },
        {
          "day": "Thursday",
          "hours": "9\u202fam\u20137\u202fpm"
        },
        {
          "day": "Friday",
          "hours": "9\u202fam\u20137\u202fpm"
        },
        {
          "day": "Saturday",
          "hours": "9\u202fam\u20132\u202fpm"
        },
        {
          "day": "Sunday",
          "hours": "Closed"
        }
      ]
    },
    "peopleAlsoSearch": [],
    "placesTags": [],
    "reviewsTags": [],
    "additionalInfo": {
      "From the business": [
        {
          "Identifies as Asian-owned": true
        },
        {
          "Small Business": true
        }
      ],
      "Service options": [
        {
          "Kerbside pickup": true
        },
        {
          "Delivery": true
        },
        {
          "In-store pick-up": true
        },
        {
          "In-store shopping": true
        },
        {
          "Same-day delivery": true
        }
      ],
      "Accessibility": [
        {
          "Wheelchair-accessible car park": true
        },
        {
          "Wheelchair-accessible entrance": true
        },
        {
          "Wheelchair-accessible seating": true
        },
        {
          "Wheelchair-accessible toilet": true
        }
      ],
      "Amenities": [
        {
          "Gender-neutral toilets": true
        },
        {
          "Wi-Fi": true
        },
        {
          "Free Wi-Fi": true
        }
      ],
      "Crowd": [
        {
          "LGBTQ+ friendly": true
        },
        {
          "Transgender safe space": true
        }
      ],
      "Planning": [
        {
          "Quick visit": true
        }
      ],
      "Payments": [
        {
          "Cheques": true
        },
        {
          "Credit cards": true
        },
        {
          "Debit cards": true
        },
        {
          "NFC mobile payments": true
        },
        {
          "Credit cards": true
        }
      ]
    },
    "gasPrices": [],
    "url": "https://www.google.com/maps/search/?api=1&query=Park%20Ave%20Pharmacy&query_place_id=ChIJP4zIh-RP5IkRvcjRekwMOwc",
    "searchPageUrl": "https://www.google.com/maps/search/independent%20pharmacy%20Pawtucket%20RI/@65.11578850760776,-168.14103676175168,13z?hl=en",
    "searchString": "independent pharmacy Pawtucket RI",
    "language": "en",
    "rank": 7,
    "isAdvertisement": false,
    "imageUrl": "https://lh3.googleusercontent.com/p/AF1QipNjhVwqWoLslYwL4KmMPNJxnGp7otfwsyDPwVCo=w426-h240-k-no",
    "kgmid": "/g/11tjlg2ht0",
    "classification": "independent",
    "is_independent": true,
    "is_compounding": false,
    "confidence": 0.9,
    "source": "perplexity",
    "method": "llm",
    "query_location": "pawtucket_ri"
  },
  {
    "title": "Walgreens Pharmacy",
    "description": "Department of the Walgreens chain providing prescription medications & other health-related items.",
    "price": "$$",
    "categoryName": "Pharmacy",
    "address": "100 Broad St, Pawtucket, RI 02860",
    "neighborhood": null,
    "street": "100 Broad St",
    "city": "Pawtucket",
    "postalCode": "02860",
    "state": "Rhode Island",
    "countryCode": "US",
    "website": "https://www.walgreens.com/locator/walgreens-100+broad+st-pawtucket-ri-02860/id=3468",
    "phone": "(401) 724-6724",
    "phoneUnformatted": "+14017246724",
    "claimThisBusiness": false,
    "location": {
      "lat": 41.8801359,
      "lng": -71.3870895
    },
    "totalScore": 3.4,
    "permanentlyClosed": false,
    "temporarilyClosed": false,
    "placeId": "ChIJz3cGy1ND5IkR3JxfBraG21Q",
    "categories": [
      "Pharmacy"
    ],
    "fid": "0x89e44353cb0677cf:0x54db86b6065f9cdc",
    "cid": "6114629035434679516",
    "reviewsCount": 34,
    "imagesCount": 8,
    "imageCategories": [],
    "scrapedAt": "2025-06-22T09:30:33.099Z",
    "googleFoodUrl": null,
    "hotelAds": [],
    "openingHours": [
      {
        "day": "Monday",
        "hours": "7\u202fAM to 1:30\u202fPM, 2 to 11\u202fPM"
      },
      {
        "day": "Tuesday",
        "hours": "7\u202fAM to 1:30\u202fPM, 2 to 11\u202fPM"
      },
      {
        "day": "Wednesday",
        "hours": "7\u202fAM to 1:30\u202fPM, 2 to 11\u202fPM"
      },
      {
        "day": "Thursday",
        "hours": "7\u202fAM to 1:30\u202fPM, 2 to 11\u202fPM"
      },
      {
        "day": "Friday",
        "hours": "7\u202fAM to 1:30\u202fPM, 2 to 11\u202fPM"
      },
      {
        "day": "Saturday",
        "hours": "8\u202fAM to 1:30\u202fPM, 2 to 10\u202fPM"
      },
      {
        "day": "Sunday",
        "hours": "8\u202fAM to 1:30\u202fPM, 2 to 10\u202fPM"
      }
    ],
    "additionalOpeningHours": {
      "Drive through": [
        {
          "day": "Monday",
          "hours": "7\u202fAM\u20131:30\u202fPM"
        },
        {
          "day": "Tuesday",
          "hours": "7\u202fAM\u20131:30\u202fPM"
        },
        {
          "day": "Wednesday",
          "hours": "7\u202fAM\u20131:30\u202fPM"
        },
        {
          "day": "Thursday",
          "hours": "7\u202fAM\u20131:30\u202fPM"
        },
        {
          "day": "Friday",
          "hours": "7\u202fAM\u20131:30\u202fPM"
        },
        {
          "day": "Saturday",
          "hours": "8\u202fAM\u20131:30\u202fPM"
        },
        {
          "day": "Sunday",
          "hours": "8\u202fAM\u20131:30\u202fPM"
        }
      ]
    },
    "peopleAlsoSearch": [],
    "placesTags": [],
    "reviewsTags": [],
    "additionalInfo": {
      "Service options": [
        {
          "Drive-through": true
        },
        {
          "In-store pickup": true
        }
      ],
      "Accessibility": [
        {
          "Wheelchair accessible entrance": true
        },
        {
          "Wheelchair accessible parking lot": true
        }
      ],
      "Offerings": [
        {
          "Medication disposal": true
        },
        {
          "Naloxone": true
        },
        {
          "Passport photos": true
        }
      ],
      "Planning": [
        {
          "Quick visit": true
        }
      ],
      "Payments": [
        {
          "Credit cards": true
        },
        {
          "Debit cards": true
        }
      ]
    },
    "gasPrices": [],
    "url": "https://www.google.com/maps/search/?api=1&query=Walgreens%20Pharmacy&query_place_id=ChIJz3cGy1ND5IkR3JxfBraG21Q",
    "searchPageUrl": "https://www.google.com/maps/search/independent%20pharmacy%20Pawtucket%20RI/@36.81849750000001,-102.31720148556776,8z?hl=en",
    "searchString": "independent pharmacy Pawtucket RI",
    "language": "en",
    "rank": 7,
    "isAdvertisement": false,
    "imageUrl": "https://lh3.googleusercontent.com/gps-cs-s/AC9h4npGQyEx3HN54Ykap4mXaxe1aBTiWWCFlVJsVbFMB9lfe4OTilK-v4jHnePH3u9NJCcbQ1W-yQHx5-mxAyKhCMA1Tr_v8TS4BZS7j01oK6bS0HO9VfEQfVwxencOvrGW2Q56Fg-v=w408-h725-k-no",
    "kgmid": "/g/11cn939fb4",
    "classification": "chain",
    "is_independent": false,
    "confidence": 1.0,
    "source": "rule-based"
  },
  {
    "title": "ApothiCare 360 Compounding Pharmacy",
    "price": null,
    "categoryName": "Pharmacy",
    "address": "6631 Orion Dr #112, Fort Myers, FL 33912, United States",
    "neighborhood": null,
    "street": "6631 Orion Dr #112",
    "city": "Fort Myers",
    "postalCode": "33912",
    "state": "Florida",
    "countryCode": "US",
    "website": "http://www.apothicare360.com/",
    "phone": "+1 239-690-7700",
    "phoneUnformatted": "+12396907700",
    "claimThisBusiness": false,
    "location": {
      "lat": 26.5457221,
      "lng": -81.8480882
    },
    "totalScore": 4.9,
    "permanentlyClosed": false,
    "temporarilyClosed": false,
    "placeId": null,
    "categories": [
      "Pharmacy",
      "Vitamin & supplements store"
    ],
    "fid": "0x88db15412fb7ebe5:0x897001fa10ded0b1",
    "cid": "9903417754124210353",
    "reviewsCount": 38,
    "reviewsDistribution": {
      "oneStar": 1,
      "twoStar": 0,
      "threeStar": 0,
      "fourStar": 1,
      "fiveStar": 36
    },
    "imagesCount": 24,
    "imageCategories": [],
    "scrapedAt": "2025-06-22T09:30:38.016Z",
    "googleFoodUrl": null,
    "hotelAds": [],
    "openingHours": [
      {
        "day": "Monday",
        "hours": "8:30\u202fAM to 5:30\u202fPM"
      },
      {
        "day": "Tuesday",
        "hours": "8:30\u202fAM to 5:30\u202fPM"
      },
      {
        "day": "Wednesday",
        "hours": "8:30\u202fAM to 5:30\u202fPM"
      },
      {
        "day": "Thursday",
        "hours": "8:30\u202fAM to 5:30\u202fPM"
      },
      {
        "day": "Friday",
        "hours": "8:30\u202fAM to 5:30\u202fPM"
      },
      {
        "day": "Saturday",
        "hours": "Closed"
      },
      {
        "day": "Sunday",
        "hours": "Closed"
      }
    ],
    "peopleAlsoSearch": [],
    "placesTags": [],
    "reviewsTags": [],
    "additionalInfo": {
      "From the business": [
        {
          "Small Business": true
        }
      ],
      "Service options": [
        {
          "Delivery": true
        },
        {
          "In-store pick-up": true
        },
        {
          "In-store shopping": true
        },
        {
          "Same-day delivery": true
        }
      ],
      "Accessibility": [
        {
          "Wheelchair-accessible car park": true
        },
        {
          "Wheelchair-accessible entrance": true
        }
      ],
      "Amenities": [
        {
          "Gender-neutral toilets": true
        }
      ],
      "Crowd": [
        {
          "LGBTQ+ friendly": true
        }
      ],
      "Payments": [
        {
          "Credit cards": true
        },
        {
          "Debit cards": true
        },
        {
          "NFC mobile payments": true
        },
        {
          "Credit cards": true
        }
      ]
    },
    "gasPrices": [],
    "url": "https://www.google.com/maps/search/?api=1&query=ApothiCare%20360%20Compounding%20Pharmacy&query_place_id=ChIJ5eu3L0EV24gRsdDeEPoBcIk",
    "searchPageUrl": "https://www.google.com/maps/search/independent%20pharmacy%20Pawtucket%20RI/@28.22663985800361,-80.15361988608069,8z?hl=en",
    "searchString": "independent pharmacy Pawtucket RI",
    "language": "en",
    "rank": 21,
    "isAdvertisement": false,
    "imageUrl": "https://lh3.googleusercontent.com/p/AF1QipNjNQMCarN64QYTIBQbjGQai6z9FVGlxk2pKfPy=w408-h306-k-no",
    "kgmid": "/g/1pyqjs0t6",
    "classification": "independent",
    "is_independent": true,
    "is_compounding": true,
    "confidence": 0.95,
    "source": "perplexity",
    "method": "llm",
    "query_location": "pawtucket_ri"
  },
  {
    "title": "VidaScrip Pharmacy",
    "price": null,
    "categoryName": "Pharmacy",
    "address": "500 Broad St, Providence, RI 02907",
    "neighborhood": "Upper South Providence",
    "street": "500 Broad St",
    "city": "Providence",
    "postalCode": "02907",
    "state": "Rhode Island",
    "countryCode": "US",
    "phone": "(401) 868-9070",
    "phoneUnformatted": "+14018689070",
    "claimThisBusiness": true,
    "location": {
      "lat": 41.8104114,
      "lng": -71.4209875
    },
    "permanentlyClosed": false,
    "temporarilyClosed": false,
    "placeId": null,
    "categories": [
      "Pharmacy"
    ],
    "fid": "0x89e4457a8a9a5be1:0xa47c2ce15925aa8b",
    "cid": "11852397665707207307",
    "reviewsCount": 0,
    "imagesCount": 1,
    "imageCategories": [],
    "scrapedAt": "2025-06-22T09:30:40.366Z",
    "googleFoodUrl": null,
    "hotelAds": [],
    "openingHours": [
      {
        "day": "Monday",
        "hours": "8:30\u202fAM to 8\u202fPM"
      },
      {
        "day": "Tuesday",
        "hours": "8:30\u202fAM to 8\u202fPM"
      },
      {
        "day": "Wednesday",
        "hours": "8:30\u202fAM to 8\u202fPM"
      },
      {
        "day": "Thursday",
        "hours": "8:30\u202fAM to 8\u202fPM"
      },
      {
        "day": "Friday",
        "hours": "8:30\u202fAM to 8\u202fPM"
      },
      {
        "day": "Saturday",
        "hours": "9\u202fAM to 3\u202fPM"
      },
      {
        "day": "Sunday",
        "hours": "9\u202fAM to 3\u202fPM"
      }
    ],
    "peopleAlsoSearch": [],
    "placesTags": [],
    "reviewsTags": [],
    "additionalInfo": {
      "Accessibility": [
        {
          "Wheelchair accessible parking lot": true
        }
      ],
      "Payments": [
        {
          "Credit cards": true
        }
      ]
    },
    "gasPrices": [],
    "url": "https://www.google.com/maps/search/?api=1&query=VidaScrip%20Pharmacy&query_place_id=ChIJ4VuainpF5IkRi6olWeEsfKQ",
    "searchPageUrl": "https://www.google.com/maps/search/independent%20pharmacy%20Pawtucket%20RI/@33.954544952667874,-92.81852365721616,8z?hl=en",
    "searchString": "independent pharmacy Pawtucket RI",
    "language": "en",
    "rank": 8,
    "isAdvertisement": false,
    "imageUrl": "https://streetviewpixels-pa.googleapis.com/v1/thumbnail?panoid=A5QO62UiwAcGwf6bd-45Gw&cb_client=search.gws-prod.gps&w=408&h=240&yaw=80.38345&pitch=0&thumbfov=100",
    "kgmid": "/g/1tfn3rtv",
    "classification": "independent",
    "is_independent": true,
    "is_compounding": false,
    "confidence": 0.85,
    "source": "perplexity",
    "method": "llm",
    "query_location": "pawtucket_ri"
  },
  {
    "title": "VCare Pharmacy of RI",
    "price": null,
    "categoryName": "Pharmacy",
    "address": "265 Waterman St, Providence, RI 02906",
    "neighborhood": "Wayland",
    "street": "265 Waterman St",
    "city": "Providence",
    "postalCode": "02906",
    "state": "Rhode Island",
    "countryCode": "US",
    "website": "https://myvcarepharmacy.com/ri/",
    "phone": "(401) 340-1800",
    "phoneUnformatted": "+14013401800",
    "claimThisBusiness": false,
    "location": {
      "lat": 41.8278802,
      "lng": -71.3854117
    },
    "totalScore": 4.9,
    "permanentlyClosed": false,
    "temporarilyClosed": false,
    "placeId": null,
    "categories": [
      "Pharmacy"
    ],
    "fid": "0x89e4452c8733b5df:0xf75abffc1bc0a6d5",
    "cid": "17823769564790433493",
    "reviewsCount": 7,
    "imagesCount": 3,
    "imageCategories": [],
    "scrapedAt": "2025-06-22T09:30:42.013Z",
    "googleFoodUrl": null,
    "hotelAds": [],
    "openingHours": [
      {
        "day": "Monday",
        "hours": "9\u202fAM to 5:30\u202fPM"
      },
      {
        "day": "Tuesday",
        "hours": "9\u202fAM to 5:30\u202fPM"
      },
      {
        "day": "Wednesday",
        "hours": "9\u202fAM to 5:30\u202fPM"
      },
      {
        "day": "Thursday",
        "hours": "9\u202fAM to 5:30\u202fPM"
      },
      {
        "day": "Friday",
        "hours": "9\u202fAM to 5:30\u202fPM"
      },
      {
        "day": "Saturday",
        "hours": "Closed"
      },
      {
        "day": "Sunday",
        "hours": "Closed"
      }
    ],
    "peopleAlsoSearch": [],
    "placesTags": [],
    "reviewsTags": [],
    "additionalInfo": {
      "From the business": [
        {
          "Small business": true
        }
      ],
      "Service options": [
        {
          "Delivery": true
        }
      ],
      "Accessibility": [
        {
          "Wheelchair accessible parking lot": true
        }
      ],
      "Payments": [
        {
          "Credit cards": true
        }
      ]
    },
    "gasPrices": [],
    "url": "https://www.google.com/maps/search/?api=1&query=VCare%20Pharmacy%20of%20RI&query_place_id=ChIJ37UzhyxF5IkR1abAG_y_Wvc",
    "searchPageUrl": "https://www.google.com/maps/search/independent%20pharmacy%20Pawtucket%20RI/@36.81849750000001,-76.98739394329682,8z?hl=en",
    "searchString": "independent pharmacy Pawtucket RI",
    "language": "en",
    "rank": 9,
    "isAdvertisement": false,
    "imageUrl": "https://lh3.googleusercontent.com/gps-cs-s/AC9h4noLdc9-E74Bt6DAzc2Fi8vb9_ARKB8sxxgENKDFokgg4GLJSQbA9Qtph3jdq8UICk-99CQ65G8fS79fXAtb9336m88auwlg-Tp1LQUmNsctqyU9PcyWIywaj8KYhmQBS4hiX3D0cA=w408-h306-k-no",
    "kgmid": "/g/11jn_sf11_",
    "classification": "independent",
    "is_independent": true,
    "is_compounding": false,
    "confidence": 0.9,
    "source": "perplexity",
    "method": "llm",
    "query_location": "pawtucket_ri"
  },
  {
    "title": "Asthenis Pharmacy",
    "price": null,
    "categoryName": "Pharmacy",
    "address": "206 Cranston St, Providence, RI 02907",
    "neighborhood": "West End",
    "street": "206 Cranston St",
    "city": "Providence",
    "postalCode": "02907",
    "state": "Rhode Island",
    "countryCode": "US",
    "website": "http://www.asthenis.org/",
    "phone": "(401) 473-3958",
    "phoneUnformatted": "+14014733958",
    "claimThisBusiness": false,
    "location": {
      "lat": 41.8139417,
      "lng": -71.42657
    },
    "totalScore": 4.8,
    "permanentlyClosed": false,
    "temporarilyClosed": false,
    "placeId": null,
    "categories": [
      "Pharmacy"
    ],
    "fid": "0x89e445770c02902d:0xcd638d1b66a32d76",
    "cid": "14799827949295185270",
    "reviewsCount": 25,
    "imagesCount": 14,
    "imageCategories": [],
    "scrapedAt": "2025-06-22T09:30:42.014Z",
    "googleFoodUrl": null,
    "hotelAds": [],
    "openingHours": [
      {
        "day": "Monday",
        "hours": "9:30\u202fAM to 12:30\u202fPM, 1 to 5\u202fPM"
      },
      {
        "day": "Tuesday",
        "hours": "9:30\u202fAM to 12:30\u202fPM, 1 to 5\u202fPM"
      },
      {
        "day": "Wednesday",
        "hours": "9:30\u202fAM to 12:30\u202fPM, 1 to 5\u202fPM"
      },
      {
        "day": "Thursday",
        "hours": "9:30\u202fAM to 12:30\u202fPM, 1 to 5\u202fPM"
      },
      {
        "day": "Friday",
        "hours": "9:30\u202fAM to 12:30\u202fPM, 1 to 5\u202fPM"
      },
      {
        "day": "Saturday",
        "hours": "10\u202fAM to 12\u202fPM"
      },
      {
        "day": "Sunday",
        "hours": "Closed"
      }
    ],
    "additionalOpeningHours": {
      "Lunch": [
        {
          "day": "Monday",
          "hours": "12:30\u20131\u202fPM"
        },
        {
          "day": "Tuesday",
          "hours": "12:30\u20131\u202fPM"
        },
        {
          "day": "Wednesday",
          "hours": "12:30\u20131\u202fPM"
        },
        {
          "day": "Thursday",
          "hours": "12:30\u20131\u202fPM"
        },
        {
          "day": "Friday",
          "hours": "12:30\u20131\u202fPM"
        },
        {
          "day": "Saturday",
          "hours": "Closed"
        },
        {
          "day": "Sunday",
          "hours": "Closed"
        }
      ]
    },
    "peopleAlsoSearch": [],
    "placesTags": [],
    "reviewsTags": [],
    "additionalInfo": {
      "From the business": [
        {
          "Small business": true
        }
      ],
      "Service options": [
        {
          "Delivery": true
        },
        {
          "Same-day delivery": true
        }
      ],
      "Accessibility": [
        {
          "Wheelchair accessible entrance": true
        },
        {
          "Wheelchair accessible parking lot": true
        }
      ],
      "Planning": [
        {
          "Quick visit": true
        }
      ],
      "Payments": [
        {
          "Credit cards": true
        },
        {
          "Debit cards": true
        },
        {
          "NFC mobile payments": true
        },
        {
          "Credit cards": true
        }
      ]
    },
    "gasPrices": [],
    "url": "https://www.google.com/maps/search/?api=1&query=Asthenis%20Pharmacy&query_place_id=ChIJLZACDHdF5IkRdi2jZhuNY80",
    "searchPageUrl": "https://www.google.com/maps/search/independent%20pharmacy%20Pawtucket%20RI/@36.81849750000001,-76.98739394329682,8z?hl=en",
    "searchString": "independent pharmacy Pawtucket RI",
    "language": "en",
    "rank": 11,
    "isAdvertisement": false,
    "imageUrl": "https://lh3.googleusercontent.com/p/AF1QipPX-IMdw61GFBVEJ3nMt3jZlLitSZ7-suFowAEH=w408-h408-k-no",
    "kgmid": "/g/11h5q8fs_w",
    "classification": "independent",
    "is_independent": true,
    "is_compounding": false,
    "confidence": 0.9,
    "source": "perplexity",
    "method": "llm",
    "query_location": "pawtucket_ri"
  },
  {
    "title": "Stop & Shop Pharmacy",
    "price": "$$",
    "categoryName": "Pharmacy",
    "address": "1925 Pawtucket Ave, East Providence, RI 02914",
    "neighborhood": null,
    "street": "1925 Pawtucket Ave",
    "city": "East Providence",
    "postalCode": "02914",
    "state": "Rhode Island",
    "countryCode": "US",
    "website": "https://pharmacy.stopandshop.com/ri/east-providence/1925-pawtucket-avenue?y_source=1_MTEyMTM3MjEtNzE1LWxvY2F0aW9uLndlYnNpdGU%3D",
    "phone": "(401) 431-0476",
    "phoneUnformatted": "+14014310476",
    "claimThisBusiness": false,
    "location": {
      "lat": 41.8228422,
      "lng": -71.3569396
    },
    "totalScore": 4.5,
    "permanentlyClosed": false,
    "temporarilyClosed": false,
    "placeId": "ChIJ5fdqoeda5IkRN8hPIFdG_JQ",
    "categories": [
      "Pharmacy"
    ],
    "fid": "0x89e45ae7a16af7e5:0x94fc4657204fc837",
    "cid": "10735532951762618423",
    "reviewsCount": 13,
    "imagesCount": 4,
    "imageCategories": [],
    "scrapedAt": "2025-06-22T09:30:42.014Z",
    "googleFoodUrl": null,
    "hotelAds": [],
    "openingHours": [
      {
        "day": "Monday",
        "hours": "9\u202fAM to 7\u202fPM"
      },
      {
        "day": "Tuesday",
        "hours": "9\u202fAM to 7\u202fPM"
      },
      {
        "day": "Wednesday",
        "hours": "9\u202fAM to 7\u202fPM"
      },
      {
        "day": "Thursday",
        "hours": "9\u202fAM to 7\u202fPM"
      },
      {
        "day": "Friday",
        "hours": "9\u202fAM to 7\u202fPM"
      },
      {
        "day": "Saturday",
        "hours": "9\u202fAM to 5\u202fPM"
      },
      {
        "day": "Sunday",
        "hours": "9\u202fAM to 5\u202fPM"
      }
    ],
    "peopleAlsoSearch": [],
    "placesTags": [],
    "reviewsTags": [],
    "additionalInfo": {
      "Service options": [
        {
          "Delivery": true
        },
        {
          "In-store pickup": true
        },
        {
          "Onsite services": true
        }
      ],
      "Accessibility": [
        {
          "Wheelchair accessible entrance": true
        },
        {
          "Wheelchair accessible parking lot": true
        }
      ],
      "Planning": [
        {
          "Quick visit": true
        }
      ],
      "Payments": [
        {
          "Credit cards": true
        }
      ]
    },
    "gasPrices": [],
    "url": "https://www.google.com/maps/search/?api=1&query=Stop%20%26%20Shop%20Pharmacy&query_place_id=ChIJ5fdqoeda5IkRN8hPIFdG_JQ",
    "searchPageUrl": "https://www.google.com/maps/search/independent%20pharmacy%20Pawtucket%20RI/@36.81849750000001,-76.98739394329682,8z?hl=en",
    "searchString": "independent pharmacy Pawtucket RI",
    "language": "en",
    "rank": 12,
    "isAdvertisement": false,
    "imageUrl": "https://lh3.googleusercontent.com/gps-cs-s/AC9h4nrhvWxQYbPCLWlOH9h8vgism2GJr987oTKyR3bWxApM0UMJZgl0FzaVOjSXgUiwy-cxatYgxl2KcfDRPI4WEvZ0hRff1Py7ciZo8ANPoEfRpNCKU511qnzMDpTKN-DCHFCEXnKO=w408-h306-k-no",
    "kgmid": "/g/11b66j1sv_",
    "classification": "chain",
    "is_independent": false,
    "confidence": 1.0,
    "source": "rule-based"
  },
  {
    "title": "Brown University Health Pharmacy at Rhode Island Hospital",
    "price": null,
    "categoryName": "Pharmacy",
    "address": "593 Eddy Street 1st Floor Davol Building 1st Floor, Davol Building, Providence, RI 02903",
    "neighborhood": "Upper South Providence",
    "street": "593 Eddy Street 1st Floor Davol Building 1st Floor, Davol Building",
    "city": "Providence",
    "postalCode": "02903",
    "state": "RI",
    "countryCode": "US",
    "website": "https://www.brownhealth.org/centers-services/pharmacy",
    "phone": "(401) 444-4909",
    "phoneUnformatted": "+14014444909",
    "claimThisBusiness": false,
    "location": {
      "lat": 41.8107889,
      "lng": -71.4090636
    },
    "totalScore": 4.8,
    "permanentlyClosed": false,
    "temporarilyClosed": false,
    "placeId": "ChIJu8dIx2lF5IkRFjRREZawej4",
    "categories": [
      "Pharmacy"
    ],
    "fid": "0x89e44569c748c7bb:0x3e7ab09611513416",
    "cid": "4502104936092349462",
    "reviewsCount": 26,
    "imagesCount": 2,
    "imageCategories": [],
    "scrapedAt": "2025-06-22T09:30:42.014Z",
    "googleFoodUrl": null,
    "hotelAds": [],
    "openingHours": [
      {
        "day": "Monday",
        "hours": "7\u202fAM to 11:30\u202fPM"
      },
      {
        "day": "Tuesday",
        "hours": "7\u202fAM to 11:30\u202fPM"
      },
      {
        "day": "Wednesday",
        "hours": "7\u202fAM to 11:30\u202fPM"
      },
      {
        "day": "Thursday",
        "hours": "7\u202fAM to 11:30\u202fPM"
      },
      {
        "day": "Friday",
        "hours": "7\u202fAM to 11:30\u202fPM"
      },
      {
        "day": "Saturday",
        "hours": "8\u202fAM to 4:30\u202fPM"
      },
      {
        "day": "Sunday",
        "hours": "8\u202fAM to 4:30\u202fPM"
      }
    ],
    "peopleAlsoSearch": [],
    "placesTags": [],
    "reviewsTags": [],
    "additionalInfo": {
      "Service options": [
        {
          "Delivery": true
        },
        {
          "English": true
        }
      ],
      "Accessibility": [
        {
          "Wheelchair accessible entrance": true
        },
        {
          "Wheelchair accessible parking lot": true
        }
      ],
      "Payments": [
        {
          "Credit cards": true
        },
        {
          "Debit cards": true
        },
        {
          "NFC mobile payments": true
        },
        {
          "Credit cards": true
        }
      ]
    },
    "gasPrices": [],
    "url": "https://www.google.com/maps/search/?api=1&query=Brown%20University%20Health%20Pharmacy%20at%20Rhode%20Island%20Hospital&query_place_id=ChIJu8dIx2lF5IkRFjRREZawej4",
    "searchPageUrl": "https://www.google.com/maps/search/independent%20pharmacy%20Pawtucket%20RI/@36.81849750000001,-76.98739394329682,8z?hl=en",
    "searchString": "independent pharmacy Pawtucket RI",
    "language": "en",
    "rank": 13,
    "isAdvertisement": false,
    "imageUrl": "https://lh3.googleusercontent.com/p/AF1QipMClVT5-GhIwaPXcZ3pqH3EOkwPky7z1MnUyJ7u=w426-h240-k-no",
    "kgmid": "/g/1w0j0m9w",
    "classification": "hospital",
    "is_independent": false,
    "confidence": 1.0,
    "source": "rule-based"
  },
  {
    "title": "County Square Pharmacy",
    "price": null,
    "categoryName": "Pharmacy",
    "address": "289 County St, Attleboro, MA 02703",
    "neighborhood": null,
    "street": "289 County St",
    "city": "Attleboro",
    "postalCode": "02703",
    "state": "Massachusetts",
    "countryCode": "US",
    "website": "http://www.countysquarepharmacy.com/",
    "phone": "(508) 222-7620",
    "phoneUnformatted": "+15082227620",
    "claimThisBusiness": false,
    "location": {
      "lat": 41.9340167,
      "lng": -71.3003624
    },
    "totalScore": 4.7,
    "permanentlyClosed": false,
    "temporarilyClosed": false,
    "placeId": null,
    "categories": [
      "Pharmacy"
    ],
    "fid": "0x89e45df7932d6d19:0xe478809f0cc8aad6",
    "cid": "16463049858455481046",
    "reviewsCount": 50,
    "imagesCount": 5,
    "imageCategories": [],
    "scrapedAt": "2025-06-22T09:30:42.014Z",
    "googleFoodUrl": null,
    "hotelAds": [],
    "openingHours": [
      {
        "day": "Monday",
        "hours": "9\u202fAM to 6\u202fPM"
      },
      {
        "day": "Tuesday",
        "hours": "9\u202fAM to 6\u202fPM"
      },
      {
        "day": "Wednesday",
        "hours": "9\u202fAM to 6\u202fPM"
      },
      {
        "day": "Thursday",
        "hours": "9\u202fAM to 6\u202fPM"
      },
      {
        "day": "Friday",
        "hours": "9\u202fAM to 6\u202fPM"
      },
      {
        "day": "Saturday",
        "hours": "9\u202fAM to 3\u202fPM"
      },
      {
        "day": "Sunday",
        "hours": "Closed"
      }
    ],
    "peopleAlsoSearch": [],
    "placesTags": [],
    "reviewsTags": [],
    "additionalInfo": {
      "From the business": [
        {
          "Small business": true
        }
      ],
      "Service options": [
        {
          "Delivery": true
        },
        {
          "In-store pickup": true
        },
        {
          "In-store shopping": true
        },
        {
          "Same-day delivery": true
        }
      ],
      "Accessibility": [
        {
          "Wheelchair accessible entrance": true
        },
        {
          "Wheelchair accessible parking lot": true
        }
      ],
      "Planning": [
        {
          "Quick visit": true
        }
      ],
      "Payments": [
        {
          "Credit cards": true
        },
        {
          "Debit cards": true
        },
        {
          "NFC mobile payments": true
        },
        {
          "Credit cards": true
        }
      ]
    },
    "gasPrices": [],
    "url": "https://www.google.com/maps/search/?api=1&query=County%20Square%20Pharmacy&query_place_id=ChIJGW0tk_dd5IkR1qrIDJ-AeOQ",
    "searchPageUrl": "https://www.google.com/maps/search/independent%20pharmacy%20Pawtucket%20RI/@36.81849750000001,-76.98739394329682,8z?hl=en",
    "searchString": "independent pharmacy Pawtucket RI",
    "language": "en",
    "rank": 14,
    "isAdvertisement": false,
    "imageUrl": "https://lh3.googleusercontent.com/p/AF1QipOPMbLTsbWU2YgkDWXpt-Zu-140BU4gxrHA-VfR=w408-h272-k-no",
    "kgmid": "/g/1v7pzhhd",
    "classification": "independent",
    "is_independent": true,
    "is_compounding": false,
    "confidence": 0.9,
    "source": "perplexity",
    "method": "llm",
    "query_location": "pawtucket_ri"
  },
  {
    "title": "JB Pharmacy & Compounding",
    "price": null,
    "categoryName": "Pharmacy",
    "address": "1165 Main Ave, Warwick, RI 02886",
    "neighborhood": null,
    "street": "1165 Main Ave",
    "city": "Warwick",
    "postalCode": "02886",
    "state": "Rhode Island",
    "countryCode": "US",
    "website": "http://www.jbcompoundingpharmacy.com/",
    "phone": "(401) 861-1194",
    "phoneUnformatted": "+14018611194",
    "claimThisBusiness": false,
    "location": {
      "lat": 41.7169372,
      "lng": -71.4617366
    },
    "totalScore": 3.8,
    "permanentlyClosed": false,
    "temporarilyClosed": false,
    "placeId": null,
    "categories": [
      "Pharmacy",
      "Health consultant",
      "Medical supply store",
      "Wellness program"
    ],
    "fid": "0x89e445b2e330afe9:0xca3c07a564aa068e",
    "cid": "14572530901203945102",
    "reviewsCount": 11,
    "imagesCount": 1,
    "imageCategories": [],
    "scrapedAt": "2025-06-22T09:30:42.014Z",
    "googleFoodUrl": null,
    "hotelAds": [],
    "openingHours": [
      {
        "day": "Monday",
        "hours": "9\u202fAM to 5\u202fPM"
      },
      {
        "day": "Tuesday",
        "hours": "9\u202fAM to 5\u202fPM"
      },
      {
        "day": "Wednesday",
        "hours": "9\u202fAM to 5\u202fPM"
      },
      {
        "day": "Thursday",
        "hours": "9\u202fAM to 5\u202fPM"
      },
      {
        "day": "Friday",
        "hours": "9\u202fAM to 5\u202fPM"
      },
      {
        "day": "Saturday",
        "hours": "9\u202fAM to 12\u202fPM"
      },
      {
        "day": "Sunday",
        "hours": "Closed"
      }
    ],
    "peopleAlsoSearch": [],
    "placesTags": [],
    "reviewsTags": [],
    "additionalInfo": {
      "From the business": [
        {
          "Small business": true
        }
      ],
      "Service options": [
        {
          "Delivery": true
        },
        {
          "In-store pickup": true
        }
      ],
      "Accessibility": [
        {
          "Wheelchair accessible entrance": true
        },
        {
          "Wheelchair accessible parking lot": true
        }
      ],
      "Planning": [
        {
          "Quick visit": true
        }
      ],
      "Payments": [
        {
          "Credit cards": true
        },
        {
          "Debit cards": true
        },
        {
          "NFC mobile payments": true
        },
        {
          "Credit cards": true
        }
      ]
    },
    "gasPrices": [],
    "url": "https://www.google.com/maps/search/?api=1&query=JB%20Pharmacy%20%26%20Compounding&query_place_id=ChIJ6a8w47JF5IkRjgaqZKUHPMo",
    "searchPageUrl": "https://www.google.com/maps/search/independent%20pharmacy%20Pawtucket%20RI/@36.81849750000001,-76.98739394329682,8z?hl=en",
    "searchString": "independent pharmacy Pawtucket RI",
    "language": "en",
    "rank": 15,
    "isAdvertisement": false,
    "imageUrl": "https://streetviewpixels-pa.googleapis.com/v1/thumbnail?panoid=-40ASkbZDkx08RLsC7RnlA&cb_client=search.gws-prod.gps&w=408&h=240&yaw=63.52382&pitch=0&thumbfov=100",
    "kgmid": "/g/1tg_h1xs",
    "classification": "independent",
    "is_independent": true,
    "is_compounding": true,
    "confidence": 0.95,
    "source": "perplexity",
    "method": "llm",
    "query_location": "pawtucket_ri"
  },
  {
    "title": "Benzer Pharmacy",
    "price": null,
    "categoryName": "Pharmacy",
    "address": "265 Waterman St, Providence, RI 02906",
    "neighborhood": "Wayland",
    "street": "265 Waterman St",
    "city": "Providence",
    "postalCode": "02906",
    "state": "Rhode Island",
    "countryCode": "US",
    "phone": "(401) 340-1800",
    "phoneUnformatted": "+14013401800",
    "claimThisBusiness": false,
    "location": {
      "lat": 41.8278727,
      "lng": -71.3853858
    },
    "totalScore": 3.7,
    "permanentlyClosed": false,
    "temporarilyClosed": false,
    "placeId": null,
    "categories": [
      "Pharmacy"
    ],
    "fid": "0x89e445fef87e3c13:0x99ca071bb40275ac",
    "cid": "11081677648664098220",
    "reviewsCount": 6,
    "imagesCount": 1,
    "imageCategories": [],
    "scrapedAt": "2025-06-22T09:30:42.014Z",
    "googleFoodUrl": null,
    "hotelAds": [],
    "openingHours": [
      {
        "day": "Monday",
        "hours": "9\u202fAM to 5:30\u202fPM"
      },
      {
        "day": "Tuesday",
        "hours": "9\u202fAM to 5:30\u202fPM"
      },
      {
        "day": "Wednesday",
        "hours": "9\u202fAM to 5:30\u202fPM"
      },
      {
        "day": "Thursday",
        "hours": "9\u202fAM to 5:30\u202fPM"
      },
      {
        "day": "Friday",
        "hours": "9\u202fAM to 5:30\u202fPM"
      },
      {
        "day": "Saturday",
        "hours": "Closed"
      },
      {
        "day": "Sunday",
        "hours": "Closed"
      }
    ],
    "peopleAlsoSearch": [],
    "placesTags": [],
    "reviewsTags": [],
    "additionalInfo": {
      "Accessibility": [
        {
          "Wheelchair accessible parking lot": true
        }
      ],
      "Payments": [
        {
          "Credit cards": true
        },
        {
          "Debit cards": true
        },
        {
          "NFC mobile payments": true
        },
        {
          "Credit cards": true
        }
      ]
    },
    "gasPrices": [],
    "url": "https://www.google.com/maps/search/?api=1&query=Benzer%20Pharmacy&query_place_id=ChIJEzx--P5F5IkRrHUCtBsHypk",
    "searchPageUrl": "https://www.google.com/maps/search/independent%20pharmacy%20Pawtucket%20RI/@36.81849750000001,-76.98739394329682,8z?hl=en",
    "searchString": "independent pharmacy Pawtucket RI",
    "language": "en",
    "rank": 16,
    "isAdvertisement": false,
    "imageUrl": "https://streetviewpixels-pa.googleapis.com/v1/thumbnail?panoid=TqdPgV8bqucPCFcQ0DZufw&cb_client=search.gws-prod.gps&w=408&h=240&yaw=207.80066&pitch=0&thumbfov=100",
    "kgmid": "/g/11h1vfxgc9",
    "classification": "chain",
    "is_independent": false,
    "is_compounding": false,
    "confidence": 0.95,
    "source": "perplexity",
    "method": "llm",
    "query_location": "pawtucket_ri"
  }
]