[
  {
    "title": "Front Range Pharmacy",
    "price": null,
    "categoryName": "Pharmacy",
    "address": "3401 S Broadway Unit 180, Englewood, CO 80113",
    "neighborhood": null,
    "street": "3401 S Broadway Unit 180",
    "city": "Englewood",
    "postalCode": "80113",
    "state": "Colorado",
    "countryCode": "US",
    "website": "http://frontrangepharmacy.com/",
    "phone": "(720) 405-5125",
    "phoneUnformatted": "+17204055125",
    "claimThisBusiness": false,
    "location": {
      "lat": 39.6547769,
      "lng": -104.9887101
    },
    "totalScore": 4.9,
    "permanentlyClosed": false,
    "temporarilyClosed": false,
    "placeId": null,
    "categories": [
      "Pharmacy",
      "Drug store",
      "Medical supply store"
    ],
    "fid": "0x876c81db39977eb5:0xcb0f3c206d82da11",
    "cid": "14631979824323942929",
    "reviewsCount": 148,
    "imagesCount": 22,
    "imageCategories": [],
    "scrapedAt": "2025-06-22T04:17:00.245Z",
    "googleFoodUrl": null,
    "hotelAds": [],
    "openingHours": [
      {
        "day": "Monday",
        "hours": "9\u202fAM to 6\u202fPM"
      },
      {
        "day": "Tuesday",
        "hours": "9\u202fAM to 6\u202fPM"
      },
      {
        "day": "Wednesday",
        "hours": "9\u202fAM to 6\u202fPM"
      },
      {
        "day": "Thursday",
        "hours": "9\u202fAM to 6\u202fPM"
      },
      {
        "day": "Friday",
        "hours": "9\u202fAM to 6\u202fPM"
      },
      {
        "day": "Saturday",
        "hours": "9\u202fAM to 2\u202fPM"
      },
      {
        "day": "Sunday",
        "hours": "Closed"
      }
    ],
    "peopleAlsoSearch": [],
    "placesTags": [],
    "reviewsTags": [],
    "additionalInfo": {
      "From the business": [
        {
          "Identifies as LGBTQ+ owned": true
        },
        {
          "Small business": true
        }
      ],
      "Service options": [
        {
          "Curbside pickup": true
        },
        {
          "Delivery": true
        },
        {
          "In-store pickup": true
        },
        {
          "In-store shopping": true
        },
        {
          "Onsite services": true
        },
        {
          "Same-day delivery": false
        }
      ],
      "Accessibility": [
        {
          "Wheelchair accessible entrance": true
        },
        {
          "Wheelchair accessible parking lot": true
        },
        {
          "Wheelchair accessible restroom": true
        },
        {
          "Wheelchair accessible seating": true
        }
      ],
      "Amenities": [
        {
          "Gender-neutral restroom": true
        },
        {
          "Wi-Fi": true
        },
        {
          "Free Wi-Fi": true
        }
      ],
      "Crowd": [
        {
          "LGBTQ+ friendly": true
        },
        {
          "Transgender safespace": true
        }
      ],
      "Planning": [
        {
          "Quick visit": true
        }
      ],
      "Payments": [
        {
          "Checks": true
        },
        {
          "Credit cards": true
        },
        {
          "Debit cards": true
        },
        {
          "NFC mobile payments": true
        },
        {
          "Credit cards": true
        }
      ],
      "Parking": [
        {
          "Free parking lot": true
        },
        {
          "Free street parking": true
        }
      ]
    },
    "gasPrices": [],
    "url": "https://www.google.com/maps/search/?api=1&query=Front%20Range%20Pharmacy&query_place_id=ChIJtX6XOduBbIcREdqCbSA8D8s",
    "searchPageUrl": "https://www.google.com/maps/search/independent%20pharmacy%20Denver%20CO/@69.9064287015676,-162.31690285675955,9z?hl=en",
    "searchString": "independent pharmacy Denver CO",
    "language": "en",
    "rank": 1,
    "isAdvertisement": false,
    "imageUrl": "https://lh3.googleusercontent.com/p/AF1QipPF7nm3KwMAdicGtXs1Ad2s2BVpZrLGl5Mm4Fu0=w408-h271-k-no",
    "kgmid": "/g/11h9492mzd",
    "classification": "independent",
    "is_independent": true,
    "is_compounding": false,
    "confidence": 0.95,
    "source": "perplexity",
    "method": "llm"
  },
  {
    "title": "Capitol Heights Pharmacy & Liquor",
    "description": "Neighborhood convenience store & pharmacy that also offers a selection of wine, beer & spirits.",
    "price": null,
    "categoryName": "Drug store",
    "address": "1200 Madison St, Denver, CO 80206",
    "neighborhood": "Central",
    "street": "1200 Madison St",
    "city": "Denver",
    "postalCode": "80206",
    "state": "Colorado",
    "countryCode": "US",
    "website": "https://www.chprx.com/liquor",
    "phone": "(303) 529-4054",
    "phoneUnformatted": "+13035294054",
    "claimThisBusiness": false,
    "location": {
      "lat": 39.7353437,
      "lng": -104.9457637
    },
    "totalScore": 4.7,
    "permanentlyClosed": false,
    "temporarilyClosed": false,
    "placeId": null,
    "categories": [
      "Drug store",
      "Beer store",
      "Wine store"
    ],
    "fid": "0x876c7eaf3d8ac9e9:0xe77cf47ad4546e99",
    "cid": "16680475928258965145",
    "reviewsCount": 194,
    "imagesCount": 30,
    "imageCategories": [],
    "scrapedAt": "2025-06-22T04:17:00.247Z",
    "googleFoodUrl": null,
    "hotelAds": [],
    "openingHours": [
      {
        "day": "Monday",
        "hours": "9\u202fAM to 10\u202fPM"
      },
      {
        "day": "Tuesday",
        "hours": "9\u202fAM to 10\u202fPM"
      },
      {
        "day": "Wednesday",
        "hours": "9\u202fAM to 10\u202fPM"
      },
      {
        "day": "Thursday",
        "hours": "9\u202fAM to 10\u202fPM"
      },
      {
        "day": "Friday",
        "hours": "9\u202fAM to 10\u202fPM"
      },
      {
        "day": "Saturday",
        "hours": "9\u202fAM to 10\u202fPM"
      },
      {
        "day": "Sunday",
        "hours": "10\u202fAM to 8\u202fPM"
      }
    ],
    "additionalOpeningHours": {
      "Pickup": [
        {
          "day": "Monday",
          "hours": "9\u202fAM\u20137\u202fPM"
        },
        {
          "day": "Tuesday",
          "hours": "9\u202fAM\u20137\u202fPM"
        },
        {
          "day": "Wednesday",
          "hours": "9\u202fAM\u20137\u202fPM"
        },
        {
          "day": "Thursday",
          "hours": "9\u202fAM\u20137\u202fPM"
        },
        {
          "day": "Friday",
          "hours": "9\u202fAM\u20137\u202fPM"
        },
        {
          "day": "Saturday",
          "hours": "10\u202fAM\u20133\u202fPM"
        },
        {
          "day": "Sunday",
          "hours": "Closed"
        }
      ]
    },
    "peopleAlsoSearch": [],
    "placesTags": [],
    "reviewsTags": [],
    "additionalInfo": {
      "From the business": [
        {
          "Identifies as women-owned": true
        },
        {
          "Small business": true
        }
      ],
      "Service options": [
        {
          "Curbside pickup": true
        },
        {
          "Delivery": true
        },
        {
          "In-store pickup": true
        },
        {
          "In-store shopping": true
        },
        {
          "Onsite services": true
        },
        {
          "Same-day delivery": true
        }
      ],
      "Accessibility": [
        {
          "Wheelchair accessible entrance": true
        },
        {
          "Wheelchair accessible parking lot": true
        }
      ],
      "Planning": [
        {
          "Quick visit": true
        }
      ],
      "Payments": [
        {
          "Checks": true
        },
        {
          "Credit cards": true
        },
        {
          "Debit cards": true
        },
        {
          "NFC mobile payments": true
        },
        {
          "Credit cards": true
        }
      ]
    },
    "gasPrices": [],
    "url": "https://www.google.com/maps/search/?api=1&query=Capitol%20Heights%20Pharmacy%20%26%20Liquor&query_place_id=ChIJ6cmKPa9-bIcRmW5U1Hr0fOc",
    "searchPageUrl": "https://www.google.com/maps/search/independent%20pharmacy%20Denver%20CO/@69.9064287015676,-162.31690285675955,9z?hl=en",
    "searchString": "independent pharmacy Denver CO",
    "language": "en",
    "rank": 2,
    "isAdvertisement": false,
    "imageUrl": "https://lh3.googleusercontent.com/gps-cs-s/AC9h4nq5F8cMoK6DJ1s-Nb9-Q594Uwq5f3yUSE11tCvbl1QbkcsQ2nOo-3-nKXKMEPrh-hU6ZP6ZCvtJGKotxZ5kUARRz-BFr24DRd-TPWbeYik3HL_sSj_F_JhXXySBpfOALrutMv5T4Q=w408-h408-k-no",
    "kgmid": "/g/1tf3pd3t",
    "classification": "independent",
    "is_independent": true,
    "is_compounding": false,
    "confidence": 0.95,
    "source": "perplexity",
    "method": "llm"
  },
  {
    "title": "Alto Pharmacy",
    "price": null,
    "categoryName": "Pharmacy",
    "address": "929 Broadway, Denver, CO 80203",
    "neighborhood": "Central",
    "street": "929 Broadway",
    "city": "Denver",
    "postalCode": "80203",
    "state": "Colorado",
    "countryCode": "US",
    "website": "http://alto.com/",
    "phone": "(800) 874-5881",
    "phoneUnformatted": "+18008745881",
    "claimThisBusiness": false,
    "location": {
      "lat": 39.7312139,
      "lng": -104.9879907
    },
    "totalScore": 4.1,
    "permanentlyClosed": false,
    "temporarilyClosed": false,
    "placeId": null,
    "categories": [
      "Pharmacy"
    ],
    "fid": "0x876c7f079fe671f9:0xa5bf5f06908aa112",
    "cid": "11943369218609291538",
    "reviewsCount": 344,
    "imagesCount": 6,
    "imageCategories": [],
    "scrapedAt": "2025-06-22T04:17:00.247Z",
    "googleFoodUrl": null,
    "hotelAds": [],
    "openingHours": [
      {
        "day": "Monday",
        "hours": "9\u202fAM to 6\u202fPM"
      },
      {
        "day": "Tuesday",
        "hours": "9\u202fAM to 6\u202fPM"
      },
      {
        "day": "Wednesday",
        "hours": "9\u202fAM to 6\u202fPM"
      },
      {
        "day": "Thursday",
        "hours": "9\u202fAM to 6\u202fPM"
      },
      {
        "day": "Friday",
        "hours": "9\u202fAM to 6\u202fPM"
      },
      {
        "day": "Saturday",
        "hours": "9\u202fAM to 3\u202fPM"
      },
      {
        "day": "Sunday",
        "hours": "9\u202fAM to 3\u202fPM"
      }
    ],
    "additionalOpeningHours": {
      "Online service hours": [
        {
          "day": "Monday",
          "hours": "7\u202fAM\u201310\u202fPM"
        },
        {
          "day": "Tuesday",
          "hours": "7\u202fAM\u201310\u202fPM"
        },
        {
          "day": "Wednesday",
          "hours": "7\u202fAM\u201310\u202fPM"
        },
        {
          "day": "Thursday",
          "hours": "7\u202fAM\u201310\u202fPM"
        },
        {
          "day": "Friday",
          "hours": "7\u202fAM\u201310\u202fPM"
        },
        {
          "day": "Saturday",
          "hours": "8\u202fAM\u20137\u202fPM"
        },
        {
          "day": "Sunday",
          "hours": "8\u202fAM\u20137\u202fPM"
        }
      ]
    },
    "peopleAlsoSearch": [],
    "placesTags": [],
    "reviewsTags": [],
    "additionalInfo": {
      "Service options": [
        {
          "Delivery": true
        },
        {
          "In-store pickup": true
        },
        {
          "Same-day delivery": true
        }
      ],
      "Accessibility": [
        {
          "Wheelchair accessible entrance": true
        },
        {
          "Wheelchair accessible parking lot": true
        }
      ],
      "Crowd": [
        {
          "LGBTQ+ friendly": true
        },
        {
          "Transgender safespace": true
        }
      ],
      "Payments": [
        {
          "Credit cards": true
        },
        {
          "Debit cards": true
        },
        {
          "NFC mobile payments": true
        },
        {
          "Credit cards": true
        }
      ]
    },
    "gasPrices": [],
    "url": "https://www.google.com/maps/search/?api=1&query=Alto%20Pharmacy&query_place_id=ChIJ-XHmnwd_bIcREqGKkAZfv6U",
    "searchPageUrl": "https://www.google.com/maps/search/independent%20pharmacy%20Denver%20CO/@69.9064287015676,-162.31690285675955,9z?hl=en",
    "searchString": "independent pharmacy Denver CO",
    "language": "en",
    "rank": 3,
    "isAdvertisement": false,
    "imageUrl": "https://lh3.googleusercontent.com/p/AF1QipODjbH7eO61B4J44-fXdRkfwndWbPLTjAuaFZ4n=w408-h408-k-no",
    "kgmid": "/g/11h24mw2kn",
    "classification": "chain",
    "is_independent": false,
    "is_compounding": false,
    "confidence": 0.9,
    "source": "perplexity",
    "method": "llm"
  },
  {
    "title": "Todd's Harvard Park Pharmacy",
    "price": null,
    "categoryName": "Pharmacy",
    "address": "950 E Harvard Ave # 170, Denver, CO 80210",
    "neighborhood": "South Denver",
    "street": "950 E Harvard Ave # 170",
    "city": "Denver",
    "postalCode": "80210",
    "state": "Colorado",
    "countryCode": "US",
    "website": "http://toddspharmacy.com/",
    "phone": "(303) 733-3784",
    "phoneUnformatted": "+13037333784",
    "claimThisBusiness": true,
    "location": {
      "lat": 39.6704963,
      "lng": -104.976576
    },
    "totalScore": 4.5,
    "permanentlyClosed": false,
    "temporarilyClosed": false,
    "placeId": null,
    "categories": [
      "Pharmacy"
    ],
    "fid": "0x876c7e304957f99d:0x23e3a1b025732722",
    "cid": "2586088388955416354",
    "reviewsCount": 35,
    "imagesCount": 2,
    "imageCategories": [],
    "scrapedAt": "2025-06-22T04:17:00.247Z",
    "googleFoodUrl": null,
    "hotelAds": [],
    "openingHours": [
      {
        "day": "Monday",
        "hours": "9\u202fAM to 5\u202fPM"
      },
      {
        "day": "Tuesday",
        "hours": "9\u202fAM to 5\u202fPM"
      },
      {
        "day": "Wednesday",
        "hours": "9\u202fAM to 5\u202fPM"
      },
      {
        "day": "Thursday",
        "hours": "9\u202fAM to 5\u202fPM"
      },
      {
        "day": "Friday",
        "hours": "9\u202fAM to 5\u202fPM"
      },
      {
        "day": "Saturday",
        "hours": "8:30\u202fAM to 12:30\u202fPM"
      },
      {
        "day": "Sunday",
        "hours": "Closed"
      }
    ],
    "peopleAlsoSearch": [],
    "placesTags": [],
    "reviewsTags": [],
    "additionalInfo": {
      "Service options": [
        {
          "Delivery": true
        },
        {
          "Same-day delivery": true
        }
      ],
      "Accessibility": [
        {
          "Wheelchair accessible entrance": true
        },
        {
          "Wheelchair accessible parking lot": true
        }
      ],
      "Planning": [
        {
          "Quick visit": true
        }
      ],
      "Payments": [
        {
          "Credit cards": true
        },
        {
          "Debit cards": true
        },
        {
          "NFC mobile payments": true
        },
        {
          "Credit cards": true
        }
      ]
    },
    "gasPrices": [],
    "url": "https://www.google.com/maps/search/?api=1&query=Todd's%20Harvard%20Park%20Pharmacy&query_place_id=ChIJnflXSTB-bIcRIidzJbCh4yM",
    "searchPageUrl": "https://www.google.com/maps/search/independent%20pharmacy%20Denver%20CO/@69.9064287015676,-162.31690285675955,9z?hl=en",
    "searchString": "independent pharmacy Denver CO",
    "language": "en",
    "rank": 4,
    "isAdvertisement": false,
    "imageUrl": "https://lh3.googleusercontent.com/gps-cs-s/AC9h4nohFwvN96gDFtYlNojGrWgcYF9IN-BGF36BH5w9VZOp10cPwhsjCyula9AogsYeXpxd1P2sdWUmf-HkME24qDBEwv2qU1mTnEVFg1bYYyIhjxtIPAuFt-UFv0jDXqpfSMyys_vtXA=w408-h544-k-no",
    "kgmid": "/g/1tdk5p04",
    "classification": "independent",
    "is_independent": true,
    "is_compounding": true,
    "confidence": 0.95,
    "source": "perplexity",
    "method": "llm"
  },
  {
    "title": "TKS Pharmacy",
    "price": null,
    "categoryName": "Pharmacy",
    "address": "4809 Argonne St Suite 155, Denver, CO 80249",
    "neighborhood": "Gateway - Green Valley Ranch",
    "street": "4809 Argonne St Suite 155",
    "city": "Denver",
    "postalCode": "80249",
    "state": "Colorado",
    "countryCode": "US",
    "website": "https://tksrx.com/",
    "phone": "(720) 583-2110",
    "phoneUnformatted": "+17205832110",
    "claimThisBusiness": false,
    "location": {
      "lat": 39.7841893,
      "lng": -104.7658757
    },
    "totalScore": 4,
    "permanentlyClosed": false,
    "temporarilyClosed": false,
    "placeId": null,
    "categories": [
      "Pharmacy"
    ],
    "fid": "0x876c6417129251fd:0xdf1ea8fe3dcd3203",
    "cid": "16077473529671266819",
    "reviewsCount": 42,
    "imagesCount": 11,
    "imageCategories": [],
    "scrapedAt": "2025-06-22T04:17:00.247Z",
    "googleFoodUrl": null,
    "hotelAds": [],
    "openingHours": [
      {
        "day": "Monday",
        "hours": "8\u202fAM to 6\u202fPM"
      },
      {
        "day": "Tuesday",
        "hours": "8\u202fAM to 6\u202fPM"
      },
      {
        "day": "Wednesday",
        "hours": "8\u202fAM to 6\u202fPM"
      },
      {
        "day": "Thursday",
        "hours": "8\u202fAM to 6\u202fPM"
      },
      {
        "day": "Friday",
        "hours": "8\u202fAM to 6\u202fPM"
      },
      {
        "day": "Saturday",
        "hours": "9\u202fAM to 2\u202fPM"
      },
      {
        "day": "Sunday",
        "hours": "Closed"
      }
    ],
    "peopleAlsoSearch": [],
    "placesTags": [],
    "reviewsTags": [],
    "additionalInfo": {
      "From the business": [
        {
          "Identifies as Black-owned": true
        },
        {
          "Small business": true
        }
      ],
      "Service options": [
        {
          "Curbside pickup": true
        },
        {
          "Delivery": true
        },
        {
          "In-store pickup": true
        },
        {
          "In-store shopping": true
        },
        {
          "Onsite services": true
        },
        {
          "Same-day delivery": true
        }
      ],
      "Accessibility": [
        {
          "Wheelchair accessible entrance": true
        },
        {
          "Wheelchair accessible parking lot": true
        }
      ],
      "Crowd": [
        {
          "LGBTQ+ friendly": true
        },
        {
          "Transgender safespace": true
        }
      ],
      "Planning": [
        {
          "Quick visit": true
        }
      ],
      "Payments": [
        {
          "Credit cards": true
        },
        {
          "Debit cards": true
        },
        {
          "NFC mobile payments": true
        }
      ]
    },
    "gasPrices": [],
    "url": "https://www.google.com/maps/search/?api=1&query=TKS%20Pharmacy&query_place_id=ChIJ_VGSEhdkbIcRAzLNPf6oHt8",
    "searchPageUrl": "https://www.google.com/maps/search/independent%20pharmacy%20Denver%20CO/@69.9064287015676,-162.31690285675955,9z?hl=en",
    "searchString": "independent pharmacy Denver CO",
    "language": "en",
    "rank": 5,
    "isAdvertisement": false,
    "imageUrl": "https://lh3.googleusercontent.com/p/AF1QipN4Ct6jUsRfpwXiuVogRy5RtUsMZMnhpBNZ7Gd6=w533-h240-k-no",
    "kgmid": "/g/11by_dnys0",
    "classification": "independent",
    "is_independent": true,
    "is_compounding": true,
    "confidence": 0.95,
    "source": "perplexity",
    "method": "llm"
  },
  {
    "title": "Goldin Pharmacy & Medical Supply",
    "price": null,
    "categoryName": "Pharmacy",
    "address": "909 S Oneida St #11, Denver, CO 80224",
    "neighborhood": "East",
    "street": "909 S Oneida St #11",
    "city": "Denver",
    "postalCode": "80224",
    "state": "Colorado",
    "countryCode": "US",
    "website": "http://goldinpharmacy.com/",
    "phone": "(303) 355-6818",
    "phoneUnformatted": "+13033556818",
    "claimThisBusiness": false,
    "location": {
      "lat": 39.6999761,
      "lng": -104.9090459
    },
    "totalScore": 3.2,
    "permanentlyClosed": false,
    "temporarilyClosed": false,
    "placeId": null,
    "categories": [
      "Pharmacy",
      "Medical supply store",
      "Medical equipment supplier"
    ],
    "fid": "0x876c7db0cdec6755:0x6acd625657d3615d",
    "cid": "7695915461226226013",
    "reviewsCount": 33,
    "imagesCount": 3,
    "imageCategories": [],
    "scrapedAt": "2025-06-22T04:17:00.247Z",
    "googleFoodUrl": null,
    "hotelAds": [],
    "openingHours": [
      {
        "day": "Monday",
        "hours": "9\u202fAM to 6\u202fPM"
      },
      {
        "day": "Tuesday",
        "hours": "9\u202fAM to 6\u202fPM"
      },
      {
        "day": "Wednesday",
        "hours": "9\u202fAM to 6\u202fPM"
      },
      {
        "day": "Thursday",
        "hours": "9\u202fAM to 6\u202fPM"
      },
      {
        "day": "Friday",
        "hours": "9\u202fAM to 6\u202fPM"
      },
      {
        "day": "Saturday",
        "hours": "10\u202fAM to 4\u202fPM"
      },
      {
        "day": "Sunday",
        "hours": "Closed"
      }
    ],
    "peopleAlsoSearch": [],
    "placesTags": [],
    "reviewsTags": [],
    "additionalInfo": {
      "Accessibility": [
        {
          "Wheelchair accessible entrance": true
        },
        {
          "Wheelchair accessible parking lot": true
        }
      ],
      "Payments": [
        {
          "Credit cards": true
        }
      ]
    },
    "gasPrices": [],
    "url": "https://www.google.com/maps/search/?api=1&query=Goldin%20Pharmacy%20%26%20Medical%20Supply&query_place_id=ChIJVWfszbB9bIcRXWHTV1ZizWo",
    "searchPageUrl": "https://www.google.com/maps/search/independent%20pharmacy%20Denver%20CO/@69.9064287015676,-162.31690285675955,9z?hl=en",
    "searchString": "independent pharmacy Denver CO",
    "language": "en",
    "rank": 6,
    "isAdvertisement": false,
    "imageUrl": "https://lh3.googleusercontent.com/gps-cs-s/AC9h4np1R2RLZ3tFaZYdgUo6gLeQaadeIMCZAlptdc93wmTtd-ckG1PmQgaAM2u1G2em1O85UrtvY7c53YX9CId2-BjR_P8WM36FN0bp2d7w2ERc4tx1KWS8i4DFzMYNzOmnsAQhSgQx=w426-h240-k-no",
    "kgmid": "/g/1tm0c94z",
    "classification": "independent",
    "is_independent": true,
    "is_compounding": false,
    "confidence": 0.9,
    "source": "perplexity",
    "method": "llm"
  },
  {
    "title": "Pencol Compounding Pharmacy",
    "price": null,
    "categoryName": "Pharmacy",
    "address": "1325 S Colorado Blvd Ste B-024, Denver, CO 80222",
    "neighborhood": "Cory - Merrill",
    "street": "1325 S Colorado Blvd Ste B-024",
    "city": "Denver",
    "postalCode": "80222",
    "state": "Colorado",
    "countryCode": "US",
    "website": "http://www.pencolpharmacy.com/",
    "phone": "(303) 388-3613",
    "phoneUnformatted": "+13033883613",
    "claimThisBusiness": false,
    "location": {
      "lat": 39.6924523,
      "lng": -104.941215
    },
    "totalScore": 3.9,
    "permanentlyClosed": false,
    "temporarilyClosed": false,
    "placeId": null,
    "categories": [
      "Pharmacy"
    ],
    "fid": "0x876c7e77a2623779:0xb3d33a24a8839c11",
    "cid": "12957764481995480081",
    "reviewsCount": 171,
    "imagesCount": 3,
    "imageCategories": [],
    "scrapedAt": "2025-06-22T04:17:00.248Z",
    "googleFoodUrl": null,
    "hotelAds": [],
    "openingHours": [
      {
        "day": "Monday",
        "hours": "9\u202fAM to 6\u202fPM"
      },
      {
        "day": "Tuesday",
        "hours": "9\u202fAM to 6\u202fPM"
      },
      {
        "day": "Wednesday",
        "hours": "9\u202fAM to 6\u202fPM"
      },
      {
        "day": "Thursday",
        "hours": "9\u202fAM to 6\u202fPM"
      },
      {
        "day": "Friday",
        "hours": "9\u202fAM to 6\u202fPM"
      },
      {
        "day": "Saturday",
        "hours": "Closed"
      },
      {
        "day": "Sunday",
        "hours": "Closed"
      }
    ],
    "additionalOpeningHours": {
      "Delivery": [
        {
          "day": "Monday",
          "hours": "9\u202fAM\u20135\u202fPM"
        },
        {
          "day": "Tuesday",
          "hours": "9\u202fAM\u20135\u202fPM"
        },
        {
          "day": "Wednesday",
          "hours": "9\u202fAM\u20135\u202fPM"
        },
        {
          "day": "Thursday",
          "hours": "9\u202fAM\u20135\u202fPM"
        },
        {
          "day": "Friday",
          "hours": "9\u202fAM\u20135\u202fPM"
        },
        {
          "day": "Saturday",
          "hours": "Closed"
        },
        {
          "day": "Sunday",
          "hours": "Closed"
        }
      ],
      "Pickup": [
        {
          "day": "Monday",
          "hours": "9\u202fAM\u20135\u202fPM"
        },
        {
          "day": "Tuesday",
          "hours": "9\u202fAM\u20135\u202fPM"
        },
        {
          "day": "Wednesday",
          "hours": "9\u202fAM\u20135\u202fPM"
        },
        {
          "day": "Thursday",
          "hours": "9\u202fAM\u20135\u202fPM"
        },
        {
          "day": "Friday",
          "hours": "9\u202fAM\u20135\u202fPM"
        },
        {
          "day": "Saturday",
          "hours": "Closed"
        },
        {
          "day": "Sunday",
          "hours": "Closed"
        }
      ]
    },
    "peopleAlsoSearch": [],
    "placesTags": [],
    "reviewsTags": [],
    "additionalInfo": {
      "Service options": [
        {
          "Delivery": true
        },
        {
          "In-store pickup": true
        },
        {
          "In-store shopping": true
        }
      ],
      "Accessibility": [
        {
          "Wheelchair accessible entrance": true
        },
        {
          "Wheelchair accessible parking lot": true
        }
      ],
      "Payments": [
        {
          "Credit cards": true
        },
        {
          "Debit cards": true
        },
        {
          "NFC mobile payments": true
        },
        {
          "Credit cards": true
        }
      ]
    },
    "gasPrices": [],
    "url": "https://www.google.com/maps/search/?api=1&query=Pencol%20Compounding%20Pharmacy&query_place_id=ChIJeTdiond-bIcREZyDqCQ607M",
    "searchPageUrl": "https://www.google.com/maps/search/independent%20pharmacy%20Denver%20CO/@69.9064287015676,-162.31690285675955,9z?hl=en",
    "searchString": "independent pharmacy Denver CO",
    "language": "en",
    "rank": 8,
    "isAdvertisement": false,
    "imageUrl": "https://lh3.googleusercontent.com/gps-cs-s/AC9h4nqTDqMKKOpvfvf7y8jAZquz6jX345LjfNAHOQFrKygUPh8F1ar8LBYcsIwfjRdI-pJrWxdDNgLcK6sSLAJhq6ikqTL8NKRDcIWfCF7UYDEffjO4ywqgyze4Ym8AITTFRvOZ6dZYEg=w408-h306-k-no",
    "kgmid": "/g/1vm_ycl0",
    "classification": "independent",
    "is_independent": true,
    "is_compounding": true,
    "confidence": 0.95,
    "source": "perplexity",
    "method": "llm"
  },
  {
    "title": "Union Square Pharmacy Inc",
    "price": null,
    "categoryName": "Pharmacy",
    "address": "8015 W Alameda Ave STE 100, Lakewood, CO 80226",
    "neighborhood": "West Alameda Heights",
    "street": "8015 W Alameda Ave STE 100",
    "city": "Lakewood",
    "postalCode": "80226",
    "state": "Colorado",
    "countryCode": "US",
    "website": "http://www.unionsquarepharmacy.com/",
    "phone": "(303) 274-7877",
    "phoneUnformatted": "+13032747877",
    "claimThisBusiness": true,
    "location": {
      "lat": 39.7115307,
      "lng": -105.0865913
    },
    "totalScore": 4.3,
    "permanentlyClosed": false,
    "temporarilyClosed": false,
    "placeId": null,
    "categories": [
      "Pharmacy"
    ],
    "fid": "0x876b81245d239e3d:0x9559a630cc153600",
    "cid": "10761815513091094016",
    "reviewsCount": 34,
    "imagesCount": 3,
    "imageCategories": [],
    "scrapedAt": "2025-06-22T04:17:00.248Z",
    "googleFoodUrl": null,
    "hotelAds": [],
    "openingHours": [
      {
        "day": "Monday",
        "hours": "9\u202fAM to 6\u202fPM"
      },
      {
        "day": "Tuesday",
        "hours": "9\u202fAM to 5\u202fPM"
      },
      {
        "day": "Wednesday",
        "hours": "9\u202fAM to 5\u202fPM"
      },
      {
        "day": "Thursday",
        "hours": "9\u202fAM to 5\u202fPM"
      },
      {
        "day": "Friday",
        "hours": "9\u202fAM to 6\u202fPM"
      },
      {
        "day": "Saturday",
        "hours": "9\u202fAM to 12\u202fPM"
      },
      {
        "day": "Sunday",
        "hours": "Closed"
      }
    ],
    "peopleAlsoSearch": [],
    "placesTags": [],
    "reviewsTags": [],
    "additionalInfo": {
      "Service options": [
        {
          "Delivery": true
        },
        {
          "Same-day delivery": true
        }
      ],
      "Accessibility": [
        {
          "Wheelchair accessible entrance": true
        },
        {
          "Wheelchair accessible parking lot": true
        }
      ],
      "Planning": [
        {
          "Quick visit": true
        }
      ],
      "Payments": [
        {
          "Credit cards": true
        },
        {
          "Debit cards": true
        },
        {
          "NFC mobile payments": true
        },
        {
          "Credit cards": true
        }
      ]
    },
    "gasPrices": [],
    "url": "https://www.google.com/maps/search/?api=1&query=Union%20Square%20Pharmacy%20Inc&query_place_id=ChIJPZ4jXSSBa4cRADYVzDCmWZU",
    "searchPageUrl": "https://www.google.com/maps/search/independent%20pharmacy%20Denver%20CO/@69.9064287015676,-162.31690285675955,9z?hl=en",
    "searchString": "independent pharmacy Denver CO",
    "language": "en",
    "rank": 9,
    "isAdvertisement": false,
    "imageUrl": "https://lh3.googleusercontent.com/gps-cs-s/AC9h4npmYUMXPCE0AA3mmCaCfPjfYQqvIenBiLYjUcsp0ENDly1HiwZ961fEP0PTLd8xzlMtMYTpYfL9brkKFZVNj7G6xt4YdxgggOYuxLYQ9ULL7c0CZqHTmqm8cTutAYBlVe7F_nTX=w408-h544-k-no",
    "kgmid": "/g/1tq6dzsc",
    "classification": "independent",
    "is_independent": true,
    "is_compounding": false,
    "confidence": 0.9,
    "source": "perplexity",
    "method": "llm"
  },
  {
    "title": "Ramirez Oswaldo",
    "price": null,
    "categoryName": "Pharmacy",
    "address": "2100 Broadway, Denver, CO 80205",
    "neighborhood": "North Denver",
    "street": "2100 Broadway",
    "city": "Denver",
    "postalCode": "80205",
    "state": "Colorado",
    "countryCode": "US",
    "phone": "(303) 293-3979",
    "phoneUnformatted": "+13032933979",
    "claimThisBusiness": true,
    "location": {
      "lat": 39.750849,
      "lng": -104.9871293
    },
    "totalScore": 4,
    "permanentlyClosed": false,
    "temporarilyClosed": false,
    "placeId": null,
    "categories": [
      "Pharmacy"
    ],
    "fid": "0x876c78d8f5e9cc17:0xd2bb04b7e007d504",
    "cid": "15184735756393895172",
    "reviewsCount": 1,
    "imagesCount": 1,
    "imageCategories": [],
    "scrapedAt": "2025-06-22T04:17:00.248Z",
    "googleFoodUrl": null,
    "hotelAds": [],
    "openingHours": [],
    "peopleAlsoSearch": [],
    "placesTags": [],
    "reviewsTags": [],
    "additionalInfo": {
      "Accessibility": [
        {
          "Wheelchair accessible entrance": true
        }
      ],
      "Payments": [
        {
          "Credit cards": true
        }
      ]
    },
    "gasPrices": [],
    "url": "https://www.google.com/maps/search/?api=1&query=Ramirez%20Oswaldo&query_place_id=ChIJF8zp9dh4bIcRBNUH4LcEu9I",
    "searchPageUrl": "https://www.google.com/maps/search/independent%20pharmacy%20Denver%20CO/@69.9064287015676,-162.31690285675955,9z?hl=en",
    "searchString": "independent pharmacy Denver CO",
    "language": "en",
    "rank": 10,
    "isAdvertisement": false,
    "imageUrl": "https://streetviewpixels-pa.googleapis.com/v1/thumbnail?panoid=9FM2VgrGyU6Z7U1u064kLA&cb_client=search.gws-prod.gps&w=408&h=240&yaw=92.41589&pitch=0&thumbfov=100",
    "kgmid": "/g/1tfpq5f2",
    "classification": "independent",
    "is_independent": true,
    "is_compounding": false,
    "confidence": 0.8,
    "source": "perplexity",
    "method": "llm"
  }
]