[
  {
    "title": "JB Pharmacy & Compounding",
    "price": null,
    "categoryName": "Pharmacy",
    "address": "1165 Main Ave, Warwick, RI 02886",
    "neighborhood": null,
    "street": "1165 Main Ave",
    "city": "Warwick",
    "postalCode": "02886",
    "state": "Rhode Island",
    "countryCode": "US",
    "website": "http://www.jbcompoundingpharmacy.com/",
    "phone": "(401) 861-1194",
    "phoneUnformatted": "+14018611194",
    "claimThisBusiness": false,
    "location": {
      "lat": 41.7169372,
      "lng": -71.4617366
    },
    "totalScore": 3.8,
    "permanentlyClosed": false,
    "temporarilyClosed": false,
    "placeId": null,
    "categories": [
      "Pharmacy",
      "Health consultant",
      "Medical supply store",
      "Wellness program"
    ],
    "fid": "0x89e445b2e330afe9:0xca3c07a564aa068e",
    "cid": "14572530901203945102",
    "reviewsCount": 11,
    "imagesCount": 1,
    "imageCategories": [],
    "scrapedAt": "2025-06-22T09:26:28.678Z",
    "googleFoodUrl": null,
    "hotelAds": [],
    "openingHours": [
      {
        "day": "Monday",
        "hours": "9\u202fAM to 5\u202fPM"
      },
      {
        "day": "Tuesday",
        "hours": "9\u202fAM to 5\u202fPM"
      },
      {
        "day": "Wednesday",
        "hours": "9\u202fAM to 5\u202fPM"
      },
      {
        "day": "Thursday",
        "hours": "9\u202fAM to 5\u202fPM"
      },
      {
        "day": "Friday",
        "hours": "9\u202fAM to 5\u202fPM"
      },
      {
        "day": "Saturday",
        "hours": "9\u202fAM to 12\u202fPM"
      },
      {
        "day": "Sunday",
        "hours": "Closed"
      }
    ],
    "peopleAlsoSearch": [],
    "placesTags": [],
    "reviewsTags": [],
    "additionalInfo": {
      "From the business": [
        {
          "Small business": true
        }
      ],
      "Service options": [
        {
          "Delivery": true
        },
        {
          "In-store pickup": true
        }
      ],
      "Accessibility": [
        {
          "Wheelchair accessible entrance": true
        },
        {
          "Wheelchair accessible parking lot": true
        }
      ],
      "Planning": [
        {
          "Quick visit": true
        }
      ],
      "Payments": [
        {
          "Credit cards": true
        },
        {
          "Debit cards": true
        },
        {
          "NFC mobile payments": true
        },
        {
          "Credit cards": true
        }
      ]
    },
    "gasPrices": [],
    "url": "https://www.google.com/maps/search/?api=1&query=JB%20Pharmacy%20%26%20Compounding&query_place_id=ChIJ6a8w47JF5IkRjgaqZKUHPMo",
    "searchPageUrl": "https://www.google.com/maps/search/independent%20pharmacy%20Warwick%20RI/@26.118428929179228,-174.05374354726786,13z?hl=en",
    "searchString": "independent pharmacy Warwick RI",
    "language": "en",
    "rank": 1,
    "isAdvertisement": false,
    "imageUrl": "https://streetviewpixels-pa.googleapis.com/v1/thumbnail?panoid=-40ASkbZDkx08RLsC7RnlA&cb_client=search.gws-prod.gps&w=408&h=240&yaw=63.52382&pitch=0&thumbfov=100",
    "kgmid": "/g/1tg_h1xs",
    "classification": "independent",
    "is_independent": true,
    "is_compounding": true,
    "confidence": 0.95,
    "source": "perplexity",
    "method": "llm",
    "query_location": "warwick_ri"
  },
  {
    "title": "Genoa Healthcare",
    "price": null,
    "categoryName": "Pharmacy",
    "address": "75 Lambert Lind Hwy #125, Warwick, RI 02886",
    "neighborhood": null,
    "street": "75 Lambert Lind Hwy #125",
    "city": "Warwick",
    "postalCode": "02886",
    "state": "Rhode Island",
    "countryCode": "US",
    "website": "http://www.genoahealthcare.com/",
    "phone": "(401) 287-4990",
    "phoneUnformatted": "+14012874990",
    "claimThisBusiness": false,
    "location": {
      "lat": 41.729356,
      "lng": -71.4775796
    },
    "totalScore": 4.7,
    "permanentlyClosed": false,
    "temporarilyClosed": false,
    "placeId": "ChIJ0TJSqvhL5IkR4l2z7nyTHxM",
    "categories": [
      "Pharmacy"
    ],
    "fid": "0x89e44bf8aa5232d1:0x131f937ceeb35de2",
    "cid": "1377982175788621282",
    "reviewsCount": 42,
    "imagesCount": 1,
    "imageCategories": [],
    "scrapedAt": "2025-06-22T09:26:28.681Z",
    "googleFoodUrl": null,
    "hotelAds": [],
    "openingHours": [
      {
        "day": "Monday",
        "hours": "8:30\u202fAM to 7\u202fPM"
      },
      {
        "day": "Tuesday",
        "hours": "8:30\u202fAM to 7\u202fPM"
      },
      {
        "day": "Wednesday",
        "hours": "8:30\u202fAM to 7\u202fPM"
      },
      {
        "day": "Thursday",
        "hours": "8:30\u202fAM to 7\u202fPM"
      },
      {
        "day": "Friday",
        "hours": "8:30\u202fAM to 4:30\u202fPM"
      },
      {
        "day": "Saturday",
        "hours": "Closed"
      },
      {
        "day": "Sunday",
        "hours": "Closed"
      }
    ],
    "peopleAlsoSearch": [],
    "placesTags": [],
    "reviewsTags": [],
    "additionalInfo": {
      "Accessibility": [
        {
          "Wheelchair accessible entrance": true
        },
        {
          "Wheelchair accessible parking lot": true
        }
      ],
      "Payments": [
        {
          "Credit cards": true
        }
      ]
    },
    "gasPrices": [],
    "url": "https://www.google.com/maps/search/?api=1&query=Genoa%20Healthcare&query_place_id=ChIJ0TJSqvhL5IkR4l2z7nyTHxM",
    "searchPageUrl": "https://www.google.com/maps/search/independent%20pharmacy%20Warwick%20RI/@26.118428929179228,-174.05374354726786,13z?hl=en",
    "searchString": "independent pharmacy Warwick RI",
    "language": "en",
    "rank": 2,
    "isAdvertisement": false,
    "imageUrl": "https://streetviewpixels-pa.googleapis.com/v1/thumbnail?panoid=DjF8jUtRPjgZ1SirzIk7cw&cb_client=search.gws-prod.gps&w=408&h=240&yaw=280.7662&pitch=0&thumbfov=100",
    "kgmid": "/g/11bbrrbt3h",
    "classification": "chain",
    "is_independent": false,
    "confidence": 1.0,
    "source": "rule-based"
  },
  {
    "title": "Bayview Pharmacy",
    "price": null,
    "categoryName": "Pharmacy",
    "address": "3844 Post Rd, Warwick, RI 02886",
    "neighborhood": null,
    "street": "3844 Post Rd",
    "city": "Warwick",
    "postalCode": "02886",
    "state": "Rhode Island",
    "countryCode": "US",
    "website": "http://www.bayviewrx.com/",
    "phone": "(401) 284-4505",
    "phoneUnformatted": "+14012844505",
    "claimThisBusiness": false,
    "location": {
      "lat": 41.6857378,
      "lng": -71.4532661
    },
    "totalScore": 4.5,
    "permanentlyClosed": false,
    "temporarilyClosed": false,
    "placeId": null,
    "categories": [
      "Pharmacy"
    ],
    "fid": "0x89e5ba0b8923b0a9:0xe0e98deef8b2cfc0",
    "cid": "16206640791583641536",
    "reviewsCount": 176,
    "imagesCount": 46,
    "imageCategories": [],
    "scrapedAt": "2025-06-22T09:26:28.681Z",
    "googleFoodUrl": null,
    "hotelAds": [],
    "openingHours": [
      {
        "day": "Monday",
        "hours": "9\u202fAM to 6\u202fPM"
      },
      {
        "day": "Tuesday",
        "hours": "9\u202fAM to 6\u202fPM"
      },
      {
        "day": "Wednesday",
        "hours": "9\u202fAM to 6\u202fPM"
      },
      {
        "day": "Thursday",
        "hours": "9\u202fAM to 6\u202fPM"
      },
      {
        "day": "Friday",
        "hours": "9\u202fAM to 6\u202fPM"
      },
      {
        "day": "Saturday",
        "hours": "9\u202fAM to 2\u202fPM"
      },
      {
        "day": "Sunday",
        "hours": "Closed"
      }
    ],
    "additionalOpeningHours": {
      "Pickup": [
        {
          "day": "Monday",
          "hours": "9\u202fAM\u20136\u202fPM"
        },
        {
          "day": "Tuesday",
          "hours": "9\u202fAM\u20136\u202fPM"
        },
        {
          "day": "Wednesday",
          "hours": "9\u202fAM\u20136\u202fPM"
        },
        {
          "day": "Thursday",
          "hours": "9\u202fAM\u20136\u202fPM"
        },
        {
          "day": "Friday",
          "hours": "9\u202fAM\u20136\u202fPM"
        },
        {
          "day": "Saturday",
          "hours": "9\u202fAM\u20132\u202fPM"
        },
        {
          "day": "Sunday",
          "hours": "Closed"
        }
      ]
    },
    "peopleAlsoSearch": [],
    "placesTags": [],
    "reviewsTags": [],
    "additionalInfo": {
      "From the business": [
        {
          "Identifies as veteran-owned": true
        },
        {
          "Small business": true
        }
      ],
      "Service options": [
        {
          "In-store pickup": true
        }
      ],
      "Accessibility": [
        {
          "Wheelchair accessible entrance": true
        },
        {
          "Wheelchair accessible parking lot": true
        }
      ],
      "Crowd": [
        {
          "LGBTQ+ friendly": true
        },
        {
          "Transgender safespace": true
        }
      ],
      "Payments": [
        {
          "Checks": true
        },
        {
          "Credit cards": true
        },
        {
          "Debit cards": true
        },
        {
          "Credit cards": true
        }
      ]
    },
    "gasPrices": [],
    "url": "https://www.google.com/maps/search/?api=1&query=Bayview%20Pharmacy&query_place_id=ChIJqbAjiQu65YkRwM-y-O6N6eA",
    "searchPageUrl": "https://www.google.com/maps/search/independent%20pharmacy%20Warwick%20RI/@26.118428929179228,-174.05374354726786,13z?hl=en",
    "searchString": "independent pharmacy Warwick RI",
    "language": "en",
    "rank": 3,
    "isAdvertisement": false,
    "imageUrl": "https://lh3.googleusercontent.com/gps-cs-s/AC9h4nqjgGvlEkXzqQnVYqDiQiBASuG19J6_SDK2LKmIpQRmlnEVTxqpx02xbkikh0JEVqo8UCkrmCvvDldoI0PVCpUDiFeNRoV_kMV7WGFShAU0VK3y1UawAV5DFmZ9NwI3NGPLzQpLvw=w408-h724-k-no",
    "kgmid": "/g/1vj606wt",
    "classification": "independent",
    "is_independent": true,
    "is_compounding": false,
    "confidence": 0.9,
    "source": "perplexity",
    "method": "llm",
    "query_location": "warwick_ri"
  },
  {
    "title": "PharMerica - Warwick, RI",
    "price": null,
    "categoryName": "Pharmacy",
    "address": "83 Vermont Ave #2, Warwick, RI 02888",
    "neighborhood": null,
    "street": "83 Vermont Ave #2",
    "city": "Warwick",
    "postalCode": "02888",
    "state": "Rhode Island",
    "countryCode": "US",
    "website": "https://pharmerica.com/location/pharmerica-warwick-ri/",
    "phone": "(800) 446-1190",
    "phoneUnformatted": "+18004461190",
    "claimThisBusiness": false,
    "location": {
      "lat": 41.7403422,
      "lng": -71.4416217
    },
    "totalScore": 3,
    "permanentlyClosed": false,
    "temporarilyClosed": false,
    "placeId": null,
    "categories": [
      "Pharmacy"
    ],
    "fid": "0x89e44e8fd4df9d2d:0x5e52501b9ac0acf6",
    "cid": "6796582867146157302",
    "reviewsCount": 4,
    "imagesCount": 5,
    "imageCategories": [],
    "scrapedAt": "2025-06-22T09:26:28.681Z",
    "googleFoodUrl": null,
    "hotelAds": [],
    "openingHours": [
      {
        "day": "Monday",
        "hours": "Open 24 hours"
      },
      {
        "day": "Tuesday",
        "hours": "Open 24 hours"
      },
      {
        "day": "Wednesday",
        "hours": "Open 24 hours"
      },
      {
        "day": "Thursday",
        "hours": "Open 24 hours"
      },
      {
        "day": "Friday",
        "hours": "Open 24 hours"
      },
      {
        "day": "Saturday",
        "hours": "Open 24 hours"
      },
      {
        "day": "Sunday",
        "hours": "Open 24 hours"
      }
    ],
    "peopleAlsoSearch": [],
    "placesTags": [],
    "reviewsTags": [],
    "additionalInfo": {
      "Accessibility": [
        {
          "Wheelchair accessible entrance": true
        },
        {
          "Wheelchair accessible parking lot": true
        }
      ]
    },
    "gasPrices": [],
    "url": "https://www.google.com/maps/search/?api=1&query=PharMerica%20-%20Warwick%2C%20RI&query_place_id=ChIJLZ3f1I9O5IkR9qzAmhtQUl4",
    "searchPageUrl": "https://www.google.com/maps/search/independent%20pharmacy%20Warwick%20RI/@26.118428929179228,-174.05374354726786,13z?hl=en",
    "searchString": "independent pharmacy Warwick RI",
    "language": "en",
    "rank": 4,
    "isAdvertisement": false,
    "imageUrl": "https://lh3.googleusercontent.com/p/AF1QipOzf0OjPzLS3qYcdO1jzAeuwvQXSXZX904UMzhg=w408-h408-k-no",
    "kgmid": "/g/11g71fklfm",
    "classification": "chain",
    "is_independent": false,
    "is_compounding": false,
    "confidence": 0.85,
    "source": "perplexity",
    "method": "llm",
    "query_location": "warwick_ri"
  },
  {
    "title": "Suburban Pharmacy",
    "price": null,
    "categoryName": "Pharmacy",
    "address": "242 Pawtuxet Ave, Warwick, RI 02888",
    "neighborhood": "Norwood",
    "street": "242 Pawtuxet Ave",
    "city": "Warwick",
    "postalCode": "02888",
    "state": "Rhode Island",
    "countryCode": "US",
    "website": "http://www.suburbanpharmacy.net/",
    "phone": "(401) 781-2110",
    "phoneUnformatted": "+14017812110",
    "claimThisBusiness": false,
    "location": {
      "lat": 41.754907,
      "lng": -71.42719
    },
    "totalScore": 4.8,
    "permanentlyClosed": false,
    "temporarilyClosed": false,
    "placeId": null,
    "categories": [
      "Pharmacy"
    ],
    "fid": "0x89e44e57808d0769:0x251566638d6a91dc",
    "cid": "2672154531674624476",
    "reviewsCount": 52,
    "imagesCount": 5,
    "imageCategories": [],
    "scrapedAt": "2025-06-22T09:26:28.681Z",
    "googleFoodUrl": null,
    "hotelAds": [],
    "openingHours": [
      {
        "day": "Monday",
        "hours": "9\u202fAM to 7\u202fPM"
      },
      {
        "day": "Tuesday",
        "hours": "9\u202fAM to 7\u202fPM"
      },
      {
        "day": "Wednesday",
        "hours": "9\u202fAM to 7\u202fPM"
      },
      {
        "day": "Thursday",
        "hours": "9\u202fAM to 7\u202fPM"
      },
      {
        "day": "Friday",
        "hours": "9\u202fAM to 7\u202fPM"
      },
      {
        "day": "Saturday",
        "hours": "9\u202fAM to 3\u202fPM"
      },
      {
        "day": "Sunday",
        "hours": "Closed"
      }
    ],
    "peopleAlsoSearch": [],
    "placesTags": [],
    "reviewsTags": [],
    "additionalInfo": {
      "From the business": [
        {
          "Small business": true
        }
      ],
      "Service options": [
        {
          "Delivery": true
        },
        {
          "In-store pickup": true
        },
        {
          "Same-day delivery": true
        }
      ],
      "Accessibility": [
        {
          "Wheelchair accessible entrance": true
        },
        {
          "Wheelchair accessible parking lot": true
        }
      ],
      "Planning": [
        {
          "Quick visit": true
        }
      ],
      "Payments": [
        {
          "Credit cards": true
        },
        {
          "Debit cards": true
        },
        {
          "NFC mobile payments": true
        },
        {
          "Credit cards": true
        }
      ]
    },
    "gasPrices": [],
    "url": "https://www.google.com/maps/search/?api=1&query=Suburban%20Pharmacy&query_place_id=ChIJaQeNgFdO5IkR3JFqjWNmFSU",
    "searchPageUrl": "https://www.google.com/maps/search/independent%20pharmacy%20Warwick%20RI/@26.118428929179228,-174.05374354726786,13z?hl=en",
    "searchString": "independent pharmacy Warwick RI",
    "language": "en",
    "rank": 5,
    "isAdvertisement": false,
    "imageUrl": "https://lh3.googleusercontent.com/p/AF1QipMv9r4FV6On-5yymlcs-ptO4X6yod2hv0EjHo-h=w408-h270-k-no",
    "kgmid": "/g/1ptytw03j",
    "classification": "independent",
    "is_independent": true,
    "is_compounding": false,
    "confidence": 0.9,
    "source": "perplexity",
    "method": "llm",
    "query_location": "warwick_ri"
  },
  {
    "title": "Care New England Pharmacy",
    "price": null,
    "categoryName": "Pharmacy",
    "address": "455 Toll Gate Rd, Warwick, RI 02886",
    "neighborhood": null,
    "street": "455 Toll Gate Rd",
    "city": "Warwick",
    "postalCode": "02886",
    "state": "Rhode Island",
    "countryCode": "US",
    "website": "https://www.carenewengland.org/pharmacy",
    "phone": "(855) 981-1908",
    "phoneUnformatted": "+18559811908",
    "claimThisBusiness": true,
    "location": {
      "lat": 41.705185,
      "lng": -71.4780784
    },
    "totalScore": 5,
    "permanentlyClosed": false,
    "temporarilyClosed": false,
    "placeId": null,
    "categories": [
      "Pharmacy"
    ],
    "fid": "0x89e44bb1e856f057:0xfd5b40b9c38513c1",
    "cid": "18256256681069843393",
    "reviewsCount": 6,
    "imagesCount": 5,
    "imageCategories": [],
    "scrapedAt": "2025-06-22T09:26:28.681Z",
    "googleFoodUrl": null,
    "hotelAds": [],
    "openingHours": [
      {
        "day": "Monday",
        "hours": "8\u202fAM to 8\u202fPM"
      },
      {
        "day": "Tuesday",
        "hours": "8\u202fAM to 8\u202fPM"
      },
      {
        "day": "Wednesday",
        "hours": "8\u202fAM to 8\u202fPM"
      },
      {
        "day": "Thursday",
        "hours": "8\u202fAM to 8\u202fPM"
      },
      {
        "day": "Friday",
        "hours": "8\u202fAM to 8\u202fPM"
      },
      {
        "day": "Saturday",
        "hours": "8\u202fAM to 6\u202fPM"
      },
      {
        "day": "Sunday",
        "hours": "8\u202fAM to 6\u202fPM"
      }
    ],
    "peopleAlsoSearch": [],
    "placesTags": [],
    "reviewsTags": [],
    "additionalInfo": {
      "Service options": [
        {
          "Delivery": true
        }
      ],
      "Accessibility": [
        {
          "Wheelchair accessible entrance": true
        },
        {
          "Wheelchair accessible parking lot": true
        }
      ],
      "Payments": [
        {
          "Debit cards": true
        },
        {
          "NFC mobile payments": true
        },
        {
          "Credit cards": true
        }
      ]
    },
    "gasPrices": [],
    "url": "https://www.google.com/maps/search/?api=1&query=Care%20New%20England%20Pharmacy&query_place_id=ChIJV_BW6LFL5IkRwROFw7lAW_0",
    "searchPageUrl": "https://www.google.com/maps/search/independent%20pharmacy%20Warwick%20RI/@26.118428929179228,-174.05374354726786,13z?hl=en",
    "searchString": "independent pharmacy Warwick RI",
    "language": "en",
    "rank": 6,
    "isAdvertisement": false,
    "imageUrl": "https://lh3.googleusercontent.com/gps-cs-s/AC9h4nr_Z2lJc9O4FXpFtlRXd24ljApVsSLMTqngGLm0qZ7iKLMCKDdDSb3HgHxQLLl2EPa5XmlpDetDV_gY1Z_8npshl7oyy02UdRFWnMk2GmYcLIqRhL95d9GddDtJuPSULGK-kUQQLw=w408-h306-k-no",
    "kgmid": "/g/11l6ry_clx",
    "classification": "hospital",
    "is_independent": false,
    "is_compounding": false,
    "confidence": 0.95,
    "source": "perplexity",
    "method": "llm",
    "query_location": "warwick_ri"
  },
  {
    "title": "Stop & Shop Pharmacy",
    "price": "$$",
    "categoryName": "Pharmacy",
    "address": "300 Quaker Ln, Warwick, RI 02886",
    "neighborhood": null,
    "street": "300 Quaker Ln",
    "city": "Warwick",
    "postalCode": "02886",
    "state": "Rhode Island",
    "countryCode": "US",
    "website": "https://pharmacy.stopandshop.com/ri/warwick/300-quaker-lane?y_source=1_MTEyMTM3NjktNzE1LWxvY2F0aW9uLndlYnNpdGU%3D",
    "phone": "(401) 828-0533",
    "phoneUnformatted": "+14018280533",
    "claimThisBusiness": false,
    "location": {
      "lat": 41.6875971,
      "lng": -71.499109
    },
    "totalScore": 3.6,
    "permanentlyClosed": false,
    "temporarilyClosed": false,
    "placeId": "ChIJI6iFgG1L5IkRAVDNHX_03yQ",
    "categories": [
      "Pharmacy"
    ],
    "fid": "0x89e44b6d8085a823:0x24dff47f1dcd5001",
    "cid": "2657111131969900545",
    "reviewsCount": 14,
    "imagesCount": 4,
    "imageCategories": [],
    "scrapedAt": "2025-06-22T09:26:28.682Z",
    "googleFoodUrl": null,
    "hotelAds": [],
    "openingHours": [
      {
        "day": "Monday",
        "hours": "9\u202fAM to 1:30\u202fPM, 2 to 8\u202fPM"
      },
      {
        "day": "Tuesday",
        "hours": "9\u202fAM to 1:30\u202fPM, 2 to 8\u202fPM"
      },
      {
        "day": "Wednesday",
        "hours": "9\u202fAM to 1:30\u202fPM, 2 to 8\u202fPM"
      },
      {
        "day": "Thursday",
        "hours": "9\u202fAM to 1:30\u202fPM, 2 to 8\u202fPM"
      },
      {
        "day": "Friday",
        "hours": "9\u202fAM to 1:30\u202fPM, 2 to 8\u202fPM"
      },
      {
        "day": "Saturday",
        "hours": "9\u202fAM to 1:30\u202fPM, 2 to 5\u202fPM"
      },
      {
        "day": "Sunday",
        "hours": "9\u202fAM to 1:30\u202fPM, 2 to 5\u202fPM"
      }
    ],
    "peopleAlsoSearch": [],
    "placesTags": [],
    "reviewsTags": [],
    "additionalInfo": {
      "Service options": [
        {
          "Delivery": true
        },
        {
          "In-store pickup": true
        },
        {
          "Onsite services": true
        }
      ],
      "Accessibility": [
        {
          "Wheelchair accessible entrance": true
        },
        {
          "Wheelchair accessible parking lot": true
        }
      ],
      "Planning": [
        {
          "Quick visit": true
        }
      ],
      "Payments": [
        {
          "Credit cards": true
        },
        {
          "NFC mobile payments": true
        }
      ]
    },
    "gasPrices": [],
    "url": "https://www.google.com/maps/search/?api=1&query=Stop%20%26%20Shop%20Pharmacy&query_place_id=ChIJI6iFgG1L5IkRAVDNHX_03yQ",
    "searchPageUrl": "https://www.google.com/maps/search/independent%20pharmacy%20Warwick%20RI/@26.118428929179228,-174.05374354726786,13z?hl=en",
    "searchString": "independent pharmacy Warwick RI",
    "language": "en",
    "rank": 7,
    "isAdvertisement": false,
    "imageUrl": "https://lh3.googleusercontent.com/p/AF1QipML_R1K11gQdT-JfRcRx5b49kdiF_FAzz_knLCZ=w408-h272-k-no",
    "kgmid": "/g/1th5dl92",
    "classification": "chain",
    "is_independent": false,
    "confidence": 1.0,
    "source": "rule-based"
  },
  {
    "title": "CVS Pharmacy",
    "price": null,
    "categoryName": "Pharmacy",
    "address": "MEADOWBROOK PLAZA, 2400 Warwick Ave, Warwick, RI 02889, United States",
    "neighborhood": null,
    "street": "MEADOWBROOK PLAZA, 2400 Warwick Ave",
    "city": "Warwick",
    "postalCode": "02889",
    "state": "Rhode Island",
    "countryCode": "US",
    "website": "https://www.cvs.com/store-locator/warwick-ri-pharmacies/2400-warwick-ave-meadowbrook-plaza-warwick-ri-02889/storeid=733?WT.mc_id=LS_GOOGLE_RX_733",
    "phone": "+1 401-737-2305",
    "phoneUnformatted": "+14017372305",
    "claimThisBusiness": false,
    "location": {
      "lat": 41.7121262,
      "lng": -71.3981683
    },
    "totalScore": 3.8,
    "permanentlyClosed": false,
    "temporarilyClosed": false,
    "placeId": "ChIJ-cYjkOVN5IkRhHxreDnQ-Ls",
    "categories": [
      "Pharmacy"
    ],
    "fid": "0x89e44de59023c6f9:0xbbf8d039786b7c84",
    "cid": "13544804824568790148",
    "reviewsCount": 18,
    "imagesCount": 8,
    "imageCategories": [],
    "scrapedAt": "2025-06-22T09:26:50.822Z",
    "googleFoodUrl": null,
    "hotelAds": [],
    "openingHours": [
      {
        "day": "Monday",
        "hours": "12\u202fAM to 1:30\u202fPM, 2\u202fPM to 12\u202fAM"
      },
      {
        "day": "Tuesday",
        "hours": "12\u202fAM to 1:30\u202fPM, 2\u202fPM to 12\u202fAM"
      },
      {
        "day": "Wednesday",
        "hours": "12\u202fAM to 1:30\u202fPM, 2\u202fPM to 12\u202fAM"
      },
      {
        "day": "Thursday",
        "hours": "12\u202fAM to 1:30\u202fPM, 2\u202fPM to 12\u202fAM"
      },
      {
        "day": "Friday",
        "hours": "12\u202fAM to 1:30\u202fPM, 2\u202fPM to 12\u202fAM"
      },
      {
        "day": "Saturday",
        "hours": "12\u202fAM to 1:30\u202fPM, 2\u202fPM to 12\u202fAM"
      },
      {
        "day": "Sunday",
        "hours": "12\u202fAM to 1:30\u202fPM, 2\u202fPM to 12\u202fAM"
      }
    ],
    "peopleAlsoSearch": [],
    "placesTags": [],
    "reviewsTags": [],
    "additionalInfo": {
      "Service options": [
        {
          "Delivery": true
        },
        {
          "Drive-through": true
        },
        {
          "In-store pick-up": true
        },
        {
          "In-store shopping": true
        }
      ],
      "Accessibility": [
        {
          "Wheelchair-accessible car park": true
        },
        {
          "Wheelchair-accessible entrance": true
        }
      ],
      "Offerings": [
        {
          "Medication disposal": true
        },
        {
          "Naloxone": true
        },
        {
          "Passport photos": true
        }
      ],
      "Crowd": [
        {
          "LGBTQ+ friendly": true
        },
        {
          "Transgender safe space": true
        }
      ],
      "Planning": [
        {
          "Quick visit": true
        }
      ],
      "Payments": [
        {
          "Credit cards": true
        },
        {
          "Debit cards": true
        },
        {
          "NFC mobile payments": true
        },
        {
          "SNAP/EBT": true
        },
        {
          "Credit cards": true
        }
      ]
    },
    "gasPrices": [],
    "url": "https://www.google.com/maps/search/?api=1&query=CVS%20Pharmacy&query_place_id=ChIJ-cYjkOVN5IkRhHxreDnQ-Ls",
    "searchPageUrl": "https://www.google.com/maps/search/independent%20pharmacy%20Warwick%20RI/@64.34834014395538,-142.75332010026844,9z?hl=en",
    "searchString": "independent pharmacy Warwick RI",
    "language": "en",
    "rank": 6,
    "isAdvertisement": false,
    "imageUrl": "https://lh3.googleusercontent.com/p/AF1QipNMiawU3eedGUAJ_kL7xofvqzYND1xO7IfCots=w408-h272-k-no",
    "kgmid": "/g/11c469d8rf",
    "classification": "chain",
    "is_independent": false,
    "confidence": 1.0,
    "source": "rule-based"
  },
  {
    "title": "Horizon Pharmacy",
    "price": null,
    "categoryName": "Pharmacy",
    "address": "2756 Post Rd #103, Warwick, RI 02886, United States",
    "neighborhood": null,
    "street": "2756 Post Rd #103",
    "city": "Warwick",
    "postalCode": "02886",
    "state": "Rhode Island",
    "countryCode": "US",
    "website": "http://www.horizonpharmacyri.com/",
    "phone": "+1 401-681-4220",
    "phoneUnformatted": "+14016814220",
    "claimThisBusiness": true,
    "location": {
      "lat": 41.709114,
      "lng": -71.4498289
    },
    "totalScore": 4,
    "permanentlyClosed": false,
    "temporarilyClosed": false,
    "placeId": null,
    "categories": [
      "Pharmacy"
    ],
    "fid": "0x89e44c40edaf4a55:0xd9dc7a8504454324",
    "cid": "15698557112827593508",
    "reviewsCount": 2,
    "imagesCount": 1,
    "imageCategories": [],
    "scrapedAt": "2025-06-22T09:26:50.822Z",
    "googleFoodUrl": null,
    "hotelAds": [],
    "openingHours": [
      {
        "day": "Monday",
        "hours": "8\u202fAM to 8\u202fPM"
      },
      {
        "day": "Tuesday",
        "hours": "8\u202fAM to 8\u202fPM"
      },
      {
        "day": "Wednesday",
        "hours": "8\u202fAM to 8\u202fPM"
      },
      {
        "day": "Thursday",
        "hours": "8\u202fAM to 8\u202fPM"
      },
      {
        "day": "Friday",
        "hours": "8\u202fAM to 5\u202fPM"
      },
      {
        "day": "Saturday",
        "hours": "9\u202fAM to 1\u202fPM"
      },
      {
        "day": "Sunday",
        "hours": "Closed"
      }
    ],
    "peopleAlsoSearch": [],
    "placesTags": [],
    "reviewsTags": [],
    "additionalInfo": {
      "Service options": [
        {
          "Delivery": true
        }
      ],
      "Accessibility": [
        {
          "Wheelchair-accessible car park": true
        },
        {
          "Wheelchair-accessible entrance": true
        }
      ],
      "Payments": [
        {
          "Credit cards": true
        },
        {
          "Debit cards": true
        },
        {
          "Credit cards": true
        }
      ]
    },
    "gasPrices": [],
    "url": "https://www.google.com/maps/search/?api=1&query=Horizon%20Pharmacy&query_place_id=ChIJVUqv7UBM5IkRJENFBIV63Nk",
    "searchPageUrl": "https://www.google.com/maps/search/independent%20pharmacy%20Warwick%20RI/@64.34834014395538,-142.75332010026844,9z?hl=en",
    "searchString": "independent pharmacy Warwick RI",
    "language": "en",
    "rank": 7,
    "isAdvertisement": false,
    "imageUrl": "https://streetviewpixels-pa.googleapis.com/v1/thumbnail?panoid=_Ch8VNOC9PYAkCayq1OeXg&cb_client=search.gws-prod.gps&w=408&h=240&yaw=110.60419&pitch=0&thumbfov=100",
    "kgmid": "/g/11b6_k91ch",
    "classification": "independent",
    "is_independent": true,
    "is_compounding": false,
    "confidence": 0.9,
    "source": "perplexity",
    "method": "llm",
    "query_location": "warwick_ri"
  },
  {
    "title": "Leader Drug Store",
    "price": null,
    "categoryName": "Pharmacy",
    "address": "242 Pawtuxet Ave, Warwick, RI 02888, United States",
    "neighborhood": "Norwood",
    "street": "242 Pawtuxet Ave",
    "city": "Warwick",
    "postalCode": "02888",
    "state": "Rhode Island",
    "countryCode": "US",
    "phone": "+1 401-781-2110",
    "phoneUnformatted": "+14017812110",
    "claimThisBusiness": true,
    "location": {
      "lat": 41.754907,
      "lng": -71.42719
    },
    "totalScore": 5,
    "permanentlyClosed": false,
    "temporarilyClosed": false,
    "placeId": null,
    "categories": [
      "Pharmacy"
    ],
    "fid": "0x89e44e582a6bf2af:0xe086719d8ddbf9ab",
    "cid": "16178743632878893483",
    "reviewsCount": 1,
    "imagesCount": 1,
    "imageCategories": [],
    "scrapedAt": "2025-06-22T09:26:50.822Z",
    "googleFoodUrl": null,
    "hotelAds": [],
    "openingHours": [
      {
        "day": "Monday",
        "hours": "9\u202fAM to 8\u202fPM"
      },
      {
        "day": "Tuesday",
        "hours": "9\u202fAM to 8\u202fPM"
      },
      {
        "day": "Wednesday",
        "hours": "9\u202fAM to 8\u202fPM"
      },
      {
        "day": "Thursday",
        "hours": "9\u202fAM to 8\u202fPM"
      },
      {
        "day": "Friday",
        "hours": "9\u202fAM to 8\u202fPM"
      },
      {
        "day": "Saturday",
        "hours": "9\u202fAM to 3\u202fPM"
      },
      {
        "day": "Sunday",
        "hours": "Closed"
      }
    ],
    "peopleAlsoSearch": [],
    "placesTags": [],
    "reviewsTags": [],
    "additionalInfo": {
      "Accessibility": [
        {
          "Wheelchair-accessible car park": true
        },
        {
          "Wheelchair-accessible entrance": true
        }
      ],
      "Planning": [
        {
          "Quick visit": true
        }
      ],
      "Payments": [
        {
          "Credit cards": true
        }
      ]
    },
    "gasPrices": [],
    "url": "https://www.google.com/maps/search/?api=1&query=Leader%20Drug%20Store&query_place_id=ChIJr_JrKlhO5IkRq_nbjZ1xhuA",
    "searchPageUrl": "https://www.google.com/maps/search/independent%20pharmacy%20Warwick%20RI/@64.34834014395538,-142.75332010026844,9z?hl=en",
    "searchString": "independent pharmacy Warwick RI",
    "language": "en",
    "rank": 8,
    "isAdvertisement": false,
    "imageUrl": "https://streetviewpixels-pa.googleapis.com/v1/thumbnail?panoid=U7STHdDmOuB-7temS4-6RQ&cb_client=search.gws-prod.gps&w=408&h=240&yaw=167.1992&pitch=0&thumbfov=100",
    "kgmid": "/g/1261m4vj2",
    "classification": "independent",
    "is_independent": true,
    "is_compounding": false,
    "confidence": 0.85,
    "source": "perplexity",
    "method": "llm",
    "query_location": "warwick_ri"
  },
  {
    "title": "Stop & Shop Pharmacy",
    "price": "$$",
    "categoryName": "Pharmacy",
    "address": "2470 Warwick Ave, Warwick, RI 02889",
    "neighborhood": null,
    "street": "2470 Warwick Ave",
    "city": "Warwick",
    "postalCode": "02889",
    "state": "Rhode Island",
    "countryCode": "US",
    "website": "https://pharmacy.stopandshop.com/ri/warwick/2470-warwick-ave?y_source=1_MTEyMTM3NTUtNzE1LWxvY2F0aW9uLndlYnNpdGU%3D",
    "phone": "(401) 732-4060",
    "phoneUnformatted": "+14017324060",
    "claimThisBusiness": false,
    "location": {
      "lat": 41.709621,
      "lng": -71.397158
    },
    "totalScore": 3.5,
    "permanentlyClosed": false,
    "temporarilyClosed": false,
    "placeId": "ChIJ3eI1n-9N5IkRwpZ1kKfMnEI",
    "categories": [
      "Pharmacy"
    ],
    "fid": "0x89e44def9f35e2dd:0x429ccca7907596c2",
    "cid": "4799936322925336258",
    "reviewsCount": 8,
    "imagesCount": 4,
    "imageCategories": [],
    "scrapedAt": "2025-06-22T09:28:11.668Z",
    "googleFoodUrl": null,
    "hotelAds": [],
    "openingHours": [
      {
        "day": "Monday",
        "hours": "9\u202fAM to 1:30\u202fPM, 2 to 8\u202fPM"
      },
      {
        "day": "Tuesday",
        "hours": "9\u202fAM to 1:30\u202fPM, 2 to 8\u202fPM"
      },
      {
        "day": "Wednesday",
        "hours": "9\u202fAM to 1:30\u202fPM, 2 to 8\u202fPM"
      },
      {
        "day": "Thursday",
        "hours": "9\u202fAM to 1:30\u202fPM, 2 to 8\u202fPM"
      },
      {
        "day": "Friday",
        "hours": "9\u202fAM to 1:30\u202fPM, 2 to 8\u202fPM"
      },
      {
        "day": "Saturday",
        "hours": "9\u202fAM to 1:30\u202fPM, 2 to 5\u202fPM"
      },
      {
        "day": "Sunday",
        "hours": "9\u202fAM to 1:30\u202fPM, 2 to 5\u202fPM"
      }
    ],
    "peopleAlsoSearch": [],
    "placesTags": [],
    "reviewsTags": [],
    "additionalInfo": {
      "Service options": [
        {
          "Delivery": true
        },
        {
          "In-store pickup": true
        },
        {
          "Onsite services": true
        }
      ],
      "Accessibility": [
        {
          "Wheelchair accessible entrance": true
        },
        {
          "Wheelchair accessible parking lot": true
        }
      ],
      "Planning": [
        {
          "Quick visit": true
        }
      ],
      "Payments": [
        {
          "Credit cards": true
        }
      ]
    },
    "gasPrices": [],
    "url": "https://www.google.com/maps/search/?api=1&query=Stop%20%26%20Shop%20Pharmacy&query_place_id=ChIJ3eI1n-9N5IkRwpZ1kKfMnEI",
    "searchPageUrl": "https://www.google.com/maps/search/independent%20pharmacy%20Warwick%20RI/@68.51690656216455,-165.7692998137874,9z?hl=en",
    "searchString": "independent pharmacy Warwick RI",
    "language": "en",
    "rank": 9,
    "isAdvertisement": false,
    "imageUrl": "https://lh3.googleusercontent.com/gps-cs-s/AC9h4nrm3hZpClTmPuHR1XqgKQyvgxdE1k28lr86pr_A2UQzIBlz-Z-_GD9ZGS7iKmyMsxLa1q0ajs_BonS6Omtw50OpiPZlOA8iWhEBxooJm2g_ivtt8PVrySI1mo4-1g7sgXWAkKU=w408-h306-k-no",
    "kgmid": "/g/1264jd79h",
    "classification": "chain",
    "is_independent": false,
    "confidence": 1.0,
    "source": "rule-based"
  },
  {
    "title": "Prescription Pharmacy Services",
    "price": null,
    "categoryName": "Pharmacy",
    "address": "1210 Pontiac Ave 2nd Floor, Cranston, RI 02920, United States",
    "neighborhood": null,
    "street": "1210 Pontiac Ave 2nd Floor",
    "city": "Cranston",
    "postalCode": "02920",
    "state": "Rhode Island",
    "countryCode": "US",
    "website": "http://pps-rx.com/",
    "phone": "+1 401-228-3388",
    "phoneUnformatted": "+14012283388",
    "claimThisBusiness": false,
    "location": {
      "lat": 41.7508863,
      "lng": -71.4505761
    },
    "permanentlyClosed": false,
    "temporarilyClosed": false,
    "placeId": null,
    "categories": [
      "Pharmacy"
    ],
    "fid": "0x89e445aa57face05:0xe42d460118abbbd3",
    "cid": "16441874785122368467",
    "reviewsCount": 0,
    "imagesCount": 5,
    "imageCategories": [],
    "scrapedAt": "2025-06-22T09:28:12.037Z",
    "googleFoodUrl": null,
    "hotelAds": [],
    "openingHours": [
      {
        "day": "Monday",
        "hours": "9\u202fAM to 5\u202fPM"
      },
      {
        "day": "Tuesday",
        "hours": "9\u202fAM to 5\u202fPM"
      },
      {
        "day": "Wednesday",
        "hours": "9\u202fAM to 5\u202fPM"
      },
      {
        "day": "Thursday",
        "hours": "9\u202fAM to 5\u202fPM"
      },
      {
        "day": "Friday",
        "hours": "9\u202fAM to 5\u202fPM"
      },
      {
        "day": "Saturday",
        "hours": "Closed"
      },
      {
        "day": "Sunday",
        "hours": "Closed"
      }
    ],
    "peopleAlsoSearch": [],
    "placesTags": [],
    "reviewsTags": [],
    "additionalInfo": {
      "From the business": [
        {
          "Small Business": true
        }
      ],
      "Accessibility": [
        {
          "Wheelchair-accessible car park": true
        },
        {
          "Wheelchair-accessible entrance": true
        }
      ],
      "Payments": [
        {
          "Credit cards": true
        }
      ]
    },
    "gasPrices": [],
    "url": "https://www.google.com/maps/search/?api=1&query=Prescription%20Pharmacy%20Services&query_place_id=ChIJBc76V6pF5IkR07urGAFGLeQ",
    "searchPageUrl": "https://www.google.com/maps/search/independent%20pharmacy%20Warwick%20RI/@42.54640259466427,-70.65494205772909,8z?hl=en",
    "searchString": "independent pharmacy Warwick RI",
    "language": "en",
    "rank": 31,
    "isAdvertisement": false,
    "imageUrl": "https://lh3.googleusercontent.com/p/AF1QipMQ0Pjoti1RfMqk00hIv4JfcdP0fsTnQDJqf3Bo=w408-h306-k-no",
    "kgmid": "/g/11h2hbmtv3",
    "classification": "independent",
    "is_independent": true,
    "is_compounding": false,
    "confidence": 0.85,
    "source": "perplexity",
    "method": "llm",
    "query_location": "warwick_ri"
  },
  {
    "title": "Casmer Pharmacy",
    "price": null,
    "categoryName": "Pharmacy",
    "address": "113 Frenchtown Rd, North Kingstown, RI 02852, United States",
    "neighborhood": null,
    "street": "113 Frenchtown Rd",
    "city": "North Kingstown",
    "postalCode": "02852",
    "state": "Rhode Island",
    "countryCode": "US",
    "website": "https://casmerpharmacy.com/",
    "phone": "+1 401-541-7220",
    "phoneUnformatted": "+14015417220",
    "claimThisBusiness": false,
    "location": {
      "lat": 41.6316358,
      "lng": -71.4712672
    },
    "totalScore": 5,
    "permanentlyClosed": false,
    "temporarilyClosed": false,
    "placeId": null,
    "categories": [
      "Pharmacy"
    ],
    "fid": "0x89e5b38839b6419f:0x8e3f763cfa146262",
    "cid": "10250041281184293474",
    "reviewsCount": 7,
    "reviewsDistribution": {
      "oneStar": 0,
      "twoStar": 0,
      "threeStar": 0,
      "fourStar": 0,
      "fiveStar": 7
    },
    "imagesCount": 2,
    "imageCategories": [],
    "scrapedAt": "2025-06-22T09:28:12.037Z",
    "googleFoodUrl": null,
    "hotelAds": [],
    "openingHours": [
      {
        "day": "Monday",
        "hours": "8:30\u202fAM to 4:30\u202fPM"
      },
      {
        "day": "Tuesday",
        "hours": "8:30\u202fAM to 4:30\u202fPM"
      },
      {
        "day": "Wednesday",
        "hours": "8:30\u202fAM to 4:30\u202fPM"
      },
      {
        "day": "Thursday",
        "hours": "8:30\u202fAM to 4:30\u202fPM"
      },
      {
        "day": "Friday",
        "hours": "8:30\u202fAM to 4:30\u202fPM"
      },
      {
        "day": "Saturday",
        "hours": "Closed"
      },
      {
        "day": "Sunday",
        "hours": "Closed"
      }
    ],
    "peopleAlsoSearch": [],
    "placesTags": [],
    "reviewsTags": [],
    "additionalInfo": {
      "From the business": [
        {
          "Small Business": true
        }
      ],
      "Service options": [
        {
          "Delivery": true
        }
      ],
      "Accessibility": [
        {
          "Wheelchair-accessible car park": true
        },
        {
          "Wheelchair-accessible entrance": true
        }
      ],
      "Planning": [
        {
          "Quick visit": true
        }
      ],
      "Payments": [
        {
          "Credit cards": true
        },
        {
          "Debit cards": true
        },
        {
          "Credit cards": true
        }
      ]
    },
    "gasPrices": [],
    "url": "https://www.google.com/maps/search/?api=1&query=Casmer%20Pharmacy&query_place_id=ChIJn0G2OYiz5YkRYmIU-jx2P44",
    "searchPageUrl": "https://www.google.com/maps/search/independent%20pharmacy%20Warwick%20RI/@42.54640259466427,-70.65494205772909,8z?hl=en",
    "searchString": "independent pharmacy Warwick RI",
    "language": "en",
    "rank": 32,
    "isAdvertisement": false,
    "imageUrl": "https://lh3.googleusercontent.com/gps-cs-s/AC9h4np2onzhRnthPGOPSOxJ67nOmQX5AOmg5TeeMFEHYiK4VAQytr56MJXcfW7Iixp5Zcc9HWR7kh5AGInish9saWMpzj2vfaqLNzkF2ew5kdNlPq-qb8gILkUBWUefHgS45sO5Tkw6=w408-h306-k-no",
    "kgmid": "/g/11hz6tk3wm",
    "classification": "independent",
    "is_independent": true,
    "is_compounding": false,
    "confidence": 0.9,
    "source": "perplexity",
    "method": "llm",
    "query_location": "warwick_ri"
  },
  {
    "title": "Akins Pharmacy",
    "price": null,
    "categoryName": "Pharmacy",
    "address": "33 Main St, Warwick, NY 10990",
    "neighborhood": null,
    "street": "33 Main St",
    "city": "Warwick",
    "postalCode": "10990",
    "state": "New York",
    "countryCode": "US",
    "website": "http://www.akinspharmacy.com/",
    "phone": "(845) 986-2550",
    "phoneUnformatted": "+18459862550",
    "claimThisBusiness": false,
    "location": {
      "lat": 41.2570843,
      "lng": -74.359692
    },
    "totalScore": 4.7,
    "permanentlyClosed": false,
    "temporarilyClosed": false,
    "placeId": null,
    "categories": [
      "Pharmacy"
    ],
    "fid": "0x89c3248a6d1fad63:0xc6bdc4aa6270e750",
    "cid": "14320818626183096144",
    "reviewsCount": 39,
    "imagesCount": 10,
    "imageCategories": [],
    "scrapedAt": "2025-06-22T09:28:21.063Z",
    "googleFoodUrl": null,
    "hotelAds": [],
    "openingHours": [
      {
        "day": "Monday",
        "hours": "9\u202fAM to 7\u202fPM"
      },
      {
        "day": "Tuesday",
        "hours": "9\u202fAM to 7\u202fPM"
      },
      {
        "day": "Wednesday",
        "hours": "9\u202fAM to 7\u202fPM"
      },
      {
        "day": "Thursday",
        "hours": "9\u202fAM to 7\u202fPM"
      },
      {
        "day": "Friday",
        "hours": "9\u202fAM to 7\u202fPM"
      },
      {
        "day": "Saturday",
        "hours": "9\u202fAM to 5\u202fPM"
      },
      {
        "day": "Sunday",
        "hours": "Closed"
      }
    ],
    "peopleAlsoSearch": [],
    "placesTags": [],
    "reviewsTags": [],
    "additionalInfo": {
      "From the business": [
        {
          "Identifies as women-owned": true
        },
        {
          "Small business": true
        }
      ],
      "Service options": [
        {
          "Curbside pickup": true
        },
        {
          "Delivery": true
        },
        {
          "In-store pickup": true
        },
        {
          "In-store shopping": true
        },
        {
          "Onsite services": true
        },
        {
          "Same-day delivery": true
        }
      ],
      "Accessibility": [
        {
          "Wheelchair accessible entrance": true
        },
        {
          "Wheelchair accessible parking lot": true
        }
      ],
      "Offerings": [
        {
          "Passport photos": true
        }
      ],
      "Planning": [
        {
          "Quick visit": true
        }
      ],
      "Payments": [
        {
          "Checks": true
        },
        {
          "Credit cards": true
        },
        {
          "Debit cards": true
        },
        {
          "NFC mobile payments": true
        },
        {
          "Credit cards": true
        }
      ]
    },
    "gasPrices": [],
    "url": "https://www.google.com/maps/search/?api=1&query=Akins%20Pharmacy&query_place_id=ChIJY60fbYokw4kRUOdwYqrEvcY",
    "searchPageUrl": "https://www.google.com/maps/search/independent%20pharmacy%20Warwick%20RI/@39.68245004733214,-73.82116800051296,8z?hl=en",
    "searchString": "independent pharmacy Warwick RI",
    "language": "en",
    "rank": 2,
    "isAdvertisement": false,
    "imageUrl": "https://lh3.googleusercontent.com/gps-cs-s/AC9h4noNWUX2Cw45ODpb-MxQ69ehyNtafHa6Q_ztd8YK1y2GQlAmb-29Ij-jXm2gwBrOK7EiNALO3UUI_6GGu4ElBPkabm9yJZSxQLua7N_WQ-UELG85RbHWovRN2T74DH20pW2EBoK0=w408-h343-k-no",
    "kgmid": "/g/1tg82d8m",
    "classification": "independent",
    "is_independent": true,
    "is_compounding": false,
    "confidence": 0.9,
    "source": "perplexity",
    "method": "llm",
    "query_location": "warwick_ri"
  },
  {
    "title": "Seaside Pharmacy",
    "price": null,
    "categoryName": "Pharmacy",
    "address": "224 Post Rd, Westerly, RI 02891, United States",
    "neighborhood": "Westerly",
    "street": "224 Post Rd",
    "city": "Westerly",
    "postalCode": "02891",
    "state": "Rhode Island",
    "countryCode": "US",
    "website": "https://stores.healthmart.com/seasidepharmacy/stores.aspx",
    "phone": "+1 401-322-1010",
    "phoneUnformatted": "+14013221010",
    "claimThisBusiness": false,
    "location": {
      "lat": 41.3518065,
      "lng": -71.7712219
    },
    "totalScore": 4.9,
    "permanentlyClosed": false,
    "temporarilyClosed": false,
    "placeId": null,
    "categories": [
      "Pharmacy",
      "Convenience store",
      "Gift shop"
    ],
    "fid": "0x89e5e62e8919dfd3:0x1c71c29b4ee355ae",
    "cid": "2049633277729527214",
    "reviewsCount": 39,
    "imagesCount": 14,
    "imageCategories": [],
    "scrapedAt": "2025-06-22T09:28:28.334Z",
    "googleFoodUrl": null,
    "hotelAds": [],
    "openingHours": [
      {
        "day": "Monday",
        "hours": "8\u202fAM to 7\u202fPM"
      },
      {
        "day": "Tuesday",
        "hours": "8\u202fAM to 7\u202fPM"
      },
      {
        "day": "Wednesday",
        "hours": "8\u202fAM to 7\u202fPM"
      },
      {
        "day": "Thursday",
        "hours": "8\u202fAM to 7\u202fPM"
      },
      {
        "day": "Friday",
        "hours": "8\u202fAM to 7\u202fPM"
      },
      {
        "day": "Saturday",
        "hours": "9\u202fAM to 5\u202fPM"
      },
      {
        "day": "Sunday",
        "hours": "9\u202fAM to 1\u202fPM"
      }
    ],
    "peopleAlsoSearch": [],
    "placesTags": [],
    "reviewsTags": [],
    "additionalInfo": {
      "From the business": [
        {
          "Small Business": true
        }
      ],
      "Service options": [
        {
          "Delivery": true
        },
        {
          "In-store pick-up": true
        },
        {
          "Same-day delivery": true
        }
      ],
      "Accessibility": [
        {
          "Wheelchair-accessible car park": true
        },
        {
          "Wheelchair-accessible entrance": true
        }
      ],
      "Planning": [
        {
          "Quick visit": true
        }
      ],
      "Payments": [
        {
          "Cheques": true
        },
        {
          "Credit cards": true
        },
        {
          "Debit cards": true
        },
        {
          "Credit cards": true
        }
      ]
    },
    "gasPrices": [],
    "url": "https://www.google.com/maps/search/?api=1&query=Seaside%20Pharmacy&query_place_id=ChIJ098ZiS7m5YkRrlXjTpvCcRw",
    "searchPageUrl": "https://www.google.com/maps/search/independent%20pharmacy%20Warwick%20RI/@39.68245004733214,-70.65494205772909,8z?hl=en",
    "searchString": "independent pharmacy Warwick RI",
    "language": "en",
    "rank": 5,
    "isAdvertisement": false,
    "imageUrl": "https://lh3.googleusercontent.com/gps-cs-s/AC9h4nrWN7HibeBZ5ussoxfAGYPa42VYBMAMFK5vSFHAspJ77s2mtbZYUivphPznFKk8u2A6LdTawwX8o1-BSdf0j1yk2Tv4R7XRaia2r7jZamehNil42SVu4kKSWaGdj1JRmX4ocm_g5g=w408-h305-k-no",
    "kgmid": "/g/1pp2x7hrn",
    "classification": "chain",
    "is_independent": false,
    "is_compounding": false,
    "confidence": 0.9,
    "source": "perplexity",
    "method": "llm",
    "query_location": "warwick_ri"
  },
  {
    "title": "CVS Pharmacy",
    "price": null,
    "categoryName": "Pharmacy",
    "address": "2790 Post Rd, Warwick, RI 02886",
    "neighborhood": null,
    "street": "2790 Post Rd",
    "city": "Warwick",
    "postalCode": "02886",
    "state": "Rhode Island",
    "countryCode": "US",
    "website": "https://www.cvs.com/store-locator/warwick-ri-pharmacies/2790-post-road-warwick-ri-02886/storeid=689?WT.mc_id=LS_GOOGLE_RX_689",
    "phone": "(401) 739-3173",
    "phoneUnformatted": "+14017393173",
    "claimThisBusiness": false,
    "location": {
      "lat": 41.7083453,
      "lng": -71.4500659
    },
    "totalScore": 4.2,
    "permanentlyClosed": false,
    "temporarilyClosed": false,
    "placeId": "ChIJ5z5e-0BM5IkRhy9t_nwc_2M",
    "categories": [
      "Pharmacy"
    ],
    "fid": "0x89e44c40fb5e3ee7:0x63ff1c7cfe6d2f87",
    "cid": "7205509251986173831",
    "reviewsCount": 24,
    "imagesCount": 8,
    "imageCategories": [],
    "scrapedAt": "2025-06-22T09:28:45.094Z",
    "googleFoodUrl": null,
    "hotelAds": [],
    "openingHours": [
      {
        "day": "Monday",
        "hours": "9\u202fAM to 1:30\u202fPM, 2 to 8\u202fPM"
      },
      {
        "day": "Tuesday",
        "hours": "9\u202fAM to 1:30\u202fPM, 2 to 8\u202fPM"
      },
      {
        "day": "Wednesday",
        "hours": "9\u202fAM to 1:30\u202fPM, 2 to 8\u202fPM"
      },
      {
        "day": "Thursday",
        "hours": "9\u202fAM to 1:30\u202fPM, 2 to 8\u202fPM"
      },
      {
        "day": "Friday",
        "hours": "9\u202fAM to 1:30\u202fPM, 2 to 8\u202fPM"
      },
      {
        "day": "Saturday",
        "hours": "9\u202fAM to 1:30\u202fPM, 2 to 6\u202fPM"
      },
      {
        "day": "Sunday",
        "hours": "9\u202fAM to 1:30\u202fPM, 2 to 5\u202fPM"
      }
    ],
    "peopleAlsoSearch": [],
    "placesTags": [],
    "reviewsTags": [],
    "additionalInfo": {
      "Service options": [
        {
          "Delivery": true
        },
        {
          "Drive-through": true
        },
        {
          "In-store pickup": true
        },
        {
          "In-store shopping": true
        }
      ],
      "Accessibility": [
        {
          "Wheelchair accessible entrance": true
        },
        {
          "Wheelchair accessible parking lot": true
        }
      ],
      "Offerings": [
        {
          "Naloxone": true
        },
        {
          "Passport photos": true
        }
      ],
      "Crowd": [
        {
          "LGBTQ+ friendly": true
        },
        {
          "Transgender safespace": true
        }
      ],
      "Planning": [
        {
          "Quick visit": true
        }
      ],
      "Payments": [
        {
          "Credit cards": true
        },
        {
          "Debit cards": true
        },
        {
          "NFC mobile payments": true
        },
        {
          "SNAP/EBT": true
        },
        {
          "Credit cards": true
        }
      ]
    },
    "gasPrices": [],
    "url": "https://www.google.com/maps/search/?api=1&query=CVS%20Pharmacy&query_place_id=ChIJ5z5e-0BM5IkRhy9t_nwc_2M",
    "searchPageUrl": "https://www.google.com/maps/search/independent%20pharmacy%20Warwick%20RI/@41.6857378,-71.4532661,13.581504197745806z?hl=en",
    "searchString": "independent pharmacy Warwick RI",
    "language": "en",
    "rank": 9,
    "isAdvertisement": false,
    "imageUrl": "https://lh3.googleusercontent.com/p/AF1QipOf2AYLyGS4_iLooOZHvjGf9NnKmZkqTWjnWvCA=w408-h272-k-no",
    "kgmid": "/g/11c468st9m",
    "classification": "chain",
    "is_independent": false,
    "confidence": 1.0,
    "source": "rule-based"
  },
  {
    "title": "Walgreens Pharmacy",
    "description": "Department of the Walgreens chain providing prescription medications & other health-related items.",
    "price": null,
    "categoryName": "Pharmacy",
    "address": "1080 Bald Hill Rd, Warwick, RI 02886",
    "neighborhood": null,
    "street": "1080 Bald Hill Rd",
    "city": "Warwick",
    "postalCode": "02886",
    "state": "Rhode Island",
    "countryCode": "US",
    "website": "https://www.walgreens.com/locator/walgreens-1080+bald+hill+rd-warwick-ri-02886/id=19838",
    "phone": "(401) 822-0002",
    "phoneUnformatted": "+14018220002",
    "claimThisBusiness": false,
    "location": {
      "lat": 41.7091979,
      "lng": -71.4901661
    },
    "totalScore": 3.6,
    "permanentlyClosed": false,
    "temporarilyClosed": false,
    "placeId": "ChIJA7q-M7FL5IkR7Wp9M9z5Jr8",
    "categories": [
      "Pharmacy"
    ],
    "fid": "0x89e44bb133beba03:0xbf26f9dc337d6aed",
    "cid": "13773971234511219437",
    "reviewsCount": 8,
    "imagesCount": 3,
    "imageCategories": [],
    "scrapedAt": "2025-06-22T09:28:45.094Z",
    "googleFoodUrl": null,
    "hotelAds": [],
    "openingHours": [
      {
        "day": "Monday",
        "hours": "9\u202fAM to 1:30\u202fPM, 2 to 8\u202fPM"
      },
      {
        "day": "Tuesday",
        "hours": "9\u202fAM to 1:30\u202fPM, 2 to 8\u202fPM"
      },
      {
        "day": "Wednesday",
        "hours": "9\u202fAM to 1:30\u202fPM, 2 to 8\u202fPM"
      },
      {
        "day": "Thursday",
        "hours": "9\u202fAM to 1:30\u202fPM, 2 to 8\u202fPM"
      },
      {
        "day": "Friday",
        "hours": "9\u202fAM to 1:30\u202fPM, 2 to 8\u202fPM"
      },
      {
        "day": "Saturday",
        "hours": "9\u202fAM to 1:30\u202fPM, 2 to 6\u202fPM"
      },
      {
        "day": "Sunday",
        "hours": "10\u202fAM to 1:30\u202fPM, 2 to 6\u202fPM"
      }
    ],
    "additionalOpeningHours": {
      "Drive through": [
        {
          "day": "Monday",
          "hours": "9\u202fAM\u20131:30\u202fPM"
        },
        {
          "day": "Tuesday",
          "hours": "9\u202fAM\u20131:30\u202fPM"
        },
        {
          "day": "Wednesday",
          "hours": "9\u202fAM\u20131:30\u202fPM"
        },
        {
          "day": "Thursday",
          "hours": "9\u202fAM\u20131:30\u202fPM"
        },
        {
          "day": "Friday",
          "hours": "9\u202fAM\u20131:30\u202fPM"
        },
        {
          "day": "Saturday",
          "hours": "9\u202fAM\u20131:30\u202fPM"
        },
        {
          "day": "Sunday",
          "hours": "10\u202fAM\u20131:30\u202fPM"
        }
      ]
    },
    "peopleAlsoSearch": [],
    "placesTags": [],
    "reviewsTags": [],
    "additionalInfo": {
      "Service options": [
        {
          "Drive-through": true
        },
        {
          "In-store pickup": true
        }
      ],
      "Accessibility": [
        {
          "Wheelchair accessible entrance": true
        },
        {
          "Wheelchair accessible parking lot": true
        }
      ],
      "Planning": [
        {
          "Quick visit": true
        }
      ],
      "Payments": [
        {
          "Credit cards": true
        }
      ]
    },
    "gasPrices": [],
    "url": "https://www.google.com/maps/search/?api=1&query=Walgreens%20Pharmacy&query_place_id=ChIJA7q-M7FL5IkR7Wp9M9z5Jr8",
    "searchPageUrl": "https://www.google.com/maps/search/independent%20pharmacy%20Warwick%20RI/@41.6857378,-71.4532661,13.581504197745806z?hl=en",
    "searchString": "independent pharmacy Warwick RI",
    "language": "en",
    "rank": 11,
    "isAdvertisement": false,
    "imageUrl": "https://lh3.googleusercontent.com/p/AF1QipMJWPCjkOqPkUb0GWcz-8LowXUoueTWq3b7nSlr=w525-h240-k-no",
    "kgmid": "/g/11j5q04rtb",
    "classification": "chain",
    "is_independent": false,
    "confidence": 1.0,
    "source": "rule-based"
  },
  {
    "title": "Park Ave Pharmacy",
    "price": null,
    "categoryName": "Pharmacy",
    "address": "1375 Park Ave, Cranston, RI 02920",
    "neighborhood": null,
    "street": "1375 Park Ave",
    "city": "Cranston",
    "postalCode": "02920",
    "state": "Rhode Island",
    "countryCode": "US",
    "website": "http://www.parkavepharma.com/",
    "phone": "(401) 228-1544",
    "phoneUnformatted": "+14012281544",
    "claimThisBusiness": false,
    "location": {
      "lat": 41.784246,
      "lng": -71.4595881
    },
    "totalScore": 4.9,
    "permanentlyClosed": false,
    "temporarilyClosed": false,
    "placeId": null,
    "categories": [
      "Pharmacy"
    ],
    "fid": "0x89e44fe487c88c3f:0x73b0c4c7ad1c8bd",
    "cid": "521023704509040829",
    "reviewsCount": 52,
    "imagesCount": 16,
    "imageCategories": [],
    "scrapedAt": "2025-06-22T09:28:45.209Z",
    "googleFoodUrl": null,
    "hotelAds": [],
    "openingHours": [
      {
        "day": "Monday",
        "hours": "9\u202fAM to 7\u202fPM"
      },
      {
        "day": "Tuesday",
        "hours": "9\u202fAM to 7\u202fPM"
      },
      {
        "day": "Wednesday",
        "hours": "9\u202fAM to 7\u202fPM"
      },
      {
        "day": "Thursday",
        "hours": "9\u202fAM to 7\u202fPM"
      },
      {
        "day": "Friday",
        "hours": "9\u202fAM to 7\u202fPM"
      },
      {
        "day": "Saturday",
        "hours": "9\u202fAM to 3\u202fPM"
      },
      {
        "day": "Sunday",
        "hours": "Closed"
      }
    ],
    "additionalOpeningHours": {
      "Pickup": [
        {
          "day": "Monday",
          "hours": "9\u202fAM\u20137\u202fPM"
        },
        {
          "day": "Tuesday",
          "hours": "9\u202fAM\u20137\u202fPM"
        },
        {
          "day": "Wednesday",
          "hours": "9\u202fAM\u20137\u202fPM"
        },
        {
          "day": "Thursday",
          "hours": "9\u202fAM\u20137\u202fPM"
        },
        {
          "day": "Friday",
          "hours": "9\u202fAM\u20137\u202fPM"
        },
        {
          "day": "Saturday",
          "hours": "9\u202fAM\u20132\u202fPM"
        },
        {
          "day": "Sunday",
          "hours": "Closed"
        }
      ]
    },
    "peopleAlsoSearch": [],
    "placesTags": [],
    "reviewsTags": [],
    "additionalInfo": {
      "From the business": [
        {
          "Identifies as Asian-owned": true
        },
        {
          "Small business": true
        }
      ],
      "Service options": [
        {
          "Curbside pickup": true
        },
        {
          "Delivery": true
        },
        {
          "In-store pickup": true
        },
        {
          "In-store shopping": true
        },
        {
          "Same-day delivery": true
        }
      ],
      "Accessibility": [
        {
          "Wheelchair accessible entrance": true
        },
        {
          "Wheelchair accessible parking lot": true
        },
        {
          "Wheelchair accessible restroom": true
        },
        {
          "Wheelchair accessible seating": true
        }
      ],
      "Amenities": [
        {
          "Gender-neutral restroom": true
        },
        {
          "Wi-Fi": true
        },
        {
          "Free Wi-Fi": true
        }
      ],
      "Crowd": [
        {
          "LGBTQ+ friendly": true
        },
        {
          "Transgender safespace": true
        }
      ],
      "Planning": [
        {
          "Quick visit": true
        }
      ],
      "Payments": [
        {
          "Checks": true
        },
        {
          "Credit cards": true
        },
        {
          "Debit cards": true
        },
        {
          "NFC mobile payments": true
        },
        {
          "Credit cards": true
        }
      ]
    },
    "gasPrices": [],
    "url": "https://www.google.com/maps/search/?api=1&query=Park%20Ave%20Pharmacy&query_place_id=ChIJP4zIh-RP5IkRvcjRekwMOwc",
    "searchPageUrl": "https://www.google.com/maps/search/independent%20pharmacy%20Warwick%20RI/@41.754907,-71.42719,13.579951321876639z?hl=en",
    "searchString": "independent pharmacy Warwick RI",
    "language": "en",
    "rank": 5,
    "isAdvertisement": false,
    "imageUrl": "https://lh3.googleusercontent.com/p/AF1QipNjhVwqWoLslYwL4KmMPNJxnGp7otfwsyDPwVCo=w426-h240-k-no",
    "kgmid": "/g/11tjlg2ht0",
    "classification": "independent",
    "is_independent": true,
    "is_compounding": false,
    "confidence": 0.9,
    "source": "perplexity",
    "method": "llm",
    "query_location": "warwick_ri"
  },
  {
    "title": "CVS Pharmacy",
    "price": null,
    "categoryName": "Pharmacy",
    "address": "767 Warwick Ave, Warwick, RI 02888",
    "neighborhood": "Pilgrim Park",
    "street": "767 Warwick Ave",
    "city": "Warwick",
    "postalCode": "02888",
    "state": "Rhode Island",
    "countryCode": "US",
    "website": "https://www.cvs.com/store-locator/warwick-ri-pharmacies/767-warwick-avenue-warwick-ri-02888/storeid=642?WT.mc_id=LS_GOOGLE_RX_642",
    "phone": "(401) 467-7788",
    "phoneUnformatted": "+14014677788",
    "claimThisBusiness": false,
    "location": {
      "lat": 41.7552537,
      "lng": -71.4051201
    },
    "totalScore": 3.5,
    "permanentlyClosed": false,
    "temporarilyClosed": false,
    "placeId": "ChIJ4cmOETZO5IkRIlaLDoXmG94",
    "categories": [
      "Pharmacy"
    ],
    "fid": "0x89e44e36118ec9e1:0xde1be6850e8b5622",
    "cid": "16004639159940240930",
    "reviewsCount": 27,
    "imagesCount": 10,
    "imageCategories": [],
    "scrapedAt": "2025-06-22T09:28:45.209Z",
    "googleFoodUrl": null,
    "hotelAds": [],
    "openingHours": [
      {
        "day": "Monday",
        "hours": "7\u202fAM to 1:30\u202fPM, 2 to 9\u202fPM"
      },
      {
        "day": "Tuesday",
        "hours": "7\u202fAM to 1:30\u202fPM, 2 to 9\u202fPM"
      },
      {
        "day": "Wednesday",
        "hours": "7\u202fAM to 1:30\u202fPM, 2 to 9\u202fPM"
      },
      {
        "day": "Thursday",
        "hours": "7\u202fAM to 1:30\u202fPM, 2 to 9\u202fPM"
      },
      {
        "day": "Friday",
        "hours": "7\u202fAM to 1:30\u202fPM, 2 to 9\u202fPM"
      },
      {
        "day": "Saturday",
        "hours": "8\u202fAM to 1:30\u202fPM, 2 to 8\u202fPM"
      },
      {
        "day": "Sunday",
        "hours": "9\u202fAM to 1:30\u202fPM, 2 to 6\u202fPM"
      }
    ],
    "peopleAlsoSearch": [],
    "placesTags": [],
    "reviewsTags": [],
    "additionalInfo": {
      "Service options": [
        {
          "Delivery": true
        },
        {
          "Drive-through": true
        },
        {
          "In-store pickup": true
        },
        {
          "In-store shopping": true
        },
        {
          "Onsite services": true
        }
      ],
      "Accessibility": [
        {
          "Wheelchair accessible entrance": true
        },
        {
          "Wheelchair accessible parking lot": true
        }
      ],
      "Offerings": [
        {
          "Medication disposal": true
        },
        {
          "Naloxone": true
        },
        {
          "Passport photos": true
        }
      ],
      "Crowd": [
        {
          "LGBTQ+ friendly": true
        },
        {
          "Transgender safespace": true
        }
      ],
      "Planning": [
        {
          "Quick visit": true
        }
      ],
      "Payments": [
        {
          "Credit cards": true
        },
        {
          "Debit cards": true
        },
        {
          "NFC mobile payments": true
        },
        {
          "Credit cards": true
        }
      ]
    },
    "gasPrices": [],
    "url": "https://www.google.com/maps/search/?api=1&query=CVS%20Pharmacy&query_place_id=ChIJ4cmOETZO5IkRIlaLDoXmG94",
    "searchPageUrl": "https://www.google.com/maps/search/independent%20pharmacy%20Warwick%20RI/@41.754907,-71.42719,13.579951321876639z?hl=en",
    "searchString": "independent pharmacy Warwick RI",
    "language": "en",
    "rank": 6,
    "isAdvertisement": false,
    "imageUrl": "https://lh3.googleusercontent.com/p/AF1QipOGWEy_84rUxKYdmfbUtuFq63vEeqfl7V1fmYRD=w408-h272-k-no",
    "kgmid": "/g/11c461w1h7",
    "classification": "chain",
    "is_independent": false,
    "confidence": 1.0,
    "source": "rule-based"
  }
]