[
  {
    "title": "Columbia Hickory Pharmacy",
    "price": null,
    "categoryName": "Pharmacy",
    "address": "10805 Hickory Ridge Rd, Columbia, MD 21044",
    "neighborhood": "Hickory Ridge",
    "street": "10805 Hickory Ridge Rd",
    "city": "Columbia",
    "postalCode": "21044",
    "state": "Maryland",
    "countryCode": "US",
    "website": "https://columbiahickorypharmacy.com/",
    "phone": "(410) 964-6409",
    "phoneUnformatted": "+14109646409",
    "claimThisBusiness": false,
    "location": {
      "lat": 39.2105286,
      "lng": -76.8860581
    },
    "totalScore": 4.8,
    "permanentlyClosed": false,
    "temporarilyClosed": false,
    "placeId": null,
    "categories": [
      "Pharmacy"
    ],
    "fid": "0x89b7df11a4979713:0x71a7f783dd54b18",
    "cid": "511861662070164248",
    "reviewsCount": 19,
    "imagesCount": 1,
    "imageCategories": [],
    "scrapedAt": "2025-06-22T05:28:01.764Z",
    "googleFoodUrl": null,
    "hotelAds": [],
    "openingHours": [
      {
        "day": "Monday",
        "hours": "9\u202fAM to 7\u202fPM"
      },
      {
        "day": "Tuesday",
        "hours": "9\u202fAM to 7\u202fPM"
      },
      {
        "day": "Wednesday",
        "hours": "9\u202fAM to 7\u202fPM"
      },
      {
        "day": "Thursday",
        "hours": "9\u202fAM to 7\u202fPM"
      },
      {
        "day": "Friday",
        "hours": "9\u202fAM to 7\u202fPM"
      },
      {
        "day": "Saturday",
        "hours": "10\u202fAM to 3\u202fPM"
      },
      {
        "day": "Sunday",
        "hours": "Closed"
      }
    ],
    "peopleAlsoSearch": [],
    "placesTags": [],
    "reviewsTags": [],
    "additionalInfo": {
      "From the business": [
        {
          "Small business": true
        }
      ],
      "Service options": [
        {
          "Delivery": true
        },
        {
          "Onsite services": true
        },
        {
          "Same-day delivery": true
        }
      ],
      "Accessibility": [
        {
          "Wheelchair accessible entrance": true
        },
        {
          "Wheelchair accessible parking lot": true
        }
      ],
      "Payments": [
        {
          "Credit cards": true
        },
        {
          "NFC mobile payments": true
        }
      ]
    },
    "gasPrices": [],
    "url": "https://www.google.com/maps/search/?api=1&query=Columbia%20Hickory%20Pharmacy&query_place_id=ChIJE5eXpBHft4kRGEvVPXh_Ggc",
    "searchPageUrl": "https://www.google.com/maps/search/independent%20pharmacy%20Columbia%20MD/@61.56929586514925,-164.61850082811145,9z?hl=en",
    "searchString": "independent pharmacy Columbia MD",
    "language": "en",
    "rank": 1,
    "isAdvertisement": false,
    "imageUrl": "https://streetviewpixels-pa.googleapis.com/v1/thumbnail?panoid=D8niSMbTjI-QHvxJHAOWdQ&cb_client=search.gws-prod.gps&w=408&h=240&yaw=258.48895&pitch=0&thumbfov=100",
    "kgmid": "/g/1tdmqz2c",
    "classification": "independent",
    "is_independent": true,
    "is_compounding": false,
    "confidence": 0.9,
    "source": "perplexity",
    "method": "llm"
  },
  {
    "title": "Caplet Pharmacy",
    "price": null,
    "categoryName": "Pharmacy",
    "address": "6310 Stevens Forest Rd Suite 110, Columbia, MD 21046",
    "neighborhood": null,
    "street": "6310 Stevens Forest Rd Suite 110",
    "city": "Columbia",
    "postalCode": "21046",
    "state": "Maryland",
    "countryCode": "US",
    "website": "http://capletrx.com/",
    "phone": "(443) 774-0777",
    "phoneUnformatted": "+14437740777",
    "claimThisBusiness": false,
    "location": {
      "lat": 39.1982656,
      "lng": -76.8529208
    },
    "totalScore": 4,
    "permanentlyClosed": false,
    "temporarilyClosed": false,
    "placeId": null,
    "categories": [
      "Pharmacy"
    ],
    "fid": "0x89b7dfd205b9ccb7:0xfb0a4898f7ba668f",
    "cid": "18089350675115435663",
    "reviewsCount": 49,
    "imagesCount": 4,
    "imageCategories": [],
    "scrapedAt": "2025-06-22T05:28:01.765Z",
    "googleFoodUrl": null,
    "hotelAds": [],
    "openingHours": [
      {
        "day": "Monday",
        "hours": "10\u202fAM to 3\u202fPM"
      },
      {
        "day": "Tuesday",
        "hours": "10\u202fAM to 3\u202fPM"
      },
      {
        "day": "Wednesday",
        "hours": "10\u202fAM to 3\u202fPM"
      },
      {
        "day": "Thursday",
        "hours": "10\u202fAM to 3\u202fPM"
      },
      {
        "day": "Friday",
        "hours": "10\u202fAM to 3\u202fPM"
      },
      {
        "day": "Saturday",
        "hours": "Closed"
      },
      {
        "day": "Sunday",
        "hours": "Closed"
      }
    ],
    "peopleAlsoSearch": [],
    "placesTags": [],
    "reviewsTags": [],
    "additionalInfo": {
      "From the business": [
        {
          "Small business": true
        }
      ],
      "Service options": [
        {
          "Delivery": true
        },
        {
          "In-store pickup": true
        },
        {
          "In-store shopping": true
        },
        {
          "Onsite services": true
        },
        {
          "Same-day delivery": true
        }
      ],
      "Accessibility": [
        {
          "Wheelchair accessible entrance": true
        },
        {
          "Wheelchair accessible parking lot": true
        }
      ],
      "Planning": [
        {
          "Quick visit": true
        }
      ],
      "Payments": [
        {
          "Credit cards": true
        },
        {
          "Debit cards": true
        },
        {
          "NFC mobile payments": true
        },
        {
          "Credit cards": true
        }
      ]
    },
    "gasPrices": [],
    "url": "https://www.google.com/maps/search/?api=1&query=Caplet%20Pharmacy&query_place_id=ChIJt8y5BdLft4kRj2a695hICvs",
    "searchPageUrl": "https://www.google.com/maps/search/independent%20pharmacy%20Columbia%20MD/@61.56929586514925,-164.61850082811145,9z?hl=en",
    "searchString": "independent pharmacy Columbia MD",
    "language": "en",
    "rank": 2,
    "isAdvertisement": false,
    "imageUrl": "https://lh3.googleusercontent.com/gps-cs-s/AC9h4nq4gJf4WYAhhvDao7eELYH8BKuwAJebKzRPBxIer6GIVz4dGWlPGPTBCr3w5Qd_6g_mc0sK4eTp4nGWbSFSkSA4-MHoHyspYpS5DNNc0AgIMkZv3_hMgRKkOB_SL6Wl14lv2W6x6g=w408-h306-k-no",
    "kgmid": "/g/11rb_x65qq",
    "classification": "independent",
    "is_independent": true,
    "is_compounding": false,
    "confidence": 0.9,
    "source": "perplexity",
    "method": "llm"
  },
  {
    "title": "Alfa Specialty Pharmacy",
    "price": null,
    "categoryName": "Pharmacy",
    "address": "8910 Old Annapolis Rd STE C, Columbia, MD 21045",
    "neighborhood": null,
    "street": "8910 Old Annapolis Rd STE C",
    "city": "Columbia",
    "postalCode": "21045",
    "state": "Maryland",
    "countryCode": "US",
    "website": "http://www.alfapharmacy.com/",
    "phone": "(301) 754-2532",
    "phoneUnformatted": "+13017542532",
    "claimThisBusiness": false,
    "location": {
      "lat": 39.2274175,
      "lng": -76.8215174
    },
    "totalScore": 4.7,
    "permanentlyClosed": false,
    "temporarilyClosed": false,
    "placeId": null,
    "categories": [
      "Pharmacy"
    ],
    "fid": "0x89b7e001127aad21:0x95e783181ac4210c",
    "cid": "10801746370822938892",
    "reviewsCount": 11,
    "imagesCount": 2,
    "imageCategories": [],
    "scrapedAt": "2025-06-22T05:28:01.765Z",
    "googleFoodUrl": null,
    "hotelAds": [],
    "openingHours": [
      {
        "day": "Monday",
        "hours": "9\u202fAM to 6\u202fPM"
      },
      {
        "day": "Tuesday",
        "hours": "9\u202fAM to 6\u202fPM"
      },
      {
        "day": "Wednesday",
        "hours": "9\u202fAM to 6\u202fPM"
      },
      {
        "day": "Thursday",
        "hours": "9\u202fAM to 6\u202fPM"
      },
      {
        "day": "Friday",
        "hours": "9\u202fAM to 6\u202fPM"
      },
      {
        "day": "Saturday",
        "hours": "Closed"
      },
      {
        "day": "Sunday",
        "hours": "Closed"
      }
    ],
    "peopleAlsoSearch": [],
    "placesTags": [],
    "reviewsTags": [],
    "additionalInfo": {
      "From the business": [
        {
          "Small business": true
        }
      ],
      "Service options": [
        {
          "Delivery": true
        }
      ],
      "Accessibility": [
        {
          "Wheelchair accessible entrance": true
        },
        {
          "Wheelchair accessible parking lot": true
        }
      ],
      "Payments": [
        {
          "Credit cards": true
        }
      ]
    },
    "gasPrices": [],
    "url": "https://www.google.com/maps/search/?api=1&query=Alfa%20Specialty%20Pharmacy&query_place_id=ChIJIa16EgHgt4kRDCHEGhiD55U",
    "searchPageUrl": "https://www.google.com/maps/search/independent%20pharmacy%20Columbia%20MD/@61.56929586514925,-164.61850082811145,9z?hl=en",
    "searchString": "independent pharmacy Columbia MD",
    "language": "en",
    "rank": 3,
    "isAdvertisement": false,
    "imageUrl": "https://lh3.googleusercontent.com/p/AF1QipNCDwXmUd9CHRg84gUtvWWcJTUZ6wiWhVBjhrBE=w426-h240-k-no",
    "kgmid": "/g/1q6698cw4",
    "classification": "independent",
    "is_independent": true,
    "is_compounding": false,
    "confidence": 0.85,
    "source": "perplexity",
    "method": "llm"
  },
  {
    "title": "Centre Park Pharmacy",
    "price": null,
    "categoryName": "Pharmacy",
    "address": "8885 Centre Park Dr #2C, Columbia, MD 21045",
    "neighborhood": null,
    "street": "8885 Centre Park Dr #2C",
    "city": "Columbia",
    "postalCode": "21045",
    "state": "Maryland",
    "countryCode": "US",
    "website": "http://www.centreparkpharmacy.net/",
    "phone": "(410) 740-7000",
    "phoneUnformatted": "+14107407000",
    "claimThisBusiness": true,
    "location": {
      "lat": 39.2294445,
      "lng": -76.8135198
    },
    "totalScore": 4.2,
    "permanentlyClosed": false,
    "temporarilyClosed": false,
    "placeId": null,
    "categories": [
      "Pharmacy"
    ],
    "fid": "0x89c81fe2a3e1ad07:0xfd73dacaa2a57a53",
    "cid": "18263181477764495955",
    "reviewsCount": 10,
    "imagesCount": 4,
    "imageCategories": [],
    "scrapedAt": "2025-06-22T05:28:01.765Z",
    "googleFoodUrl": null,
    "hotelAds": [],
    "openingHours": [
      {
        "day": "Monday",
        "hours": "9\u202fAM to 7\u202fPM"
      },
      {
        "day": "Tuesday",
        "hours": "9\u202fAM to 7\u202fPM"
      },
      {
        "day": "Wednesday",
        "hours": "9\u202fAM to 7\u202fPM"
      },
      {
        "day": "Thursday",
        "hours": "9\u202fAM to 7\u202fPM"
      },
      {
        "day": "Friday",
        "hours": "9\u202fAM to 7\u202fPM"
      },
      {
        "day": "Saturday",
        "hours": "9\u202fAM to 2\u202fPM"
      },
      {
        "day": "Sunday",
        "hours": "Closed"
      }
    ],
    "peopleAlsoSearch": [],
    "placesTags": [],
    "reviewsTags": [],
    "additionalInfo": {
      "Service options": [
        {
          "Delivery": true
        },
        {
          "In-store pickup": true
        },
        {
          "Same-day delivery": true
        }
      ],
      "Accessibility": [
        {
          "Wheelchair accessible entrance": true
        },
        {
          "Wheelchair accessible parking lot": true
        }
      ],
      "Planning": [
        {
          "Quick visit": true
        }
      ],
      "Payments": [
        {
          "Credit cards": true
        },
        {
          "Debit cards": true
        },
        {
          "Credit cards": true
        }
      ]
    },
    "gasPrices": [],
    "url": "https://www.google.com/maps/search/?api=1&query=Centre%20Park%20Pharmacy&query_place_id=ChIJB63ho-IfyIkRU3qlosrac_0",
    "searchPageUrl": "https://www.google.com/maps/search/independent%20pharmacy%20Columbia%20MD/@61.56929586514925,-164.61850082811145,9z?hl=en",
    "searchString": "independent pharmacy Columbia MD",
    "language": "en",
    "rank": 4,
    "isAdvertisement": false,
    "imageUrl": "https://lh3.googleusercontent.com/gps-cs-s/AC9h4nqFHaV2CDFAjLLqZTZMrpmBYiAtSYykqJ_t4NRh9uErN2JWQpH6CHpXcrnpOMDcUuNj0JKhuc-Yx8hh5HLwm4NLzhPWGLVNqco2ki-10gRvjBkd9ORzVQzmRl9pmC-ABQQ-igtz=w408-h292-k-no",
    "kgmid": "/g/11c6czgh9w",
    "classification": "independent",
    "is_independent": true,
    "is_compounding": false,
    "confidence": 0.9,
    "source": "perplexity",
    "method": "llm"
  },
  {
    "title": "HIL Pharmacy",
    "price": null,
    "categoryName": "Pharmacy",
    "address": "6230 Old Dobbin Ln Suite 160, Columbia, MD 21045",
    "neighborhood": "Long Reach",
    "street": "6230 Old Dobbin Ln Suite 160",
    "city": "Columbia",
    "postalCode": "21045",
    "state": "Maryland",
    "countryCode": "US",
    "website": "https://hilpharmacy.com/",
    "phone": "(410) 600-3770",
    "phoneUnformatted": "+14106003770",
    "claimThisBusiness": false,
    "location": {
      "lat": 39.2011259,
      "lng": -76.8166474
    },
    "totalScore": 5,
    "permanentlyClosed": false,
    "temporarilyClosed": false,
    "placeId": null,
    "categories": [
      "Pharmacy"
    ],
    "fid": "0x89b7e167a9cd636d:0xc5c30f2b04a20996",
    "cid": "14250250323366119830",
    "reviewsCount": 4,
    "imagesCount": 8,
    "imageCategories": [],
    "scrapedAt": "2025-06-22T05:28:01.766Z",
    "googleFoodUrl": null,
    "hotelAds": [],
    "openingHours": [
      {
        "day": "Monday",
        "hours": "9\u202fAM to 9\u202fPM"
      },
      {
        "day": "Tuesday",
        "hours": "9\u202fAM to 9\u202fPM"
      },
      {
        "day": "Wednesday",
        "hours": "9\u202fAM to 9\u202fPM"
      },
      {
        "day": "Thursday",
        "hours": "9\u202fAM to 9\u202fPM"
      },
      {
        "day": "Friday",
        "hours": "9\u202fAM to 9\u202fPM"
      },
      {
        "day": "Saturday",
        "hours": "10\u202fAM to 6\u202fPM"
      },
      {
        "day": "Sunday",
        "hours": "10\u202fAM to 6\u202fPM"
      }
    ],
    "peopleAlsoSearch": [],
    "placesTags": [],
    "reviewsTags": [],
    "additionalInfo": {
      "Accessibility": [
        {
          "Wheelchair accessible entrance": true
        },
        {
          "Wheelchair accessible parking lot": true
        }
      ],
      "Payments": [
        {
          "Credit cards": true
        }
      ]
    },
    "gasPrices": [],
    "url": "https://www.google.com/maps/search/?api=1&query=HIL%20Pharmacy&query_place_id=ChIJbWPNqWfht4kRlgmiBCsPw8U",
    "searchPageUrl": "https://www.google.com/maps/search/independent%20pharmacy%20Columbia%20MD/@61.56929586514925,-164.61850082811145,9z?hl=en",
    "searchString": "independent pharmacy Columbia MD",
    "language": "en",
    "rank": 5,
    "isAdvertisement": false,
    "imageUrl": "https://lh3.googleusercontent.com/p/AF1QipOEmAAauSqieCCpK3Mg6xz4XJB2T_ST_SULDTbn=w408-h271-k-no",
    "kgmid": "/g/11wjjrcy49",
    "classification": "independent",
    "is_independent": true,
    "is_compounding": false,
    "confidence": 0.9,
    "source": "perplexity",
    "method": "llm"
  },
  {
    "title": "Ultra Care Pharmacy Columbia",
    "price": null,
    "categoryName": "Pharmacy",
    "address": "10798 Hickory Ridge Rd suite a, Columbia, MD 21044",
    "neighborhood": "Town Center",
    "street": "10798 Hickory Ridge Rd suite a",
    "city": "Columbia",
    "postalCode": "21044",
    "state": "Maryland",
    "countryCode": "US",
    "website": "https://www.rxucp.com/",
    "phone": "(410) 997-0005",
    "phoneUnformatted": "+14109970005",
    "claimThisBusiness": false,
    "location": {
      "lat": 39.2115421,
      "lng": -76.8861932
    },
    "totalScore": 4,
    "permanentlyClosed": false,
    "temporarilyClosed": false,
    "placeId": null,
    "categories": [
      "Pharmacy"
    ],
    "fid": "0x89b7df18f4bf272f:0xafa246f8549973d7",
    "cid": "12655755935249691607",
    "reviewsCount": 39,
    "imagesCount": 2,
    "imageCategories": [],
    "scrapedAt": "2025-06-22T05:28:01.766Z",
    "googleFoodUrl": null,
    "hotelAds": [],
    "openingHours": [
      {
        "day": "Monday",
        "hours": "9\u202fAM to 6\u202fPM"
      },
      {
        "day": "Tuesday",
        "hours": "9\u202fAM to 6\u202fPM"
      },
      {
        "day": "Wednesday",
        "hours": "9\u202fAM to 6\u202fPM"
      },
      {
        "day": "Thursday",
        "hours": "9\u202fAM to 6\u202fPM"
      },
      {
        "day": "Friday",
        "hours": "9\u202fAM to 6\u202fPM"
      },
      {
        "day": "Saturday",
        "hours": "Closed"
      },
      {
        "day": "Sunday",
        "hours": "Closed"
      }
    ],
    "peopleAlsoSearch": [],
    "placesTags": [],
    "reviewsTags": [],
    "additionalInfo": {
      "From the business": [
        {
          "Identifies as women-owned": true
        },
        {
          "Small business": true
        }
      ],
      "Service options": [
        {
          "Delivery": true
        },
        {
          "Same-day delivery": true
        }
      ],
      "Accessibility": [
        {
          "Wheelchair accessible entrance": true
        },
        {
          "Wheelchair accessible parking lot": true
        }
      ],
      "Planning": [
        {
          "Quick visit": true
        }
      ],
      "Payments": [
        {
          "Checks": true
        },
        {
          "Credit cards": true
        },
        {
          "Debit cards": true
        },
        {
          "NFC mobile payments": true
        },
        {
          "Credit cards": true
        }
      ]
    },
    "gasPrices": [],
    "url": "https://www.google.com/maps/search/?api=1&query=Ultra%20Care%20Pharmacy%20Columbia&query_place_id=ChIJLye_9Bjft4kR13OZVPhGoq8",
    "searchPageUrl": "https://www.google.com/maps/search/independent%20pharmacy%20Columbia%20MD/@61.56929586514925,-164.61850082811145,9z?hl=en",
    "searchString": "independent pharmacy Columbia MD",
    "language": "en",
    "rank": 6,
    "isAdvertisement": false,
    "imageUrl": "https://lh3.googleusercontent.com/gps-cs-s/AC9h4nrF6YTXrAdhaWKlunkpFPYpCeyVi5JtF3uo3QDyu6WO6ZDgODpVgPuMCW3mDD-aCwe_atmcp-QVocTJT-VNtAxsubxd3opMvPQOE73xm7_8QVAqvL6DtfHInT5NaFRdUtHGrpCHYA=w408-h306-k-no",
    "kgmid": "/g/11h1rp9y00",
    "classification": "independent",
    "is_independent": true,
    "is_compounding": false,
    "confidence": 0.9,
    "source": "perplexity",
    "method": "llm"
  },
  {
    "title": "Feldman's Medical Center Pharmacy",
    "price": null,
    "categoryName": "Pharmacy",
    "address": "11055 Little Patuxent Pkwy Suite L5, Columbia, MD 21044",
    "neighborhood": "Town Center",
    "street": "11055 Little Patuxent Pkwy Suite L5",
    "city": "Columbia",
    "postalCode": "21044",
    "state": "Maryland",
    "countryCode": "US",
    "website": "http://www.feldmanspharmacy.com/",
    "phone": "(410) 964-8444",
    "phoneUnformatted": "+14109648444",
    "claimThisBusiness": false,
    "location": {
      "lat": 39.2147736,
      "lng": -76.8840765
    },
    "totalScore": 3.9,
    "permanentlyClosed": false,
    "temporarilyClosed": false,
    "placeId": "ChIJGx4RhRLft4kRWsLujaGkD1Q",
    "categories": [
      "Pharmacy"
    ],
    "fid": "0x89b7df1285111e1b:0x540fa4a18deec25a",
    "cid": "6057241037614531162",
    "reviewsCount": 27,
    "imagesCount": 2,
    "imageCategories": [],
    "scrapedAt": "2025-06-22T05:28:01.766Z",
    "googleFoodUrl": null,
    "hotelAds": [],
    "openingHours": [
      {
        "day": "Monday",
        "hours": "9\u202fAM to 6\u202fPM"
      },
      {
        "day": "Tuesday",
        "hours": "9\u202fAM to 6\u202fPM"
      },
      {
        "day": "Wednesday",
        "hours": "9\u202fAM to 6\u202fPM"
      },
      {
        "day": "Thursday",
        "hours": "9\u202fAM to 6\u202fPM"
      },
      {
        "day": "Friday",
        "hours": "9\u202fAM to 5\u202fPM"
      },
      {
        "day": "Saturday",
        "hours": "9\u202fAM to 2\u202fPM"
      },
      {
        "day": "Sunday",
        "hours": "Closed"
      }
    ],
    "peopleAlsoSearch": [],
    "placesTags": [],
    "reviewsTags": [],
    "additionalInfo": {
      "From the business": [
        {
          "Small business": true
        }
      ],
      "Service options": [
        {
          "Delivery": true
        },
        {
          "In-store pickup": true
        }
      ],
      "Accessibility": [
        {
          "Wheelchair accessible entrance": true
        },
        {
          "Wheelchair accessible parking lot": true
        }
      ],
      "Payments": [
        {
          "Credit cards": true
        }
      ]
    },
    "gasPrices": [],
    "url": "https://www.google.com/maps/search/?api=1&query=Feldman's%20Medical%20Center%20Pharmacy&query_place_id=ChIJGx4RhRLft4kRWsLujaGkD1Q",
    "searchPageUrl": "https://www.google.com/maps/search/independent%20pharmacy%20Columbia%20MD/@61.56929586514925,-164.61850082811145,9z?hl=en",
    "searchString": "independent pharmacy Columbia MD",
    "language": "en",
    "rank": 7,
    "isAdvertisement": false,
    "imageUrl": "https://lh3.googleusercontent.com/gps-cs-s/AC9h4no5jJBK62UEIOtDFL28AK00n0fw1s3w3F2H-gtPeqTa-WwMTGqyMeJOVuN9zTj_vaTy8eQ15-s2zFxVybPgHorF_WnsYmYVHNHYveReDZ3cP3ob10btpgm9LszAWcr2WKv79mc=w408-h263-k-no",
    "kgmid": "/g/1tdd64pb",
    "classification": "hospital",
    "is_independent": false,
    "confidence": 1.0,
    "source": "rule-based"
  },
  {
    "title": "LifeLine Specialty Pharmacy",
    "price": null,
    "categoryName": "Pharmacy",
    "address": "6304 Woodside Ct Ste 100, Columbia, MD 21046",
    "neighborhood": "Owen Brown",
    "street": "6304 Woodside Ct Ste 100",
    "city": "Columbia",
    "postalCode": "21046",
    "state": "Maryland",
    "countryCode": "US",
    "website": "https://www.lifelinespecialtypharmacy.com/",
    "phone": "(833) 454-3354",
    "phoneUnformatted": "+18334543354",
    "claimThisBusiness": false,
    "location": {
      "lat": 39.1957419,
      "lng": -76.8534674
    },
    "totalScore": 4.9,
    "permanentlyClosed": false,
    "temporarilyClosed": false,
    "placeId": null,
    "categories": [
      "Pharmacy"
    ],
    "fid": "0x89c821ae42855555:0xd77ca32eeb3b1e41",
    "cid": "15527465037176970817",
    "reviewsCount": 34,
    "imagesCount": 4,
    "imageCategories": [],
    "scrapedAt": "2025-06-22T05:28:01.766Z",
    "googleFoodUrl": null,
    "hotelAds": [],
    "openingHours": [
      {
        "day": "Monday",
        "hours": "8:30\u202fAM to 6:30\u202fPM"
      },
      {
        "day": "Tuesday",
        "hours": "8:30\u202fAM to 6:30\u202fPM"
      },
      {
        "day": "Wednesday",
        "hours": "8:30\u202fAM to 6:30\u202fPM"
      },
      {
        "day": "Thursday",
        "hours": "8:30\u202fAM to 6:30\u202fPM"
      },
      {
        "day": "Friday",
        "hours": "8:30\u202fAM to 6:30\u202fPM"
      },
      {
        "day": "Saturday",
        "hours": "Closed"
      },
      {
        "day": "Sunday",
        "hours": "Closed"
      }
    ],
    "peopleAlsoSearch": [],
    "placesTags": [],
    "reviewsTags": [],
    "additionalInfo": {
      "From the business": [
        {
          "Small business": true
        }
      ],
      "Service options": [
        {
          "Delivery": true
        }
      ],
      "Accessibility": [
        {
          "Wheelchair accessible entrance": true
        },
        {
          "Wheelchair accessible parking lot": true
        }
      ],
      "Payments": [
        {
          "Credit cards": true
        },
        {
          "Debit cards": true
        },
        {
          "Credit cards": true
        }
      ]
    },
    "gasPrices": [],
    "url": "https://www.google.com/maps/search/?api=1&query=LifeLine%20Specialty%20Pharmacy&query_place_id=ChIJVVWFQq4hyIkRQR476y6jfNc",
    "searchPageUrl": "https://www.google.com/maps/search/independent%20pharmacy%20Columbia%20MD/@61.56929586514925,-164.61850082811145,9z?hl=en",
    "searchString": "independent pharmacy Columbia MD",
    "language": "en",
    "rank": 8,
    "isAdvertisement": false,
    "imageUrl": "https://lh3.googleusercontent.com/p/AF1QipObf6cw5Uot1l6lFm-UqINNym-Me3o0FsDGUd4p=w426-h240-k-no",
    "kgmid": "/g/11fk0b6qc_",
    "classification": "independent",
    "is_independent": true,
    "is_compounding": false,
    "confidence": 0.9,
    "source": "perplexity",
    "method": "llm"
  },
  {
    "title": "ASP Cares",
    "price": null,
    "categoryName": "Pharmacy",
    "address": "5500 Knoll N Dr #140, Columbia, MD 21045",
    "neighborhood": "Oakland Mills",
    "street": "5500 Knoll N Dr #140",
    "city": "Columbia",
    "postalCode": "21045",
    "state": "Maryland",
    "countryCode": "US",
    "website": "http://aspcares.com/",
    "phone": "(410) 964-5500",
    "phoneUnformatted": "+14109645500",
    "claimThisBusiness": false,
    "location": {
      "lat": 39.2246009,
      "lng": -76.8408626
    },
    "totalScore": 4.3,
    "permanentlyClosed": false,
    "temporarilyClosed": false,
    "placeId": null,
    "categories": [
      "Pharmacy"
    ],
    "fid": "0x89b7dff1a909df6d:0x38c357d11c109ff6",
    "cid": "4090209442213175286",
    "reviewsCount": 15,
    "imagesCount": 3,
    "imageCategories": [],
    "scrapedAt": "2025-06-22T05:28:01.766Z",
    "googleFoodUrl": null,
    "hotelAds": [],
    "openingHours": [
      {
        "day": "Monday",
        "hours": "9\u202fAM to 5\u202fPM"
      },
      {
        "day": "Tuesday",
        "hours": "9\u202fAM to 5\u202fPM"
      },
      {
        "day": "Wednesday",
        "hours": "9\u202fAM to 5\u202fPM"
      },
      {
        "day": "Thursday",
        "hours": "9\u202fAM to 5\u202fPM"
      },
      {
        "day": "Friday",
        "hours": "9\u202fAM to 5\u202fPM"
      },
      {
        "day": "Saturday",
        "hours": "Closed"
      },
      {
        "day": "Sunday",
        "hours": "Closed"
      }
    ],
    "peopleAlsoSearch": [],
    "placesTags": [],
    "reviewsTags": [],
    "additionalInfo": {
      "Service options": [
        {
          "Delivery": true
        }
      ],
      "Accessibility": [
        {
          "Wheelchair accessible entrance": true
        },
        {
          "Wheelchair accessible parking lot": true
        }
      ],
      "Payments": [
        {
          "Credit cards": true
        }
      ]
    },
    "gasPrices": [],
    "url": "https://www.google.com/maps/search/?api=1&query=ASP%20Cares&query_place_id=ChIJbd8JqfHft4kR9p8QHNFXwzg",
    "searchPageUrl": "https://www.google.com/maps/search/independent%20pharmacy%20Columbia%20MD/@61.56929586514925,-164.61850082811145,9z?hl=en",
    "searchString": "independent pharmacy Columbia MD",
    "language": "en",
    "rank": 9,
    "isAdvertisement": false,
    "imageUrl": "https://lh3.googleusercontent.com/gps-cs-s/AC9h4nrMXD_3QBUnaGmJWRcqbJWj_M99PcII0rH_tRKtZ1p5ziRBH7VokmTN57_ovdghokF2qaOz6drWidrqKNAWj1mOGK039cS1GPlQWe1dVgXWEeBiCb57bmDy3jk7kYe6eKf4NbI6oclC3hFh=w408-h306-k-no",
    "kgmid": "/g/11btwk36mc",
    "classification": "independent",
    "is_independent": true,
    "is_compounding": false,
    "confidence": 0.85,
    "source": "perplexity",
    "method": "llm"
  },
  {
    "title": "PharMerica- Columbia, MD",
    "price": null,
    "categoryName": "Pharmacy",
    "address": "7100 Columbia Gateway Dr #100, Columbia, MD 21046",
    "neighborhood": null,
    "street": "7100 Columbia Gateway Dr #100",
    "city": "Columbia",
    "postalCode": "21046",
    "state": "Maryland",
    "countryCode": "US",
    "website": "https://pharmerica.com/",
    "phone": "(800) 336-7874",
    "phoneUnformatted": "+18003367874",
    "claimThisBusiness": false,
    "location": {
      "lat": 39.1747513,
      "lng": -76.8070123
    },
    "permanentlyClosed": false,
    "temporarilyClosed": false,
    "placeId": null,
    "categories": [
      "Pharmacy"
    ],
    "fid": "0x89b7e1e8c62bf8b3:0x3c2bc425b0808bad",
    "cid": "4335774732428282797",
    "reviewsCount": 0,
    "imagesCount": 1,
    "imageCategories": [],
    "scrapedAt": "2025-06-22T05:28:18.895Z",
    "googleFoodUrl": null,
    "hotelAds": [],
    "openingHours": [
      {
        "day": "Monday",
        "hours": "Open 24 hours"
      },
      {
        "day": "Tuesday",
        "hours": "Open 24 hours"
      },
      {
        "day": "Wednesday",
        "hours": "Open 24 hours"
      },
      {
        "day": "Thursday",
        "hours": "Open 24 hours"
      },
      {
        "day": "Friday",
        "hours": "Open 24 hours"
      },
      {
        "day": "Saturday",
        "hours": "Open 24 hours"
      },
      {
        "day": "Sunday",
        "hours": "Open 24 hours"
      }
    ],
    "peopleAlsoSearch": [],
    "placesTags": [],
    "reviewsTags": [],
    "additionalInfo": {
      "Accessibility": [
        {
          "Wheelchair accessible entrance": true
        },
        {
          "Wheelchair accessible parking lot": true
        }
      ]
    },
    "gasPrices": [],
    "url": "https://www.google.com/maps/search/?api=1&query=PharMerica-%20Columbia%2C%20MD&query_place_id=ChIJs_grxujht4kRrYuAsCXEKzw",
    "searchPageUrl": "https://www.google.com/maps/search/independent%20pharmacy%20Columbia%20MD/@65.73786228335844,-150.80891300000008,9z?hl=en",
    "searchString": "independent pharmacy Columbia MD",
    "language": "en",
    "rank": 3,
    "isAdvertisement": false,
    "imageUrl": "https://streetviewpixels-pa.googleapis.com/v1/thumbnail?panoid=y4SLwFLwX1q0QWJZh-cUeA&cb_client=search.gws-prod.gps&w=408&h=240&yaw=250.10727&pitch=0&thumbfov=100",
    "kgmid": "/g/11w4rtvd5x",
    "classification": "chain",
    "is_independent": false,
    "is_compounding": false,
    "confidence": 0.95,
    "source": "perplexity",
    "method": "llm"
  },
  {
    "title": "Ask US Pharmacist",
    "price": null,
    "categoryName": "Pharmacy",
    "address": "6230 Old Dobbin Ln Suite 160, Columbia, MD 21045",
    "neighborhood": "Long Reach",
    "street": "6230 Old Dobbin Ln Suite 160",
    "city": "Columbia",
    "postalCode": "21045",
    "state": "Maryland",
    "countryCode": "US",
    "website": "https://askuspharmacist.com/",
    "phone": "(410) 600-3770",
    "phoneUnformatted": "+14106003770",
    "claimThisBusiness": false,
    "location": {
      "lat": 39.2011259,
      "lng": -76.8166474
    },
    "totalScore": 1,
    "permanentlyClosed": false,
    "temporarilyClosed": false,
    "placeId": null,
    "categories": [
      "Pharmacy",
      "Mental health service",
      "Public health department"
    ],
    "fid": "0x89c81f48d1cfc155:0x988d9042b7997ae4",
    "cid": "10992600881703779044",
    "reviewsCount": 2,
    "imagesCount": 6,
    "imageCategories": [],
    "scrapedAt": "2025-06-22T05:28:18.896Z",
    "googleFoodUrl": null,
    "hotelAds": [],
    "openingHours": [
      {
        "day": "Monday",
        "hours": "Open 24 hours"
      },
      {
        "day": "Tuesday",
        "hours": "Open 24 hours"
      },
      {
        "day": "Wednesday",
        "hours": "Open 24 hours"
      },
      {
        "day": "Thursday",
        "hours": "Open 24 hours"
      },
      {
        "day": "Friday",
        "hours": "Open 24 hours"
      },
      {
        "day": "Saturday",
        "hours": "Open 24 hours"
      },
      {
        "day": "Sunday",
        "hours": "Open 24 hours"
      }
    ],
    "peopleAlsoSearch": [],
    "placesTags": [],
    "reviewsTags": [],
    "additionalInfo": {
      "From the business": [
        {
          "Small business": true
        }
      ],
      "Accessibility": [
        {
          "Wheelchair accessible entrance": true
        },
        {
          "Wheelchair accessible parking lot": true
        }
      ],
      "Payments": [
        {
          "Credit cards": true
        }
      ],
      "Parking": [
        {
          "Free parking garage": true
        },
        {
          "Free parking lot": true
        },
        {
          "On-site parking": true
        }
      ]
    },
    "gasPrices": [],
    "url": "https://www.google.com/maps/search/?api=1&query=Ask%20US%20Pharmacist&query_place_id=ChIJVcHP0UgfyIkR5HqZt0KQjZg",
    "searchPageUrl": "https://www.google.com/maps/search/independent%20pharmacy%20Columbia%20MD/@65.73786228335844,-150.80891300000008,9z?hl=en",
    "searchString": "independent pharmacy Columbia MD",
    "language": "en",
    "rank": 6,
    "isAdvertisement": false,
    "imageUrl": "https://lh3.googleusercontent.com/p/AF1QipOvYYVmmn8JlEjMutokvDYT3hhaTlPnAVr9x-RJ=w408-h272-k-no",
    "kgmid": "/g/11s5gy3x9w",
    "classification": "independent",
    "is_independent": true,
    "is_compounding": false,
    "confidence": 0.9,
    "source": "perplexity",
    "method": "llm"
  },
  {
    "title": "Terrapin Pharmacy Inc",
    "price": null,
    "categoryName": "Pharmacy",
    "address": "Columbia, MD 21044",
    "neighborhood": "Hickory Ridge",
    "street": null,
    "city": "Columbia",
    "postalCode": "21044",
    "state": "Maryland",
    "countryCode": "US",
    "claimThisBusiness": true,
    "location": {
      "lat": 39.2066084,
      "lng": -76.8836573
    },
    "permanentlyClosed": false,
    "temporarilyClosed": false,
    "placeId": null,
    "categories": [
      "Pharmacy"
    ],
    "fid": "0x89b7df0fffffffff:0xf631843c4ff605a",
    "cid": "1108756612610220122",
    "reviewsCount": 0,
    "imagesCount": 1,
    "imageCategories": [],
    "scrapedAt": "2025-06-22T05:28:18.896Z",
    "googleFoodUrl": null,
    "hotelAds": [],
    "openingHours": [],
    "peopleAlsoSearch": [],
    "placesTags": [],
    "reviewsTags": [],
    "additionalInfo": {
      "Accessibility": [
        {
          "Wheelchair accessible entrance": true
        },
        {
          "Wheelchair accessible parking lot": true
        }
      ]
    },
    "gasPrices": [],
    "url": "https://www.google.com/maps/search/?api=1&query=Terrapin%20Pharmacy%20Inc&query_place_id=ChIJ_____w_ft4kRWmD_xEMYYw8",
    "searchPageUrl": "https://www.google.com/maps/search/independent%20pharmacy%20Columbia%20MD/@65.73786228335844,-150.80891300000008,9z?hl=en",
    "searchString": "independent pharmacy Columbia MD",
    "language": "en",
    "rank": 7,
    "isAdvertisement": false,
    "imageUrl": "https://streetviewpixels-pa.googleapis.com/v1/thumbnail?panoid=xqu6tBhiPdCule7yjGAh4g&cb_client=search.gws-prod.gps&w=408&h=240&yaw=91.88947&pitch=0&thumbfov=100",
    "kgmid": "/g/12607p6rd",
    "classification": "independent",
    "is_independent": true,
    "is_compounding": false,
    "confidence": 0.85,
    "source": "perplexity",
    "method": "llm"
  },
  {
    "title": "Advanced Pharmacy",
    "price": null,
    "categoryName": "Pharmacy",
    "address": "8910 MD-108 STE C, Columbia, MD 21045",
    "neighborhood": null,
    "street": "8910 MD-108 STE C",
    "city": "Columbia",
    "postalCode": "21045",
    "state": "Maryland",
    "countryCode": "US",
    "website": "http://www.advancedpharmacy.com/",
    "phone": "(410) 910-9260",
    "phoneUnformatted": "+14109109260",
    "claimThisBusiness": true,
    "location": {
      "lat": 39.2275001,
      "lng": -76.8215635
    },
    "permanentlyClosed": false,
    "temporarilyClosed": false,
    "placeId": "ChIJ33sgdQHgt4kRr2b5H14poTw",
    "categories": [
      "Pharmacy"
    ],
    "fid": "0x89b7e00175207bdf:0x3ca1295e1ff966af",
    "cid": "4368818597766194863",
    "reviewsCount": 0,
    "imagesCount": 1,
    "imageCategories": [],
    "scrapedAt": "2025-06-22T05:28:18.896Z",
    "googleFoodUrl": null,
    "hotelAds": [],
    "openingHours": [
      {
        "day": "Monday",
        "hours": "9\u202fAM to 6\u202fPM"
      },
      {
        "day": "Tuesday",
        "hours": "9\u202fAM to 6\u202fPM"
      },
      {
        "day": "Wednesday",
        "hours": "9\u202fAM to 6\u202fPM"
      },
      {
        "day": "Thursday",
        "hours": "9\u202fAM to 6\u202fPM"
      },
      {
        "day": "Friday",
        "hours": "9\u202fAM to 6\u202fPM"
      },
      {
        "day": "Saturday",
        "hours": "10\u202fAM to 2\u202fPM"
      },
      {
        "day": "Sunday",
        "hours": "Closed"
      }
    ],
    "peopleAlsoSearch": [],
    "placesTags": [],
    "reviewsTags": [],
    "additionalInfo": {
      "Accessibility": [
        {
          "Wheelchair accessible entrance": true
        },
        {
          "Wheelchair accessible parking lot": true
        }
      ],
      "Payments": [
        {
          "Credit cards": true
        }
      ]
    },
    "gasPrices": [],
    "url": "https://www.google.com/maps/search/?api=1&query=Advanced%20Pharmacy&query_place_id=ChIJ33sgdQHgt4kRr2b5H14poTw",
    "searchPageUrl": "https://www.google.com/maps/search/independent%20pharmacy%20Columbia%20MD/@65.73786228335844,-150.80891300000008,9z?hl=en",
    "searchString": "independent pharmacy Columbia MD",
    "language": "en",
    "rank": 11,
    "isAdvertisement": false,
    "imageUrl": "https://streetviewpixels-pa.googleapis.com/v1/thumbnail?panoid=tbFmYgTeBrdyK_e6FQtxww&cb_client=search.gws-prod.gps&w=408&h=240&yaw=16.894966&pitch=0&thumbfov=100",
    "kgmid": "/g/1tdcsf8x",
    "classification": "hospital",
    "is_independent": false,
    "confidence": 1.0,
    "source": "rule-based"
  },
  {
    "title": "Aspire Health Partners - Princeton Plaza",
    "price": null,
    "categoryName": "Pharmacy",
    "address": "1800 Mercy Dr, Orlando, FL 32808",
    "neighborhood": "Mercy Drive",
    "street": "1800 Mercy Dr",
    "city": "Orlando",
    "postalCode": "32808",
    "state": "Florida",
    "countryCode": "US",
    "website": "https://aspirehealthpartners.com/programs-and-services/",
    "phone": "(407) 875-3700",
    "phoneUnformatted": "+14078753700",
    "claimThisBusiness": false,
    "location": {
      "lat": 28.5674019,
      "lng": -81.4348243
    },
    "totalScore": 1.9,
    "permanentlyClosed": false,
    "temporarilyClosed": false,
    "placeId": "ChIJ3w1dbfN554gRo2Psj6ixfM4",
    "categories": [
      "Pharmacy",
      "Care services",
      "General practitioner",
      "Hospital",
      "Mental health service",
      "Mental health clinic",
      "Psychiatric hospital"
    ],
    "fid": "0x88e779f36d5d0ddf:0xce7cb1a88fec63a3",
    "cid": "14878962606452532131",
    "reviewsCount": 217,
    "reviewsDistribution": {
      "oneStar": 155,
      "twoStar": 7,
      "threeStar": 12,
      "fourStar": 5,
      "fiveStar": 38
    },
    "imagesCount": 10,
    "imageCategories": [],
    "scrapedAt": "2025-06-22T05:29:17.363Z",
    "googleFoodUrl": null,
    "hotelAds": [],
    "openingHours": [
      {
        "day": "Monday",
        "hours": "7:15\u202fAM to 5\u202fPM"
      },
      {
        "day": "Tuesday",
        "hours": "7:15\u202fAM to 5\u202fPM"
      },
      {
        "day": "Wednesday",
        "hours": "7:15\u202fAM to 5\u202fPM"
      },
      {
        "day": "Thursday",
        "hours": "7:15\u202fAM to 5\u202fPM"
      },
      {
        "day": "Friday",
        "hours": "7:15\u202fAM to 5\u202fPM"
      },
      {
        "day": "Saturday",
        "hours": "Closed"
      },
      {
        "day": "Sunday",
        "hours": "Closed"
      }
    ],
    "peopleAlsoSearch": [],
    "placesTags": [],
    "reviewsTags": [],
    "additionalInfo": {
      "Service options": [
        {
          "Onsite services": true
        }
      ],
      "Accessibility": [
        {
          "Wheelchair accessible entrance": true
        },
        {
          "Wheelchair accessible parking lot": true
        }
      ],
      "Amenities": [
        {
          "Restroom": true
        }
      ],
      "Planning": [
        {
          "Appointments recommended": true
        }
      ]
    },
    "gasPrices": [],
    "url": "https://www.google.com/maps/search/?api=1&query=Aspire%20Health%20Partners%20-%20Princeton%20Plaza&query_place_id=ChIJ3w1dbfN554gRo2Psj6ixfM4",
    "searchPageUrl": "https://www.google.com/maps/search/independent%20pharmacy%20Columbia%20MD/@28.22663985800361,-80.15361988608069,8z?hl=en",
    "searchString": "independent pharmacy Columbia MD",
    "language": "en",
    "rank": 21,
    "isAdvertisement": false,
    "imageUrl": "https://lh3.googleusercontent.com/gps-cs-s/AC9h4np7lYrPUIwR0zShBgDhDlfGAYJsdwhHUlrvIFeirAbC_BZgoTDFxS1_4dU2UK4xEjWBLJPfknBAaqbdp1eiqAb39echKr4p1Cqva_NRB238ahTrhCD-lTCuKj8EIwutdIQvAypecA=w506-h240-k-no",
    "kgmid": "/g/1yl4913jk",
    "classification": "hospital",
    "is_independent": false,
    "confidence": 1.0,
    "source": "rule-based"
  },
  {
    "title": "Mexicare Pharmacy",
    "price": null,
    "categoryName": "Pharmacy",
    "address": "3200 W 26th St, Chicago, IL 60623",
    "neighborhood": "South Lawndale",
    "street": "3200 W 26th St",
    "city": "Chicago",
    "postalCode": "60623",
    "state": "Illinois",
    "countryCode": "US",
    "website": "https://www.mygnp.com/pharmacies/mexicare-pharmacy-chicago-il-60623/?utm_source=google&utm_medium=local&utm_campaign=localmaps&utm_content=1483445",
    "phone": "(773) 890-1800",
    "phoneUnformatted": "+17738901800",
    "claimThisBusiness": false,
    "location": {
      "lat": 41.8446483,
      "lng": -87.7052438
    },
    "totalScore": 4.5,
    "permanentlyClosed": false,
    "temporarilyClosed": false,
    "placeId": null,
    "categories": [
      "Pharmacy",
      "Drug store"
    ],
    "fid": "0x880e3271ab6bc18d:0x6d288b042d8e6cdd",
    "cid": "7865689599263010013",
    "reviewsCount": 46,
    "reviewsDistribution": {
      "oneStar": 5,
      "twoStar": 0,
      "threeStar": 0,
      "fourStar": 4,
      "fiveStar": 37
    },
    "imagesCount": 2,
    "imageCategories": [],
    "scrapedAt": "2025-06-22T05:29:26.341Z",
    "googleFoodUrl": null,
    "hotelAds": [],
    "openingHours": [
      {
        "day": "Monday",
        "hours": "9\u202fAM to 6\u202fPM"
      },
      {
        "day": "Tuesday",
        "hours": "9\u202fAM to 6\u202fPM"
      },
      {
        "day": "Wednesday",
        "hours": "9\u202fAM to 6\u202fPM"
      },
      {
        "day": "Thursday",
        "hours": "9\u202fAM to 6\u202fPM"
      },
      {
        "day": "Friday",
        "hours": "9\u202fAM to 6\u202fPM"
      },
      {
        "day": "Saturday",
        "hours": "9\u202fAM to 5\u202fPM"
      },
      {
        "day": "Sunday",
        "hours": "10\u202fAM to 2\u202fPM"
      }
    ],
    "peopleAlsoSearch": [],
    "placesTags": [],
    "reviewsTags": [],
    "additionalInfo": {
      "Service options": [
        {
          "Delivery": true
        },
        {
          "In-store pickup": true
        },
        {
          "In-store shopping": true
        },
        {
          "Onsite services": true
        },
        {
          "Same-day delivery": true
        }
      ],
      "Planning": [
        {
          "Quick visit": true
        }
      ],
      "Payments": [
        {
          "Credit cards": true
        },
        {
          "Debit cards": true
        },
        {
          "NFC mobile payments": true
        },
        {
          "Credit cards": true
        }
      ]
    },
    "gasPrices": [],
    "url": "https://www.google.com/maps/search/?api=1&query=Mexicare%20Pharmacy&query_place_id=ChIJjcFrq3EyDogR3WyOLQSLKG0",
    "searchPageUrl": "https://www.google.com/maps/search/independent%20pharmacy%20Columbia%20MD/@42.54640259466427,-86.48607177164843,8z?hl=en",
    "searchString": "independent pharmacy Columbia MD",
    "language": "en",
    "rank": 21,
    "isAdvertisement": false,
    "imageUrl": "https://lh3.googleusercontent.com/gps-cs-s/AC9h4no2K7niaZAqhCr4tS6NbYZuzb5LyA8xTd-33o9nTNFs5q9VtSYwKsiI717Oyxx32zS2tkXN9VbvkNC5tkvZzdIL9NuU_Tk6aIo8I2tzQG_GXSoILFHIcJ0RuLGRP1_EqfWb-Zs=w408-h725-k-no",
    "kgmid": "/g/1tdk1514",
    "classification": "independent",
    "is_independent": true,
    "is_compounding": false,
    "confidence": 0.9,
    "source": "perplexity",
    "method": "llm"
  },
  {
    "title": "Heritage Medical Associates",
    "price": null,
    "categoryName": "Pharmacy",
    "address": "4230 Harding Pike, Nashville, TN 37205",
    "neighborhood": null,
    "street": "4230 Harding Pike",
    "city": "Nashville",
    "postalCode": "37205",
    "state": "Tennessee",
    "countryCode": "US",
    "website": "https://www.heritagemedical.com/locations/st-thomas-office",
    "phone": "(629) 255-2115",
    "phoneUnformatted": "+16292552115",
    "claimThisBusiness": false,
    "location": {
      "lat": 36.1294908,
      "lng": -86.844601
    },
    "totalScore": 3.3,
    "permanentlyClosed": false,
    "temporarilyClosed": false,
    "placeId": null,
    "categories": [
      "Pharmacy",
      "Medical Center"
    ],
    "fid": "0x886463ddb989ad77:0x51494960da0cb5c6",
    "cid": "5857293470695994822",
    "reviewsCount": 8,
    "reviewsDistribution": {
      "oneStar": 2,
      "twoStar": 1,
      "threeStar": 1,
      "fourStar": 1,
      "fiveStar": 3
    },
    "imagesCount": 3,
    "imageCategories": [],
    "scrapedAt": "2025-06-22T05:29:28.121Z",
    "googleFoodUrl": null,
    "hotelAds": [],
    "openingHours": [
      {
        "day": "Monday",
        "hours": "8\u202fAM to 5\u202fPM"
      },
      {
        "day": "Tuesday",
        "hours": "8\u202fAM to 5\u202fPM"
      },
      {
        "day": "Wednesday",
        "hours": "8\u202fAM to 5\u202fPM"
      },
      {
        "day": "Thursday",
        "hours": "8\u202fAM to 5\u202fPM"
      },
      {
        "day": "Friday",
        "hours": "8\u202fAM to 5\u202fPM"
      },
      {
        "day": "Saturday",
        "hours": "Closed"
      },
      {
        "day": "Sunday",
        "hours": "Closed"
      }
    ],
    "peopleAlsoSearch": [],
    "placesTags": [],
    "reviewsTags": [],
    "additionalInfo": {
      "Accessibility": [
        {
          "Wheelchair accessible entrance": true
        },
        {
          "Wheelchair accessible parking lot": true
        },
        {
          "Wheelchair accessible restroom": true
        }
      ],
      "Amenities": [
        {
          "Restroom": true
        }
      ],
      "Planning": [
        {
          "Appointments recommended": true
        }
      ],
      "Payments": [
        {
          "Credit cards": true
        },
        {
          "Debit cards": true
        },
        {
          "Credit cards": true
        }
      ]
    },
    "gasPrices": [],
    "url": "https://www.google.com/maps/search/?api=1&query=Heritage%20Medical%20Associates&query_place_id=ChIJd62Jud1jZIgRxrUM2mBJSVE",
    "searchPageUrl": "https://www.google.com/maps/search/independent%20pharmacy%20Columbia%20MD/@36.81849750000001,-86.48607177164843,8z?hl=en",
    "searchString": "independent pharmacy Columbia MD",
    "language": "en",
    "rank": 21,
    "isAdvertisement": false,
    "imageUrl": "https://lh3.googleusercontent.com/p/AF1QipOo2GQ-FYnpu0HDBhFTngvn4ZBoGt9wO4nt_Y1v=w408-h271-k-no",
    "kgmid": "/g/1tk23nzn",
    "classification": "hospital",
    "is_independent": false,
    "is_compounding": false,
    "confidence": 0.9,
    "source": "perplexity",
    "method": "llm"
  },
  {
    "title": "Pharmscript of Maryland LLC",
    "price": null,
    "categoryName": "Pharmacy",
    "address": "7085 Samuel Morse Dr Suite 110, Columbia, MD 21046",
    "neighborhood": null,
    "street": "7085 Samuel Morse Dr Suite 110",
    "city": "Columbia",
    "postalCode": "21046",
    "state": "Maryland",
    "countryCode": "US",
    "website": "http://pharmscript.com/",
    "phone": "(888) 319-1818",
    "phoneUnformatted": "+18883191818",
    "claimThisBusiness": false,
    "location": {
      "lat": 39.1676106,
      "lng": -76.8104323
    },
    "totalScore": 2.5,
    "permanentlyClosed": false,
    "temporarilyClosed": false,
    "placeId": null,
    "categories": [
      "Pharmacy"
    ],
    "fid": "0x89b7e1464c4fc81b:0x49574551c0dcf37a",
    "cid": "5284768905172939642",
    "reviewsCount": 11,
    "imagesCount": null,
    "imageCategories": [],
    "scrapedAt": "2025-06-22T05:29:37.598Z",
    "googleFoodUrl": null,
    "hotelAds": [],
    "openingHours": [],
    "peopleAlsoSearch": [],
    "placesTags": [],
    "reviewsTags": [],
    "additionalInfo": {
      "Accessibility": [
        {
          "Wheelchair accessible entrance": true
        },
        {
          "Wheelchair accessible parking lot": true
        }
      ],
      "Payments": [
        {
          "Debit cards": true
        },
        {
          "Credit cards": true
        }
      ]
    },
    "gasPrices": [],
    "url": "https://www.google.com/maps/search/?api=1&query=Pharmscript%20of%20Maryland%20LLC&query_place_id=ChIJG8hPTEbht4kRevPcwFFFV0k",
    "searchPageUrl": "https://www.google.com/maps/search/independent%20pharmacy%20Columbia%20MD/@28.22663985800361,-89.6522977144323,8z?hl=en",
    "searchString": "independent pharmacy Columbia MD",
    "language": "en",
    "rank": 13,
    "isAdvertisement": false,
    "kgmid": "/g/11h6g7fg65",
    "classification": "independent",
    "is_independent": true,
    "is_compounding": false,
    "confidence": 0.85,
    "source": "perplexity",
    "method": "llm"
  },
  {
    "title": "Columbia Heights Pharmacy",
    "price": null,
    "categoryName": "Pharmacy",
    "address": "3316 14th St NW, Washington, DC 20010, United States",
    "neighborhood": "Northwest Washington",
    "street": "3316 14th St NW",
    "city": "Washington",
    "postalCode": "20010",
    "state": "District of Columbia",
    "countryCode": "US",
    "website": "http://sierrapharmcorp.com/",
    "phone": "+1 202-232-1455",
    "phoneUnformatted": "+12022321455",
    "claimThisBusiness": false,
    "location": {
      "lat": 38.9307566,
      "lng": -77.0330396
    },
    "totalScore": 4.6,
    "permanentlyClosed": false,
    "temporarilyClosed": false,
    "placeId": null,
    "categories": [
      "Pharmacy"
    ],
    "fid": "0x89b7c81f5ba512ed:0x2e056e9e32bc9ac9",
    "cid": "3316178326363347657",
    "reviewsCount": 90,
    "imagesCount": 5,
    "imageCategories": [],
    "scrapedAt": "2025-06-22T05:29:41.476Z",
    "googleFoodUrl": null,
    "hotelAds": [],
    "openingHours": [
      {
        "day": "Monday",
        "hours": "9:30\u202fAM to 5\u202fPM"
      },
      {
        "day": "Tuesday",
        "hours": "9:30\u202fAM to 6\u202fPM"
      },
      {
        "day": "Wednesday",
        "hours": "9:30\u202fAM to 6\u202fPM"
      },
      {
        "day": "Thursday",
        "hours": "9:30\u202fAM to 6\u202fPM"
      },
      {
        "day": "Friday",
        "hours": "9:30\u202fAM to 6\u202fPM"
      },
      {
        "day": "Saturday",
        "hours": "Closed"
      },
      {
        "day": "Sunday",
        "hours": "Closed"
      }
    ],
    "peopleAlsoSearch": [],
    "placesTags": [],
    "reviewsTags": [],
    "additionalInfo": {
      "From the business": [
        {
          "Small Business": true
        }
      ],
      "Service options": [
        {
          "Delivery": true
        },
        {
          "In-store pick-up": true
        },
        {
          "In-store shopping": true
        },
        {
          "Same-day delivery": true
        }
      ],
      "Accessibility": [
        {
          "Wheelchair-accessible entrance": true
        }
      ],
      "Planning": [
        {
          "Quick visit": true
        }
      ],
      "Payments": [
        {
          "Credit cards": true
        },
        {
          "Debit cards": true
        },
        {
          "NFC mobile payments": true
        },
        {
          "SNAP/EBT": true
        },
        {
          "Credit cards": true
        }
      ]
    },
    "gasPrices": [],
    "url": "https://www.google.com/maps/search/?api=1&query=Columbia%20Heights%20Pharmacy&query_place_id=ChIJ7RKlWx_It4kRyZq8Mp5uBS4",
    "searchPageUrl": "https://www.google.com/maps/search/independent%20pharmacy%20Columbia%20MD/@20.609250162781358,144.82605873688064,13z?hl=en",
    "searchString": "independent pharmacy Columbia MD",
    "language": "en",
    "rank": 10,
    "isAdvertisement": false,
    "imageUrl": "https://lh3.googleusercontent.com/gps-cs-s/AC9h4npnzfiI2flLZ92fxBELCeEYoHvaJNmkf9zbPW6xEyITTFZ6RbKjOh9i0iKI_xh7gZv7LU0UO4kSsmk5Vt_7IctlxRDd8VB5chjyVPzJ_Pfibkt2qJl81Vab6tWa4RDRGfU6IukOkA=w408-h544-k-no",
    "kgmid": "/g/1tdy0sg4",
    "classification": "independent",
    "is_independent": true,
    "is_compounding": false,
    "confidence": 0.9,
    "source": "perplexity",
    "method": "llm"
  },
  {
    "title": "Trinity Pharmacy and Medical Supplies",
    "price": null,
    "categoryName": "Pharmacy",
    "address": "8186 Lark Brown Rd STE 101, Elkridge, MD 21075",
    "neighborhood": null,
    "street": "8186 Lark Brown Rd STE 101",
    "city": "Elkridge",
    "postalCode": "21075",
    "state": "Maryland",
    "countryCode": "US",
    "website": "http://www.feldmanspharmacy.org/",
    "phone": "(443) 620-9990",
    "phoneUnformatted": "+14436209990",
    "claimThisBusiness": false,
    "location": {
      "lat": 39.1896668,
      "lng": -76.7954518
    },
    "totalScore": 4.3,
    "permanentlyClosed": false,
    "temporarilyClosed": false,
    "placeId": "ChIJxbssGFngt4kRK7LaTX6zvP0",
    "categories": [
      "Pharmacy"
    ],
    "fid": "0x89b7e059182cbbc5:0xfdbcb37e4ddab22b",
    "cid": "18283685942270800427",
    "reviewsCount": 28,
    "imagesCount": 10,
    "imageCategories": [],
    "scrapedAt": "2025-06-22T05:29:54.037Z",
    "googleFoodUrl": null,
    "hotelAds": [],
    "openingHours": [
      {
        "day": "Monday",
        "hours": "9\u202fAM to 5\u202fPM"
      },
      {
        "day": "Tuesday",
        "hours": "9\u202fAM to 5\u202fPM"
      },
      {
        "day": "Wednesday",
        "hours": "9\u202fAM to 5\u202fPM"
      },
      {
        "day": "Thursday",
        "hours": "9\u202fAM to 5\u202fPM"
      },
      {
        "day": "Friday",
        "hours": "9\u202fAM to 5\u202fPM"
      },
      {
        "day": "Saturday",
        "hours": "Closed"
      },
      {
        "day": "Sunday",
        "hours": "Closed"
      }
    ],
    "peopleAlsoSearch": [],
    "placesTags": [],
    "reviewsTags": [],
    "additionalInfo": {
      "Service options": [
        {
          "Delivery": true
        },
        {
          "In-store pickup": true
        },
        {
          "Same-day delivery": true
        }
      ],
      "Accessibility": [
        {
          "Wheelchair accessible entrance": true
        },
        {
          "Wheelchair accessible parking lot": true
        }
      ],
      "Planning": [
        {
          "Quick visit": true
        }
      ],
      "Payments": [
        {
          "Credit cards": true
        },
        {
          "Debit cards": true
        },
        {
          "NFC mobile payments": true
        },
        {
          "Credit cards": true
        }
      ]
    },
    "gasPrices": [],
    "url": "https://www.google.com/maps/search/?api=1&query=Trinity%20Pharmacy%20and%20Medical%20Supplies&query_place_id=ChIJxbssGFngt4kRK7LaTX6zvP0",
    "searchPageUrl": "https://www.google.com/maps/search/independent%20pharmacy%20Columbia%20MD/@39.68245004733214,-70.65494205772909,8z?hl=en",
    "searchString": "independent pharmacy Columbia MD",
    "language": "en",
    "rank": 10,
    "isAdvertisement": false,
    "imageUrl": "https://lh3.googleusercontent.com/p/AF1QipNfxK1R8tTt6WO6t-ne5CCCsxYu3riuTJX57lim=w408-h306-k-no",
    "kgmid": "/g/1tdc63g8",
    "classification": "hospital",
    "is_independent": false,
    "confidence": 1.0,
    "source": "rule-based"
  },
  {
    "title": "Ivan Pharmacy",
    "price": null,
    "categoryName": "Pharmacy",
    "address": "691 Columbus Ave, New York, NY 10025",
    "neighborhood": "Manhattan",
    "street": "691 Columbus Ave",
    "city": "New York",
    "postalCode": "10025",
    "state": "New York",
    "countryCode": "US",
    "website": "http://ivanpharmacy.com/",
    "phone": "(212) 222-4400",
    "phoneUnformatted": "+12122224400",
    "claimThisBusiness": false,
    "location": {
      "lat": 40.7912266,
      "lng": -73.9684435
    },
    "totalScore": 4.3,
    "permanentlyClosed": false,
    "temporarilyClosed": false,
    "placeId": "ChIJFYteC51YwokRgkfIRTdlUyU",
    "categories": [
      "Pharmacy",
      "Drug store"
    ],
    "fid": "0x89c2589d0b5e8b15:0x2553653745c84782",
    "cid": "2689604690538678146",
    "reviewsCount": 49,
    "reviewsDistribution": {
      "oneStar": 8,
      "twoStar": 0,
      "threeStar": 0,
      "fourStar": 0,
      "fiveStar": 41
    },
    "imagesCount": 2,
    "imageCategories": [],
    "scrapedAt": "2025-06-22T05:29:54.737Z",
    "googleFoodUrl": null,
    "hotelAds": [],
    "openingHours": [
      {
        "day": "Monday",
        "hours": "10\u202fAM to 6\u202fPM"
      },
      {
        "day": "Tuesday",
        "hours": "10\u202fAM to 6\u202fPM"
      },
      {
        "day": "Wednesday",
        "hours": "10\u202fAM to 6\u202fPM"
      },
      {
        "day": "Thursday",
        "hours": "10\u202fAM to 6\u202fPM"
      },
      {
        "day": "Friday",
        "hours": "10\u202fAM to 6\u202fPM"
      },
      {
        "day": "Saturday",
        "hours": "10\u202fAM to 5\u202fPM"
      },
      {
        "day": "Sunday",
        "hours": "Closed"
      }
    ],
    "peopleAlsoSearch": [],
    "placesTags": [],
    "reviewsTags": [],
    "additionalInfo": {
      "Service options": [
        {
          "Curbside pickup": true
        },
        {
          "Delivery": true
        },
        {
          "In-store pickup": true
        },
        {
          "In-store shopping": true
        },
        {
          "Same-day delivery": true
        }
      ],
      "Accessibility": [
        {
          "Wheelchair accessible entrance": true
        },
        {
          "Wheelchair accessible parking lot": false
        }
      ],
      "Planning": [
        {
          "Quick visit": true
        }
      ],
      "Payments": [
        {
          "Credit cards": true
        },
        {
          "Debit cards": true
        },
        {
          "NFC mobile payments": true
        },
        {
          "Credit cards": true
        }
      ],
      "Parking": [
        {
          "Paid street parking": true
        }
      ]
    },
    "gasPrices": [],
    "url": "https://www.google.com/maps/search/?api=1&query=Ivan%20Pharmacy&query_place_id=ChIJFYteC51YwokRgkfIRTdlUyU",
    "searchPageUrl": "https://www.google.com/maps/search/independent%20pharmacy%20Columbia%20MD/@39.68245004733214,-70.65494205772909,8z?hl=en",
    "searchString": "independent pharmacy Columbia MD",
    "language": "en",
    "rank": 21,
    "isAdvertisement": false,
    "imageUrl": "https://lh3.googleusercontent.com/gps-cs-s/AC9h4noqzfmLPXjUJbRlnvpwpEhscURF7s86PZ6kYfEiJgkExTIihfyG_oi-DSe9cst8HMDM6HsRs9w_bi9mzUMVFTjhfwH8ogiWxsLAUH7kKguMyqSPsuJnavKJVAfkVue-vabhEemaoQ=w408-h544-k-no",
    "kgmid": "/g/1tk8php4",
    "classification": "hospital",
    "is_independent": false,
    "confidence": 1.0,
    "source": "rule-based"
  }
]