[
  {
    "title": "Living Well Pharmacy and Natural Health Store",
    "price": null,
    "categoryName": "Pharmacy",
    "address": "723 N Broad St, Middletown, DE 19709",
    "neighborhood": null,
    "street": "723 N Broad St",
    "city": "Middletown",
    "postalCode": "19709",
    "state": "Delaware",
    "countryCode": "US",
    "website": "http://www.livingwellpharm.com/",
    "phone": "(302) 378-8228",
    "phoneUnformatted": "+13023788228",
    "claimThisBusiness": false,
    "location": {
      "lat": 39.4594175,
      "lng": -75.7172233
    },
    "totalScore": 4,
    "permanentlyClosed": false,
    "temporarilyClosed": false,
    "placeId": null,
    "categories": [
      "Pharmacy",
      "Health consultant",
      "Natural goods store",
      "Vitamin & supplements store"
    ],
    "fid": "0x89c7a0795fa8f68f:0xaff27d16847b5468",
    "cid": "12678333436666795112",
    "reviewsCount": 38,
    "imagesCount": 235,
    "imageCategories": [],
    "scrapedAt": "2025-06-22T07:29:59.506Z",
    "googleFoodUrl": null,
    "hotelAds": [],
    "openingHours": [
      {
        "day": "Monday",
        "hours": "10\u202fAM to 6\u202fPM"
      },
      {
        "day": "Tuesday",
        "hours": "10\u202fAM to 6\u202fPM"
      },
      {
        "day": "Wednesday",
        "hours": "10\u202fAM to 6\u202fPM"
      },
      {
        "day": "Thursday",
        "hours": "10\u202fAM to 6\u202fPM"
      },
      {
        "day": "Friday",
        "hours": "10\u202fAM to 6\u202fPM"
      },
      {
        "day": "Saturday",
        "hours": "9\u202fAM to 5\u202fPM"
      },
      {
        "day": "Sunday",
        "hours": "Closed"
      }
    ],
    "peopleAlsoSearch": [],
    "placesTags": [],
    "reviewsTags": [],
    "additionalInfo": {
      "From the business": [
        {
          "Small business": true
        }
      ],
      "Service options": [
        {
          "Curbside pickup": true
        },
        {
          "In-store pickup": true
        },
        {
          "In-store shopping": true
        },
        {
          "Onsite services": true
        },
        {
          "French": true
        }
      ],
      "Accessibility": [
        {
          "Wheelchair accessible entrance": true
        },
        {
          "Wheelchair accessible parking lot": true
        }
      ],
      "Planning": [
        {
          "Quick visit": true
        }
      ],
      "Payments": [
        {
          "Credit cards": true
        },
        {
          "Debit cards": true
        },
        {
          "NFC mobile payments": true
        },
        {
          "Credit cards": true
        }
      ]
    },
    "gasPrices": [],
    "url": "https://www.google.com/maps/search/?api=1&query=Living%20Well%20Pharmacy%20and%20Natural%20Health%20Store&query_place_id=ChIJj_aoX3mgx4kRaFR7hBZ98q8",
    "searchPageUrl": "https://www.google.com/maps/search/independent%20pharmacy%20Middletown%20DE/@60.447283950000006,-172.1366914143152,12z?hl=en",
    "searchString": "independent pharmacy Middletown DE",
    "language": "en",
    "rank": 1,
    "isAdvertisement": false,
    "imageUrl": "https://lh3.googleusercontent.com/gps-cs-s/AC9h4noA6Mp9yXSllHwlW1rVTBcOCqS4gUYfFxHVDKD5lDEq8bnAS4Vcr2m7jae2IEYzUmJ5J1zNJKx-jvUGD_PkSWxWTFM39N0-0dWtmMIHLcPT5C6KUZqOo6RziI6FMtzbM4_uvfA=w426-h240-k-no",
    "kgmid": "/g/12m96yj97",
    "classification": "independent",
    "is_independent": true,
    "is_compounding": false,
    "confidence": 0.9,
    "source": "perplexity",
    "method": "llm"
  },
  {
    "title": "Walgreens Pharmacy",
    "description": "Department of the Walgreens chain providing prescription medications & other health-related items.",
    "price": "$$",
    "categoryName": "Pharmacy",
    "address": "700 S Ridge Ave, Middletown, DE 19709",
    "neighborhood": null,
    "street": "700 S Ridge Ave",
    "city": "Middletown",
    "postalCode": "19709",
    "state": "Delaware",
    "countryCode": "US",
    "website": "https://www.walgreens.com/locator/walgreens-700+s+ridge+ave-middletown-de-19709/id=12462",
    "phone": "(302) 378-9512",
    "phoneUnformatted": "+13023789512",
    "claimThisBusiness": false,
    "location": {
      "lat": 39.4481034,
      "lng": -75.7313105
    },
    "totalScore": 2.3,
    "permanentlyClosed": false,
    "temporarilyClosed": false,
    "placeId": null,
    "categories": [
      "Pharmacy"
    ],
    "fid": "0x89c7a06b7e01c41d:0xa9143e2fcd2efe09",
    "cid": "12183431266970828297",
    "reviewsCount": 6,
    "imagesCount": 7,
    "imageCategories": [],
    "scrapedAt": "2025-06-22T07:29:59.507Z",
    "googleFoodUrl": null,
    "hotelAds": [],
    "openingHours": [
      {
        "day": "Monday",
        "hours": "9:30\u202fAM to 1:30\u202fPM, 2 to 6\u202fPM"
      },
      {
        "day": "Tuesday",
        "hours": "9:30\u202fAM to 1:30\u202fPM, 2 to 6\u202fPM"
      },
      {
        "day": "Wednesday",
        "hours": "9:30\u202fAM to 1:30\u202fPM, 2 to 6\u202fPM"
      },
      {
        "day": "Thursday",
        "hours": "9:30\u202fAM to 1:30\u202fPM, 2 to 6\u202fPM"
      },
      {
        "day": "Friday",
        "hours": "9:30\u202fAM to 1:30\u202fPM, 2 to 6\u202fPM"
      },
      {
        "day": "Saturday",
        "hours": "Closed"
      },
      {
        "day": "Sunday",
        "hours": "Closed"
      }
    ],
    "additionalOpeningHours": {
      "Drive through": [
        {
          "day": "Monday",
          "hours": "9:30\u202fAM\u20131:30\u202fPM"
        },
        {
          "day": "Tuesday",
          "hours": "9:30\u202fAM\u20131:30\u202fPM"
        },
        {
          "day": "Wednesday",
          "hours": "9:30\u202fAM\u20131:30\u202fPM"
        },
        {
          "day": "Thursday",
          "hours": "9:30\u202fAM\u20131:30\u202fPM"
        },
        {
          "day": "Friday",
          "hours": "9:30\u202fAM\u20131:30\u202fPM"
        },
        {
          "day": "Saturday",
          "hours": "Closed"
        },
        {
          "day": "Sunday",
          "hours": "Closed"
        }
      ]
    },
    "peopleAlsoSearch": [],
    "placesTags": [],
    "reviewsTags": [],
    "additionalInfo": {
      "Service options": [
        {
          "Drive-through": true
        },
        {
          "In-store pickup": true
        },
        {
          "Onsite services": true
        }
      ],
      "Accessibility": [
        {
          "Wheelchair accessible entrance": true
        },
        {
          "Wheelchair accessible parking lot": true
        }
      ],
      "Offerings": [
        {
          "Naloxone": true
        }
      ],
      "Planning": [
        {
          "Quick visit": true
        }
      ],
      "Payments": [
        {
          "Checks": true
        },
        {
          "Credit cards": true
        },
        {
          "Debit cards": true
        }
      ]
    },
    "gasPrices": [],
    "url": "https://www.google.com/maps/search/?api=1&query=Walgreens%20Pharmacy&query_place_id=ChIJHcQBfmugx4kRCf4uzS8-FKk",
    "searchPageUrl": "https://www.google.com/maps/search/independent%20pharmacy%20Middletown%20DE/@60.447283950000006,-172.1366914143152,12z?hl=en",
    "searchString": "independent pharmacy Middletown DE",
    "language": "en",
    "rank": 2,
    "isAdvertisement": false,
    "imageUrl": "https://lh3.googleusercontent.com/gps-cs-s/AC9h4nrD8oyZlt_VmMTE0RTm2GCkULdISfPxt_muOECX2DEQXZCB-tYM7HxdEhXiAL7GNr_h0KDImynAZSeW8aYxZKAaEbgTResFTGKf-BbdvtuEYpd8hDPgUMTB9iRhciG4DQ0xU_fyag=w408-h544-k-no",
    "kgmid": "/g/11cn96r_fh",
    "classification": "chain",
    "is_independent": false,
    "is_compounding": false,
    "confidence": 1.0,
    "source": "perplexity",
    "method": "llm"
  },
  {
    "title": "Giant Pharmacy",
    "price": "$$",
    "categoryName": "Pharmacy",
    "address": "200 Dove Run Centre Dr, Middletown, DE 19709",
    "neighborhood": null,
    "street": "200 Dove Run Centre Dr",
    "city": "Middletown",
    "postalCode": "19709",
    "state": "Delaware",
    "countryCode": "US",
    "website": "https://pharmacy.giantfood.com/de/middletown/200-dove-run-drive?y_source=1_MTE2Mzg1NjEtNzE1LWxvY2F0aW9uLndlYnNpdGU%3D",
    "phone": "(302) 828-9181",
    "phoneUnformatted": "+13028289181",
    "claimThisBusiness": false,
    "location": {
      "lat": 39.4543794,
      "lng": -75.689068
    },
    "totalScore": 3.9,
    "permanentlyClosed": false,
    "temporarilyClosed": false,
    "placeId": null,
    "categories": [
      "Pharmacy"
    ],
    "fid": "0x89c70af314d89c47:0x2eee9cd2039041ae",
    "cid": "3381812796018672046",
    "reviewsCount": 15,
    "imagesCount": 10,
    "imageCategories": [],
    "scrapedAt": "2025-06-22T07:29:59.508Z",
    "googleFoodUrl": null,
    "hotelAds": [],
    "openingHours": [
      {
        "day": "Monday",
        "hours": "9\u202fAM to 9\u202fPM"
      },
      {
        "day": "Tuesday",
        "hours": "9\u202fAM to 9\u202fPM"
      },
      {
        "day": "Wednesday",
        "hours": "9\u202fAM to 9\u202fPM"
      },
      {
        "day": "Thursday",
        "hours": "9\u202fAM to 9\u202fPM"
      },
      {
        "day": "Friday",
        "hours": "9\u202fAM to 9\u202fPM"
      },
      {
        "day": "Saturday",
        "hours": "9\u202fAM to 6\u202fPM"
      },
      {
        "day": "Sunday",
        "hours": "10\u202fAM to 5\u202fPM"
      }
    ],
    "peopleAlsoSearch": [],
    "placesTags": [],
    "reviewsTags": [],
    "additionalInfo": {
      "Service options": [
        {
          "Delivery": true
        },
        {
          "In-store pickup": true
        },
        {
          "Onsite services": true
        }
      ],
      "Accessibility": [
        {
          "Wheelchair accessible entrance": true
        },
        {
          "Wheelchair accessible parking lot": true
        }
      ],
      "Planning": [
        {
          "Quick visit": true
        }
      ],
      "Payments": [
        {
          "Credit cards": true
        }
      ]
    },
    "gasPrices": [],
    "url": "https://www.google.com/maps/search/?api=1&query=Giant%20Pharmacy&query_place_id=ChIJR5zYFPMKx4kRrkGQA9Kc7i4",
    "searchPageUrl": "https://www.google.com/maps/search/independent%20pharmacy%20Middletown%20DE/@60.447283950000006,-172.1366914143152,12z?hl=en",
    "searchString": "independent pharmacy Middletown DE",
    "language": "en",
    "rank": 3,
    "isAdvertisement": false,
    "imageUrl": "https://lh3.googleusercontent.com/gps-cs-s/AC9h4nq6nI6F0CdlKV7taob17hCmgb7vrnp0U0rMZ28oTvR3dBWVw4fA2czn00Amnod_o3LRQThjHgUMPdHd09h4XTpVyLDn7Qfc7bJKLJlE5zlZgx5iGn6dloxCY6f6YbOmKacFLkXo=w408-h306-k-no",
    "kgmid": "/g/11b674q8xw",
    "classification": "chain",
    "is_independent": false,
    "is_compounding": false,
    "confidence": 0.98,
    "source": "perplexity",
    "method": "llm"
  },
  {
    "title": "CVS Pharmacy",
    "price": null,
    "categoryName": "Pharmacy",
    "address": "674 Middletown Odessa Rd, Middletown, DE 19709",
    "neighborhood": null,
    "street": "674 Middletown Odessa Rd",
    "city": "Middletown",
    "postalCode": "19709",
    "state": "Delaware",
    "countryCode": "US",
    "website": "https://www.cvs.com/store-locator/middletown-de-pharmacies/674-middletown-odessa-rd-middletown-de-19709/storeid=10375?WT.mc_id=LS_GOOGLE_RX_10375",
    "phone": "(302) 378-2287",
    "phoneUnformatted": "+13023782287",
    "claimThisBusiness": false,
    "location": {
      "lat": 39.4529122,
      "lng": -75.6817399
    },
    "totalScore": 3.5,
    "permanentlyClosed": false,
    "temporarilyClosed": false,
    "placeId": null,
    "categories": [
      "Pharmacy"
    ],
    "fid": "0x89c70af0fde51583:0xedba6352392fdf88",
    "cid": "17130113337455009672",
    "reviewsCount": 22,
    "imagesCount": 12,
    "imageCategories": [],
    "scrapedAt": "2025-06-22T07:29:59.508Z",
    "googleFoodUrl": null,
    "hotelAds": [],
    "openingHours": [
      {
        "day": "Monday",
        "hours": "9\u202fAM to 1:30\u202fPM, 2 to 8\u202fPM"
      },
      {
        "day": "Tuesday",
        "hours": "9\u202fAM to 1:30\u202fPM, 2 to 8\u202fPM"
      },
      {
        "day": "Wednesday",
        "hours": "9\u202fAM to 1:30\u202fPM, 2 to 8\u202fPM"
      },
      {
        "day": "Thursday",
        "hours": "9\u202fAM to 1:30\u202fPM, 2 to 8\u202fPM"
      },
      {
        "day": "Friday",
        "hours": "9\u202fAM to 1:30\u202fPM, 2 to 8\u202fPM"
      },
      {
        "day": "Saturday",
        "hours": "9\u202fAM to 1:30\u202fPM, 2 to 6\u202fPM"
      },
      {
        "day": "Sunday",
        "hours": "10\u202fAM to 1:30\u202fPM, 2 to 5\u202fPM"
      }
    ],
    "peopleAlsoSearch": [],
    "placesTags": [],
    "reviewsTags": [],
    "additionalInfo": {
      "Service options": [
        {
          "Delivery": true
        },
        {
          "Drive-through": true
        },
        {
          "In-store pickup": true
        },
        {
          "In-store shopping": true
        }
      ],
      "Accessibility": [
        {
          "Wheelchair accessible entrance": true
        },
        {
          "Wheelchair accessible parking lot": true
        }
      ],
      "Offerings": [
        {
          "Medication disposal": true
        },
        {
          "Naloxone": true
        },
        {
          "Passport photos": true
        }
      ],
      "Crowd": [
        {
          "LGBTQ+ friendly": true
        },
        {
          "Transgender safespace": true
        }
      ],
      "Planning": [
        {
          "Quick visit": true
        }
      ],
      "Payments": [
        {
          "Credit cards": true
        },
        {
          "Debit cards": true
        },
        {
          "NFC mobile payments": true
        },
        {
          "Credit cards": true
        }
      ]
    },
    "gasPrices": [],
    "url": "https://www.google.com/maps/search/?api=1&query=CVS%20Pharmacy&query_place_id=ChIJgxXl_fAKx4kRiN8vOVJjuu0",
    "searchPageUrl": "https://www.google.com/maps/search/independent%20pharmacy%20Middletown%20DE/@60.447283950000006,-172.1366914143152,12z?hl=en",
    "searchString": "independent pharmacy Middletown DE",
    "language": "en",
    "rank": 4,
    "isAdvertisement": false,
    "imageUrl": "https://lh3.googleusercontent.com/p/AF1QipPdDUw63nGyf0AV_DCHEX3mt3ZFQVAAKrFW_99m=w408-h272-k-no",
    "kgmid": "/g/11c463ly2q",
    "classification": "chain",
    "is_independent": false,
    "is_compounding": false,
    "confidence": 1.0,
    "source": "perplexity",
    "method": "llm"
  },
  {
    "title": "CVS Pharmacy",
    "price": null,
    "categoryName": "Pharmacy",
    "address": "361 Middletown Warwick Rd, Middletown, DE 19709",
    "neighborhood": null,
    "street": "361 Middletown Warwick Rd",
    "city": "Middletown",
    "postalCode": "19709",
    "state": "Delaware",
    "countryCode": "US",
    "website": "https://www.cvs.com/store-locator/middletown-de-pharmacies/361-middletown-warwick-rd-middletown-de-19709/storeid=17912?WT.mc_id=LS_GOOGLE_RX_17912",
    "phone": "(302) 828-9045",
    "phoneUnformatted": "+13028289045",
    "claimThisBusiness": false,
    "location": {
      "lat": 39.4562258,
      "lng": -75.7253238
    },
    "totalScore": 5,
    "permanentlyClosed": false,
    "temporarilyClosed": false,
    "placeId": null,
    "categories": [
      "Pharmacy"
    ],
    "fid": "0x89c7a1c951523ed1:0x6023b594ad2e506e",
    "cid": "6927580301991235694",
    "reviewsCount": 1,
    "imagesCount": 3,
    "imageCategories": [],
    "scrapedAt": "2025-06-22T07:29:59.508Z",
    "googleFoodUrl": null,
    "hotelAds": [],
    "openingHours": [
      {
        "day": "Monday",
        "hours": "9\u202fAM to 1:30\u202fPM, 2 to 7\u202fPM"
      },
      {
        "day": "Tuesday",
        "hours": "9\u202fAM to 1:30\u202fPM, 2 to 7\u202fPM"
      },
      {
        "day": "Wednesday",
        "hours": "9\u202fAM to 1:30\u202fPM, 2 to 7\u202fPM"
      },
      {
        "day": "Thursday",
        "hours": "9\u202fAM to 1:30\u202fPM, 2 to 7\u202fPM"
      },
      {
        "day": "Friday",
        "hours": "9\u202fAM to 1:30\u202fPM, 2 to 7\u202fPM"
      },
      {
        "day": "Saturday",
        "hours": "9\u202fAM to 1:30\u202fPM, 2 to 5\u202fPM"
      },
      {
        "day": "Sunday",
        "hours": "10\u202fAM to 1:30\u202fPM, 2 to 5\u202fPM"
      }
    ],
    "peopleAlsoSearch": [],
    "placesTags": [],
    "reviewsTags": [],
    "additionalInfo": {
      "Service options": [
        {
          "Delivery": true
        },
        {
          "In-store shopping": true
        }
      ],
      "Accessibility": [
        {
          "Wheelchair accessible entrance": true
        },
        {
          "Wheelchair accessible parking lot": true
        }
      ],
      "Crowd": [
        {
          "LGBTQ+ friendly": true
        },
        {
          "Transgender safespace": true
        }
      ],
      "Planning": [
        {
          "Quick visit": true
        }
      ],
      "Payments": [
        {
          "Credit cards": true
        },
        {
          "Debit cards": true
        },
        {
          "Credit cards": true
        }
      ]
    },
    "gasPrices": [],
    "url": "https://www.google.com/maps/search/?api=1&query=CVS%20Pharmacy&query_place_id=ChIJ0T5SUcmhx4kRblAurZS1I2A",
    "searchPageUrl": "https://www.google.com/maps/search/independent%20pharmacy%20Middletown%20DE/@60.447283950000006,-172.1366914143152,12z?hl=en",
    "searchString": "independent pharmacy Middletown DE",
    "language": "en",
    "rank": 5,
    "isAdvertisement": false,
    "imageUrl": "https://lh3.googleusercontent.com/p/AF1QipPCpxH99AGqHzj5Uc_hf-9wfXoslq2knJdyktgI=w408-h272-k-no",
    "kgmid": "/g/11lv7y3tlc",
    "classification": "chain",
    "is_independent": false,
    "is_compounding": false,
    "confidence": 1.0,
    "source": "perplexity",
    "method": "llm"
  },
  {
    "title": "Walgreens Pharmacy",
    "description": "Department of the Walgreens chain providing prescription medications & other health-related items.",
    "price": "$$",
    "categoryName": "Pharmacy",
    "address": "2470 Dupont Pkwy, Middletown, DE 19709",
    "neighborhood": null,
    "street": "2470 Dupont Pkwy",
    "city": "Middletown",
    "postalCode": "19709",
    "state": "Delaware",
    "countryCode": "US",
    "website": "https://www.walgreens.com/locator/walgreens-2470+n+dupont+pkwy-middletown-de-19709/id=11075",
    "phone": "(302) 376-9743",
    "phoneUnformatted": "+13023769743",
    "claimThisBusiness": false,
    "location": {
      "lat": 39.493838,
      "lng": -75.6490029
    },
    "totalScore": 4.7,
    "permanentlyClosed": false,
    "temporarilyClosed": false,
    "placeId": null,
    "categories": [
      "Pharmacy"
    ],
    "fid": "0x89c70bded85e562b:0x75135f0896acab55",
    "cid": "8436191017487346517",
    "reviewsCount": 3,
    "imagesCount": 6,
    "imageCategories": [],
    "scrapedAt": "2025-06-22T07:29:59.508Z",
    "googleFoodUrl": null,
    "hotelAds": [],
    "openingHours": [
      {
        "day": "Monday",
        "hours": "9\u202fAM to 1:30\u202fPM, 2 to 8\u202fPM"
      },
      {
        "day": "Tuesday",
        "hours": "9\u202fAM to 1:30\u202fPM, 2 to 8\u202fPM"
      },
      {
        "day": "Wednesday",
        "hours": "9\u202fAM to 1:30\u202fPM, 2 to 8\u202fPM"
      },
      {
        "day": "Thursday",
        "hours": "9\u202fAM to 1:30\u202fPM, 2 to 8\u202fPM"
      },
      {
        "day": "Friday",
        "hours": "9\u202fAM to 1:30\u202fPM, 2 to 8\u202fPM"
      },
      {
        "day": "Saturday",
        "hours": "9\u202fAM to 1:30\u202fPM, 2 to 6\u202fPM"
      },
      {
        "day": "Sunday",
        "hours": "10\u202fAM to 1:30\u202fPM, 2 to 6\u202fPM"
      }
    ],
    "additionalOpeningHours": {
      "Drive through": [
        {
          "day": "Monday",
          "hours": "9\u202fAM\u20131:30\u202fPM"
        },
        {
          "day": "Tuesday",
          "hours": "9\u202fAM\u20131:30\u202fPM"
        },
        {
          "day": "Wednesday",
          "hours": "9\u202fAM\u20131:30\u202fPM"
        },
        {
          "day": "Thursday",
          "hours": "9\u202fAM\u20131:30\u202fPM"
        },
        {
          "day": "Friday",
          "hours": "9\u202fAM\u20131:30\u202fPM"
        },
        {
          "day": "Saturday",
          "hours": "9\u202fAM\u20131:30\u202fPM"
        },
        {
          "day": "Sunday",
          "hours": "10\u202fAM\u20131:30\u202fPM"
        }
      ]
    },
    "peopleAlsoSearch": [],
    "placesTags": [],
    "reviewsTags": [],
    "additionalInfo": {
      "Service options": [
        {
          "Curbside pickup": true
        },
        {
          "Drive-through": true
        },
        {
          "In-store pickup": true
        }
      ],
      "Accessibility": [
        {
          "Wheelchair accessible entrance": true
        },
        {
          "Wheelchair accessible parking lot": true
        }
      ],
      "Offerings": [
        {
          "Naloxone": true
        },
        {
          "Passport photos": true
        }
      ],
      "Planning": [
        {
          "Quick visit": true
        }
      ],
      "Payments": [
        {
          "Checks": true
        },
        {
          "Credit cards": true
        },
        {
          "Debit cards": true
        }
      ]
    },
    "gasPrices": [],
    "url": "https://www.google.com/maps/search/?api=1&query=Walgreens%20Pharmacy&query_place_id=ChIJK1Ze2N4Lx4kRVauslghfE3U",
    "searchPageUrl": "https://www.google.com/maps/search/independent%20pharmacy%20Middletown%20DE/@60.447283950000006,-172.1366914143152,12z?hl=en",
    "searchString": "independent pharmacy Middletown DE",
    "language": "en",
    "rank": 6,
    "isAdvertisement": false,
    "imageUrl": "https://lh3.googleusercontent.com/gps-cs-s/AC9h4nojKH7Zk-lmCEXNE1oAg0Y02LEf1gtt0hJfCC4CV3aGtd7H2y1clGstXoidAoVHHZu9YEiQSCckFEJklPvYtXeb2d4Idz43WUQrhUIVL5RId5L7xJiMV81L7KZx2EDqSsfA0Jv8DA=w426-h240-k-no",
    "kgmid": "/g/11cn96r_fp",
    "classification": "chain",
    "is_independent": false,
    "is_compounding": false,
    "confidence": 1.0,
    "source": "perplexity",
    "method": "llm"
  },
  {
    "title": "ACME Markets Pharmacy",
    "price": "$$",
    "categoryName": "Pharmacy",
    "address": "460 E Main St, Middletown, DE 19709",
    "neighborhood": null,
    "street": "460 E Main St",
    "city": "Middletown",
    "postalCode": "19709",
    "state": "Delaware",
    "countryCode": "US",
    "website": "https://local.pharmacy.acmemarkets.com/de/middletown/460-e-main-st.html",
    "phone": "(302) 449-1868",
    "phoneUnformatted": "+13024491868",
    "claimThisBusiness": false,
    "location": {
      "lat": 39.448507,
      "lng": -75.6976986
    },
    "totalScore": 4,
    "permanentlyClosed": false,
    "temporarilyClosed": false,
    "placeId": null,
    "categories": [
      "Pharmacy",
      "Drug store",
      "Vitamin & supplements store"
    ],
    "fid": "0x89c70a9112497839:0xeaa79f1424f72cf3",
    "cid": "16908658234854157555",
    "reviewsCount": 14,
    "imagesCount": 11,
    "imageCategories": [],
    "scrapedAt": "2025-06-22T07:29:59.508Z",
    "googleFoodUrl": null,
    "hotelAds": [],
    "openingHours": [
      {
        "day": "Monday",
        "hours": "9\u202fAM to 2\u202fPM, 2:30 to 8\u202fPM"
      },
      {
        "day": "Tuesday",
        "hours": "9\u202fAM to 2\u202fPM, 2:30 to 8\u202fPM"
      },
      {
        "day": "Wednesday",
        "hours": "9\u202fAM to 2\u202fPM, 2:30 to 8\u202fPM"
      },
      {
        "day": "Thursday",
        "hours": "9\u202fAM to 2\u202fPM, 2:30 to 8\u202fPM"
      },
      {
        "day": "Friday",
        "hours": "9\u202fAM to 2\u202fPM, 2:30 to 8\u202fPM"
      },
      {
        "day": "Saturday",
        "hours": "9\u202fAM to 5\u202fPM"
      },
      {
        "day": "Sunday",
        "hours": "9\u202fAM to 4\u202fPM"
      }
    ],
    "peopleAlsoSearch": [],
    "placesTags": [],
    "reviewsTags": [],
    "additionalInfo": {
      "Service options": [
        {
          "Delivery": true
        },
        {
          "In-store pickup": true
        },
        {
          "In-store shopping": true
        },
        {
          "Same-day delivery": true
        }
      ],
      "Accessibility": [
        {
          "Wheelchair accessible entrance": true
        },
        {
          "Wheelchair accessible parking lot": true
        }
      ],
      "Crowd": [
        {
          "LGBTQ+ friendly": true
        }
      ],
      "Planning": [
        {
          "Appointment required": true
        },
        {
          "Quick visit": true
        }
      ],
      "Payments": [
        {
          "Checks": true
        },
        {
          "Debit cards": true
        },
        {
          "Credit cards": true
        }
      ]
    },
    "gasPrices": [],
    "url": "https://www.google.com/maps/search/?api=1&query=ACME%20Markets%20Pharmacy&query_place_id=ChIJOXhJEpEKx4kR8yz3JBSfp-o",
    "searchPageUrl": "https://www.google.com/maps/search/independent%20pharmacy%20Middletown%20DE/@60.447283950000006,-172.1366914143152,12z?hl=en",
    "searchString": "independent pharmacy Middletown DE",
    "language": "en",
    "rank": 7,
    "isAdvertisement": false,
    "imageUrl": "https://lh3.googleusercontent.com/gps-cs-s/AC9h4noaqf22ELsqcNw23hr0hW7cr1g3BzxD3wZOpfdQ3iKlBIVP1_IcvbjXtKdz3ku-g0WBezHa1W95Eoo7qKLvfMKQH1y54Vjn8tW13u4_y6-FyXQB8W8eESdOT1NSI6FbjUaYdg4D=w408-h544-k-no",
    "kgmid": "/g/1tj5m3k3",
    "classification": "chain",
    "is_independent": false,
    "is_compounding": false,
    "confidence": 0.95,
    "source": "perplexity",
    "method": "llm"
  },
  {
    "title": "Walgreens Pharmacy",
    "description": "Department of the Walgreens chain providing prescription medications & other health-related items.",
    "price": "$$",
    "categoryName": "Pharmacy",
    "address": "396 E Main St, Middletown, DE 19709",
    "neighborhood": null,
    "street": "396 E Main St",
    "city": "Middletown",
    "postalCode": "19709",
    "state": "Delaware",
    "countryCode": "US",
    "website": "https://www.walgreens.com/locator/walgreens-396+e+main+st-middletown-de-19709/id=11067",
    "phone": "(302) 378-1891",
    "phoneUnformatted": "+13023781891",
    "claimThisBusiness": false,
    "location": {
      "lat": 39.4499323,
      "lng": -75.7022971
    },
    "totalScore": 3.4,
    "permanentlyClosed": false,
    "temporarilyClosed": false,
    "placeId": null,
    "categories": [
      "Pharmacy"
    ],
    "fid": "0x89c70a9a80136811:0xa6397d4d0d827d9f",
    "cid": "11977742453861154207",
    "reviewsCount": 11,
    "imagesCount": 11,
    "imageCategories": [],
    "scrapedAt": "2025-06-22T07:29:59.508Z",
    "googleFoodUrl": null,
    "hotelAds": [],
    "openingHours": [
      {
        "day": "Monday",
        "hours": "9:30\u202fAM to 1:30\u202fPM, 2 to 6\u202fPM"
      },
      {
        "day": "Tuesday",
        "hours": "9:30\u202fAM to 1:30\u202fPM, 2 to 6\u202fPM"
      },
      {
        "day": "Wednesday",
        "hours": "9:30\u202fAM to 1:30\u202fPM, 2 to 6\u202fPM"
      },
      {
        "day": "Thursday",
        "hours": "9:30\u202fAM to 1:30\u202fPM, 2 to 6\u202fPM"
      },
      {
        "day": "Friday",
        "hours": "9:30\u202fAM to 1:30\u202fPM, 2 to 6\u202fPM"
      },
      {
        "day": "Saturday",
        "hours": "Closed"
      },
      {
        "day": "Sunday",
        "hours": "Closed"
      }
    ],
    "additionalOpeningHours": {
      "Drive through": [
        {
          "day": "Monday",
          "hours": "9:30\u202fAM\u20131:30\u202fPM"
        },
        {
          "day": "Tuesday",
          "hours": "9:30\u202fAM\u20131:30\u202fPM"
        },
        {
          "day": "Wednesday",
          "hours": "9:30\u202fAM\u20131:30\u202fPM"
        },
        {
          "day": "Thursday",
          "hours": "9:30\u202fAM\u20131:30\u202fPM"
        },
        {
          "day": "Friday",
          "hours": "9:30\u202fAM\u20131:30\u202fPM"
        },
        {
          "day": "Saturday",
          "hours": "Closed"
        },
        {
          "day": "Sunday",
          "hours": "Closed"
        }
      ]
    },
    "peopleAlsoSearch": [],
    "placesTags": [],
    "reviewsTags": [],
    "additionalInfo": {
      "Service options": [
        {
          "Drive-through": true
        },
        {
          "In-store pickup": true
        }
      ],
      "Accessibility": [
        {
          "Wheelchair accessible entrance": true
        },
        {
          "Wheelchair accessible parking lot": true
        }
      ],
      "Offerings": [
        {
          "Naloxone": true
        }
      ],
      "Planning": [
        {
          "Quick visit": true
        }
      ],
      "Payments": [
        {
          "Checks": true
        },
        {
          "Credit cards": true
        },
        {
          "Debit cards": true
        }
      ]
    },
    "gasPrices": [],
    "url": "https://www.google.com/maps/search/?api=1&query=Walgreens%20Pharmacy&query_place_id=ChIJEWgTgJoKx4kRn32CDU19OaY",
    "searchPageUrl": "https://www.google.com/maps/search/independent%20pharmacy%20Middletown%20DE/@60.447283950000006,-172.1366914143152,12z?hl=en",
    "searchString": "independent pharmacy Middletown DE",
    "language": "en",
    "rank": 8,
    "isAdvertisement": false,
    "imageUrl": "https://lh3.googleusercontent.com/gps-cs-s/AC9h4nofwnuFtsYheu51dpwbGd9sO5Fgo-mh886whdys9ffIzwcmF5OILGyPn7VSigFDlUWzZFfemWL74kCWTd-MVJl1JM4Zv7H88lEsiHF7mvRr-_VBynczIrIFPWAZE1YY09TdGwA=w426-h240-k-no",
    "kgmid": "/g/11cn951vh7",
    "classification": "chain",
    "is_independent": false,
    "is_compounding": false,
    "confidence": 1.0,
    "source": "perplexity",
    "method": "llm"
  },
  {
    "title": "CVS",
    "description": "Drugstore chain selling a variety of beauty & health products, plus some grocery & household items.",
    "price": null,
    "categoryName": "Drug store",
    "address": "674 Middletown Odessa Rd, Middletown, DE 19709",
    "neighborhood": null,
    "street": "674 Middletown Odessa Rd",
    "city": "Middletown",
    "postalCode": "19709",
    "state": "Delaware",
    "countryCode": "US",
    "website": "https://www.cvs.com/store-locator/middletown-de-pharmacies/674-middletown-odessa-rd-middletown-de-19709/storeid=10375?WT.mc_id=LS_GOOGLE_FS_10375",
    "phone": "(302) 378-2287",
    "phoneUnformatted": "+13023782287",
    "claimThisBusiness": false,
    "location": {
      "lat": 39.4529271,
      "lng": -75.6818098
    },
    "locatedIn": "CVS Pharmacy",
    "totalScore": 2,
    "permanentlyClosed": false,
    "temporarilyClosed": false,
    "placeId": null,
    "categories": [
      "Drug store",
      "Beauty supply store",
      "Convenience store",
      "Cosmetics store",
      "Greeting card shop",
      "Perfume store",
      "Stationery store",
      "Vitamin & supplements store"
    ],
    "fid": "0x89c70af19bc21195:0xbecb92737d57451d",
    "cid": "13748243312200336669",
    "reviewsCount": 126,
    "imagesCount": 35,
    "imageCategories": [],
    "scrapedAt": "2025-06-22T07:29:59.508Z",
    "googleFoodUrl": null,
    "hotelAds": [],
    "openingHours": [
      {
        "day": "Monday",
        "hours": "8\u202fAM to 10\u202fPM"
      },
      {
        "day": "Tuesday",
        "hours": "8\u202fAM to 10\u202fPM"
      },
      {
        "day": "Wednesday",
        "hours": "8\u202fAM to 10\u202fPM"
      },
      {
        "day": "Thursday",
        "hours": "8\u202fAM to 10\u202fPM"
      },
      {
        "day": "Friday",
        "hours": "8\u202fAM to 10\u202fPM"
      },
      {
        "day": "Saturday",
        "hours": "8\u202fAM to 10\u202fPM"
      },
      {
        "day": "Sunday",
        "hours": "8\u202fAM to 8\u202fPM"
      }
    ],
    "additionalOpeningHours": {
      "CVS Pharmacy": [
        {
          "day": "Monday",
          "hours": "9\u202fAM\u20131:30\u202fPM"
        },
        {
          "day": "Tuesday",
          "hours": "9\u202fAM\u20131:30\u202fPM"
        },
        {
          "day": "Wednesday",
          "hours": "9\u202fAM\u20131:30\u202fPM"
        },
        {
          "day": "Thursday",
          "hours": "9\u202fAM\u20131:30\u202fPM"
        },
        {
          "day": "Friday",
          "hours": "9\u202fAM\u20131:30\u202fPM"
        },
        {
          "day": "Saturday",
          "hours": "9\u202fAM\u20131:30\u202fPM"
        },
        {
          "day": "Sunday",
          "hours": "10\u202fAM\u20131:30\u202fPM"
        }
      ],
      "CVS Photo": [
        {
          "day": "Monday",
          "hours": "8\u202fAM\u201310\u202fPM"
        },
        {
          "day": "Tuesday",
          "hours": "8\u202fAM\u201310\u202fPM"
        },
        {
          "day": "Wednesday",
          "hours": "8\u202fAM\u201310\u202fPM"
        },
        {
          "day": "Thursday",
          "hours": "8\u202fAM\u201310\u202fPM"
        },
        {
          "day": "Friday",
          "hours": "8\u202fAM\u201310\u202fPM"
        },
        {
          "day": "Saturday",
          "hours": "8\u202fAM\u201310\u202fPM"
        },
        {
          "day": "Sunday",
          "hours": "8\u202fAM\u20138\u202fPM"
        }
      ],
      "LibertyX Bitcoin ATM": [
        {
          "day": "Monday",
          "hours": "8\u202fAM\u201310\u202fPM"
        },
        {
          "day": "Tuesday",
          "hours": "8\u202fAM\u201310\u202fPM"
        },
        {
          "day": "Wednesday",
          "hours": "8\u202fAM\u201310\u202fPM"
        },
        {
          "day": "Thursday",
          "hours": "8\u202fAM\u201310\u202fPM"
        },
        {
          "day": "Friday",
          "hours": "8\u202fAM\u201310\u202fPM"
        },
        {
          "day": "Saturday",
          "hours": "8\u202fAM\u201310\u202fPM"
        },
        {
          "day": "Sunday",
          "hours": "8\u202fAM\u201310\u202fPM"
        }
      ]
    },
    "peopleAlsoSearch": [],
    "placesTags": [],
    "reviewsTags": [],
    "additionalInfo": {
      "Service options": [
        {
          "Delivery": true
        },
        {
          "Drive-through": true
        },
        {
          "In-store pickup": true
        },
        {
          "In-store shopping": true
        },
        {
          "Onsite services": true
        },
        {
          "Same-day delivery": false
        }
      ],
      "Accessibility": [
        {
          "Wheelchair accessible entrance": true
        },
        {
          "Wheelchair accessible parking lot": true
        }
      ],
      "Offerings": [
        {
          "Passport photos": true
        }
      ],
      "Crowd": [
        {
          "LGBTQ+ friendly": true
        },
        {
          "Transgender safespace": true
        }
      ],
      "Planning": [
        {
          "Quick visit": true
        }
      ],
      "Payments": [
        {
          "Credit cards": true
        },
        {
          "Debit cards": true
        },
        {
          "SNAP/EBT": true
        },
        {
          "Credit cards": true
        }
      ]
    },
    "gasPrices": [],
    "url": "https://www.google.com/maps/search/?api=1&query=CVS&query_place_id=ChIJlRHCm_EKx4kRHUVXfXOSy74",
    "searchPageUrl": "https://www.google.com/maps/search/independent%20pharmacy%20Middletown%20DE/@60.447283950000006,-172.1366914143152,12z?hl=en",
    "searchString": "independent pharmacy Middletown DE",
    "language": "en",
    "rank": 9,
    "isAdvertisement": false,
    "imageUrl": "https://lh3.googleusercontent.com/gps-cs-s/AC9h4nr_fdVruDcJOOuMk3XwZSqQABldg-jpyKWBrQ3WA0V-ARitX8i1FtUVMa6VETj-5VQqFdCcEivtuecBqO58PJiyHJpbFaA189gZVD1oXxqx7bMIRzwKiplsSvsqn1FBf3iSHLJt=w408-h306-k-no",
    "kgmid": "/g/11b7hkcnqr",
    "classification": "chain",
    "is_independent": false,
    "is_compounding": false,
    "confidence": 0.99,
    "source": "perplexity",
    "method": "llm"
  },
  {
    "title": "Walmart Pharmacy",
    "price": "$",
    "categoryName": "Pharmacy",
    "address": "705 Middletown Warwick Rd, Middletown, DE 19709",
    "neighborhood": null,
    "street": "705 Middletown Warwick Rd",
    "city": "Middletown",
    "postalCode": "19709",
    "state": "Delaware",
    "countryCode": "US",
    "website": "https://www.walmart.com/store/3802-middletown-de/pharmacy/?veh=seo_loc",
    "phone": "(302) 449-0597",
    "phoneUnformatted": "+13024490597",
    "claimThisBusiness": false,
    "location": {
      "lat": 39.446249,
      "lng": -75.7380575
    },
    "totalScore": 3,
    "permanentlyClosed": false,
    "temporarilyClosed": false,
    "placeId": null,
    "categories": [
      "Pharmacy",
      "Herbal medicine store",
      "Medical supply store",
      "Parapharmacy",
      "Vitamin & supplements store"
    ],
    "fid": "0x89c7a03fe5bc227f:0x7a38077d15fa6812",
    "cid": "8806797305144043538",
    "reviewsCount": 25,
    "imagesCount": 7,
    "imageCategories": [],
    "scrapedAt": "2025-06-22T07:29:59.509Z",
    "googleFoodUrl": null,
    "hotelAds": [],
    "openingHours": [
      {
        "day": "Monday",
        "hours": "9\u202fAM to 7\u202fPM"
      },
      {
        "day": "Tuesday",
        "hours": "9\u202fAM to 7\u202fPM"
      },
      {
        "day": "Wednesday",
        "hours": "9\u202fAM to 7\u202fPM"
      },
      {
        "day": "Thursday",
        "hours": "9\u202fAM to 7\u202fPM"
      },
      {
        "day": "Friday",
        "hours": "9\u202fAM to 7\u202fPM"
      },
      {
        "day": "Saturday",
        "hours": "9\u202fAM to 7\u202fPM"
      },
      {
        "day": "Sunday",
        "hours": "10\u202fAM to 6\u202fPM"
      }
    ],
    "peopleAlsoSearch": [],
    "placesTags": [],
    "reviewsTags": [],
    "additionalInfo": {
      "Service options": [
        {
          "Delivery": true
        },
        {
          "In-store pickup": true
        }
      ],
      "Accessibility": [
        {
          "Wheelchair accessible entrance": true
        },
        {
          "Wheelchair accessible parking lot": true
        },
        {
          "Wheelchair accessible restroom": true
        }
      ],
      "Offerings": [
        {
          "Passport photos": true
        }
      ],
      "Amenities": [
        {
          "Wi-Fi": true
        },
        {
          "Free Wi-Fi": true
        }
      ],
      "Planning": [
        {
          "Quick visit": true
        }
      ],
      "Payments": [
        {
          "Credit cards": true
        },
        {
          "Debit cards": true
        },
        {
          "Credit cards": true
        }
      ]
    },
    "gasPrices": [],
    "url": "https://www.google.com/maps/search/?api=1&query=Walmart%20Pharmacy&query_place_id=ChIJfyK85T-gx4kREmj6FX0HOHo",
    "searchPageUrl": "https://www.google.com/maps/search/independent%20pharmacy%20Middletown%20DE/@60.447283950000006,-172.1366914143152,12z?hl=en",
    "searchString": "independent pharmacy Middletown DE",
    "language": "en",
    "rank": 10,
    "isAdvertisement": false,
    "imageUrl": "https://lh3.googleusercontent.com/p/AF1QipOnH4QvRs-59NWFGVrP_t3cuyy93xXCleHRIuWu=w408-h306-k-no",
    "kgmid": "/g/1tngr7th",
    "classification": "chain",
    "is_independent": false,
    "is_compounding": false,
    "confidence": 1.0,
    "source": "perplexity",
    "method": "llm"
  },
  {
    "title": "Rite Aid Pharmacy",
    "price": null,
    "categoryName": "Pharmacy",
    "address": "455 W Main St, Middletown, DE 19709",
    "neighborhood": null,
    "street": "455 W Main St",
    "city": "Middletown",
    "postalCode": "19709",
    "state": "Delaware",
    "countryCode": "US",
    "website": "https://www.riteaid.com/locations/de/middletown/455-west-main-street.html",
    "phone": "(302) 376-7833",
    "phoneUnformatted": "+13023767833",
    "claimThisBusiness": false,
    "location": {
      "lat": 39.4501367,
      "lng": -75.7247642
    },
    "permanentlyClosed": false,
    "temporarilyClosed": false,
    "placeId": null,
    "categories": [
      "Pharmacy"
    ],
    "fid": "0x89c7a1c289ca7bd3:0xea8a6f28bf2324d3",
    "cid": "16900442772457333971",
    "reviewsCount": 0,
    "imagesCount": 7,
    "imageCategories": [],
    "scrapedAt": "2025-06-22T07:30:08.452Z",
    "googleFoodUrl": null,
    "hotelAds": [],
    "openingHours": [
      {
        "day": "Monday",
        "hours": "9\u202fAM to 1:30\u202fPM, 2 to 9\u202fPM"
      },
      {
        "day": "Tuesday",
        "hours": "9\u202fAM to 1:30\u202fPM, 2 to 9\u202fPM"
      },
      {
        "day": "Wednesday",
        "hours": "9\u202fAM to 1:30\u202fPM, 2 to 9\u202fPM"
      },
      {
        "day": "Thursday",
        "hours": "9\u202fAM to 1:30\u202fPM, 2 to 9\u202fPM"
      },
      {
        "day": "Friday",
        "hours": "9\u202fAM to 1:30\u202fPM, 2 to 9\u202fPM"
      },
      {
        "day": "Saturday",
        "hours": "9\u202fAM to 1:30\u202fPM, 2 to 5\u202fPM"
      },
      {
        "day": "Sunday",
        "hours": "10\u202fAM to 1:30\u202fPM, 2 to 6\u202fPM"
      }
    ],
    "additionalOpeningHours": {
      "Drive through": [
        {
          "day": "Monday",
          "hours": "9\u202fAM\u20138\u202fPM"
        },
        {
          "day": "Tuesday",
          "hours": "9\u202fAM\u20138\u202fPM"
        },
        {
          "day": "Wednesday",
          "hours": "9\u202fAM\u20138\u202fPM"
        },
        {
          "day": "Thursday",
          "hours": "9\u202fAM\u20138\u202fPM"
        },
        {
          "day": "Friday",
          "hours": "9\u202fAM\u20138\u202fPM"
        },
        {
          "day": "Saturday",
          "hours": "9\u202fAM\u20135\u202fPM"
        },
        {
          "day": "Sunday",
          "hours": "10\u202fAM\u20136\u202fPM"
        }
      ]
    },
    "peopleAlsoSearch": [],
    "placesTags": [],
    "reviewsTags": [],
    "additionalInfo": {
      "Service options": [
        {
          "Delivery": true
        },
        {
          "Drive-through": true
        },
        {
          "In-store pickup": true
        }
      ],
      "Accessibility": [
        {
          "Wheelchair accessible entrance": true
        },
        {
          "Wheelchair accessible parking lot": true
        }
      ],
      "Planning": [
        {
          "Quick visit": true
        }
      ],
      "Payments": [
        {
          "Checks": true
        },
        {
          "Credit cards": true
        },
        {
          "Debit cards": true
        },
        {
          "NFC mobile payments": true
        },
        {
          "Credit cards": true
        }
      ]
    },
    "gasPrices": [],
    "url": "https://www.google.com/maps/search/?api=1&query=Rite%20Aid%20Pharmacy&query_place_id=ChIJ03vKicKhx4kR0yQjvyhviuo",
    "searchPageUrl": "https://www.google.com/maps/search/independent%20pharmacy%20Middletown%20DE/@27.857685,-175.58407108794003,12z?hl=en",
    "searchString": "independent pharmacy Middletown DE",
    "language": "en",
    "rank": 10,
    "isAdvertisement": false,
    "imageUrl": "https://lh3.googleusercontent.com/p/AF1QipMbDObmV3HwyfToLn1oUceQSa5MuIQEH8HeZe2I=w408-h406-k-no",
    "kgmid": "/g/11svtsrf1y",
    "classification": "chain",
    "is_independent": false,
    "is_compounding": false,
    "confidence": 1.0,
    "source": "perplexity",
    "method": "llm"
  },
  {
    "title": "Prices Corner Pharmacy",
    "price": null,
    "categoryName": "Pharmacy",
    "address": "3311 Old Capitol Trl Suite B, Wilmington, DE 19808, United States",
    "neighborhood": null,
    "street": "3311 Old Capitol Trl Suite B",
    "city": "Wilmington",
    "postalCode": "19808",
    "state": "Delaware",
    "countryCode": "US",
    "website": "https://www.pricescornerpharmacy.com/",
    "phone": "+1 302-668-1470",
    "phoneUnformatted": "+13026681470",
    "claimThisBusiness": false,
    "location": {
      "lat": 39.7333124,
      "lng": -75.6259347
    },
    "totalScore": 5,
    "permanentlyClosed": false,
    "temporarilyClosed": false,
    "placeId": null,
    "categories": [
      "Pharmacy"
    ],
    "fid": "0x89c7010829361335:0xa05b2b39372b87a",
    "cid": "722179799605491834",
    "reviewsCount": 83,
    "imagesCount": 21,
    "imageCategories": [],
    "scrapedAt": "2025-06-22T07:30:10.570Z",
    "googleFoodUrl": null,
    "hotelAds": [],
    "openingHours": [
      {
        "day": "Monday",
        "hours": "9\u202fAM to 6\u202fPM"
      },
      {
        "day": "Tuesday",
        "hours": "9\u202fAM to 6\u202fPM"
      },
      {
        "day": "Wednesday",
        "hours": "9\u202fAM to 6\u202fPM"
      },
      {
        "day": "Thursday",
        "hours": "9\u202fAM to 6\u202fPM"
      },
      {
        "day": "Friday",
        "hours": "9\u202fAM to 6\u202fPM"
      },
      {
        "day": "Saturday",
        "hours": "9\u202fAM to 2\u202fPM"
      },
      {
        "day": "Sunday",
        "hours": "Closed"
      }
    ],
    "peopleAlsoSearch": [],
    "placesTags": [],
    "reviewsTags": [],
    "additionalInfo": {
      "From the business": [
        {
          "Small Business": true
        }
      ],
      "Service options": [
        {
          "Delivery": true
        },
        {
          "In-store pick-up": true
        },
        {
          "On-site services": true
        },
        {
          "Same-day delivery": true
        }
      ],
      "Accessibility": [
        {
          "Wheelchair-accessible car park": true
        },
        {
          "Wheelchair-accessible entrance": true
        }
      ],
      "Planning": [
        {
          "Quick visit": true
        }
      ],
      "Payments": [
        {
          "Cheques": true
        },
        {
          "Credit cards": true
        },
        {
          "Debit cards": true
        },
        {
          "NFC mobile payments": true
        },
        {
          "Credit cards": true
        }
      ]
    },
    "gasPrices": [],
    "url": "https://www.google.com/maps/search/?api=1&query=Prices%20Corner%20Pharmacy&query_place_id=ChIJNRM2KQgBx4kRerhyk7OyBQo",
    "searchPageUrl": "https://www.google.com/maps/search/independent%20pharmacy%20Middletown%20DE/@65.04310121365691,-168.0708977851393,9z?hl=en",
    "searchString": "independent pharmacy Middletown DE",
    "language": "en",
    "rank": 9,
    "isAdvertisement": false,
    "imageUrl": "https://lh3.googleusercontent.com/p/AF1QipNIF4mZ2JRKda8oeYRhEJG4SkmpZAPVOm4OrEuX=w408-h306-k-no",
    "kgmid": "/g/11hgsmtv54",
    "classification": "independent",
    "is_independent": true,
    "is_compounding": false,
    "confidence": 0.9,
    "source": "perplexity",
    "method": "llm"
  },
  {
    "title": "Rite Aid",
    "price": "\u20ac\u20ac",
    "categoryName": "Drug store",
    "address": "455 W Main St, Middletown, DE 19709, United States",
    "neighborhood": null,
    "street": "455 W Main St",
    "city": "Middletown",
    "postalCode": "19709",
    "state": "Delaware",
    "countryCode": "US",
    "website": "https://www.riteaid.com/locations/de/middletown/455-west-main-street.html",
    "phone": "+1 302-376-7833",
    "phoneUnformatted": "+13023767833",
    "claimThisBusiness": false,
    "location": {
      "lat": 39.450149,
      "lng": -75.724784
    },
    "locatedIn": "Flaherty Lisa C",
    "totalScore": 3,
    "permanentlyClosed": false,
    "temporarilyClosed": false,
    "placeId": null,
    "categories": [
      "Drug store",
      "Beauty supply store",
      "Convenience store",
      "General store",
      "Greeting card shop"
    ],
    "fid": "0x89c7a0721d25d1f7:0xf5fa67378c1d1701",
    "cid": "17724592771741587201",
    "reviewsCount": 55,
    "imagesCount": 19,
    "imageCategories": [],
    "scrapedAt": "2025-06-22T07:30:10.570Z",
    "googleFoodUrl": null,
    "hotelAds": [],
    "openingHours": [
      {
        "day": "Monday",
        "hours": "9\u202fAM to 9\u202fPM"
      },
      {
        "day": "Tuesday",
        "hours": "9\u202fAM to 9\u202fPM"
      },
      {
        "day": "Wednesday",
        "hours": "9\u202fAM to 9\u202fPM"
      },
      {
        "day": "Thursday",
        "hours": "9\u202fAM to 9\u202fPM"
      },
      {
        "day": "Friday",
        "hours": "9\u202fAM to 9\u202fPM"
      },
      {
        "day": "Saturday",
        "hours": "9\u202fAM to 5\u202fPM"
      },
      {
        "day": "Sunday",
        "hours": "10\u202fAM to 6\u202fPM"
      }
    ],
    "additionalOpeningHours": {
      "Flaherty Lisa C": [
        {
          "day": "Monday",
          "hours": "7\u202fam\u20139\u202fpm"
        },
        {
          "day": "Tuesday",
          "hours": "7\u202fam\u20139\u202fpm"
        },
        {
          "day": "Wednesday",
          "hours": "7\u202fam\u20139\u202fpm"
        },
        {
          "day": "Thursday",
          "hours": "7\u202fam\u20139\u202fpm"
        },
        {
          "day": "Friday",
          "hours": "7\u202fam\u20139\u202fpm"
        },
        {
          "day": "Saturday",
          "hours": "7\u202fam\u20139\u202fpm"
        },
        {
          "day": "Sunday",
          "hours": "7\u202fam\u20139\u202fpm"
        }
      ],
      "Rite Aid Pharmacy": [
        {
          "day": "Monday",
          "hours": "9\u202fam\u20131:30\u202fpm"
        },
        {
          "day": "Tuesday",
          "hours": "9\u202fam\u20131:30\u202fpm"
        },
        {
          "day": "Wednesday",
          "hours": "9\u202fam\u20131:30\u202fpm"
        },
        {
          "day": "Thursday",
          "hours": "9\u202fam\u20131:30\u202fpm"
        },
        {
          "day": "Friday",
          "hours": "9\u202fam\u20131:30\u202fpm"
        },
        {
          "day": "Saturday",
          "hours": "9\u202fam\u20131:30\u202fpm"
        },
        {
          "day": "Sunday",
          "hours": "10\u202fam\u20131:30\u202fpm"
        }
      ]
    },
    "peopleAlsoSearch": [],
    "placesTags": [],
    "reviewsTags": [],
    "additionalInfo": {
      "Service options": [
        {
          "Delivery": true
        },
        {
          "Drive-through": true
        },
        {
          "In-store pick-up": true
        },
        {
          "On-site services": true
        }
      ],
      "Accessibility": [
        {
          "Wheelchair-accessible car park": true
        }
      ],
      "Offerings": [
        {
          "Naloxone": true
        }
      ],
      "Planning": [
        {
          "Quick visit": true
        }
      ],
      "Payments": [
        {
          "Cheques": true
        },
        {
          "Credit cards": true
        },
        {
          "Debit cards": true
        },
        {
          "NFC mobile payments": true
        },
        {
          "SNAP/EBT": true
        },
        {
          "Credit cards": true
        }
      ]
    },
    "gasPrices": [],
    "url": "https://www.google.com/maps/search/?api=1&query=Rite%20Aid&query_place_id=ChIJ99ElHXKgx4kRARcdjDdn-vU",
    "searchPageUrl": "https://www.google.com/maps/search/independent%20pharmacy%20Middletown%20DE/@65.04310121365691,-168.0708977851393,9z?hl=en",
    "searchString": "independent pharmacy Middletown DE",
    "language": "en",
    "rank": 10,
    "isAdvertisement": false,
    "imageUrl": "https://lh3.googleusercontent.com/gps-cs-s/AC9h4nqPY4nEHoKpC5KEJJ3ygcueKeGF_79HJl05nrc0aZqfva_sae5LjVmGFvgnbeFTpksYfCr9c81cewZIU81r7zq0GrByKw6-gpV-n9p_Dbj3GBoei6kJ7X8leMtnIYiATzmnFtBAzA=w408-h544-k-no",
    "kgmid": "/g/1tn06rxx",
    "classification": "chain",
    "is_independent": false,
    "is_compounding": false,
    "confidence": 1.0,
    "source": "perplexity",
    "method": "llm"
  },
  {
    "title": "Darley Pharmacy",
    "price": null,
    "categoryName": "Pharmacy",
    "address": "111 Darley Rd, Claymont, DE 19703, United States",
    "neighborhood": null,
    "street": "111 Darley Rd",
    "city": "Claymont",
    "postalCode": "19703",
    "state": "Delaware",
    "countryCode": "US",
    "website": "https://www.mygnp.com/pharmacies/darley-pharmacy-claymont-de-19703/?utm_source=google&utm_medium=local&utm_campaign=localmaps&utm_content=845000",
    "phone": "+1 302-798-0202",
    "phoneUnformatted": "+13027980202",
    "claimThisBusiness": false,
    "location": {
      "lat": 39.8050408,
      "lng": -75.4550184
    },
    "totalScore": 4.8,
    "permanentlyClosed": false,
    "temporarilyClosed": false,
    "placeId": null,
    "categories": [
      "Pharmacy",
      "Drug store"
    ],
    "fid": "0x89c6e40d77528fd3:0x7a9425e44e5a6b34",
    "cid": "8832726431677705012",
    "reviewsCount": 72,
    "imagesCount": 2,
    "imageCategories": [],
    "scrapedAt": "2025-06-22T07:30:10.571Z",
    "googleFoodUrl": null,
    "hotelAds": [],
    "openingHours": [
      {
        "day": "Monday",
        "hours": "9\u202fAM to 7\u202fPM"
      },
      {
        "day": "Tuesday",
        "hours": "9\u202fAM to 7\u202fPM"
      },
      {
        "day": "Wednesday",
        "hours": "9\u202fAM to 7\u202fPM"
      },
      {
        "day": "Thursday",
        "hours": "9\u202fAM to 7\u202fPM"
      },
      {
        "day": "Friday",
        "hours": "9\u202fAM to 7\u202fPM"
      },
      {
        "day": "Saturday",
        "hours": "9\u202fAM to 3\u202fPM"
      },
      {
        "day": "Sunday",
        "hours": "Closed"
      }
    ],
    "peopleAlsoSearch": [],
    "placesTags": [],
    "reviewsTags": [],
    "additionalInfo": {
      "Service options": [
        {
          "In-store pick-up": true
        },
        {
          "In-store shopping": true
        },
        {
          "On-site services": true
        }
      ],
      "Accessibility": [
        {
          "Wheelchair-accessible car park": true
        },
        {
          "Wheelchair-accessible entrance": true
        }
      ],
      "Planning": [
        {
          "Quick visit": true
        }
      ],
      "Payments": [
        {
          "Credit cards": true
        },
        {
          "Debit cards": true
        },
        {
          "NFC mobile payments": true
        },
        {
          "SNAP/EBT": true
        },
        {
          "Credit cards": true
        }
      ]
    },
    "gasPrices": [],
    "url": "https://www.google.com/maps/search/?api=1&query=Darley%20Pharmacy&query_place_id=ChIJ049Sdw3kxokRNGtaTuQllHo",
    "searchPageUrl": "https://www.google.com/maps/search/independent%20pharmacy%20Middletown%20DE/@65.04310121365691,-168.0708977851393,9z?hl=en",
    "searchString": "independent pharmacy Middletown DE",
    "language": "en",
    "rank": 13,
    "isAdvertisement": false,
    "imageUrl": "https://lh3.googleusercontent.com/gps-cs-s/AC9h4noglPKP4xJhkHZE7TocqF_6YF8dGXDm3_kHyerNbYesmKrO6yjUIjbzZwcx9namdSyykvxD0iak80Y9MpfcMXCMpqgOvTkFp6pqzjsdA-fWDICy0_5p_5H2fS7yiRTrZ1hU45Z54A=w408-h725-k-no",
    "kgmid": "/g/1tj342md",
    "classification": "independent",
    "is_independent": true,
    "is_compounding": false,
    "confidence": 0.9,
    "source": "perplexity",
    "method": "llm"
  },
  {
    "title": "Middletown Pharmacy",
    "price": null,
    "categoryName": "Pharmacy",
    "address": "682 Main St, Middletown, CT 06457, United States",
    "neighborhood": null,
    "street": "682 Main St",
    "city": "Middletown",
    "postalCode": "06457",
    "state": "Connecticut",
    "countryCode": "US",
    "website": "http://www.middletownrx.org/",
    "phone": "+1 860-894-7683",
    "phoneUnformatted": "+18608947683",
    "claimThisBusiness": false,
    "location": {
      "lat": 41.5654296,
      "lng": -72.652206
    },
    "totalScore": 5,
    "permanentlyClosed": false,
    "temporarilyClosed": false,
    "placeId": null,
    "categories": [
      "Pharmacy"
    ],
    "fid": "0x89e64bd0516c40c5:0xdb3e3edb767e08c0",
    "cid": "15798133655169009856",
    "reviewsCount": 55,
    "imagesCount": 27,
    "imageCategories": [],
    "scrapedAt": "2025-06-22T07:30:13.435Z",
    "googleFoodUrl": null,
    "hotelAds": [],
    "openingHours": [
      {
        "day": "Monday",
        "hours": "9\u202fAM to 6\u202fPM"
      },
      {
        "day": "Tuesday",
        "hours": "9\u202fAM to 6\u202fPM"
      },
      {
        "day": "Wednesday",
        "hours": "9\u202fAM to 6\u202fPM"
      },
      {
        "day": "Thursday",
        "hours": "9\u202fAM to 6\u202fPM"
      },
      {
        "day": "Friday",
        "hours": "9\u202fAM to 6\u202fPM"
      },
      {
        "day": "Saturday",
        "hours": "9\u202fAM to 2\u202fPM"
      },
      {
        "day": "Sunday",
        "hours": "Closed"
      }
    ],
    "peopleAlsoSearch": [],
    "placesTags": [],
    "reviewsTags": [],
    "additionalInfo": {
      "From the business": [
        {
          "Small Business": true
        }
      ],
      "Service options": [
        {
          "Kerbside pickup": true
        },
        {
          "Delivery": true
        },
        {
          "In-store pick-up": true
        },
        {
          "In-store shopping": true
        },
        {
          "Same-day delivery": true
        },
        {
          "English": true
        }
      ],
      "Accessibility": [
        {
          "Wheelchair-accessible car park": true
        },
        {
          "Wheelchair-accessible entrance": true
        }
      ],
      "Planning": [
        {
          "Quick visit": true
        }
      ],
      "Payments": [
        {
          "Credit cards": true
        }
      ]
    },
    "gasPrices": [],
    "url": "https://www.google.com/maps/search/?api=1&query=Middletown%20Pharmacy&query_place_id=ChIJxUBsUdBL5okRwAh-dts-Pts",
    "searchPageUrl": "https://www.google.com/maps/search/independent%20pharmacy%20Middletown%20DE/@55.316446237835436,-163.4677018424355,9z?hl=en",
    "searchString": "independent pharmacy Middletown DE",
    "language": "en",
    "rank": 8,
    "isAdvertisement": false,
    "imageUrl": "https://lh3.googleusercontent.com/p/AF1QipOCEMNNM1uF2Jz29kPi5XDwaXgn-Sr9Qk4772e2=w408-h556-k-no",
    "kgmid": "/g/11k56ggrc8",
    "classification": "independent",
    "is_independent": true,
    "is_compounding": false,
    "confidence": 0.9,
    "source": "perplexity",
    "method": "llm"
  },
  {
    "title": "Middletown Pharmacy & Wellness",
    "price": null,
    "categoryName": "Pharmacy",
    "address": "11601 Shelbyville Rd Suite A, Louisville, KY 40243, United States",
    "neighborhood": null,
    "street": "11601 Shelbyville Rd Suite A",
    "city": "Louisville",
    "postalCode": "40243",
    "state": "Kentucky",
    "countryCode": "US",
    "website": "http://www.middletownpharmacyandwellness.com/",
    "phone": "+1 502-690-2410",
    "phoneUnformatted": "+15026902410",
    "claimThisBusiness": false,
    "location": {
      "lat": 38.2464241,
      "lng": -85.5420256
    },
    "totalScore": 4.5,
    "permanentlyClosed": false,
    "temporarilyClosed": false,
    "placeId": null,
    "categories": [
      "Pharmacy"
    ],
    "fid": "0x88699fe960a5ce27:0x44c4ba140e278761",
    "cid": "4955290085313972065",
    "reviewsCount": 39,
    "imagesCount": 18,
    "imageCategories": [],
    "scrapedAt": "2025-06-22T07:30:18.072Z",
    "googleFoodUrl": null,
    "hotelAds": [],
    "openingHours": [
      {
        "day": "Monday",
        "hours": "9\u202fAM to 6\u202fPM"
      },
      {
        "day": "Tuesday",
        "hours": "9\u202fAM to 6\u202fPM"
      },
      {
        "day": "Wednesday",
        "hours": "9\u202fAM to 6\u202fPM"
      },
      {
        "day": "Thursday",
        "hours": "9\u202fAM to 6\u202fPM"
      },
      {
        "day": "Friday",
        "hours": "9\u202fAM to 6\u202fPM"
      },
      {
        "day": "Saturday",
        "hours": "Closed"
      },
      {
        "day": "Sunday",
        "hours": "Closed"
      }
    ],
    "peopleAlsoSearch": [],
    "placesTags": [],
    "reviewsTags": [],
    "additionalInfo": {
      "From the business": [
        {
          "Small Business": true
        }
      ],
      "Service options": [
        {
          "Delivery": true
        },
        {
          "Drive-through": true
        },
        {
          "In-store pick-up": true
        },
        {
          "Same-day delivery": true
        }
      ],
      "Accessibility": [
        {
          "Wheelchair-accessible car park": true
        },
        {
          "Wheelchair-accessible entrance": true
        }
      ],
      "Amenities": [
        {
          "Wi-Fi": true
        },
        {
          "Free Wi-Fi": true
        }
      ],
      "Payments": [
        {
          "Credit cards": true
        }
      ]
    },
    "gasPrices": [],
    "url": "https://www.google.com/maps/search/?api=1&query=Middletown%20Pharmacy%20%26%20Wellness&query_place_id=ChIJJ86lYOmfaYgRYYcnDhS6xEQ",
    "searchPageUrl": "https://www.google.com/maps/search/independent%20pharmacy%20Middletown%20DE/@60.17977372574618,-146.20571705729628,9z?hl=en",
    "searchString": "independent pharmacy Middletown DE",
    "language": "en",
    "rank": 11,
    "isAdvertisement": false,
    "imageUrl": "https://lh3.googleusercontent.com/p/AF1QipPbc7O8f6H8RzUlLgeJZidC6Yr6CLe70uzmJHyM=w408-h306-k-no",
    "kgmid": "/g/11n_1x4s8k",
    "classification": "independent",
    "is_independent": true,
    "is_compounding": false,
    "confidence": 0.9,
    "source": "perplexity",
    "method": "llm"
  },
  {
    "title": "Forest Pharmacy",
    "price": null,
    "categoryName": "Pharmacy",
    "address": "1030 Forrest Ave Suite 111, Dover, DE 19904, United States",
    "neighborhood": null,
    "street": "1030 Forrest Ave Suite 111",
    "city": "Dover",
    "postalCode": "19904",
    "state": "Delaware",
    "countryCode": "US",
    "website": "http://forestpharmacyde.com/",
    "phone": "+1 302-990-3131",
    "phoneUnformatted": "+13029903131",
    "claimThisBusiness": false,
    "location": {
      "lat": 39.1575619,
      "lng": -75.5446252
    },
    "totalScore": 5,
    "permanentlyClosed": false,
    "temporarilyClosed": false,
    "placeId": null,
    "categories": [
      "Pharmacy"
    ],
    "fid": "0x89c77d1c9664e02b:0xc8547b94c0202243",
    "cid": "14435298584437989955",
    "reviewsCount": 31,
    "imagesCount": 9,
    "imageCategories": [],
    "scrapedAt": "2025-06-22T07:30:18.072Z",
    "googleFoodUrl": null,
    "hotelAds": [],
    "openingHours": [
      {
        "day": "Monday",
        "hours": "9\u202fAM to 6\u202fPM"
      },
      {
        "day": "Tuesday",
        "hours": "9\u202fAM to 6\u202fPM"
      },
      {
        "day": "Wednesday",
        "hours": "9\u202fAM to 6\u202fPM"
      },
      {
        "day": "Thursday",
        "hours": "9\u202fAM to 6\u202fPM"
      },
      {
        "day": "Friday",
        "hours": "9\u202fAM to 6\u202fPM"
      },
      {
        "day": "Saturday",
        "hours": "12 to 6\u202fPM"
      },
      {
        "day": "Sunday",
        "hours": "Closed"
      }
    ],
    "peopleAlsoSearch": [],
    "placesTags": [],
    "reviewsTags": [],
    "additionalInfo": {
      "From the business": [
        {
          "Small Business": true
        }
      ],
      "Service options": [
        {
          "Delivery": true
        },
        {
          "In-store pick-up": true
        },
        {
          "In-store shopping": true
        },
        {
          "On-site services": true
        },
        {
          "Same-day delivery": true
        }
      ],
      "Accessibility": [
        {
          "Wheelchair-accessible car park": true
        },
        {
          "Wheelchair-accessible entrance": true
        }
      ],
      "Planning": [
        {
          "Quick visit": true
        }
      ],
      "Payments": [
        {
          "Credit cards": true
        },
        {
          "Debit cards": true
        },
        {
          "NFC mobile payments": true
        },
        {
          "Credit cards": true
        }
      ]
    },
    "gasPrices": [],
    "url": "https://www.google.com/maps/search/?api=1&query=Forest%20Pharmacy&query_place_id=ChIJK-Bklhx9x4kRQyIgwJR7VMg",
    "searchPageUrl": "https://www.google.com/maps/search/independent%20pharmacy%20Middletown%20DE/@60.17977372574618,-146.20571705729628,9z?hl=en",
    "searchString": "independent pharmacy Middletown DE",
    "language": "en",
    "rank": 15,
    "isAdvertisement": false,
    "imageUrl": "https://lh3.googleusercontent.com/p/AF1QipNIXbzFD5m2VeddHwGFCR4sr48KFe2SVKxB9_fL=w408-h307-k-no",
    "kgmid": "/g/11rjbwvs92",
    "classification": "independent",
    "is_independent": true,
    "is_compounding": false,
    "confidence": 0.85,
    "source": "perplexity",
    "method": "llm"
  },
  {
    "title": "Matt's Local Pharmacy",
    "price": null,
    "categoryName": "Pharmacy",
    "address": "88 E Main Rd, Middletown, RI 02842",
    "neighborhood": "Newport East",
    "street": "88 E Main Rd",
    "city": "Middletown",
    "postalCode": "02842",
    "state": "Rhode Island",
    "countryCode": "US",
    "website": "http://mattslocalpharmacy.com/",
    "phone": "(401) 619-5020",
    "phoneUnformatted": "+14016195020",
    "claimThisBusiness": false,
    "location": {
      "lat": 41.5178033,
      "lng": -71.2979688
    },
    "totalScore": 4.8,
    "permanentlyClosed": false,
    "temporarilyClosed": false,
    "placeId": null,
    "categories": [
      "Pharmacy",
      "Wellness center"
    ],
    "fid": "0x89e5aed0948268d1:0x79e110e81809cf57",
    "cid": "8782319337370931031",
    "reviewsCount": 122,
    "imagesCount": 6,
    "imageCategories": [],
    "scrapedAt": "2025-06-22T07:30:21.050Z",
    "googleFoodUrl": null,
    "hotelAds": [],
    "openingHours": [
      {
        "day": "Monday",
        "hours": "8:30\u202fAM to 7:30\u202fPM"
      },
      {
        "day": "Tuesday",
        "hours": "8:30\u202fAM to 7:30\u202fPM"
      },
      {
        "day": "Wednesday",
        "hours": "8:30\u202fAM to 7:30\u202fPM"
      },
      {
        "day": "Thursday",
        "hours": "8:30\u202fAM to 7:30\u202fPM"
      },
      {
        "day": "Friday",
        "hours": "8:30\u202fAM to 7:30\u202fPM"
      },
      {
        "day": "Saturday",
        "hours": "9\u202fAM to 3\u202fPM"
      },
      {
        "day": "Sunday",
        "hours": "10\u202fAM to 2\u202fPM"
      }
    ],
    "peopleAlsoSearch": [],
    "placesTags": [],
    "reviewsTags": [],
    "additionalInfo": {
      "From the business": [
        {
          "Small business": true
        }
      ],
      "Service options": [
        {
          "Delivery": true
        },
        {
          "In-store pickup": true
        },
        {
          "Same-day delivery": true
        }
      ],
      "Accessibility": [
        {
          "Wheelchair accessible entrance": true
        },
        {
          "Wheelchair accessible parking lot": true
        }
      ],
      "Planning": [
        {
          "Quick visit": true
        }
      ],
      "Payments": [
        {
          "Credit cards": true
        },
        {
          "Debit cards": true
        },
        {
          "NFC mobile payments": true
        },
        {
          "Credit cards": true
        }
      ]
    },
    "gasPrices": [],
    "url": "https://www.google.com/maps/search/?api=1&query=Matt's%20Local%20Pharmacy&query_place_id=ChIJ0WiClNCu5YkRV88JGOgQ4Xk",
    "searchPageUrl": "https://www.google.com/maps/search/independent%20pharmacy%20Middletown%20DE/@42.54640259466427,-70.65494205772909,8z?hl=en",
    "searchString": "independent pharmacy Middletown DE",
    "language": "en",
    "rank": 1,
    "isAdvertisement": false,
    "imageUrl": "https://lh3.googleusercontent.com/gps-cs-s/AC9h4nq3m_3uNVHT6OfAUuQp4NFjGXUmnhVPVn0XEF5tXQWA1IkQoZuhjdvNfzQMIeea_nQJhxxwRvbBJXYWqQiEAIg05ZGKUWeJgYbWrdVphmVJeFpfyRV5aFW1Oh1Wxi59hr8Wrer-Pg=w408-h510-k-no",
    "kgmid": "/g/11gf37gfx2",
    "classification": "independent",
    "is_independent": true,
    "is_compounding": false,
    "confidence": 0.9,
    "source": "perplexity",
    "method": "llm"
  },
  {
    "title": "Rocky Hill Community Pharmacy",
    "price": null,
    "categoryName": "Pharmacy",
    "address": "366 Cromwell Ave, Rocky Hill, CT 06067",
    "neighborhood": null,
    "street": "366 Cromwell Ave",
    "city": "Rocky Hill",
    "postalCode": "06067",
    "state": "Connecticut",
    "countryCode": "US",
    "phone": "(860) 372-4618",
    "phoneUnformatted": "+18603724618",
    "claimThisBusiness": true,
    "location": {
      "lat": 41.6607109,
      "lng": -72.6779228
    },
    "totalScore": 5,
    "permanentlyClosed": false,
    "temporarilyClosed": false,
    "placeId": null,
    "categories": [
      "Pharmacy",
      "Pet supply store"
    ],
    "fid": "0x89e64d1c6626afb5:0xcaf091536f2bf3ad",
    "cid": "14623347777605465005",
    "reviewsCount": 46,
    "imagesCount": 5,
    "imageCategories": [],
    "scrapedAt": "2025-06-22T07:30:21.050Z",
    "googleFoodUrl": null,
    "hotelAds": [],
    "openingHours": [
      {
        "day": "Monday",
        "hours": "9\u202fAM to 6\u202fPM"
      },
      {
        "day": "Tuesday",
        "hours": "9\u202fAM to 6\u202fPM"
      },
      {
        "day": "Wednesday",
        "hours": "9\u202fAM to 6\u202fPM"
      },
      {
        "day": "Thursday",
        "hours": "9\u202fAM to 6\u202fPM"
      },
      {
        "day": "Friday",
        "hours": "9\u202fAM to 6\u202fPM"
      },
      {
        "day": "Saturday",
        "hours": "9\u202fAM to 2\u202fPM"
      },
      {
        "day": "Sunday",
        "hours": "Closed"
      }
    ],
    "peopleAlsoSearch": [],
    "placesTags": [],
    "reviewsTags": [],
    "additionalInfo": {
      "From the business": [
        {
          "Small business": true
        }
      ],
      "Service options": [
        {
          "Delivery": true
        }
      ],
      "Accessibility": [
        {
          "Wheelchair accessible entrance": true
        },
        {
          "Wheelchair accessible parking lot": true
        }
      ],
      "Planning": [
        {
          "Quick visit": true
        }
      ],
      "Payments": [
        {
          "Credit cards": true
        },
        {
          "Debit cards": true
        },
        {
          "NFC mobile payments": true
        },
        {
          "Credit cards": true
        }
      ]
    },
    "gasPrices": [],
    "url": "https://www.google.com/maps/search/?api=1&query=Rocky%20Hill%20Community%20Pharmacy&query_place_id=ChIJta8mZhxN5okRrfMrb1OR8Mo",
    "searchPageUrl": "https://www.google.com/maps/search/independent%20pharmacy%20Middletown%20DE/@42.54640259466427,-70.65494205772909,8z?hl=en",
    "searchString": "independent pharmacy Middletown DE",
    "language": "en",
    "rank": 3,
    "isAdvertisement": false,
    "imageUrl": "https://lh3.googleusercontent.com/gps-cs-s/AC9h4nqQNo-XtSrSlrQIBcgGIHO2U2g2XxORlFxa3lnxIyEvv-Os_bqJtp4i9nILX31uoPnLjJSZ85FsCUiYFDk2T5SotejY3nOCiok4xJ2tw3hWmkRv7CYs-oB5FHUizt9Vy08nV6xj=w408-h544-k-no",
    "kgmid": "/g/11b6_9wmwv",
    "classification": "independent",
    "is_independent": true,
    "is_compounding": false,
    "confidence": 0.9,
    "source": "perplexity",
    "method": "llm"
  }
]