[
  {
    "title": "Serviam Pharmacy of Sioux City",
    "price": null,
    "categoryName": "Pharmacy",
    "address": "2442 Transit Ave, Sioux City, IA 51106",
    "neighborhood": null,
    "street": "2442 Transit Ave",
    "city": "Sioux City",
    "postalCode": "51106",
    "state": "Iowa",
    "countryCode": "US",
    "website": "http://pharmacy.serviam.org/",
    "phone": "(712) 224-4040",
    "phoneUnformatted": "+17122244040",
    "claimThisBusiness": false,
    "location": {
      "lat": 42.476939,
      "lng": -96.376041
    },
    "totalScore": 1,
    "permanentlyClosed": false,
    "temporarilyClosed": false,
    "placeId": null,
    "categories": [
      "Pharmacy"
    ],
    "fid": "0x878e0780b5dee4d1:0xcdc8fc239452a704",
    "cid": "14828379002859857668",
    "reviewsCount": 4,
    "imagesCount": null,
    "imageCategories": [],
    "scrapedAt": "2025-06-22T07:55:18.570Z",
    "googleFoodUrl": null,
    "hotelAds": [],
    "openingHours": [
      {
        "day": "Monday",
        "hours": "8:30\u202fAM to 5:30\u202fPM"
      },
      {
        "day": "Tuesday",
        "hours": "8:30\u202fAM to 5:30\u202fPM"
      },
      {
        "day": "Wednesday",
        "hours": "8:30\u202fAM to 5:30\u202fPM"
      },
      {
        "day": "Thursday",
        "hours": "8:30\u202fAM to 5:30\u202fPM"
      },
      {
        "day": "Friday",
        "hours": "8:30\u202fAM to 5:30\u202fPM"
      },
      {
        "day": "Saturday",
        "hours": "Closed"
      },
      {
        "day": "Sunday",
        "hours": "Closed"
      }
    ],
    "peopleAlsoSearch": [],
    "placesTags": [],
    "reviewsTags": [],
    "additionalInfo": {
      "Accessibility": [
        {
          "Wheelchair accessible entrance": true
        },
        {
          "Wheelchair accessible parking lot": true
        }
      ]
    },
    "gasPrices": [],
    "url": "https://www.google.com/maps/search/?api=1&query=Serviam%20Pharmacy%20of%20Sioux%20City&query_place_id=ChIJ0eTetYAHjocRBKdSlCP8yM0",
    "searchPageUrl": "https://www.google.com/maps/search/independent%20pharmacy%20Sioux%20City%20IA/@-14.568549527189342,-170.42077356561006,12z?hl=en",
    "searchString": "independent pharmacy Sioux City IA",
    "language": "en",
    "rank": 1,
    "isAdvertisement": false,
    "kgmid": "/g/1tczqw0c",
    "classification": "independent",
    "is_independent": true,
    "is_compounding": false,
    "confidence": 0.9,
    "source": "perplexity",
    "method": "llm"
  },
  {
    "title": "Drilling Pharmacy",
    "price": null,
    "categoryName": "Pharmacy",
    "address": "4010 Morningside Ave, Sioux City, IA 51106",
    "neighborhood": null,
    "street": "4010 Morningside Ave",
    "city": "Sioux City",
    "postalCode": "51106",
    "state": "Iowa",
    "countryCode": "US",
    "website": "http://www.drillingpharmacy.com/",
    "phone": "(712) 276-4621",
    "phoneUnformatted": "+17122764621",
    "claimThisBusiness": false,
    "location": {
      "lat": 42.470537,
      "lng": -96.355543
    },
    "totalScore": 4.9,
    "permanentlyClosed": false,
    "temporarilyClosed": false,
    "placeId": null,
    "categories": [
      "Pharmacy",
      "Christmas store",
      "Drug store",
      "Gift shop",
      "Greeting card shop",
      "Home goods store",
      "Local medical services",
      "Medical Center",
      "Seasonal goods store"
    ],
    "fid": "0x878dfc37a1e4f47d:0x40924bf71b96fee9",
    "cid": "4652864889719029481",
    "reviewsCount": 141,
    "imagesCount": 266,
    "imageCategories": [],
    "scrapedAt": "2025-06-22T07:55:18.572Z",
    "googleFoodUrl": null,
    "hotelAds": [],
    "openingHours": [
      {
        "day": "Monday",
        "hours": "9\u202fAM to 6\u202fPM"
      },
      {
        "day": "Tuesday",
        "hours": "9\u202fAM to 6\u202fPM"
      },
      {
        "day": "Wednesday",
        "hours": "9\u202fAM to 6\u202fPM"
      },
      {
        "day": "Thursday",
        "hours": "9\u202fAM to 6\u202fPM"
      },
      {
        "day": "Friday",
        "hours": "9\u202fAM to 6\u202fPM"
      },
      {
        "day": "Saturday",
        "hours": "9\u202fAM to 3\u202fPM"
      },
      {
        "day": "Sunday",
        "hours": "9\u202fAM to 1\u202fPM"
      }
    ],
    "additionalOpeningHours": {
      "Pickup": [
        {
          "day": "Monday",
          "hours": "9\u202fAM\u20136\u202fPM"
        },
        {
          "day": "Tuesday",
          "hours": "9\u202fAM\u20136\u202fPM"
        },
        {
          "day": "Wednesday",
          "hours": "9\u202fAM\u20136\u202fPM"
        },
        {
          "day": "Thursday",
          "hours": "9\u202fAM\u20136\u202fPM"
        },
        {
          "day": "Friday",
          "hours": "9\u202fAM\u20136\u202fPM"
        },
        {
          "day": "Saturday",
          "hours": "9\u202fAM\u20133\u202fPM"
        },
        {
          "day": "Sunday",
          "hours": "9\u202fAM\u20131\u202fPM"
        }
      ]
    },
    "peopleAlsoSearch": [],
    "placesTags": [],
    "reviewsTags": [],
    "additionalInfo": {
      "From the business": [
        {
          "Small business": true
        }
      ],
      "Service options": [
        {
          "Curbside pickup": true
        },
        {
          "Delivery": true
        },
        {
          "In-store pickup": true
        },
        {
          "In-store shopping": true
        },
        {
          "Onsite services": true
        },
        {
          "Same-day delivery": true
        }
      ],
      "Accessibility": [
        {
          "Wheelchair accessible entrance": true
        },
        {
          "Wheelchair accessible parking lot": true
        }
      ],
      "Planning": [
        {
          "Quick visit": true
        }
      ],
      "Payments": [
        {
          "Checks": true
        },
        {
          "Credit cards": true
        },
        {
          "Debit cards": true
        },
        {
          "NFC mobile payments": true
        }
      ],
      "Parking": [
        {
          "Free parking lot": true
        },
        {
          "Free street parking": true
        }
      ]
    },
    "gasPrices": [],
    "url": "https://www.google.com/maps/search/?api=1&query=Drilling%20Pharmacy&query_place_id=ChIJffTkoTf8jYcR6f6WG_dLkkA",
    "searchPageUrl": "https://www.google.com/maps/search/independent%20pharmacy%20Sioux%20City%20IA/@-14.568549527189342,-170.42077356561006,12z?hl=en",
    "searchString": "independent pharmacy Sioux City IA",
    "language": "en",
    "rank": 2,
    "isAdvertisement": false,
    "imageUrl": "https://lh3.googleusercontent.com/p/AF1QipMYvMFcPGAEr7VTo4yCv2rUvQz5ySlhkcyQWCwb=w408-h317-k-no",
    "kgmid": "/g/1w6_p9p6",
    "classification": "independent",
    "is_independent": true,
    "is_compounding": false,
    "confidence": 0.9,
    "source": "perplexity",
    "method": "llm"
  },
  {
    "title": "Leeds Northside Pharmacy",
    "price": null,
    "categoryName": "Pharmacy",
    "address": "2729 Outer Dr N, Sioux City, IA 51104",
    "neighborhood": null,
    "street": "2729 Outer Dr N",
    "city": "Sioux City",
    "postalCode": "51104",
    "state": "Iowa",
    "countryCode": "US",
    "website": "http://www.leedsnorthsidepharmacy.com/",
    "phone": "(712) 239-2051",
    "phoneUnformatted": "+17122392051",
    "claimThisBusiness": false,
    "location": {
      "lat": 42.5367706,
      "lng": -96.3732717
    },
    "totalScore": 4.5,
    "permanentlyClosed": false,
    "temporarilyClosed": false,
    "placeId": null,
    "categories": [
      "Pharmacy"
    ],
    "fid": "0x878de2d1be20bb77:0x4fab111bfab0cf5d",
    "cid": "5740700961881509725",
    "reviewsCount": 26,
    "imagesCount": 2,
    "imageCategories": [],
    "scrapedAt": "2025-06-22T07:55:18.572Z",
    "googleFoodUrl": null,
    "hotelAds": [],
    "openingHours": [
      {
        "day": "Monday",
        "hours": "9\u202fAM to 7\u202fPM"
      },
      {
        "day": "Tuesday",
        "hours": "9\u202fAM to 7\u202fPM"
      },
      {
        "day": "Wednesday",
        "hours": "9\u202fAM to 7\u202fPM"
      },
      {
        "day": "Thursday",
        "hours": "9\u202fAM to 7\u202fPM"
      },
      {
        "day": "Friday",
        "hours": "9\u202fAM to 7\u202fPM"
      },
      {
        "day": "Saturday",
        "hours": "9\u202fAM to 4\u202fPM"
      },
      {
        "day": "Sunday",
        "hours": "10\u202fAM to 3\u202fPM"
      }
    ],
    "peopleAlsoSearch": [],
    "placesTags": [],
    "reviewsTags": [],
    "additionalInfo": {
      "Service options": [
        {
          "Delivery": true
        },
        {
          "Drive-through": true
        },
        {
          "Onsite services": true
        },
        {
          "Same-day delivery": true
        }
      ],
      "Accessibility": [
        {
          "Wheelchair accessible entrance": true
        },
        {
          "Wheelchair accessible parking lot": true
        }
      ],
      "Planning": [
        {
          "Quick visit": true
        }
      ],
      "Payments": [
        {
          "Credit cards": true
        },
        {
          "Debit cards": true
        },
        {
          "NFC mobile payments": true
        },
        {
          "Credit cards": true
        }
      ]
    },
    "gasPrices": [],
    "url": "https://www.google.com/maps/search/?api=1&query=Leeds%20Northside%20Pharmacy&query_place_id=ChIJd7sgvtHijYcRXc-w-hsRq08",
    "searchPageUrl": "https://www.google.com/maps/search/independent%20pharmacy%20Sioux%20City%20IA/@-14.568549527189342,-170.42077356561006,12z?hl=en",
    "searchString": "independent pharmacy Sioux City IA",
    "language": "en",
    "rank": 3,
    "isAdvertisement": false,
    "imageUrl": "https://lh3.googleusercontent.com/gps-cs-s/AC9h4nqsk_zZgZ4zUWiLp6gAJz1YMvuj7zs9GkCcukw8wU9Yw7Xhc1_eMOnkd9wSZu_McH06iQ5ybkhC3G4fgfXLsIr61syLIn7sFguUJGqiIZ4tQnBlcsx0BOdCG3hSgn1TDx_bilmc=w493-h240-k-no",
    "kgmid": "/g/125_wy5xn",
    "classification": "independent",
    "is_independent": true,
    "is_compounding": false,
    "confidence": 0.9,
    "source": "perplexity",
    "method": "llm"
  },
  {
    "title": "Genoa Healthcare",
    "price": null,
    "categoryName": "Pharmacy",
    "address": "625 Court St Suite P, Sioux City, IA 51101",
    "neighborhood": null,
    "street": "625 Court St Suite P",
    "city": "Sioux City",
    "postalCode": "51101",
    "state": "Iowa",
    "countryCode": "US",
    "website": "https://www.genoahealthcare.com/",
    "phone": "(712) 266-3956",
    "phoneUnformatted": "+17122663956",
    "claimThisBusiness": false,
    "location": {
      "lat": 42.497219,
      "lng": -96.3972015
    },
    "totalScore": 5,
    "permanentlyClosed": false,
    "temporarilyClosed": false,
    "placeId": null,
    "categories": [
      "Pharmacy"
    ],
    "fid": "0x87941d9d56a34d4b:0x74cb58636d97ddca",
    "cid": "8415917512735579594",
    "reviewsCount": 6,
    "imagesCount": 1,
    "imageCategories": [],
    "scrapedAt": "2025-06-22T07:55:18.573Z",
    "googleFoodUrl": null,
    "hotelAds": [],
    "openingHours": [
      {
        "day": "Monday",
        "hours": "8:30\u202fAM to 5\u202fPM"
      },
      {
        "day": "Tuesday",
        "hours": "8:30\u202fAM to 5\u202fPM"
      },
      {
        "day": "Wednesday",
        "hours": "8:30\u202fAM to 5\u202fPM"
      },
      {
        "day": "Thursday",
        "hours": "8:30\u202fAM to 5\u202fPM"
      },
      {
        "day": "Friday",
        "hours": "8:30\u202fAM to 5\u202fPM"
      },
      {
        "day": "Saturday",
        "hours": "Closed"
      },
      {
        "day": "Sunday",
        "hours": "Closed"
      }
    ],
    "peopleAlsoSearch": [],
    "placesTags": [],
    "reviewsTags": [],
    "additionalInfo": {
      "Accessibility": [
        {
          "Wheelchair accessible entrance": true
        },
        {
          "Wheelchair accessible parking lot": true
        }
      ]
    },
    "gasPrices": [],
    "url": "https://www.google.com/maps/search/?api=1&query=Genoa%20Healthcare&query_place_id=ChIJS02jVp0dlIcRyt2XbWNYy3Q",
    "searchPageUrl": "https://www.google.com/maps/search/independent%20pharmacy%20Sioux%20City%20IA/@-14.568549527189342,-170.42077356561006,12z?hl=en",
    "searchString": "independent pharmacy Sioux City IA",
    "language": "en",
    "rank": 4,
    "isAdvertisement": false,
    "imageUrl": "https://streetviewpixels-pa.googleapis.com/v1/thumbnail?panoid=x5cbuddemJLKUhcfG3DAOw&cb_client=search.gws-prod.gps&w=408&h=240&yaw=284.43274&pitch=0&thumbfov=100",
    "kgmid": "/g/11nfyffxtf",
    "classification": "chain",
    "is_independent": false,
    "is_compounding": false,
    "confidence": 0.95,
    "source": "perplexity",
    "method": "llm"
  },
  {
    "title": "Greenville Pharmacy",
    "price": null,
    "categoryName": "Pharmacy",
    "address": "2705 Correctionville Rd, Sioux City, IA 51105",
    "neighborhood": null,
    "street": "2705 Correctionville Rd",
    "city": "Sioux City",
    "postalCode": "51105",
    "state": "Iowa",
    "countryCode": "US",
    "website": "https://www.greenvillepharmacy.com/",
    "phone": "(712) 258-0113",
    "phoneUnformatted": "+17122580113",
    "claimThisBusiness": false,
    "location": {
      "lat": 42.4905041,
      "lng": -96.3741701
    },
    "totalScore": 4.7,
    "permanentlyClosed": false,
    "temporarilyClosed": false,
    "placeId": null,
    "categories": [
      "Pharmacy",
      "Greeting card shop"
    ],
    "fid": "0x878dfda840840c17:0x4e106b8ec2a94fbb",
    "cid": "5625114195481153467",
    "reviewsCount": 34,
    "imagesCount": 1,
    "imageCategories": [],
    "scrapedAt": "2025-06-22T07:55:18.573Z",
    "googleFoodUrl": null,
    "hotelAds": [],
    "openingHours": [
      {
        "day": "Monday",
        "hours": "9\u202fAM to 7\u202fPM"
      },
      {
        "day": "Tuesday",
        "hours": "9\u202fAM to 7\u202fPM"
      },
      {
        "day": "Wednesday",
        "hours": "9\u202fAM to 7\u202fPM"
      },
      {
        "day": "Thursday",
        "hours": "9\u202fAM to 7\u202fPM"
      },
      {
        "day": "Friday",
        "hours": "9\u202fAM to 7\u202fPM"
      },
      {
        "day": "Saturday",
        "hours": "9\u202fAM to 4\u202fPM"
      },
      {
        "day": "Sunday",
        "hours": "10\u202fAM to 3\u202fPM"
      }
    ],
    "peopleAlsoSearch": [],
    "placesTags": [],
    "reviewsTags": [],
    "additionalInfo": {
      "Service options": [
        {
          "Delivery": true
        },
        {
          "In-store pickup": true
        },
        {
          "Same-day delivery": true
        }
      ],
      "Accessibility": [
        {
          "Wheelchair accessible entrance": true
        },
        {
          "Wheelchair accessible parking lot": true
        }
      ],
      "Planning": [
        {
          "Quick visit": true
        }
      ],
      "Payments": [
        {
          "Credit cards": true
        },
        {
          "Debit cards": true
        },
        {
          "NFC mobile payments": true
        },
        {
          "Credit cards": true
        }
      ]
    },
    "gasPrices": [],
    "url": "https://www.google.com/maps/search/?api=1&query=Greenville%20Pharmacy&query_place_id=ChIJFwyEQKj9jYcRu0-pwo5rEE4",
    "searchPageUrl": "https://www.google.com/maps/search/independent%20pharmacy%20Sioux%20City%20IA/@-14.568549527189342,-170.42077356561006,12z?hl=en",
    "searchString": "independent pharmacy Sioux City IA",
    "language": "en",
    "rank": 5,
    "isAdvertisement": false,
    "imageUrl": "https://streetviewpixels-pa.googleapis.com/v1/thumbnail?panoid=pLqucouqifgpXJVfFW7xog&cb_client=search.gws-prod.gps&w=408&h=240&yaw=352.34833&pitch=0&thumbfov=100",
    "kgmid": "/g/1vknpwtc",
    "classification": "independent",
    "is_independent": true,
    "is_compounding": false,
    "confidence": 0.9,
    "source": "perplexity",
    "method": "llm"
  },
  {
    "title": "L & M Pharmacy",
    "price": null,
    "categoryName": "Pharmacy",
    "address": "2526 Glenn Ave, Sioux City, IA 51106",
    "neighborhood": null,
    "street": "2526 Glenn Ave",
    "city": "Sioux City",
    "postalCode": "51106",
    "state": "Iowa",
    "countryCode": "US",
    "phone": "(712) 224-4070",
    "phoneUnformatted": "+17122244070",
    "claimThisBusiness": true,
    "location": {
      "lat": 42.4652319,
      "lng": -96.3753174
    },
    "totalScore": 4,
    "permanentlyClosed": false,
    "temporarilyClosed": false,
    "placeId": null,
    "categories": [
      "Pharmacy"
    ],
    "fid": "0x878dfdcf644bacf7:0x25b6e9457db238b1",
    "cid": "2717615909835520177",
    "reviewsCount": 1,
    "imagesCount": 1,
    "imageCategories": [],
    "scrapedAt": "2025-06-22T07:55:18.573Z",
    "googleFoodUrl": null,
    "hotelAds": [],
    "openingHours": [],
    "peopleAlsoSearch": [],
    "placesTags": [],
    "reviewsTags": [],
    "additionalInfo": {
      "Accessibility": [
        {
          "Wheelchair accessible entrance": true
        },
        {
          "Wheelchair accessible parking lot": true
        }
      ]
    },
    "gasPrices": [],
    "url": "https://www.google.com/maps/search/?api=1&query=L%20%26%20M%20Pharmacy&query_place_id=ChIJ96xLZM_9jYcRsTiyfUXptiU",
    "searchPageUrl": "https://www.google.com/maps/search/independent%20pharmacy%20Sioux%20City%20IA/@-14.568549527189342,-170.42077356561006,12z?hl=en",
    "searchString": "independent pharmacy Sioux City IA",
    "language": "en",
    "rank": 6,
    "isAdvertisement": false,
    "imageUrl": "https://streetviewpixels-pa.googleapis.com/v1/thumbnail?panoid=mGBkdKVO_OMCnAgw8kIfmg&cb_client=search.gws-prod.gps&w=408&h=240&yaw=167.3763&pitch=0&thumbfov=100",
    "kgmid": "/g/11fll69jgn",
    "classification": "independent",
    "is_independent": true,
    "is_compounding": false,
    "confidence": 0.85,
    "source": "perplexity",
    "method": "llm"
  },
  {
    "title": "Hy-Vee Clinic Pharmacy",
    "price": "$$",
    "categoryName": "Pharmacy",
    "address": "2611 Pierce St, Sioux City, IA 51104",
    "neighborhood": null,
    "street": "2611 Pierce St",
    "city": "Sioux City",
    "postalCode": "51104",
    "state": "Iowa",
    "countryCode": "US",
    "website": "https://www.hy-vee.com/my-pharmacy/pharmacy-finder/sioux-city-1-clinic-2611-pierce-st-sioux-city-ia/7070?utm_source=google&utm_medium=organic&utm_campaign=gmb-listing",
    "phone": "(712) 258-0117",
    "phoneUnformatted": "+17122580117",
    "claimThisBusiness": false,
    "location": {
      "lat": 42.5174475,
      "lng": -96.4055561
    },
    "totalScore": 4.2,
    "permanentlyClosed": false,
    "temporarilyClosed": false,
    "placeId": null,
    "categories": [
      "Pharmacy",
      "Drug store",
      "Herbal medicine store",
      "Homeopathic pharmacy",
      "Local medical services",
      "Medical Center",
      "Organic drug store",
      "Pharmaceutical company",
      "Pharmaceutical lab",
      "Toiletries store"
    ],
    "fid": "0x878dfd584cfd2e1d:0x2cefdfacf3eac5f",
    "cid": "202378286938893407",
    "reviewsCount": 287,
    "imagesCount": 18,
    "imageCategories": [],
    "scrapedAt": "2025-06-22T07:55:18.573Z",
    "googleFoodUrl": null,
    "hotelAds": [],
    "openingHours": [
      {
        "day": "Monday",
        "hours": "9\u202fAM to 1:30\u202fPM, 2 to 7\u202fPM"
      },
      {
        "day": "Tuesday",
        "hours": "9\u202fAM to 1:30\u202fPM, 2 to 7\u202fPM"
      },
      {
        "day": "Wednesday",
        "hours": "9\u202fAM to 1:30\u202fPM, 2 to 7\u202fPM"
      },
      {
        "day": "Thursday",
        "hours": "9\u202fAM to 1:30\u202fPM, 2 to 7\u202fPM"
      },
      {
        "day": "Friday",
        "hours": "9\u202fAM to 1:30\u202fPM, 2 to 7\u202fPM"
      },
      {
        "day": "Saturday",
        "hours": "9\u202fAM to 1\u202fPM"
      },
      {
        "day": "Sunday",
        "hours": "9\u202fAM to 1\u202fPM"
      }
    ],
    "peopleAlsoSearch": [],
    "placesTags": [],
    "reviewsTags": [],
    "additionalInfo": {
      "Service options": [
        {
          "Delivery": true
        },
        {
          "Drive-through": true
        },
        {
          "In-store pickup": true
        },
        {
          "Onsite services": true
        },
        {
          "Same-day delivery": true
        }
      ],
      "Accessibility": [
        {
          "Wheelchair accessible entrance": true
        },
        {
          "Wheelchair accessible parking lot": true
        },
        {
          "Wheelchair accessible restroom": true
        },
        {
          "Wheelchair accessible seating": true
        }
      ],
      "Amenities": [
        {
          "Wi-Fi": true
        }
      ],
      "Planning": [
        {
          "Quick visit": true
        }
      ],
      "Payments": [
        {
          "Debit cards": true
        },
        {
          "NFC mobile payments": true
        },
        {
          "SNAP/EBT": true
        },
        {
          "Credit cards": true
        }
      ]
    },
    "gasPrices": [],
    "url": "https://www.google.com/maps/search/?api=1&query=Hy-Vee%20Clinic%20Pharmacy&query_place_id=ChIJHS79TFj9jYcRX6w-z_r9zgI",
    "searchPageUrl": "https://www.google.com/maps/search/independent%20pharmacy%20Sioux%20City%20IA/@-14.568549527189342,-170.42077356561006,12z?hl=en",
    "searchString": "independent pharmacy Sioux City IA",
    "language": "en",
    "rank": 7,
    "isAdvertisement": false,
    "imageUrl": "https://lh3.googleusercontent.com/gps-cs-s/AC9h4nqWIlaLzgqgeBJOhJO4HvE43Iw4Lgp2jVBS7Vgt3frr5jDEojl8Rn26cYTexTeisv9PbIBDxcTH7xRwLByemu8Rm2gH7VfAPGtNHATDh3TDOMCd_nOvDmS0rxVF80s012svN1g=w408-h305-k-no",
    "kgmid": "/g/1tnhyv2r",
    "classification": "chain",
    "is_independent": false,
    "is_compounding": false,
    "confidence": 0.95,
    "source": "perplexity",
    "method": "llm"
  },
  {
    "title": "Thompson Dean Drug",
    "price": null,
    "categoryName": "Pharmacy",
    "address": "911 W 7th St, Sioux City, IA 51103",
    "neighborhood": null,
    "street": "911 W 7th St",
    "city": "Sioux City",
    "postalCode": "51103",
    "state": "Iowa",
    "countryCode": "US",
    "website": "https://thompsondeandrug.com/",
    "phone": "(712) 252-2761",
    "phoneUnformatted": "+17122522761",
    "claimThisBusiness": false,
    "location": {
      "lat": 42.5035473,
      "lng": -96.418593
    },
    "totalScore": 4.7,
    "permanentlyClosed": false,
    "temporarilyClosed": false,
    "placeId": null,
    "categories": [
      "Pharmacy"
    ],
    "fid": "0x878e0791fee7eacf:0xea12ed2a7f75748e",
    "cid": "16866804321238742158",
    "reviewsCount": 38,
    "imagesCount": 2,
    "imageCategories": [],
    "scrapedAt": "2025-06-22T07:55:18.573Z",
    "googleFoodUrl": null,
    "hotelAds": [],
    "openingHours": [
      {
        "day": "Monday",
        "hours": "8:30\u202fAM to 6:30\u202fPM"
      },
      {
        "day": "Tuesday",
        "hours": "8:30\u202fAM to 6:30\u202fPM"
      },
      {
        "day": "Wednesday",
        "hours": "8:30\u202fAM to 6:30\u202fPM"
      },
      {
        "day": "Thursday",
        "hours": "8:30\u202fAM to 6:30\u202fPM"
      },
      {
        "day": "Friday",
        "hours": "8:30\u202fAM to 6:30\u202fPM"
      },
      {
        "day": "Saturday",
        "hours": "9\u202fAM to 3\u202fPM"
      },
      {
        "day": "Sunday",
        "hours": "Closed"
      }
    ],
    "peopleAlsoSearch": [],
    "placesTags": [],
    "reviewsTags": [],
    "additionalInfo": {
      "Service options": [
        {
          "Delivery": true
        },
        {
          "Drive-through": true
        },
        {
          "In-store pickup": true
        },
        {
          "Onsite services": true
        },
        {
          "Same-day delivery": true
        }
      ],
      "Accessibility": [
        {
          "Wheelchair accessible entrance": true
        },
        {
          "Wheelchair accessible parking lot": true
        }
      ],
      "Planning": [
        {
          "Quick visit": true
        }
      ],
      "Payments": [
        {
          "Credit cards": true
        }
      ]
    },
    "gasPrices": [],
    "url": "https://www.google.com/maps/search/?api=1&query=Thompson%20Dean%20Drug&query_place_id=ChIJz-rn_pEHjocRjnR1fyrtEuo",
    "searchPageUrl": "https://www.google.com/maps/search/independent%20pharmacy%20Sioux%20City%20IA/@-14.568549527189342,-170.42077356561006,12z?hl=en",
    "searchString": "independent pharmacy Sioux City IA",
    "language": "en",
    "rank": 8,
    "isAdvertisement": false,
    "imageUrl": "https://lh3.googleusercontent.com/gps-cs-s/AC9h4nqhhZw9tmqrmawvR_FKtyQ_IhWpBHWr441hm0UGzIvvuzldG8mlbUy-TLy71fRgDTS042Sf2bG0vbKHPctrxJi2MQ6TbdG2L70LQkOdUaPJhGNxGtNVMVrzNAo8Fp1irrq6CpH6=w408-h725-k-no",
    "kgmid": "/g/1tdvvtcd",
    "classification": "independent",
    "is_independent": true,
    "is_compounding": false,
    "confidence": 0.9,
    "source": "perplexity",
    "method": "llm"
  },
  {
    "title": "Hy-Vee Pharmacy",
    "price": "$$",
    "categoryName": "Pharmacy",
    "address": "3301 Gordon Dr, Sioux City, IA 51105",
    "neighborhood": null,
    "street": "3301 Gordon Dr",
    "city": "Sioux City",
    "postalCode": "51105",
    "state": "Iowa",
    "countryCode": "US",
    "website": "https://www.hy-vee.com/my-pharmacy/pharmacy-finder/sioux-city-3-3301-gordon-dr-sioux-city-ia/1615?utm_source=google&utm_medium=organic&utm_campaign=gmb-listing",
    "phone": "(712) 234-1949",
    "phoneUnformatted": "+17122341949",
    "claimThisBusiness": false,
    "location": {
      "lat": 42.4889861,
      "lng": -96.3631003
    },
    "totalScore": 4.4,
    "permanentlyClosed": false,
    "temporarilyClosed": false,
    "placeId": null,
    "categories": [
      "Pharmacy",
      "Drug store",
      "Herbal medicine store",
      "Homeopathic pharmacy",
      "Local medical services",
      "Medical Center",
      "Organic drug store",
      "Pharmaceutical company",
      "Pharmaceutical lab",
      "Toiletries store"
    ],
    "fid": "0x878dfc54b6d14ae3:0x61e38b83d088aa3a",
    "cid": "7053634839647922746",
    "reviewsCount": 16,
    "imagesCount": 10,
    "imageCategories": [],
    "scrapedAt": "2025-06-22T07:55:18.573Z",
    "googleFoodUrl": null,
    "hotelAds": [],
    "openingHours": [
      {
        "day": "Monday",
        "hours": "8\u202fAM to 8\u202fPM"
      },
      {
        "day": "Tuesday",
        "hours": "8\u202fAM to 8\u202fPM"
      },
      {
        "day": "Wednesday",
        "hours": "8\u202fAM to 8\u202fPM"
      },
      {
        "day": "Thursday",
        "hours": "8\u202fAM to 8\u202fPM"
      },
      {
        "day": "Friday",
        "hours": "8\u202fAM to 8\u202fPM"
      },
      {
        "day": "Saturday",
        "hours": "9\u202fAM to 5\u202fPM"
      },
      {
        "day": "Sunday",
        "hours": "10\u202fAM to 5\u202fPM"
      }
    ],
    "peopleAlsoSearch": [],
    "placesTags": [],
    "reviewsTags": [],
    "additionalInfo": {
      "Service options": [
        {
          "Delivery": true
        },
        {
          "Drive-through": true
        },
        {
          "In-store pickup": true
        }
      ],
      "Accessibility": [
        {
          "Wheelchair accessible entrance": true
        },
        {
          "Wheelchair accessible parking lot": true
        },
        {
          "Wheelchair accessible restroom": true
        },
        {
          "Wheelchair accessible seating": true
        }
      ],
      "Amenities": [
        {
          "Wi-Fi": true
        }
      ],
      "Planning": [
        {
          "Quick visit": true
        }
      ],
      "Payments": [
        {
          "Credit cards": true
        },
        {
          "Debit cards": true
        },
        {
          "Credit cards": true
        }
      ]
    },
    "gasPrices": [],
    "url": "https://www.google.com/maps/search/?api=1&query=Hy-Vee%20Pharmacy&query_place_id=ChIJ40rRtlT8jYcROqqI0IOL42E",
    "searchPageUrl": "https://www.google.com/maps/search/independent%20pharmacy%20Sioux%20City%20IA/@-14.568549527189342,-170.42077356561006,12z?hl=en",
    "searchString": "independent pharmacy Sioux City IA",
    "language": "en",
    "rank": 9,
    "isAdvertisement": false,
    "imageUrl": "https://lh3.googleusercontent.com/gps-cs-s/AC9h4npT10G65KjQyo8EDkPCMkU08HKll3m-H-gxEiCGa-XizmE_GNKjFPQ5rEBigRm-8YB3WAOgDwFj7DFz5cVrPuOIhy0TalvFVzonOY2QJEncrSfwQWfhjgRG2wlPGKniYJLECwHKYg=w426-h240-k-no",
    "kgmid": "/g/1tfddzf6",
    "classification": "chain",
    "is_independent": false,
    "is_compounding": false,
    "confidence": 0.95,
    "source": "perplexity",
    "method": "llm"
  },
  {
    "title": "Hy-Vee Pharmacy",
    "price": "$$",
    "categoryName": "Pharmacy",
    "address": "4500 Sergeant Rd, Sioux City, IA 51106",
    "neighborhood": null,
    "street": "4500 Sergeant Rd",
    "city": "Sioux City",
    "postalCode": "51106",
    "state": "Iowa",
    "countryCode": "US",
    "website": "https://www.hy-vee.com/my-pharmacy/pharmacy-finder/sioux-city-2-4500-sergeant-rd-sioux-city-ia/1614?utm_source=google&utm_medium=organic&utm_campaign=gmb-listing",
    "phone": "(712) 274-2949",
    "phoneUnformatted": "+17122742949",
    "claimThisBusiness": false,
    "location": {
      "lat": 42.4459833,
      "lng": -96.3477434
    },
    "totalScore": 3.7,
    "permanentlyClosed": false,
    "temporarilyClosed": false,
    "placeId": null,
    "categories": [
      "Pharmacy",
      "Drug store",
      "Herbal medicine store",
      "Homeopathic pharmacy",
      "Local medical services",
      "Medical Center",
      "Organic drug store",
      "Pharmaceutical company",
      "Pharmaceutical lab",
      "Toiletries store"
    ],
    "fid": "0x878dfe99166837a9:0xee0c8599148648ed",
    "cid": "17153231973268211949",
    "reviewsCount": 11,
    "imagesCount": 9,
    "imageCategories": [],
    "scrapedAt": "2025-06-22T07:55:18.574Z",
    "googleFoodUrl": null,
    "hotelAds": [],
    "openingHours": [
      {
        "day": "Monday",
        "hours": "8\u202fAM to 8\u202fPM"
      },
      {
        "day": "Tuesday",
        "hours": "8\u202fAM to 8\u202fPM"
      },
      {
        "day": "Wednesday",
        "hours": "8\u202fAM to 8\u202fPM"
      },
      {
        "day": "Thursday",
        "hours": "8\u202fAM to 8\u202fPM"
      },
      {
        "day": "Friday",
        "hours": "8\u202fAM to 8\u202fPM"
      },
      {
        "day": "Saturday",
        "hours": "9\u202fAM to 5\u202fPM"
      },
      {
        "day": "Sunday",
        "hours": "10\u202fAM to 5\u202fPM"
      }
    ],
    "peopleAlsoSearch": [],
    "placesTags": [],
    "reviewsTags": [],
    "additionalInfo": {
      "Service options": [
        {
          "Delivery": true
        },
        {
          "Drive-through": true
        },
        {
          "In-store pickup": true
        }
      ],
      "Accessibility": [
        {
          "Wheelchair accessible entrance": true
        },
        {
          "Wheelchair accessible parking lot": true
        },
        {
          "Wheelchair accessible restroom": true
        },
        {
          "Wheelchair accessible seating": true
        }
      ],
      "Amenities": [
        {
          "Wi-Fi": true
        }
      ],
      "Planning": [
        {
          "Quick visit": true
        }
      ],
      "Payments": [
        {
          "Credit cards": true
        },
        {
          "Debit cards": true
        },
        {
          "Credit cards": true
        }
      ]
    },
    "gasPrices": [],
    "url": "https://www.google.com/maps/search/?api=1&query=Hy-Vee%20Pharmacy&query_place_id=ChIJqTdoFpn-jYcR7UiGFJmFDO4",
    "searchPageUrl": "https://www.google.com/maps/search/independent%20pharmacy%20Sioux%20City%20IA/@-14.568549527189342,-170.42077356561006,12z?hl=en",
    "searchString": "independent pharmacy Sioux City IA",
    "language": "en",
    "rank": 10,
    "isAdvertisement": false,
    "imageUrl": "https://lh3.googleusercontent.com/p/AF1QipNadQTEl2yEXI7TQ_sMyvSoJjl-YDgai4zxcDYZ=w408-h408-k-no",
    "kgmid": "/g/1pv0g67wt",
    "classification": "chain",
    "is_independent": false,
    "is_compounding": false,
    "confidence": 0.98,
    "source": "perplexity",
    "method": "llm"
  },
  {
    "title": "Genoa Healthcare",
    "price": null,
    "categoryName": "Pharmacy",
    "address": "3549 Southern Hills Dr, Sioux City, IA 51106",
    "neighborhood": null,
    "street": "3549 Southern Hills Dr",
    "city": "Sioux City",
    "postalCode": "51106",
    "state": "Iowa",
    "countryCode": "US",
    "website": "https://www.genoahealthcare.com/",
    "phone": "(712) 454-6393",
    "phoneUnformatted": "+17124546393",
    "claimThisBusiness": false,
    "location": {
      "lat": 42.4482124,
      "lng": -96.3571352
    },
    "permanentlyClosed": false,
    "temporarilyClosed": false,
    "placeId": null,
    "categories": [
      "Pharmacy"
    ],
    "fid": "0x878dff93d097482d:0x1ae652755424641d",
    "cid": "1938327353505899549",
    "reviewsCount": 0,
    "imagesCount": 1,
    "imageCategories": [],
    "scrapedAt": "2025-06-22T07:55:18.574Z",
    "googleFoodUrl": null,
    "hotelAds": [],
    "openingHours": [
      {
        "day": "Monday",
        "hours": "8\u202fAM to 5\u202fPM"
      },
      {
        "day": "Tuesday",
        "hours": "8\u202fAM to 5\u202fPM"
      },
      {
        "day": "Wednesday",
        "hours": "8\u202fAM to 5\u202fPM"
      },
      {
        "day": "Thursday",
        "hours": "8\u202fAM to 5\u202fPM"
      },
      {
        "day": "Friday",
        "hours": "8\u202fAM to 5\u202fPM"
      },
      {
        "day": "Saturday",
        "hours": "Closed"
      },
      {
        "day": "Sunday",
        "hours": "Closed"
      }
    ],
    "peopleAlsoSearch": [],
    "placesTags": [],
    "reviewsTags": [],
    "additionalInfo": {
      "Accessibility": [
        {
          "Wheelchair accessible entrance": true
        },
        {
          "Wheelchair accessible parking lot": true
        }
      ]
    },
    "gasPrices": [],
    "url": "https://www.google.com/maps/search/?api=1&query=Genoa%20Healthcare&query_place_id=ChIJLUiX0JP_jYcRHWQkVHVS5ho",
    "searchPageUrl": "https://www.google.com/maps/search/independent%20pharmacy%20Sioux%20City%20IA/@-14.568549527189342,-170.42077356561006,12z?hl=en",
    "searchString": "independent pharmacy Sioux City IA",
    "language": "en",
    "rank": 11,
    "isAdvertisement": false,
    "imageUrl": "https://streetviewpixels-pa.googleapis.com/v1/thumbnail?panoid=OVLtuYSDZOolvo8NrTIWmA&cb_client=search.gws-prod.gps&w=408&h=240&yaw=248.39072&pitch=0&thumbfov=100",
    "kgmid": "/g/11l725f9g1",
    "classification": "chain",
    "is_independent": false,
    "is_compounding": false,
    "confidence": 0.95,
    "source": "perplexity",
    "method": "llm"
  },
  {
    "title": "Walgreens Pharmacy",
    "description": "Department of the Walgreens chain providing prescription medications & other health-related items.",
    "price": "$$",
    "categoryName": "Pharmacy",
    "address": "1900 Hamilton Blvd, Sioux City, IA 51104",
    "neighborhood": null,
    "street": "1900 Hamilton Blvd",
    "city": "Sioux City",
    "postalCode": "51104",
    "state": "Iowa",
    "countryCode": "US",
    "website": "https://www.walgreens.com/locator/walgreens-1900+hamilton+blvd-sioux+city-ia-51104/id=15647",
    "phone": "(712) 252-6993",
    "phoneUnformatted": "+17122526993",
    "claimThisBusiness": false,
    "location": {
      "lat": 42.5110912,
      "lng": -96.4160827
    },
    "totalScore": 3.8,
    "permanentlyClosed": false,
    "temporarilyClosed": false,
    "placeId": null,
    "categories": [
      "Pharmacy"
    ],
    "fid": "0x878e07f2f1947815:0x826771964c2525ea",
    "cid": "9396604037868365290",
    "reviewsCount": 18,
    "imagesCount": 4,
    "imageCategories": [],
    "scrapedAt": "2025-06-22T07:55:18.574Z",
    "googleFoodUrl": null,
    "hotelAds": [],
    "openingHours": [
      {
        "day": "Monday",
        "hours": "8\u202fAM to 1:30\u202fPM, 2 to 8\u202fPM"
      },
      {
        "day": "Tuesday",
        "hours": "8\u202fAM to 1:30\u202fPM, 2 to 8\u202fPM"
      },
      {
        "day": "Wednesday",
        "hours": "8\u202fAM to 1:30\u202fPM, 2 to 8\u202fPM"
      },
      {
        "day": "Thursday",
        "hours": "8\u202fAM to 1:30\u202fPM, 2 to 8\u202fPM"
      },
      {
        "day": "Friday",
        "hours": "8\u202fAM to 1:30\u202fPM, 2 to 8\u202fPM"
      },
      {
        "day": "Saturday",
        "hours": "9\u202fAM to 1:30\u202fPM, 2 to 6\u202fPM"
      },
      {
        "day": "Sunday",
        "hours": "10\u202fAM to 1:30\u202fPM, 2 to 6\u202fPM"
      }
    ],
    "additionalOpeningHours": {
      "Drive through": [
        {
          "day": "Monday",
          "hours": "8\u202fAM\u20131:30\u202fPM"
        },
        {
          "day": "Tuesday",
          "hours": "8\u202fAM\u20131:30\u202fPM"
        },
        {
          "day": "Wednesday",
          "hours": "8\u202fAM\u20131:30\u202fPM"
        },
        {
          "day": "Thursday",
          "hours": "8\u202fAM\u20131:30\u202fPM"
        },
        {
          "day": "Friday",
          "hours": "8\u202fAM\u20131:30\u202fPM"
        },
        {
          "day": "Saturday",
          "hours": "9\u202fAM\u20131:30\u202fPM"
        },
        {
          "day": "Sunday",
          "hours": "10\u202fAM\u20131:30\u202fPM"
        }
      ]
    },
    "peopleAlsoSearch": [],
    "placesTags": [],
    "reviewsTags": [],
    "additionalInfo": {
      "Service options": [
        {
          "Drive-through": true
        },
        {
          "In-store pickup": true
        },
        {
          "Same-day delivery": false
        }
      ],
      "Accessibility": [
        {
          "Wheelchair accessible entrance": true
        },
        {
          "Wheelchair accessible parking lot": true
        }
      ],
      "Offerings": [
        {
          "Medication disposal": true
        },
        {
          "Naloxone": true
        }
      ],
      "Planning": [
        {
          "Quick visit": true
        }
      ],
      "Payments": [
        {
          "Checks": true
        },
        {
          "Credit cards": true
        },
        {
          "Debit cards": true
        }
      ]
    },
    "gasPrices": [],
    "url": "https://www.google.com/maps/search/?api=1&query=Walgreens%20Pharmacy&query_place_id=ChIJFXiU8fIHjocR6iUlTJZxZ4I",
    "searchPageUrl": "https://www.google.com/maps/search/independent%20pharmacy%20Sioux%20City%20IA/@-14.568549527189342,-170.42077356561006,12z?hl=en",
    "searchString": "independent pharmacy Sioux City IA",
    "language": "en",
    "rank": 12,
    "isAdvertisement": false,
    "imageUrl": "https://lh3.googleusercontent.com/p/AF1QipPSM3Q5Vju8-FsC3ysI-NKXjz-YNXnAEwxtbjbX=w525-h240-k-no",
    "kgmid": "/g/11cn95zlcy",
    "classification": "chain",
    "is_independent": false,
    "is_compounding": false,
    "confidence": 1.0,
    "source": "perplexity",
    "method": "llm"
  },
  {
    "title": "CVS Pharmacy",
    "description": "Drugstore chain selling a variety of beauty & health products, plus some grocery & household items.",
    "price": null,
    "categoryName": "Pharmacy",
    "address": "5775 Sunnybrook Dr, Sioux City, IA 51106",
    "neighborhood": null,
    "street": "5775 Sunnybrook Dr",
    "city": "Sioux City",
    "postalCode": "51106",
    "state": "Iowa",
    "countryCode": "US",
    "website": "https://www.cvs.com/store-locator/sioux-city-ia-pharmacies/5775-sunnybrook-dr-sioux-city-ia-51106/storeid=16923?WT.mc_id=LS_GOOGLE_RX_16923",
    "phone": "(712) 274-8854",
    "phoneUnformatted": "+17122748854",
    "claimThisBusiness": false,
    "location": {
      "lat": 42.4481792,
      "lng": -96.3335743
    },
    "totalScore": 3,
    "permanentlyClosed": false,
    "temporarilyClosed": false,
    "placeId": null,
    "categories": [
      "Pharmacy"
    ],
    "fid": "0x878dfea8bab5e397:0x4280cc29abf2d1b4",
    "cid": "4792054482872750516",
    "reviewsCount": 44,
    "imagesCount": 5,
    "imageCategories": [],
    "scrapedAt": "2025-06-22T07:55:18.574Z",
    "googleFoodUrl": null,
    "hotelAds": [],
    "openingHours": [
      {
        "day": "Monday",
        "hours": "9\u202fAM to 1:30\u202fPM, 2 to 8\u202fPM"
      },
      {
        "day": "Tuesday",
        "hours": "9\u202fAM to 1:30\u202fPM, 2 to 8\u202fPM"
      },
      {
        "day": "Wednesday",
        "hours": "9\u202fAM to 1:30\u202fPM, 2 to 8\u202fPM"
      },
      {
        "day": "Thursday",
        "hours": "9\u202fAM to 1:30\u202fPM, 2 to 8\u202fPM"
      },
      {
        "day": "Friday",
        "hours": "9\u202fAM to 1:30\u202fPM, 2 to 8\u202fPM"
      },
      {
        "day": "Saturday",
        "hours": "9\u202fAM to 1:30\u202fPM, 2 to 6\u202fPM"
      },
      {
        "day": "Sunday",
        "hours": "10\u202fAM to 1:30\u202fPM, 2 to 6\u202fPM"
      }
    ],
    "peopleAlsoSearch": [],
    "placesTags": [],
    "reviewsTags": [],
    "additionalInfo": {
      "Service options": [
        {
          "Delivery": true
        },
        {
          "In-store shopping": true
        },
        {
          "Onsite services": true
        }
      ],
      "Accessibility": [
        {
          "Wheelchair accessible entrance": true
        },
        {
          "Wheelchair accessible parking lot": true
        }
      ],
      "Offerings": [
        {
          "Naloxone": true
        }
      ],
      "Crowd": [
        {
          "LGBTQ+ friendly": true
        },
        {
          "Transgender safespace": true
        }
      ],
      "Planning": [
        {
          "Quick visit": true
        }
      ],
      "Payments": [
        {
          "Credit cards": true
        },
        {
          "Debit cards": true
        },
        {
          "Credit cards": true
        }
      ]
    },
    "gasPrices": [],
    "url": "https://www.google.com/maps/search/?api=1&query=CVS%20Pharmacy&query_place_id=ChIJl-O1uqj-jYcRtNHyqynMgEI",
    "searchPageUrl": "https://www.google.com/maps/search/independent%20pharmacy%20Sioux%20City%20IA/@-14.568549527189342,-170.42077356561006,12z?hl=en",
    "searchString": "independent pharmacy Sioux City IA",
    "language": "en",
    "rank": 13,
    "isAdvertisement": false,
    "imageUrl": "https://lh3.googleusercontent.com/p/AF1QipNhNq16DkO1qILXVhjZd9mplYx8JKDW1xDAlXGT=w408-h272-k-no",
    "kgmid": "/g/1tmcmr15",
    "classification": "chain",
    "is_independent": false,
    "is_compounding": false,
    "confidence": 1.0,
    "source": "perplexity",
    "method": "llm"
  },
  {
    "title": "MercyOne Siouxland Pharmacy",
    "price": null,
    "categoryName": "Pharmacy",
    "address": "801 5th St, Sioux City, IA 51101",
    "neighborhood": null,
    "street": "801 5th St",
    "city": "Sioux City",
    "postalCode": "51101",
    "state": "Iowa",
    "countryCode": "US",
    "website": "https://www.mercyone.org/location/mercyone-siouxland-pharmacy",
    "phone": "(712) 279-2010",
    "phoneUnformatted": "+17122792010",
    "claimThisBusiness": false,
    "location": {
      "lat": 42.4956386,
      "lng": -96.4009146
    },
    "permanentlyClosed": false,
    "temporarilyClosed": false,
    "placeId": null,
    "categories": [
      "Pharmacy"
    ],
    "fid": "0x878dfd7be7e0b613:0x4b183da891c24639",
    "cid": "5411142746494879289",
    "reviewsCount": 0,
    "imagesCount": 2,
    "imageCategories": [],
    "scrapedAt": "2025-06-22T07:55:18.574Z",
    "googleFoodUrl": null,
    "hotelAds": [],
    "openingHours": [
      {
        "day": "Monday",
        "hours": "8\u202fAM to 4:30\u202fPM"
      },
      {
        "day": "Tuesday",
        "hours": "8\u202fAM to 4:30\u202fPM"
      },
      {
        "day": "Wednesday",
        "hours": "8\u202fAM to 4:30\u202fPM"
      },
      {
        "day": "Thursday",
        "hours": "8\u202fAM to 4:30\u202fPM"
      },
      {
        "day": "Friday",
        "hours": "8\u202fAM to 4:30\u202fPM"
      },
      {
        "day": "Saturday",
        "hours": "Closed"
      },
      {
        "day": "Sunday",
        "hours": "Closed"
      }
    ],
    "peopleAlsoSearch": [],
    "placesTags": [],
    "reviewsTags": [],
    "additionalInfo": {
      "Service options": [
        {
          "Drive-through": true
        }
      ],
      "Accessibility": [
        {
          "Wheelchair accessible entrance": true
        },
        {
          "Wheelchair accessible parking lot": true
        }
      ]
    },
    "gasPrices": [],
    "url": "https://www.google.com/maps/search/?api=1&query=MercyOne%20Siouxland%20Pharmacy&query_place_id=ChIJE7bg53v9jYcROUbCkag9GEs",
    "searchPageUrl": "https://www.google.com/maps/search/independent%20pharmacy%20Sioux%20City%20IA/@-14.568549527189342,-170.42077356561006,12z?hl=en",
    "searchString": "independent pharmacy Sioux City IA",
    "language": "en",
    "rank": 14,
    "isAdvertisement": false,
    "imageUrl": "https://streetviewpixels-pa.googleapis.com/v1/thumbnail?panoid=BYzMEGD78B4ntN2eKEbg_Q&cb_client=search.gws-prod.gps&w=408&h=240&yaw=337.90152&pitch=0&thumbfov=100",
    "kgmid": "/g/1tjjpwck",
    "classification": "independent",
    "is_independent": true,
    "is_compounding": false,
    "confidence": 0.9,
    "source": "perplexity",
    "method": "llm"
  },
  {
    "title": "Walmart Pharmacy",
    "price": "$",
    "categoryName": "Pharmacy",
    "address": "3101 Floyd Blvd, Sioux City, IA 51108",
    "neighborhood": null,
    "street": "3101 Floyd Blvd",
    "city": "Sioux City",
    "postalCode": "51108",
    "state": "Iowa",
    "countryCode": "US",
    "website": "https://www.walmart.com/store/3590-sioux-city-ia/pharmacy/?veh=seo_loc",
    "phone": "(712) 239-8913",
    "phoneUnformatted": "+17122398913",
    "claimThisBusiness": false,
    "location": {
      "lat": 42.5320667,
      "lng": -96.3748013
    },
    "totalScore": 4.4,
    "permanentlyClosed": false,
    "temporarilyClosed": false,
    "placeId": null,
    "categories": [
      "Pharmacy",
      "Herbal medicine store",
      "Medical supply store",
      "Parapharmacy",
      "Vitamin & supplements store"
    ],
    "fid": "0x878de2d381633c57:0x45774bde1eec8363",
    "cid": "5005552928219235171",
    "reviewsCount": 15,
    "imagesCount": 5,
    "imageCategories": [],
    "scrapedAt": "2025-06-22T07:55:18.575Z",
    "googleFoodUrl": null,
    "hotelAds": [],
    "openingHours": [
      {
        "day": "Monday",
        "hours": "9\u202fAM to 7\u202fPM"
      },
      {
        "day": "Tuesday",
        "hours": "9\u202fAM to 7\u202fPM"
      },
      {
        "day": "Wednesday",
        "hours": "9\u202fAM to 7\u202fPM"
      },
      {
        "day": "Thursday",
        "hours": "9\u202fAM to 7\u202fPM"
      },
      {
        "day": "Friday",
        "hours": "9\u202fAM to 7\u202fPM"
      },
      {
        "day": "Saturday",
        "hours": "9\u202fAM to 7\u202fPM"
      },
      {
        "day": "Sunday",
        "hours": "10\u202fAM to 6\u202fPM"
      }
    ],
    "peopleAlsoSearch": [],
    "placesTags": [],
    "reviewsTags": [],
    "additionalInfo": {
      "Service options": [
        {
          "Curbside pickup": true
        },
        {
          "Delivery": true
        },
        {
          "In-store pickup": true
        },
        {
          "In-store shopping": true
        },
        {
          "Onsite services": true
        }
      ],
      "Accessibility": [
        {
          "Wheelchair accessible entrance": true
        },
        {
          "Wheelchair accessible parking lot": true
        },
        {
          "Wheelchair accessible restroom": true
        }
      ],
      "Offerings": [
        {
          "Passport photos": true
        }
      ],
      "Amenities": [
        {
          "Wi-Fi": true
        },
        {
          "Free Wi-Fi": true
        }
      ],
      "Planning": [
        {
          "Quick visit": true
        }
      ],
      "Payments": [
        {
          "Credit cards": true
        },
        {
          "Debit cards": true
        },
        {
          "Credit cards": true
        }
      ]
    },
    "gasPrices": [],
    "url": "https://www.google.com/maps/search/?api=1&query=Walmart%20Pharmacy&query_place_id=ChIJVzxjgdPijYcRY4PsHt5Ld0U",
    "searchPageUrl": "https://www.google.com/maps/search/independent%20pharmacy%20Sioux%20City%20IA/@-14.568549527189342,-170.42077356561006,12z?hl=en",
    "searchString": "independent pharmacy Sioux City IA",
    "language": "en",
    "rank": 15,
    "isAdvertisement": false,
    "imageUrl": "https://lh3.googleusercontent.com/p/AF1QipOAntwqfexR-tKd4ZpUhOj-ePfZCSmaIrHbN9oS=w408-h306-k-no",
    "kgmid": "/g/1hc2zzrmg",
    "classification": "chain",
    "is_independent": false,
    "is_compounding": false,
    "confidence": 1.0,
    "source": "perplexity",
    "method": "llm"
  },
  {
    "title": "Siouxland Compounding Pharmacy",
    "price": null,
    "categoryName": "Pharmacy",
    "address": "4501 Southern Hills Dr # 3, Sioux City, IA 51106",
    "neighborhood": null,
    "street": "4501 Southern Hills Dr # 3",
    "city": "Sioux City",
    "postalCode": "51106",
    "state": "Iowa",
    "countryCode": "US",
    "phone": "(712) 224-6337",
    "phoneUnformatted": "+17122246337",
    "claimThisBusiness": true,
    "location": {
      "lat": 42.441998,
      "lng": -96.3499581
    },
    "permanentlyClosed": true,
    "temporarilyClosed": false,
    "placeId": null,
    "categories": [
      "Pharmacy"
    ],
    "fid": "0x878dfe9667e8d0c1:0x1c747faf867deaa6",
    "cid": "2050404122212821670",
    "reviewsCount": 0,
    "imagesCount": 1,
    "imageCategories": [],
    "scrapedAt": "2025-06-22T07:55:18.575Z",
    "googleFoodUrl": null,
    "hotelAds": [],
    "openingHours": [],
    "peopleAlsoSearch": [],
    "placesTags": [],
    "reviewsTags": [],
    "additionalInfo": {
      "Accessibility": [
        {
          "Wheelchair accessible entrance": true
        }
      ]
    },
    "gasPrices": [],
    "url": "https://www.google.com/maps/search/?api=1&query=Siouxland%20Compounding%20Pharmacy&query_place_id=ChIJwdDoZ5b-jYcRpup9hq9_dBw",
    "searchPageUrl": "https://www.google.com/maps/search/independent%20pharmacy%20Sioux%20City%20IA/@-14.568549527189342,-170.42077356561006,12z?hl=en",
    "searchString": "independent pharmacy Sioux City IA",
    "language": "en",
    "rank": 16,
    "isAdvertisement": false,
    "imageUrl": "https://streetviewpixels-pa.googleapis.com/v1/thumbnail?panoid=bHGNESw-QzBcIy9fVs4HiA&cb_client=search.gws-prod.gps&w=408&h=240&yaw=99.1893&pitch=0&thumbfov=100",
    "kgmid": "/g/11bbypc34_",
    "classification": "independent",
    "is_independent": true,
    "is_compounding": true,
    "confidence": 0.95,
    "source": "perplexity",
    "method": "llm"
  },
  {
    "title": "Indian Hills Pharmacy",
    "price": null,
    "categoryName": "Pharmacy",
    "address": "Sioux City, IA 51101",
    "neighborhood": null,
    "street": null,
    "city": "Sioux City",
    "postalCode": "51101",
    "state": "Iowa",
    "countryCode": "US",
    "phone": "(712) 252-7181",
    "phoneUnformatted": "+17122527181",
    "claimThisBusiness": true,
    "location": {
      "lat": 42.4924948,
      "lng": -96.3998167
    },
    "permanentlyClosed": true,
    "temporarilyClosed": false,
    "placeId": null,
    "categories": [
      "Pharmacy"
    ],
    "fid": "0x878dfd78ffffffff:0x1d7977208f64ef46",
    "cid": "2123859681010315078",
    "reviewsCount": 0,
    "imagesCount": 1,
    "imageCategories": [],
    "scrapedAt": "2025-06-22T07:55:18.575Z",
    "googleFoodUrl": null,
    "hotelAds": [],
    "openingHours": [],
    "peopleAlsoSearch": [],
    "placesTags": [],
    "reviewsTags": [],
    "additionalInfo": {
      "Accessibility": [
        {
          "Wheelchair accessible entrance": true
        },
        {
          "Wheelchair accessible parking lot": true
        }
      ],
      "Planning": [
        {
          "Quick visit": true
        }
      ],
      "Payments": [
        {
          "Credit cards": true
        }
      ]
    },
    "gasPrices": [],
    "url": "https://www.google.com/maps/search/?api=1&query=Indian%20Hills%20Pharmacy&query_place_id=ChIJ_____3j9jYcRRu9kjyB3eR0",
    "searchPageUrl": "https://www.google.com/maps/search/independent%20pharmacy%20Sioux%20City%20IA/@-14.568549527189342,-170.42077356561006,12z?hl=en",
    "searchString": "independent pharmacy Sioux City IA",
    "language": "en",
    "rank": 17,
    "isAdvertisement": false,
    "imageUrl": "https://streetviewpixels-pa.googleapis.com/v1/thumbnail?panoid=uVvD7Wbak2OEO26UfsEiLQ&cb_client=search.gws-prod.gps&w=408&h=240&yaw=118.17979&pitch=0&thumbfov=100",
    "kgmid": "/g/1v9t_dhg",
    "classification": "independent",
    "is_independent": true,
    "is_compounding": false,
    "confidence": 0.85,
    "source": "perplexity",
    "method": "llm"
  },
  {
    "title": "Redlers Long Term Pharmacy",
    "price": null,
    "categoryName": "Pharmacy",
    "address": "317 Dakota Dunes Blvd # A, North Sioux City, SD 57049",
    "neighborhood": null,
    "street": "317 Dakota Dunes Blvd # A",
    "city": "North Sioux City",
    "postalCode": "57049",
    "state": "South Dakota",
    "countryCode": "US",
    "website": "http://redlersltc.com/",
    "phone": "(605) 235-1552",
    "phoneUnformatted": "+16052351552",
    "claimThisBusiness": false,
    "location": {
      "lat": 42.5016277,
      "lng": -96.4961087
    },
    "totalScore": 1,
    "permanentlyClosed": false,
    "temporarilyClosed": false,
    "placeId": null,
    "categories": [
      "Pharmacy"
    ],
    "fid": "0x878e05dfbf4cf741:0x6ba354765beb02d9",
    "cid": "7756135850587128537",
    "reviewsCount": 1,
    "imagesCount": 1,
    "imageCategories": [],
    "scrapedAt": "2025-06-22T07:55:20.154Z",
    "googleFoodUrl": null,
    "hotelAds": [],
    "openingHours": [
      {
        "day": "Monday",
        "hours": "9\u202fAM to 6\u202fPM"
      },
      {
        "day": "Tuesday",
        "hours": "9\u202fAM to 6\u202fPM"
      },
      {
        "day": "Wednesday",
        "hours": "9\u202fAM to 6\u202fPM"
      },
      {
        "day": "Thursday",
        "hours": "9\u202fAM to 6\u202fPM"
      },
      {
        "day": "Friday",
        "hours": "9\u202fAM to 6\u202fPM"
      },
      {
        "day": "Saturday",
        "hours": "9\u202fAM to 1\u202fPM"
      },
      {
        "day": "Sunday",
        "hours": "Closed"
      }
    ],
    "peopleAlsoSearch": [],
    "placesTags": [],
    "reviewsTags": [],
    "additionalInfo": {
      "Accessibility": [
        {
          "Wheelchair accessible entrance": true
        },
        {
          "Wheelchair accessible parking lot": true
        }
      ],
      "Payments": [
        {
          "Credit cards": true
        }
      ]
    },
    "gasPrices": [],
    "url": "https://www.google.com/maps/search/?api=1&query=Redlers%20Long%20Term%20Pharmacy&query_place_id=ChIJQfdMv98FjocR2QLrW3ZUo2s",
    "searchPageUrl": "https://www.google.com/maps/search/independent%20pharmacy%20Sioux%20City%20IA/@61.56929586514925,-140.45172212891654,9z?hl=en",
    "searchString": "independent pharmacy Sioux City IA",
    "language": "en",
    "rank": 16,
    "isAdvertisement": false,
    "imageUrl": "https://streetviewpixels-pa.googleapis.com/v1/thumbnail?panoid=GT4O0TYGFGAfGm5ZWW-Nvg&cb_client=search.gws-prod.gps&w=408&h=240&yaw=278.3923&pitch=0&thumbfov=100",
    "kgmid": "/g/1vfzfn_f",
    "classification": "independent",
    "is_independent": true,
    "is_compounding": false,
    "confidence": 0.9,
    "source": "perplexity",
    "method": "llm"
  }
]