[
  {
    "title": "Elmwood Pharmacy",
    "price": null,
    "categoryName": "Pharmacy",
    "address": "5203 Leavenworth St, Omaha, NE 68106",
    "neighborhood": "Aksarben/Elmwood Park",
    "street": "5203 Leavenworth St",
    "city": "Omaha",
    "postalCode": "68106",
    "state": "Nebraska",
    "countryCode": "US",
    "website": "http://www.elmwoodpharmacy.com/",
    "phone": "(402) 551-5200",
    "phoneUnformatted": "+14025515200",
    "claimThisBusiness": false,
    "location": {
      "lat": 41.252262,
      "lng": -95.995417
    },
    "totalScore": 4.6,
    "permanentlyClosed": false,
    "temporarilyClosed": false,
    "placeId": null,
    "categories": [
      "Pharmacy",
      "Medical supply store"
    ],
    "fid": "0x87938dce400f3483:0xee4b269b0c38164c",
    "cid": "17170860451646936652",
    "reviewsCount": 59,
    "imagesCount": 12,
    "imageCategories": [],
    "scrapedAt": "2025-06-22T08:36:19.753Z",
    "googleFoodUrl": null,
    "hotelAds": [],
    "openingHours": [
      {
        "day": "Monday",
        "hours": "9\u202fAM to 1:30\u202fPM, 2 to 6\u202fPM"
      },
      {
        "day": "Tuesday",
        "hours": "9\u202fAM to 1:30\u202fPM, 2 to 6\u202fPM"
      },
      {
        "day": "Wednesday",
        "hours": "9\u202fAM to 1:30\u202fPM, 2 to 6\u202fPM"
      },
      {
        "day": "Thursday",
        "hours": "9\u202fAM to 1:30\u202fPM, 2 to 6\u202fPM"
      },
      {
        "day": "Friday",
        "hours": "9\u202fAM to 1:30\u202fPM, 2 to 6\u202fPM"
      },
      {
        "day": "Saturday",
        "hours": "9\u202fAM to 1\u202fPM"
      },
      {
        "day": "Sunday",
        "hours": "Closed"
      }
    ],
    "peopleAlsoSearch": [],
    "placesTags": [],
    "reviewsTags": [],
    "additionalInfo": {
      "From the business": [
        {
          "Small business": true
        }
      ],
      "Service options": [
        {
          "Curbside pickup": true
        },
        {
          "Delivery": true
        },
        {
          "In-store pickup": true
        },
        {
          "In-store shopping": true
        },
        {
          "Onsite services": true
        },
        {
          "Same-day delivery": true
        },
        {
          "Mandarin": true
        }
      ],
      "Accessibility": [
        {
          "Wheelchair accessible entrance": true
        },
        {
          "Wheelchair accessible parking lot": true
        }
      ],
      "Offerings": [
        {
          "Medication disposal": true
        }
      ],
      "Planning": [
        {
          "Quick visit": true
        }
      ],
      "Payments": [
        {
          "Credit cards": true
        },
        {
          "Debit cards": true
        },
        {
          "NFC mobile payments": true
        },
        {
          "Credit cards": true
        }
      ]
    },
    "gasPrices": [],
    "url": "https://www.google.com/maps/search/?api=1&query=Elmwood%20Pharmacy&query_place_id=ChIJgzQPQM6Nk4cRTBY4DJsmS-4",
    "searchPageUrl": "https://www.google.com/maps/search/independent%20pharmacy%20Omaha%20NE/@64.76955200934916,-168.0057016382483,13z?hl=en",
    "searchString": "independent pharmacy Omaha NE",
    "language": "en",
    "rank": 1,
    "isAdvertisement": false,
    "imageUrl": "https://lh3.googleusercontent.com/p/AF1QipNssDfv-c5QYJ7iY8jxVBLpjgLlGaqQcD0EwIyh=w408-h305-k-no",
    "kgmid": "/g/1vg_7sz1",
    "classification": "independent",
    "is_independent": true,
    "is_compounding": false,
    "confidence": 0.9,
    "source": "perplexity",
    "method": "llm",
    "query_location": "omaha_ne"
  },
  {
    "title": "Pharmacy Express in Tower Plaza",
    "price": null,
    "categoryName": "Pharmacy",
    "address": "349 N 78th St, Omaha, NE 68114",
    "neighborhood": "Central Omaha",
    "street": "349 N 78th St",
    "city": "Omaha",
    "postalCode": "68114",
    "state": "Nebraska",
    "countryCode": "US",
    "website": "http://www.omahapharmacyexpress.com/",
    "phone": "(402) 932-8709",
    "phoneUnformatted": "+14029328709",
    "claimThisBusiness": false,
    "location": {
      "lat": 41.2623631,
      "lng": -96.0363479
    },
    "totalScore": 4.9,
    "permanentlyClosed": false,
    "temporarilyClosed": false,
    "placeId": null,
    "categories": [
      "Pharmacy",
      "Diabetes equipment supplier",
      "Medical supply store",
      "Vitamin & supplements store"
    ],
    "fid": "0x87938d12bb9d2ebf:0x92f69584c86424a8",
    "cid": "10589815971338527912",
    "reviewsCount": 59,
    "imagesCount": 10,
    "imageCategories": [],
    "scrapedAt": "2025-06-22T08:36:19.755Z",
    "googleFoodUrl": null,
    "hotelAds": [],
    "openingHours": [
      {
        "day": "Monday",
        "hours": "9\u202fAM to 6\u202fPM"
      },
      {
        "day": "Tuesday",
        "hours": "9\u202fAM to 6\u202fPM"
      },
      {
        "day": "Wednesday",
        "hours": "9\u202fAM to 6\u202fPM"
      },
      {
        "day": "Thursday",
        "hours": "9\u202fAM to 6\u202fPM"
      },
      {
        "day": "Friday",
        "hours": "9\u202fAM to 6\u202fPM"
      },
      {
        "day": "Saturday",
        "hours": "9\u202fAM to 12\u202fPM"
      },
      {
        "day": "Sunday",
        "hours": "Closed"
      }
    ],
    "peopleAlsoSearch": [],
    "placesTags": [],
    "reviewsTags": [],
    "additionalInfo": {
      "From the business": [
        {
          "Small business": true
        }
      ],
      "Service options": [
        {
          "In-store pickup": true
        },
        {
          "In-store shopping": true
        }
      ],
      "Accessibility": [
        {
          "Wheelchair accessible entrance": true
        },
        {
          "Wheelchair accessible parking lot": true
        }
      ],
      "Offerings": [
        {
          "Medication disposal": true
        }
      ],
      "Planning": [
        {
          "Quick visit": true
        }
      ],
      "Payments": [
        {
          "Credit cards": true
        },
        {
          "Debit cards": true
        },
        {
          "NFC mobile payments": true
        },
        {
          "Credit cards": true
        }
      ]
    },
    "gasPrices": [],
    "url": "https://www.google.com/maps/search/?api=1&query=Pharmacy%20Express%20in%20Tower%20Plaza&query_place_id=ChIJvy6duxKNk4cRqCRkyISV9pI",
    "searchPageUrl": "https://www.google.com/maps/search/independent%20pharmacy%20Omaha%20NE/@64.76955200934916,-168.0057016382483,13z?hl=en",
    "searchString": "independent pharmacy Omaha NE",
    "language": "en",
    "rank": 2,
    "isAdvertisement": false,
    "imageUrl": "https://lh3.googleusercontent.com/gps-cs-s/AC9h4npHqfY4on3ursJCmEoqhjT2rGRgm-abppCp2L2ziuOBTWSrOrRKCwRT_acY0cUYtwKP5COBCqj2NYhyaWu88IVhFEfZoLRiHKkffBhdi9ZExVGxhu2OrmEFdQ3NpNKZoVIbedqJhw=w408-h306-k-no",
    "kgmid": "/g/11gzvd2kd",
    "classification": "independent",
    "is_independent": true,
    "is_compounding": false,
    "confidence": 0.9,
    "source": "perplexity",
    "method": "llm",
    "query_location": "omaha_ne"
  },
  {
    "title": "Precision Compounding Pharmacy",
    "price": null,
    "categoryName": "Pharmacy",
    "address": "15722 W Center Rd, Omaha, NE 68130",
    "neighborhood": "Leawood Southwest",
    "street": "15722 W Center Rd",
    "city": "Omaha",
    "postalCode": "68130",
    "state": "Nebraska",
    "countryCode": "US",
    "website": "https://www.pcrxomaha.com/",
    "phone": "(402) 932-6373",
    "phoneUnformatted": "+14029326373",
    "claimThisBusiness": false,
    "location": {
      "lat": 41.2344998,
      "lng": -96.1600933
    },
    "totalScore": 4.7,
    "permanentlyClosed": false,
    "temporarilyClosed": false,
    "placeId": null,
    "categories": [
      "Pharmacy",
      "Dermatologist",
      "Holistic medicine practitioner",
      "Men's health physician",
      "Nutritionist",
      "Women's health clinic",
      "Pain management physician",
      "Veterinary pharmacy",
      "Weight loss service"
    ],
    "fid": "0x8793f17928edd793:0x2ceb766a47b31183",
    "cid": "3236810956037362051",
    "reviewsCount": 41,
    "imagesCount": 8,
    "imageCategories": [],
    "scrapedAt": "2025-06-22T08:36:19.755Z",
    "googleFoodUrl": null,
    "hotelAds": [],
    "openingHours": [
      {
        "day": "Monday",
        "hours": "9\u202fAM to 5:30\u202fPM"
      },
      {
        "day": "Tuesday",
        "hours": "9\u202fAM to 5:30\u202fPM"
      },
      {
        "day": "Wednesday",
        "hours": "9\u202fAM to 5:30\u202fPM"
      },
      {
        "day": "Thursday",
        "hours": "9\u202fAM to 5:30\u202fPM"
      },
      {
        "day": "Friday",
        "hours": "9\u202fAM to 5:30\u202fPM"
      },
      {
        "day": "Saturday",
        "hours": "Closed"
      },
      {
        "day": "Sunday",
        "hours": "Closed"
      }
    ],
    "peopleAlsoSearch": [],
    "placesTags": [],
    "reviewsTags": [],
    "additionalInfo": {
      "From the business": [
        {
          "Identifies as women-owned": true
        },
        {
          "Small business": true
        }
      ],
      "Service options": [
        {
          "Delivery": true
        },
        {
          "In-store pickup": true
        },
        {
          "Onsite services": true
        }
      ],
      "Accessibility": [
        {
          "Wheelchair accessible entrance": true
        },
        {
          "Wheelchair accessible parking lot": true
        },
        {
          "Wheelchair accessible restroom": true
        },
        {
          "Wheelchair accessible seating": true
        }
      ],
      "Payments": [
        {
          "Credit cards": true
        },
        {
          "Debit cards": true
        },
        {
          "NFC mobile payments": true
        },
        {
          "Credit cards": true
        }
      ]
    },
    "gasPrices": [],
    "url": "https://www.google.com/maps/search/?api=1&query=Precision%20Compounding%20Pharmacy&query_place_id=ChIJk9ftKHnxk4cRgxGzR2p26yw",
    "searchPageUrl": "https://www.google.com/maps/search/independent%20pharmacy%20Omaha%20NE/@64.76955200934916,-168.0057016382483,13z?hl=en",
    "searchString": "independent pharmacy Omaha NE",
    "language": "en",
    "rank": 3,
    "isAdvertisement": false,
    "imageUrl": "https://lh3.googleusercontent.com/p/AF1QipOTdRO8BS3FqDSLhiUxZPO1vvcu4epjxP5uVony=w408-h291-k-no",
    "kgmid": "/g/1tfd2xf2",
    "classification": "independent",
    "is_independent": true,
    "is_compounding": true,
    "confidence": 0.95,
    "source": "perplexity",
    "method": "llm",
    "query_location": "omaha_ne"
  },
  {
    "title": "J Kohll RX Compounding",
    "price": null,
    "categoryName": "Pharmacy",
    "address": "13110 W Dodge Rd Suite C, Omaha, NE 68154",
    "neighborhood": "West Omaha",
    "street": "13110 W Dodge Rd Suite C",
    "city": "Omaha",
    "postalCode": "68154",
    "state": "Nebraska",
    "countryCode": "US",
    "website": "https://www.jkohllrx.com/?utm_source=google&utm_medium=local&utm_campaign=omaha-practice-website",
    "phone": "(402) 408-0015",
    "phoneUnformatted": "+14024080015",
    "claimThisBusiness": false,
    "location": {
      "lat": 41.2640623,
      "lng": -96.1177875
    },
    "totalScore": 4.3,
    "permanentlyClosed": false,
    "temporarilyClosed": false,
    "placeId": null,
    "categories": [
      "Pharmacy"
    ],
    "fid": "0x8793f295c57e8931:0xa1074e29ecefd51e",
    "cid": "11603328906919138590",
    "reviewsCount": 46,
    "imagesCount": 13,
    "imageCategories": [],
    "scrapedAt": "2025-06-22T08:36:19.755Z",
    "googleFoodUrl": null,
    "hotelAds": [],
    "openingHours": [
      {
        "day": "Monday",
        "hours": "8:30\u202fAM to 5:30\u202fPM"
      },
      {
        "day": "Tuesday",
        "hours": "8:30\u202fAM to 5:30\u202fPM"
      },
      {
        "day": "Wednesday",
        "hours": "8:30\u202fAM to 5:30\u202fPM"
      },
      {
        "day": "Thursday",
        "hours": "8:30\u202fAM to 5:30\u202fPM"
      },
      {
        "day": "Friday",
        "hours": "8:30\u202fAM to 5:30\u202fPM"
      },
      {
        "day": "Saturday",
        "hours": "Closed"
      },
      {
        "day": "Sunday",
        "hours": "Closed"
      }
    ],
    "additionalOpeningHours": {
      "Pickup": [
        {
          "day": "Monday",
          "hours": "8:30\u202fAM\u20135\u202fPM"
        },
        {
          "day": "Tuesday",
          "hours": "8:30\u202fAM\u20135\u202fPM"
        },
        {
          "day": "Wednesday",
          "hours": "8:30\u202fAM\u20135\u202fPM"
        },
        {
          "day": "Thursday",
          "hours": "8:30\u202fAM\u20135\u202fPM"
        },
        {
          "day": "Friday",
          "hours": "8:30\u202fAM\u20135\u202fPM"
        },
        {
          "day": "Saturday",
          "hours": "Closed"
        },
        {
          "day": "Sunday",
          "hours": "Closed"
        }
      ]
    },
    "peopleAlsoSearch": [],
    "placesTags": [],
    "reviewsTags": [],
    "additionalInfo": {
      "From the business": [
        {
          "Small business": true
        }
      ],
      "Service options": [
        {
          "Delivery": true
        },
        {
          "In-store pickup": true
        }
      ],
      "Accessibility": [
        {
          "Wheelchair accessible entrance": true
        },
        {
          "Wheelchair accessible parking lot": true
        }
      ],
      "Offerings": [
        {
          "Medication disposal": true
        }
      ],
      "Payments": [
        {
          "Checks": true
        },
        {
          "Credit cards": true
        },
        {
          "Debit cards": true
        },
        {
          "Credit cards": true
        }
      ]
    },
    "gasPrices": [],
    "url": "https://www.google.com/maps/search/?api=1&query=J%20Kohll%20RX%20Compounding&query_place_id=ChIJMYl-xZXyk4cRHtXv7ClOB6E",
    "searchPageUrl": "https://www.google.com/maps/search/independent%20pharmacy%20Omaha%20NE/@64.76955200934916,-168.0057016382483,13z?hl=en",
    "searchString": "independent pharmacy Omaha NE",
    "language": "en",
    "rank": 4,
    "isAdvertisement": false,
    "imageUrl": "https://lh3.googleusercontent.com/p/AF1QipMBI3qJm72KthcUMnLRgQQ5rCQk4F2iBAALhOXE=w426-h240-k-no",
    "kgmid": "/g/1tpn31t5",
    "classification": "independent",
    "is_independent": true,
    "is_compounding": true,
    "confidence": 0.95,
    "source": "perplexity",
    "method": "llm",
    "query_location": "omaha_ne"
  },
  {
    "title": "Redlers LTC Pharmacy",
    "price": null,
    "categoryName": "Pharmacy",
    "address": "13831 Chalco Valley Pkwy #101, Omaha, NE 68138",
    "neighborhood": null,
    "street": "13831 Chalco Valley Pkwy #101",
    "city": "Omaha",
    "postalCode": "68138",
    "state": "Nebraska",
    "countryCode": "US",
    "website": "http://www.redlersltc.com/",
    "phone": "(402) 592-5244",
    "phoneUnformatted": "+14025925244",
    "claimThisBusiness": false,
    "location": {
      "lat": 41.1827481,
      "lng": -96.1304417
    },
    "totalScore": 4,
    "permanentlyClosed": false,
    "temporarilyClosed": false,
    "placeId": null,
    "categories": [
      "Pharmacy"
    ],
    "fid": "0x8793f46b423f33db:0x2fc6b7c4ecc30297",
    "cid": "3442641021584999063",
    "reviewsCount": 4,
    "imagesCount": 1,
    "imageCategories": [],
    "scrapedAt": "2025-06-22T08:36:19.755Z",
    "googleFoodUrl": null,
    "hotelAds": [],
    "openingHours": [
      {
        "day": "Monday",
        "hours": "Open 24 hours"
      },
      {
        "day": "Tuesday",
        "hours": "Open 24 hours"
      },
      {
        "day": "Wednesday",
        "hours": "Open 24 hours"
      },
      {
        "day": "Thursday",
        "hours": "Open 24 hours"
      },
      {
        "day": "Friday",
        "hours": "Open 24 hours"
      },
      {
        "day": "Saturday",
        "hours": "Open 24 hours"
      },
      {
        "day": "Sunday",
        "hours": "Open 24 hours"
      }
    ],
    "peopleAlsoSearch": [],
    "placesTags": [],
    "reviewsTags": [],
    "additionalInfo": {
      "From the business": [
        {
          "Small business": true
        }
      ],
      "Accessibility": [
        {
          "Wheelchair accessible entrance": true
        },
        {
          "Wheelchair accessible parking lot": true
        }
      ],
      "Payments": [
        {
          "Credit cards": true
        },
        {
          "Debit cards": true
        },
        {
          "Credit cards": true
        }
      ]
    },
    "gasPrices": [],
    "url": "https://www.google.com/maps/search/?api=1&query=Redlers%20LTC%20Pharmacy&query_place_id=ChIJ2zM_Qmv0k4cRlwLD7MS3xi8",
    "searchPageUrl": "https://www.google.com/maps/search/independent%20pharmacy%20Omaha%20NE/@64.76955200934916,-168.0057016382483,13z?hl=en",
    "searchString": "independent pharmacy Omaha NE",
    "language": "en",
    "rank": 5,
    "isAdvertisement": false,
    "imageUrl": "https://streetviewpixels-pa.googleapis.com/v1/thumbnail?panoid=ftvt4RBOAsheAz1aOLjRFw&cb_client=search.gws-prod.gps&w=408&h=240&yaw=44.605686&pitch=0&thumbfov=100",
    "kgmid": "/g/11bv388w91",
    "classification": "independent",
    "is_independent": true,
    "is_compounding": false,
    "confidence": 0.85,
    "source": "perplexity",
    "method": "llm",
    "query_location": "omaha_ne"
  },
  {
    "title": "ViaRx Pharmacy",
    "price": null,
    "categoryName": "Pharmacy",
    "address": "825 N 90th St, Omaha, NE 68114",
    "neighborhood": "Central Omaha",
    "street": "825 N 90th St",
    "city": "Omaha",
    "postalCode": "68114",
    "state": "Nebraska",
    "countryCode": "US",
    "website": "https://www.myviarx.com/",
    "phone": "(402) 614-6363",
    "phoneUnformatted": "+14026146363",
    "claimThisBusiness": false,
    "location": {
      "lat": 41.2673974,
      "lng": -96.0518495
    },
    "totalScore": 5,
    "permanentlyClosed": false,
    "temporarilyClosed": false,
    "placeId": null,
    "categories": [
      "Pharmacy",
      "Veterinary pharmacy"
    ],
    "fid": "0x879392802d30f5a3:0x82d8c3c3700c7464",
    "cid": "9428501064066036836",
    "reviewsCount": 70,
    "imagesCount": 5,
    "imageCategories": [],
    "scrapedAt": "2025-06-22T08:36:19.755Z",
    "googleFoodUrl": null,
    "hotelAds": [],
    "openingHours": [
      {
        "day": "Monday",
        "hours": "8:30\u202fAM to 6\u202fPM"
      },
      {
        "day": "Tuesday",
        "hours": "8:30\u202fAM to 6\u202fPM"
      },
      {
        "day": "Wednesday",
        "hours": "8:30\u202fAM to 6\u202fPM"
      },
      {
        "day": "Thursday",
        "hours": "8:30\u202fAM to 6\u202fPM"
      },
      {
        "day": "Friday",
        "hours": "8:30\u202fAM to 5\u202fPM"
      },
      {
        "day": "Saturday",
        "hours": "Closed"
      },
      {
        "day": "Sunday",
        "hours": "Closed"
      }
    ],
    "peopleAlsoSearch": [],
    "placesTags": [],
    "reviewsTags": [],
    "additionalInfo": {
      "From the business": [
        {
          "Identifies as women-owned": true
        },
        {
          "Small business": true
        }
      ],
      "Service options": [
        {
          "Curbside pickup": true
        },
        {
          "Delivery": true
        },
        {
          "In-store pickup": true
        },
        {
          "In-store shopping": true
        },
        {
          "Onsite services": true
        },
        {
          "Same-day delivery": true
        },
        {
          "English": true
        }
      ],
      "Accessibility": [
        {
          "Wheelchair accessible entrance": true
        },
        {
          "Wheelchair accessible parking lot": true
        },
        {
          "Wheelchair accessible restroom": true
        },
        {
          "Wheelchair accessible seating": true
        }
      ],
      "Offerings": [
        {
          "Medication disposal": true
        }
      ],
      "Payments": [
        {
          "Credit cards": true
        },
        {
          "Debit cards": true
        },
        {
          "NFC mobile payments": true
        },
        {
          "Credit cards": true
        }
      ],
      "Parking": [
        {
          "Free parking lot": true
        }
      ]
    },
    "gasPrices": [],
    "url": "https://www.google.com/maps/search/?api=1&query=ViaRx%20Pharmacy&query_place_id=ChIJo_UwLYCSk4cRZHQMcMPD2II",
    "searchPageUrl": "https://www.google.com/maps/search/independent%20pharmacy%20Omaha%20NE/@64.76955200934916,-168.0057016382483,13z?hl=en",
    "searchString": "independent pharmacy Omaha NE",
    "language": "en",
    "rank": 6,
    "isAdvertisement": false,
    "imageUrl": "https://lh3.googleusercontent.com/gps-cs-s/AC9h4nr0s7tG4hLI0AG2BwnvZYH0P7FZbDt0x_9iy0dM_nDsFSknXnoUyGhPx6nT_OqGIG0PO9csoEdL_uha22JxlHq6SKC-uTO-n-CKPkpATqqRBMNJEFtB4j-z9I7ma6q2EiUFePkr=w408-h544-k-no",
    "kgmid": "/g/11ckvlh1rz",
    "classification": "independent",
    "is_independent": true,
    "is_compounding": false,
    "confidence": 0.9,
    "source": "perplexity",
    "method": "llm",
    "query_location": "omaha_ne"
  },
  {
    "title": "Neighborhood LTC Pharmacy",
    "price": null,
    "categoryName": "Pharmacy",
    "address": "5115 S 111th St, Omaha, NE 68137",
    "neighborhood": "Millard",
    "street": "5115 S 111th St",
    "city": "Omaha",
    "postalCode": "68137",
    "state": "Nebraska",
    "countryCode": "US",
    "website": "http://www.neighborhoodrx.com/",
    "phone": "(402) 983-9600",
    "phoneUnformatted": "+14029839600",
    "claimThisBusiness": true,
    "location": {
      "lat": 41.2059983,
      "lng": -96.0849582
    },
    "totalScore": 4.7,
    "permanentlyClosed": false,
    "temporarilyClosed": false,
    "placeId": null,
    "categories": [
      "Pharmacy"
    ],
    "fid": "0x8793f35c1edc49bf:0x897f8415ca5a2ef5",
    "cid": "9907782934362468085",
    "reviewsCount": 6,
    "imagesCount": 3,
    "imageCategories": [],
    "scrapedAt": "2025-06-22T08:36:19.755Z",
    "googleFoodUrl": null,
    "hotelAds": [],
    "openingHours": [
      {
        "day": "Monday",
        "hours": "9\u202fAM to 5:30\u202fPM"
      },
      {
        "day": "Tuesday",
        "hours": "9\u202fAM to 5:30\u202fPM"
      },
      {
        "day": "Wednesday",
        "hours": "9\u202fAM to 5:30\u202fPM"
      },
      {
        "day": "Thursday",
        "hours": "9\u202fAM to 5:30\u202fPM"
      },
      {
        "day": "Friday",
        "hours": "9\u202fAM to 5:30\u202fPM"
      },
      {
        "day": "Saturday",
        "hours": "10\u202fAM to 2\u202fPM"
      },
      {
        "day": "Sunday",
        "hours": "Closed"
      }
    ],
    "peopleAlsoSearch": [],
    "placesTags": [],
    "reviewsTags": [],
    "additionalInfo": {
      "Service options": [
        {
          "In-store pickup": true
        }
      ],
      "Accessibility": [
        {
          "Wheelchair accessible entrance": true
        },
        {
          "Wheelchair accessible parking lot": true
        }
      ],
      "Offerings": [
        {
          "Medication disposal": true
        }
      ],
      "Payments": [
        {
          "Credit cards": true
        }
      ]
    },
    "gasPrices": [],
    "url": "https://www.google.com/maps/search/?api=1&query=Neighborhood%20LTC%20Pharmacy&query_place_id=ChIJv0ncHlzzk4cR9S5ayhWEf4k",
    "searchPageUrl": "https://www.google.com/maps/search/independent%20pharmacy%20Omaha%20NE/@64.76955200934916,-168.0057016382483,13z?hl=en",
    "searchString": "independent pharmacy Omaha NE",
    "language": "en",
    "rank": 7,
    "isAdvertisement": false,
    "imageUrl": "https://lh3.googleusercontent.com/gps-cs-s/AC9h4nou50iaCWfb3pYFjJ0wNEbfuJnsBMwcTvSEmAm4POhys6iSfBhFdR8BdjaabYw46le5WEnqnl1HbYOHBfXvux7cP_Wav9fTvLDgPhIfCw0ErEKyjsQve-yMgNYXgQSwZtHFP_U=w408-h544-k-no",
    "kgmid": "/g/11c46568r5",
    "classification": "independent",
    "is_independent": true,
    "is_compounding": false,
    "confidence": 0.9,
    "source": "perplexity",
    "method": "llm",
    "query_location": "omaha_ne"
  },
  {
    "title": "Atlas RX Pharmacy",
    "price": null,
    "categoryName": "Pharmacy",
    "address": "11923 Pacific St Suite A, Omaha, NE 68154",
    "neighborhood": "West Omaha",
    "street": "11923 Pacific St Suite A",
    "city": "Omaha",
    "postalCode": "68154",
    "state": "Nebraska",
    "countryCode": "US",
    "website": "http://atlasrxpharmacy.com/",
    "phone": "(402) 520-6601",
    "phoneUnformatted": "+14025206601",
    "claimThisBusiness": false,
    "location": {
      "lat": 41.2483856,
      "lng": -96.0995633
    },
    "totalScore": 5,
    "permanentlyClosed": false,
    "temporarilyClosed": false,
    "placeId": null,
    "categories": [
      "Pharmacy"
    ],
    "fid": "0x8793f3e968316cbf:0xe69da85ebd51cf30",
    "cid": "16617623324923645744",
    "reviewsCount": 1,
    "imagesCount": 11,
    "imageCategories": [],
    "scrapedAt": "2025-06-22T08:36:19.755Z",
    "googleFoodUrl": null,
    "hotelAds": [],
    "openingHours": [
      {
        "day": "Monday",
        "hours": "9\u202fAM to 5\u202fPM"
      },
      {
        "day": "Tuesday",
        "hours": "9\u202fAM to 5\u202fPM"
      },
      {
        "day": "Wednesday",
        "hours": "9\u202fAM to 5\u202fPM"
      },
      {
        "day": "Thursday",
        "hours": "9\u202fAM to 5\u202fPM"
      },
      {
        "day": "Friday",
        "hours": "9\u202fAM to 5\u202fPM"
      },
      {
        "day": "Saturday",
        "hours": "Closed"
      },
      {
        "day": "Sunday",
        "hours": "Closed"
      }
    ],
    "peopleAlsoSearch": [],
    "placesTags": [],
    "reviewsTags": [],
    "additionalInfo": {
      "From the business": [
        {
          "Small business": true
        }
      ],
      "Service options": [
        {
          "Onsite services": true
        }
      ],
      "Accessibility": [
        {
          "Wheelchair accessible entrance": true
        },
        {
          "Wheelchair accessible parking lot": true
        }
      ],
      "Amenities": [
        {
          "Wi-Fi": true
        },
        {
          "Free Wi-Fi": true
        }
      ],
      "Payments": [
        {
          "Checks": true
        },
        {
          "Credit cards": true
        },
        {
          "Debit cards": true
        },
        {
          "NFC mobile payments": true
        },
        {
          "Credit cards": true
        }
      ]
    },
    "gasPrices": [],
    "url": "https://www.google.com/maps/search/?api=1&query=Atlas%20RX%20Pharmacy&query_place_id=ChIJv2wxaOnzk4cRMM9RvV6oneY",
    "searchPageUrl": "https://www.google.com/maps/search/independent%20pharmacy%20Omaha%20NE/@64.76955200934916,-168.0057016382483,13z?hl=en",
    "searchString": "independent pharmacy Omaha NE",
    "language": "en",
    "rank": 8,
    "isAdvertisement": false,
    "imageUrl": "https://lh3.googleusercontent.com/p/AF1QipPUzFTkV0i81ygvUsdrVkCu7VAl7Te1E3hHACwm=w408-h306-k-no",
    "kgmid": "/g/11pbmk4yxp",
    "classification": "independent",
    "is_independent": true,
    "is_compounding": false,
    "confidence": 0.9,
    "source": "perplexity",
    "method": "llm",
    "query_location": "omaha_ne"
  },
  {
    "title": "Hy-Vee Pharmacy",
    "price": "$$",
    "categoryName": "Pharmacy",
    "address": "5150 Center St, Omaha, NE 68106",
    "neighborhood": "Aksarben/Elmwood Park",
    "street": "5150 Center St",
    "city": "Omaha",
    "postalCode": "68106",
    "state": "Nebraska",
    "countryCode": "US",
    "website": "https://www.hy-vee.com/my-pharmacy/pharmacy-finder/omaha-1-5150-center-st-omaha-ne/1465?utm_source=google&utm_medium=organic&utm_campaign=gmb-listing",
    "phone": "(402) 553-4143",
    "phoneUnformatted": "+14025534143",
    "claimThisBusiness": false,
    "location": {
      "lat": 41.2424403,
      "lng": -95.994505
    },
    "totalScore": 2.7,
    "permanentlyClosed": false,
    "temporarilyClosed": false,
    "placeId": "ChIJt4NoCDKMk4cRaQ-s_c7n0M8",
    "categories": [
      "Pharmacy",
      "Drug store",
      "Herbal medicine store",
      "Homeopathic pharmacy",
      "Local medical services",
      "Medical Center",
      "Organic drug store",
      "Pharmaceutical company",
      "Pharmaceutical lab",
      "Toiletries store"
    ],
    "fid": "0x87938c32086883b7:0xcfd0e7cefdac0f69",
    "cid": "14974723637212090217",
    "reviewsCount": 41,
    "imagesCount": 21,
    "imageCategories": [],
    "scrapedAt": "2025-06-22T08:36:19.755Z",
    "googleFoodUrl": null,
    "hotelAds": [],
    "openingHours": [
      {
        "day": "Monday",
        "hours": "7\u202fAM to 8\u202fPM"
      },
      {
        "day": "Tuesday",
        "hours": "7\u202fAM to 8\u202fPM"
      },
      {
        "day": "Wednesday",
        "hours": "7\u202fAM to 8\u202fPM"
      },
      {
        "day": "Thursday",
        "hours": "7\u202fAM to 8\u202fPM"
      },
      {
        "day": "Friday",
        "hours": "7\u202fAM to 8\u202fPM"
      },
      {
        "day": "Saturday",
        "hours": "9\u202fAM to 6\u202fPM"
      },
      {
        "day": "Sunday",
        "hours": "10\u202fAM to 6\u202fPM"
      }
    ],
    "peopleAlsoSearch": [],
    "placesTags": [],
    "reviewsTags": [],
    "additionalInfo": {
      "Service options": [
        {
          "Delivery": true
        },
        {
          "Drive-through": true
        },
        {
          "In-store pickup": true
        },
        {
          "Same-day delivery": true
        }
      ],
      "Accessibility": [
        {
          "Wheelchair accessible entrance": true
        },
        {
          "Wheelchair accessible parking lot": true
        },
        {
          "Wheelchair accessible restroom": true
        },
        {
          "Wheelchair accessible seating": true
        }
      ],
      "Offerings": [
        {
          "Medication disposal": true
        }
      ],
      "Amenities": [
        {
          "Wi-Fi": true
        }
      ],
      "Planning": [
        {
          "Quick visit": true
        }
      ],
      "Payments": [
        {
          "Credit cards": true
        },
        {
          "Debit cards": true
        },
        {
          "Credit cards": true
        }
      ]
    },
    "gasPrices": [],
    "url": "https://www.google.com/maps/search/?api=1&query=Hy-Vee%20Pharmacy&query_place_id=ChIJt4NoCDKMk4cRaQ-s_c7n0M8",
    "searchPageUrl": "https://www.google.com/maps/search/independent%20pharmacy%20Omaha%20NE/@64.76955200934916,-168.0057016382483,13z?hl=en",
    "searchString": "independent pharmacy Omaha NE",
    "language": "en",
    "rank": 9,
    "isAdvertisement": false,
    "imageUrl": "https://lh3.googleusercontent.com/gps-cs-s/AC9h4noFdU85Xx3EQf4ZZurTqGsYCddL2FVcHsf9iq9CPJrDwBZEHYrI0_LtzXmUsEO1CF16AD0pTYpj06R7TkybMuK3J9khOVQj1ArG9fe_U-HQnzhhX3HB5XCYC2QEIaID7BxJY-M=w426-h240-k-no",
    "kgmid": "/g/1hf00lcv4",
    "classification": "chain",
    "is_independent": false,
    "confidence": 1.0,
    "source": "rule-based"
  },
  {
    "title": "Medicine Man Pharmacy",
    "price": null,
    "categoryName": "Pharmacy",
    "address": "15615 Pacific St #8, Omaha, NE 68118",
    "neighborhood": "West Omaha",
    "street": "15615 Pacific St #8",
    "city": "Omaha",
    "postalCode": "68118",
    "state": "Nebraska",
    "countryCode": "US",
    "website": "http://www.medmanpharm.com/",
    "phone": "(402) 496-9757",
    "phoneUnformatted": "+14024969757",
    "claimThisBusiness": false,
    "location": {
      "lat": 41.247694,
      "lng": -96.1582986
    },
    "totalScore": 4.6,
    "permanentlyClosed": false,
    "temporarilyClosed": false,
    "placeId": null,
    "categories": [
      "Pharmacy",
      "Drug store"
    ],
    "fid": "0x8793f2650aafb2c3:0x4f1385d68589e9fc",
    "cid": "5698045109963713020",
    "reviewsCount": 48,
    "imagesCount": 7,
    "imageCategories": [],
    "scrapedAt": "2025-06-22T08:36:19.756Z",
    "googleFoodUrl": null,
    "hotelAds": [],
    "openingHours": [
      {
        "day": "Monday",
        "hours": "9\u202fAM to 8\u202fPM"
      },
      {
        "day": "Tuesday",
        "hours": "9\u202fAM to 8\u202fPM"
      },
      {
        "day": "Wednesday",
        "hours": "9\u202fAM to 8\u202fPM"
      },
      {
        "day": "Thursday",
        "hours": "9\u202fAM to 8\u202fPM"
      },
      {
        "day": "Friday",
        "hours": "9\u202fAM to 8\u202fPM"
      },
      {
        "day": "Saturday",
        "hours": "10\u202fAM to 5\u202fPM"
      },
      {
        "day": "Sunday",
        "hours": "11\u202fAM to 4\u202fPM"
      }
    ],
    "peopleAlsoSearch": [],
    "placesTags": [],
    "reviewsTags": [],
    "additionalInfo": {
      "Service options": [
        {
          "Curbside pickup": true
        },
        {
          "Delivery": true
        },
        {
          "Drive-through": true
        },
        {
          "In-store pickup": true
        },
        {
          "In-store shopping": true
        },
        {
          "Onsite services": true
        },
        {
          "Same-day delivery": true
        }
      ],
      "Accessibility": [
        {
          "Wheelchair accessible entrance": true
        },
        {
          "Wheelchair accessible parking lot": true
        }
      ],
      "Offerings": [
        {
          "Medication disposal": true
        }
      ],
      "Crowd": [
        {
          "LGBTQ+ friendly": true
        },
        {
          "Transgender safespace": true
        }
      ],
      "Planning": [
        {
          "Quick visit": true
        }
      ],
      "Payments": [
        {
          "Checks": true
        },
        {
          "Credit cards": true
        },
        {
          "Debit cards": true
        },
        {
          "Credit cards": true
        }
      ]
    },
    "gasPrices": [],
    "url": "https://www.google.com/maps/search/?api=1&query=Medicine%20Man%20Pharmacy&query_place_id=ChIJw7KvCmXyk4cR_OmJhdaFE08",
    "searchPageUrl": "https://www.google.com/maps/search/independent%20pharmacy%20Omaha%20NE/@64.76955200934916,-168.0057016382483,13z?hl=en",
    "searchString": "independent pharmacy Omaha NE",
    "language": "en",
    "rank": 10,
    "isAdvertisement": false,
    "imageUrl": "https://lh3.googleusercontent.com/gps-cs-s/AC9h4nqdVk4Xw9KicXquLlvH0HmoQ5aScFMm7xlPqfUHAVPPfF2fz_RW4Mr6yahdKiOtJv-ZA74XYd68_xRSPrXaAxQI4u_E25YRMJLapmli4yIa0G9EO3KLxLBXXAy-T05O_zSXOyE2gg=w408-h408-k-no",
    "kgmid": "/g/1vspr_kn",
    "classification": "independent",
    "is_independent": true,
    "is_compounding": false,
    "confidence": 0.9,
    "source": "perplexity",
    "method": "llm",
    "query_location": "omaha_ne"
  },
  {
    "title": "Baker's Pharmacy",
    "price": null,
    "categoryName": "Pharmacy",
    "address": "888 S Saddle Creek Rd, Omaha, NE 68106",
    "neighborhood": "Aksarben/Elmwood Park",
    "street": "888 S Saddle Creek Rd",
    "city": "Omaha",
    "postalCode": "68106",
    "state": "Nebraska",
    "countryCode": "US",
    "website": "https://www.bakersplus.com/rx/pharmacy/details/615/00319?cid=loc_61500319P_gmb",
    "phone": "(402) 556-5600",
    "phoneUnformatted": "+14025565600",
    "claimThisBusiness": false,
    "location": {
      "lat": 41.250901,
      "lng": -95.9869534
    },
    "totalScore": 4,
    "permanentlyClosed": false,
    "temporarilyClosed": false,
    "placeId": null,
    "categories": [
      "Pharmacy",
      "Drug store",
      "Health counselor",
      "Home health care service"
    ],
    "fid": "0x87938dd69b1fb303:0xb87c69de4ebc0cc9",
    "cid": "13293616603615464649",
    "reviewsCount": 19,
    "imagesCount": 10,
    "imageCategories": [],
    "scrapedAt": "2025-06-22T08:36:19.756Z",
    "googleFoodUrl": null,
    "hotelAds": [],
    "openingHours": [
      {
        "day": "Monday",
        "hours": "9\u202fAM to 1\u202fPM, 1:30 to 8\u202fPM"
      },
      {
        "day": "Tuesday",
        "hours": "9\u202fAM to 1\u202fPM, 1:30 to 8\u202fPM"
      },
      {
        "day": "Wednesday",
        "hours": "9\u202fAM to 1\u202fPM, 1:30 to 8\u202fPM"
      },
      {
        "day": "Thursday",
        "hours": "9\u202fAM to 1\u202fPM, 1:30 to 8\u202fPM"
      },
      {
        "day": "Friday",
        "hours": "9\u202fAM to 1\u202fPM, 1:30 to 8\u202fPM"
      },
      {
        "day": "Saturday",
        "hours": "9\u202fAM to 1\u202fPM, 1:30 to 6\u202fPM"
      },
      {
        "day": "Sunday",
        "hours": "11\u202fAM to 1\u202fPM, 1:30 to 6\u202fPM"
      }
    ],
    "peopleAlsoSearch": [],
    "placesTags": [],
    "reviewsTags": [],
    "additionalInfo": {
      "Service options": [
        {
          "Delivery": true
        },
        {
          "Drive-through": true
        },
        {
          "In-store pickup": true
        },
        {
          "In-store shopping": true
        },
        {
          "Onsite services": true
        },
        {
          "Same-day delivery": true
        }
      ],
      "Accessibility": [
        {
          "Wheelchair accessible entrance": true
        },
        {
          "Wheelchair accessible parking lot": true
        },
        {
          "Wheelchair accessible restroom": true
        },
        {
          "Wheelchair accessible seating": true
        }
      ],
      "Offerings": [
        {
          "Passport photos": true
        }
      ],
      "Crowd": [
        {
          "LGBTQ+ friendly": true
        },
        {
          "Transgender safespace": true
        }
      ],
      "Planning": [
        {
          "Quick visit": true
        }
      ],
      "Payments": [
        {
          "Checks": true
        },
        {
          "Credit cards": true
        },
        {
          "Debit cards": true
        },
        {
          "NFC mobile payments": true
        },
        {
          "Credit cards": true
        }
      ]
    },
    "gasPrices": [],
    "url": "https://www.google.com/maps/search/?api=1&query=Baker's%20Pharmacy&query_place_id=ChIJA7Mfm9aNk4cRyQy8Tt5pfLg",
    "searchPageUrl": "https://www.google.com/maps/search/independent%20pharmacy%20Omaha%20NE/@64.76955200934916,-168.0057016382483,13z?hl=en",
    "searchString": "independent pharmacy Omaha NE",
    "language": "en",
    "rank": 11,
    "isAdvertisement": false,
    "imageUrl": "https://lh3.googleusercontent.com/p/AF1QipMRTl7u90zCcaJlF88eZfsTfFvaka1VqxEtSJAu=w426-h240-k-no",
    "kgmid": "/g/1td72hg8",
    "classification": "chain",
    "is_independent": false,
    "is_compounding": false,
    "confidence": 0.95,
    "source": "perplexity",
    "method": "llm",
    "query_location": "omaha_ne"
  },
  {
    "title": "Sam's Club Pharmacy",
    "price": "$",
    "categoryName": "Pharmacy",
    "address": "13130 L St, Omaha, NE 68137",
    "neighborhood": "Millard",
    "street": "13130 L St",
    "city": "Omaha",
    "postalCode": "68137",
    "state": "Nebraska",
    "countryCode": "US",
    "website": "https://www.samsclub.com/local/pharmacy/omaha-ne-sams-club/8146",
    "phone": "(402) 334-3496",
    "phoneUnformatted": "+14023343496",
    "claimThisBusiness": false,
    "location": {
      "lat": 41.2144657,
      "lng": -96.1177328
    },
    "totalScore": 4.4,
    "permanentlyClosed": false,
    "temporarilyClosed": false,
    "placeId": null,
    "categories": [
      "Pharmacy"
    ],
    "fid": "0x8793f39966668cb1:0xa828f1f04a6febb7",
    "cid": "12117200811783613367",
    "reviewsCount": 7,
    "imagesCount": 8,
    "imageCategories": [],
    "scrapedAt": "2025-06-22T08:36:19.756Z",
    "googleFoodUrl": null,
    "hotelAds": [],
    "openingHours": [
      {
        "day": "Monday",
        "hours": "9\u202fAM to 7\u202fPM"
      },
      {
        "day": "Tuesday",
        "hours": "9\u202fAM to 7\u202fPM"
      },
      {
        "day": "Wednesday",
        "hours": "9\u202fAM to 7\u202fPM"
      },
      {
        "day": "Thursday",
        "hours": "9\u202fAM to 7\u202fPM"
      },
      {
        "day": "Friday",
        "hours": "9\u202fAM to 7\u202fPM"
      },
      {
        "day": "Saturday",
        "hours": "9\u202fAM to 6\u202fPM"
      },
      {
        "day": "Sunday",
        "hours": "Closed"
      }
    ],
    "peopleAlsoSearch": [],
    "placesTags": [],
    "reviewsTags": [],
    "additionalInfo": {
      "Service options": [
        {
          "Curbside pickup": true
        },
        {
          "Delivery": true
        },
        {
          "In-store pickup": true
        },
        {
          "In-store shopping": true
        },
        {
          "Onsite services": true
        },
        {
          "Same-day delivery": true
        }
      ],
      "Accessibility": [
        {
          "Wheelchair accessible entrance": true
        },
        {
          "Wheelchair accessible parking lot": true
        }
      ],
      "Planning": [
        {
          "Quick visit": true
        }
      ],
      "Payments": [
        {
          "Credit cards": true
        },
        {
          "Debit cards": true
        },
        {
          "Credit cards": true
        }
      ]
    },
    "gasPrices": [],
    "url": "https://www.google.com/maps/search/?api=1&query=Sam's%20Club%20Pharmacy&query_place_id=ChIJsYxmZpnzk4cRt-tvSvDxKKg",
    "searchPageUrl": "https://www.google.com/maps/search/independent%20pharmacy%20Omaha%20NE/@64.76955200934916,-168.0057016382483,13z?hl=en",
    "searchString": "independent pharmacy Omaha NE",
    "language": "en",
    "rank": 12,
    "isAdvertisement": false,
    "imageUrl": "https://lh3.googleusercontent.com/p/AF1QipOLplCxPngezTYVTt29illB_BhBf21BNGZfMnVh=w408-h272-k-no",
    "kgmid": "/g/11b66bs51x",
    "classification": "chain",
    "is_independent": false,
    "is_compounding": false,
    "confidence": 0.99,
    "source": "perplexity",
    "method": "llm",
    "query_location": "omaha_ne"
  },
  {
    "title": "Oak Creek Pharmacy Llc",
    "price": null,
    "categoryName": "Pharmacy",
    "address": "8607 F St, Omaha, NE 68127",
    "neighborhood": "South Central Omaha",
    "street": "8607 F St",
    "city": "Omaha",
    "postalCode": "68127",
    "state": "Nebraska",
    "countryCode": "US",
    "phone": "(402) 999-0615",
    "phoneUnformatted": "+14029990615",
    "claimThisBusiness": true,
    "location": {
      "lat": 41.2194394,
      "lng": -96.0458336
    },
    "totalScore": 1.3,
    "permanentlyClosed": false,
    "temporarilyClosed": false,
    "placeId": null,
    "categories": [
      "Pharmacy"
    ],
    "fid": "0x87938c95a28e4399:0x6a96123d7b43d02a",
    "cid": "7680346269797306410",
    "reviewsCount": 10,
    "imagesCount": 1,
    "imageCategories": [],
    "scrapedAt": "2025-06-22T08:36:19.915Z",
    "googleFoodUrl": null,
    "hotelAds": [],
    "openingHours": [
      {
        "day": "Monday",
        "hours": "9\u202fAM to 8\u202fPM"
      },
      {
        "day": "Tuesday",
        "hours": "9\u202fAM to 8\u202fPM"
      },
      {
        "day": "Wednesday",
        "hours": "9\u202fAM to 8\u202fPM"
      },
      {
        "day": "Thursday",
        "hours": "9\u202fAM to 8\u202fPM"
      },
      {
        "day": "Friday",
        "hours": "9\u202fAM to 8\u202fPM"
      },
      {
        "day": "Saturday",
        "hours": "Closed"
      },
      {
        "day": "Sunday",
        "hours": "Closed"
      }
    ],
    "peopleAlsoSearch": [],
    "placesTags": [],
    "reviewsTags": [],
    "additionalInfo": {
      "Accessibility": [
        {
          "Wheelchair accessible entrance": true
        },
        {
          "Wheelchair accessible parking lot": true
        }
      ],
      "Payments": [
        {
          "Credit cards": true
        }
      ]
    },
    "gasPrices": [],
    "url": "https://www.google.com/maps/search/?api=1&query=Oak%20Creek%20Pharmacy%20Llc&query_place_id=ChIJmUOOopWMk4cRKtBDez0Slmo",
    "searchPageUrl": "https://www.google.com/maps/search/independent%20pharmacy%20Omaha%20NE/@21.362194516217112,-156.8573535879949,11z?hl=en",
    "searchString": "independent pharmacy Omaha NE",
    "language": "en",
    "rank": 10,
    "isAdvertisement": false,
    "imageUrl": "https://streetviewpixels-pa.googleapis.com/v1/thumbnail?panoid=U6LOBVH9rgmKuIgNkM8GlA&cb_client=search.gws-prod.gps&w=408&h=240&yaw=188.81856&pitch=0&thumbfov=100",
    "kgmid": "/g/1q62gczy6",
    "classification": "independent",
    "is_independent": true,
    "is_compounding": false,
    "confidence": 0.85,
    "source": "perplexity",
    "method": "llm",
    "query_location": "omaha_ne"
  },
  {
    "title": "CHI Health Pharmacy (Immanuel Hospital)",
    "price": null,
    "categoryName": "Pharmacy",
    "address": "6829 N 72nd St Ste. 2160, Omaha, NE 68122",
    "neighborhood": "North Omaha",
    "street": "6829 N 72nd St Ste. 2160",
    "city": "Omaha",
    "postalCode": "68122",
    "state": "Nebraska",
    "countryCode": "US",
    "website": "https://www.chihealth.com/en/services/pharmacy.html",
    "phone": "(402) 572-2300",
    "phoneUnformatted": "+14025722300",
    "claimThisBusiness": false,
    "location": {
      "lat": 41.3197124,
      "lng": -96.02282
    },
    "totalScore": 4.7,
    "permanentlyClosed": false,
    "temporarilyClosed": false,
    "placeId": "ChIJl8CCx1WSk4cRnk8ZV2dhkNM",
    "categories": [
      "Pharmacy"
    ],
    "fid": "0x87939255c782c097:0xd390616757194f9e",
    "cid": "15244791835119931294",
    "reviewsCount": 10,
    "imagesCount": 6,
    "imageCategories": [],
    "scrapedAt": "2025-06-22T08:36:19.915Z",
    "googleFoodUrl": null,
    "hotelAds": [],
    "openingHours": [
      {
        "day": "Monday",
        "hours": "9\u202fAM to 6\u202fPM"
      },
      {
        "day": "Tuesday",
        "hours": "9\u202fAM to 6\u202fPM"
      },
      {
        "day": "Wednesday",
        "hours": "9\u202fAM to 6\u202fPM"
      },
      {
        "day": "Thursday",
        "hours": "9\u202fAM to 6\u202fPM"
      },
      {
        "day": "Friday",
        "hours": "9\u202fAM to 6\u202fPM"
      },
      {
        "day": "Saturday",
        "hours": "9\u202fAM to 12\u202fPM"
      },
      {
        "day": "Sunday",
        "hours": "Closed"
      }
    ],
    "peopleAlsoSearch": [],
    "placesTags": [],
    "reviewsTags": [],
    "additionalInfo": {
      "Service options": [
        {
          "Onsite services": true
        }
      ],
      "Accessibility": [
        {
          "Wheelchair accessible entrance": true
        },
        {
          "Wheelchair accessible parking lot": true
        }
      ],
      "Offerings": [
        {
          "Medication disposal": true
        }
      ],
      "Planning": [
        {
          "Appointment required": true
        }
      ],
      "Payments": [
        {
          "Credit cards": true
        },
        {
          "Debit cards": true
        }
      ]
    },
    "gasPrices": [],
    "url": "https://www.google.com/maps/search/?api=1&query=CHI%20Health%20Pharmacy%20(Immanuel%20Hospital)&query_place_id=ChIJl8CCx1WSk4cRnk8ZV2dhkNM",
    "searchPageUrl": "https://www.google.com/maps/search/independent%20pharmacy%20Omaha%20NE/@21.362194516217112,-156.8573535879949,11z?hl=en",
    "searchString": "independent pharmacy Omaha NE",
    "language": "en",
    "rank": 12,
    "isAdvertisement": false,
    "imageUrl": "https://lh3.googleusercontent.com/p/AF1QipMmxuht4-SriYRczD8VOjz7z7KF7P2XqjlJThqN=w426-h240-k-no",
    "kgmid": "/g/1wg5yhq5",
    "classification": "hospital",
    "is_independent": false,
    "confidence": 1.0,
    "source": "rule-based"
  },
  {
    "title": "Nebraska Medicine Pharmacy at Lauritzen Outpatient Center",
    "price": null,
    "categoryName": "Pharmacy",
    "address": "4014 Leavenworth St Level 1, Omaha, NE 68105",
    "neighborhood": "Southeast Omaha",
    "street": "4014 Leavenworth St Level 1",
    "city": "Omaha",
    "postalCode": "68105",
    "state": "Nebraska",
    "countryCode": "US",
    "website": "https://www.nebraskamed.com/nebraska-medical-center/lauritzen-outpatient-center/pharmacy",
    "phone": "(402) 552-7999",
    "phoneUnformatted": "+14025527999",
    "claimThisBusiness": false,
    "location": {
      "lat": 41.2533999,
      "lng": -95.9740347
    },
    "totalScore": 4.5,
    "permanentlyClosed": false,
    "temporarilyClosed": false,
    "placeId": null,
    "categories": [
      "Pharmacy"
    ],
    "fid": "0x87938fb4641ec569:0xbdc7659c80620cff",
    "cid": "13675010516377013503",
    "reviewsCount": 12,
    "imagesCount": 1,
    "imageCategories": [],
    "scrapedAt": "2025-06-22T08:36:22.039Z",
    "googleFoodUrl": null,
    "hotelAds": [],
    "openingHours": [
      {
        "day": "Monday",
        "hours": "8\u202fAM to 5:30\u202fPM"
      },
      {
        "day": "Tuesday",
        "hours": "8\u202fAM to 5:30\u202fPM"
      },
      {
        "day": "Wednesday",
        "hours": "8\u202fAM to 5:30\u202fPM"
      },
      {
        "day": "Thursday",
        "hours": "8\u202fAM to 5:30\u202fPM"
      },
      {
        "day": "Friday",
        "hours": "8\u202fAM to 5:30\u202fPM"
      },
      {
        "day": "Saturday",
        "hours": "Closed"
      },
      {
        "day": "Sunday",
        "hours": "Closed"
      }
    ],
    "peopleAlsoSearch": [],
    "placesTags": [],
    "reviewsTags": [],
    "additionalInfo": {
      "Service options": [
        {
          "In-store shopping": true
        }
      ],
      "Accessibility": [
        {
          "Wheelchair accessible entrance": true
        },
        {
          "Wheelchair accessible parking lot": true
        }
      ],
      "Payments": [
        {
          "Credit cards": true
        }
      ]
    },
    "gasPrices": [],
    "url": "https://www.google.com/maps/search/?api=1&query=Nebraska%20Medicine%20Pharmacy%20at%20Lauritzen%20Outpatient%20Center&query_place_id=ChIJacUeZLSPk4cR_wxigJxlx70",
    "searchPageUrl": "https://www.google.com/maps/search/independent%20pharmacy%20Omaha%20NE/@63.653579074253855,-143.9041190859444,9z?hl=en",
    "searchString": "independent pharmacy Omaha NE",
    "language": "en",
    "rank": 14,
    "isAdvertisement": false,
    "imageUrl": "https://streetviewpixels-pa.googleapis.com/v1/thumbnail?panoid=7C_UecAC1z5rGF8iMqtQlg&cb_client=search.gws-prod.gps&w=408&h=240&yaw=8.127121&pitch=0&thumbfov=100",
    "kgmid": "/g/11fj5np5yw",
    "classification": "hospital",
    "is_independent": false,
    "is_compounding": false,
    "confidence": 0.98,
    "source": "perplexity",
    "method": "llm",
    "query_location": "omaha_ne"
  },
  {
    "title": "CHI Health Pharmacy (132nd and W Center)",
    "price": null,
    "categoryName": "Pharmacy",
    "address": "13315 W Center Rd, Omaha, NE 68144, United States",
    "neighborhood": "West Omaha",
    "street": "13315 W Center Rd",
    "city": "Omaha",
    "postalCode": "68144",
    "state": "Nebraska",
    "countryCode": "US",
    "website": "https://www.chihealth.com/en/services/pharmacy.html",
    "phone": "+1 402-717-9410",
    "phoneUnformatted": "+14027179410",
    "claimThisBusiness": false,
    "location": {
      "lat": 41.2327227,
      "lng": -96.1213904
    },
    "totalScore": 4.4,
    "permanentlyClosed": false,
    "temporarilyClosed": false,
    "placeId": "ChIJCcrYALLzk4cRhhrl5dcHLR0",
    "categories": [
      "Pharmacy"
    ],
    "fid": "0x8793f3b200d8ca09:0x1d2d07d7e5e51a86",
    "cid": "2102345224908249734",
    "reviewsCount": 11,
    "imagesCount": 8,
    "imageCategories": [],
    "scrapedAt": "2025-06-22T08:36:24.732Z",
    "googleFoodUrl": null,
    "hotelAds": [],
    "openingHours": [
      {
        "day": "Monday",
        "hours": "8\u202fAM to 6\u202fPM"
      },
      {
        "day": "Tuesday",
        "hours": "8\u202fAM to 6\u202fPM"
      },
      {
        "day": "Wednesday",
        "hours": "8\u202fAM to 6\u202fPM"
      },
      {
        "day": "Thursday",
        "hours": "8\u202fAM to 6\u202fPM"
      },
      {
        "day": "Friday",
        "hours": "8\u202fAM to 5\u202fPM"
      },
      {
        "day": "Saturday",
        "hours": "9\u202fAM to 12\u202fPM"
      },
      {
        "day": "Sunday",
        "hours": "Closed"
      }
    ],
    "peopleAlsoSearch": [],
    "placesTags": [],
    "reviewsTags": [],
    "additionalInfo": {
      "Accessibility": [
        {
          "Wheelchair-accessible car park": true
        },
        {
          "Wheelchair-accessible entrance": true
        }
      ],
      "Offerings": [
        {
          "Medication disposal": true
        }
      ],
      "Planning": [
        {
          "Appointment required": true
        }
      ],
      "Payments": [
        {
          "Credit cards": true
        },
        {
          "Debit cards": true
        },
        {
          "Credit cards": true
        }
      ]
    },
    "gasPrices": [],
    "url": "https://www.google.com/maps/search/?api=1&query=CHI%20Health%20Pharmacy%20(132nd%20and%20W%20Center)&query_place_id=ChIJCcrYALLzk4cRhhrl5dcHLR0",
    "searchPageUrl": "https://www.google.com/maps/search/independent%20pharmacy%20Omaha%20NE/@24.93671431736524,-167.79388920296384,13z?hl=en",
    "searchString": "independent pharmacy Omaha NE",
    "language": "en",
    "rank": 15,
    "isAdvertisement": false,
    "imageUrl": "https://lh3.googleusercontent.com/p/AF1QipN8ZjcOKsuHPTWQc6aeQkJDm7I9KlJCS9DngvyJ=w441-h240-k-no",
    "kgmid": "/g/1pv615t2q",
    "classification": "hospital",
    "is_independent": false,
    "confidence": 1.0,
    "source": "rule-based"
  },
  {
    "title": "Baker's Pharmacy",
    "price": null,
    "categoryName": "Pharmacy",
    "address": "12025 W Center Rd, Omaha, NE 68144, United States",
    "neighborhood": "West Omaha",
    "street": "12025 W Center Rd",
    "city": "Omaha",
    "postalCode": "68144",
    "state": "Nebraska",
    "countryCode": "US",
    "website": "https://www.bakersplus.com/rx/pharmacy/details/615/00302?cid=loc_61500302P_gmb",
    "phone": "+1 402-333-6500",
    "phoneUnformatted": "+14023336500",
    "claimThisBusiness": false,
    "location": {
      "lat": 41.2325917,
      "lng": -96.1015877
    },
    "totalScore": 3.5,
    "permanentlyClosed": false,
    "temporarilyClosed": false,
    "placeId": null,
    "categories": [
      "Pharmacy",
      "Drug store",
      "Health counselor",
      "Home health care service"
    ],
    "fid": "0x8793f30496ec16d3:0xb4d6544987dffdc7",
    "cid": "13030695246632058311",
    "reviewsCount": 13,
    "imagesCount": 10,
    "imageCategories": [],
    "scrapedAt": "2025-06-22T08:36:24.732Z",
    "googleFoodUrl": null,
    "hotelAds": [],
    "openingHours": [
      {
        "day": "Monday",
        "hours": "9\u202fAM to 1\u202fPM, 1:30 to 8\u202fPM"
      },
      {
        "day": "Tuesday",
        "hours": "9\u202fAM to 1\u202fPM, 1:30 to 8\u202fPM"
      },
      {
        "day": "Wednesday",
        "hours": "9\u202fAM to 1\u202fPM, 1:30 to 8\u202fPM"
      },
      {
        "day": "Thursday",
        "hours": "9\u202fAM to 1\u202fPM, 1:30 to 8\u202fPM"
      },
      {
        "day": "Friday",
        "hours": "9\u202fAM to 1\u202fPM, 1:30 to 8\u202fPM"
      },
      {
        "day": "Saturday",
        "hours": "9\u202fAM to 1\u202fPM, 1:30 to 6\u202fPM"
      },
      {
        "day": "Sunday",
        "hours": "11\u202fAM to 1\u202fPM, 1:30 to 6\u202fPM"
      }
    ],
    "peopleAlsoSearch": [],
    "placesTags": [],
    "reviewsTags": [],
    "additionalInfo": {
      "Service options": [
        {
          "Kerbside pickup": true
        },
        {
          "Delivery": true
        },
        {
          "In-store pick-up": true
        },
        {
          "In-store shopping": true
        },
        {
          "On-site services": true
        },
        {
          "Same-day delivery": true
        }
      ],
      "Accessibility": [
        {
          "Wheelchair-accessible car park": true
        },
        {
          "Wheelchair-accessible entrance": true
        },
        {
          "Wheelchair-accessible seating": true
        },
        {
          "Wheelchair-accessible toilet": true
        }
      ],
      "Offerings": [
        {
          "Passport photos": true
        }
      ],
      "Crowd": [
        {
          "LGBTQ+ friendly": true
        },
        {
          "Transgender safe space": true
        }
      ],
      "Planning": [
        {
          "Quick visit": true
        }
      ],
      "Payments": [
        {
          "Cheques": true
        },
        {
          "Credit cards": true
        },
        {
          "Debit cards": true
        },
        {
          "NFC mobile payments": true
        },
        {
          "Credit cards": true
        }
      ]
    },
    "gasPrices": [],
    "url": "https://www.google.com/maps/search/?api=1&query=Baker's%20Pharmacy&query_place_id=ChIJ0xbslgTzk4cRx_3fh0lU1rQ",
    "searchPageUrl": "https://www.google.com/maps/search/independent%20pharmacy%20Omaha%20NE/@24.93671431736524,-167.79388920296384,13z?hl=en",
    "searchString": "independent pharmacy Omaha NE",
    "language": "en",
    "rank": 16,
    "isAdvertisement": false,
    "imageUrl": "https://lh3.googleusercontent.com/p/AF1QipOT_li2_ElYHgvsVQZ28t3qe0YEVNyZWz5iKlNE=w426-h240-k-no",
    "kgmid": "/g/11cjg91mdv",
    "classification": "chain",
    "is_independent": false,
    "is_compounding": false,
    "confidence": 0.95,
    "source": "perplexity",
    "method": "llm",
    "query_location": "omaha_ne"
  },
  {
    "title": "OneWorld Pharmacy",
    "price": null,
    "categoryName": "Pharmacy",
    "address": "4920 S 30th St, Omaha, NE 68107, United States",
    "neighborhood": "South Omaha",
    "street": "4920 S 30th St",
    "city": "Omaha",
    "postalCode": "68107",
    "state": "Nebraska",
    "countryCode": "US",
    "website": "https://www.oneworldomaha.org/for-patients/services-programs/pharmacy/",
    "phone": "+1 402-502-5832",
    "phoneUnformatted": "+14025025832",
    "claimThisBusiness": false,
    "location": {
      "lat": 41.2105207,
      "lng": -95.9554041
    },
    "totalScore": 3.6,
    "permanentlyClosed": false,
    "temporarilyClosed": false,
    "placeId": null,
    "categories": [
      "Pharmacy"
    ],
    "fid": "0x87938ecc64dce315:0x9edd4efa6439216c",
    "cid": "11447392665175925100",
    "reviewsCount": 52,
    "imagesCount": 6,
    "imageCategories": [],
    "scrapedAt": "2025-06-22T08:36:24.732Z",
    "googleFoodUrl": null,
    "hotelAds": [],
    "openingHours": [
      {
        "day": "Monday",
        "hours": "8\u202fAM to 6\u202fPM"
      },
      {
        "day": "Tuesday",
        "hours": "8\u202fAM to 6\u202fPM"
      },
      {
        "day": "Wednesday",
        "hours": "8\u202fAM to 6\u202fPM"
      },
      {
        "day": "Thursday",
        "hours": "8\u202fAM to 6\u202fPM"
      },
      {
        "day": "Friday",
        "hours": "8\u202fAM to 6\u202fPM"
      },
      {
        "day": "Saturday",
        "hours": "9\u202fAM to 1\u202fPM"
      },
      {
        "day": "Sunday",
        "hours": "Closed"
      }
    ],
    "peopleAlsoSearch": [],
    "placesTags": [],
    "reviewsTags": [],
    "additionalInfo": {
      "Service options": [
        {
          "Delivery": true
        },
        {
          "In-store shopping": true
        },
        {
          "On-site services": true
        }
      ],
      "Accessibility": [
        {
          "Wheelchair-accessible car park": true
        },
        {
          "Wheelchair-accessible entrance": true
        }
      ],
      "Offerings": [
        {
          "Medication disposal": true
        }
      ],
      "Payments": [
        {
          "Credit cards": true
        },
        {
          "Debit cards": true
        },
        {
          "Credit cards": true
        }
      ]
    },
    "gasPrices": [],
    "url": "https://www.google.com/maps/search/?api=1&query=OneWorld%20Pharmacy&query_place_id=ChIJFePcZMyOk4cRbCE5ZPpO3Z4",
    "searchPageUrl": "https://www.google.com/maps/search/independent%20pharmacy%20Omaha%20NE/@24.93671431736524,-167.79388920296384,13z?hl=en",
    "searchString": "independent pharmacy Omaha NE",
    "language": "en",
    "rank": 17,
    "isAdvertisement": false,
    "imageUrl": "https://lh3.googleusercontent.com/gps-cs-s/AC9h4nqOTI7mNgN0GHnwn3MDn9SGJYXJ0uw7ILVzQT_1ZBg9WTFk6Yw1RhHIBwmRyLPKXIkfmq9RtcPMLYdtOW5JB4ijyvGCgS81K3nHbTH_PHPGyH4SI9Aybr1FC4rIASPB7zOtViG6=w408-h333-k-no",
    "kgmid": "/g/1vfzfp1q",
    "classification": "hospital",
    "is_independent": false,
    "is_compounding": false,
    "confidence": 0.95,
    "source": "perplexity",
    "method": "llm",
    "query_location": "omaha_ne"
  },
  {
    "title": "Nebraska Medicine Centralized Services",
    "price": null,
    "categoryName": "Pharmacy",
    "address": "770 N 114th St, Omaha, NE 68154",
    "neighborhood": "West Omaha",
    "street": "770 N 114th St",
    "city": "Omaha",
    "postalCode": "68154",
    "state": "Nebraska",
    "countryCode": "US",
    "website": "https://www.nebraskamed.com/pharmacy",
    "phone": "(402) 559-5215",
    "phoneUnformatted": "+14025595215",
    "claimThisBusiness": true,
    "location": {
      "lat": 41.2669339,
      "lng": -96.0931463
    },
    "permanentlyClosed": false,
    "temporarilyClosed": false,
    "placeId": null,
    "categories": [
      "Pharmacy"
    ],
    "fid": "0x8793f30052b0f523:0x32dcc67ffa07ecba",
    "cid": "3665022449730710714",
    "reviewsCount": 0,
    "imagesCount": 1,
    "imageCategories": [],
    "scrapedAt": "2025-06-22T08:36:31.718Z",
    "googleFoodUrl": null,
    "hotelAds": [],
    "openingHours": [],
    "peopleAlsoSearch": [],
    "placesTags": [],
    "reviewsTags": [],
    "additionalInfo": {
      "Service options": [
        {
          "Delivery": true
        }
      ],
      "Accessibility": [
        {
          "Wheelchair accessible entrance": true
        },
        {
          "Wheelchair accessible parking lot": true
        }
      ],
      "Payments": [
        {
          "Credit cards": true
        }
      ]
    },
    "gasPrices": [],
    "url": "https://www.google.com/maps/search/?api=1&query=Nebraska%20Medicine%20Centralized%20Services&query_place_id=ChIJI_WwUgDzk4cRuuwH-n_G3DI",
    "searchPageUrl": "https://www.google.com/maps/search/independent%20pharmacy%20Omaha%20NE/@65.04310121365691,-143.9041190859444,9z?hl=en",
    "searchString": "independent pharmacy Omaha NE",
    "language": "en",
    "rank": 10,
    "isAdvertisement": false,
    "imageUrl": "https://streetviewpixels-pa.googleapis.com/v1/thumbnail?panoid=8ELfbsijEVz0GaWYRbDfSQ&cb_client=search.gws-prod.gps&w=408&h=240&yaw=285.86163&pitch=0&thumbfov=100",
    "kgmid": "/g/11w38b40sq",
    "classification": "hospital",
    "is_independent": false,
    "is_compounding": false,
    "confidence": 0.98,
    "source": "perplexity",
    "method": "llm",
    "query_location": "omaha_ne"
  }
]