[
  {
    "title": "Alliance Community Pharmacy",
    "price": null,
    "categoryName": "Pharmacy",
    "address": "1016 Piedmont Ave NE, Atlanta, GA 30309",
    "neighborhood": "Midtown Atlanta",
    "street": "1016 Piedmont Ave NE",
    "city": "Atlanta",
    "postalCode": "30309",
    "state": "Georgia",
    "countryCode": "US",
    "website": "https://www.alliancecrx.com/",
    "phone": "(404) 461-9105",
    "phoneUnformatted": "+14044619105",
    "claimThisBusiness": false,
    "location": {
      "lat": 33.782412,
      "lng": -84.3805191
    },
    "totalScore": 4.8,
    "permanentlyClosed": false,
    "temporarilyClosed": false,
    "placeId": null,
    "categories": [
      "Pharmacy"
    ],
    "fid": "0x88f50431564b4773:0x884d944166714e6f",
    "cid": "9821669370977406575",
    "reviewsCount": 78,
    "imagesCount": 3,
    "imageCategories": [],
    "scrapedAt": "2025-06-22T05:01:08.816Z",
    "googleFoodUrl": null,
    "hotelAds": [],
    "openingHours": [
      {
        "day": "Monday",
        "hours": "9\u202fAM to 6\u202fPM"
      },
      {
        "day": "Tuesday",
        "hours": "9\u202fAM to 6\u202fPM"
      },
      {
        "day": "Wednesday",
        "hours": "9\u202fAM to 6\u202fPM"
      },
      {
        "day": "Thursday",
        "hours": "9\u202fAM to 6\u202fPM"
      },
      {
        "day": "Friday",
        "hours": "9\u202fAM to 6\u202fPM"
      },
      {
        "day": "Saturday",
        "hours": "9\u202fAM to 1\u202fPM"
      },
      {
        "day": "Sunday",
        "hours": "Closed"
      }
    ],
    "peopleAlsoSearch": [],
    "placesTags": [],
    "reviewsTags": [],
    "additionalInfo": {
      "From the business": [
        {
          "Small business": true
        }
      ],
      "Service options": [
        {
          "Delivery": true
        },
        {
          "In-store pickup": true
        },
        {
          "In-store shopping": true
        },
        {
          "English": true
        }
      ],
      "Accessibility": [
        {
          "Wheelchair accessible entrance": true
        },
        {
          "Wheelchair accessible parking lot": true
        }
      ],
      "Crowd": [
        {
          "LGBTQ+ friendly": true
        },
        {
          "Transgender safespace": true
        }
      ],
      "Planning": [
        {
          "Quick visit": true
        }
      ],
      "Payments": [
        {
          "Checks": true
        },
        {
          "Credit cards": true
        },
        {
          "Debit cards": true
        },
        {
          "NFC mobile payments": true
        },
        {
          "Credit cards": true
        }
      ]
    },
    "gasPrices": [],
    "url": "https://www.google.com/maps/search/?api=1&query=Alliance%20Community%20Pharmacy&query_place_id=ChIJc0dLVjEE9YgRb05xZkGUTYg",
    "searchPageUrl": "https://www.google.com/maps/search/independent%20pharmacy%20Atlanta%20GA/@59.39147286325086,-145.92086524288626,12z?hl=en",
    "searchString": "independent pharmacy Atlanta GA",
    "language": "en",
    "rank": 1,
    "isAdvertisement": false,
    "imageUrl": "https://lh3.googleusercontent.com/gps-cs-s/AC9h4np4gwA21UU0bKfqrJ7gxB8f1lOE3Y_VNDk0MDoiMzL5Jd_nEuvL0H3SFXslHLUTjffcskhYAu-8mRla2mLynayc-C7dl_kLHOFp_sN_3P60SEZ9t5gD05hHhPIhNcyt2k9ztL6zpg=w408-h544-k-no",
    "kgmid": "/g/1q69ngjd_",
    "classification": "independent",
    "is_independent": true,
    "is_compounding": false,
    "confidence": 0.7,
    "source": "perplexity",
    "method": "llm"
  },
  {
    "title": "Stacy's Pharmacy",
    "price": null,
    "categoryName": "Pharmacy",
    "address": "1953 Piedmont Cir NE, Atlanta, GA 30324",
    "neighborhood": "Piedmont Heights",
    "street": "1953 Piedmont Cir NE",
    "city": "Atlanta",
    "postalCode": "30324",
    "state": "Georgia",
    "countryCode": "US",
    "website": "http://www.stacyspharmacy.com/",
    "phone": "(404) 876-3379",
    "phoneUnformatted": "+14048763379",
    "claimThisBusiness": false,
    "location": {
      "lat": 33.8108037,
      "lng": -84.3673299
    },
    "totalScore": 4.3,
    "permanentlyClosed": false,
    "temporarilyClosed": false,
    "placeId": null,
    "categories": [
      "Pharmacy"
    ],
    "fid": "0x88f505cfa9f305e9:0xf0fd31bb0b043bbf",
    "cid": "17365090417623972799",
    "reviewsCount": 38,
    "imagesCount": 1,
    "imageCategories": [],
    "scrapedAt": "2025-06-22T05:01:08.817Z",
    "googleFoodUrl": null,
    "hotelAds": [],
    "openingHours": [
      {
        "day": "Monday",
        "hours": "8:30\u202fAM to 5\u202fPM"
      },
      {
        "day": "Tuesday",
        "hours": "8:30\u202fAM to 5\u202fPM"
      },
      {
        "day": "Wednesday",
        "hours": "8:30\u202fAM to 5\u202fPM"
      },
      {
        "day": "Thursday",
        "hours": "8:30\u202fAM to 5\u202fPM"
      },
      {
        "day": "Friday",
        "hours": "8:30\u202fAM to 5\u202fPM"
      },
      {
        "day": "Saturday",
        "hours": "9\u202fAM to 12\u202fPM"
      },
      {
        "day": "Sunday",
        "hours": "Closed"
      }
    ],
    "peopleAlsoSearch": [],
    "placesTags": [],
    "reviewsTags": [],
    "additionalInfo": {
      "From the business": [
        {
          "Small business": true
        }
      ],
      "Service options": [
        {
          "Delivery": true
        },
        {
          "In-store pickup": true
        }
      ],
      "Accessibility": [
        {
          "Wheelchair accessible parking lot": true
        }
      ],
      "Payments": [
        {
          "Credit cards": true
        },
        {
          "Debit cards": true
        },
        {
          "NFC mobile payments": true
        },
        {
          "Credit cards": true
        }
      ]
    },
    "gasPrices": [],
    "url": "https://www.google.com/maps/search/?api=1&query=Stacy's%20Pharmacy&query_place_id=ChIJ6QXzqc8F9YgRvzsEC7sx_fA",
    "searchPageUrl": "https://www.google.com/maps/search/independent%20pharmacy%20Atlanta%20GA/@59.39147286325086,-145.92086524288626,12z?hl=en",
    "searchString": "independent pharmacy Atlanta GA",
    "language": "en",
    "rank": 2,
    "isAdvertisement": false,
    "imageUrl": "https://streetviewpixels-pa.googleapis.com/v1/thumbnail?panoid=LlYYpTvYOdYzGSKqVckFsg&cb_client=search.gws-prod.gps&w=408&h=240&yaw=197.85162&pitch=0&thumbfov=100",
    "kgmid": "/g/1tgm3p_y",
    "classification": "independent",
    "is_independent": true,
    "is_compounding": false,
    "confidence": 0.7,
    "source": "perplexity",
    "method": "llm"
  },
  {
    "title": "Little Five Points Pharmacy",
    "price": null,
    "categoryName": "Pharmacy",
    "address": "484 Moreland Ave NE, Atlanta, GA 30307",
    "neighborhood": "Little Five Points",
    "street": "484 Moreland Ave NE",
    "city": "Atlanta",
    "postalCode": "30307",
    "state": "Georgia",
    "countryCode": "US",
    "website": "https://www.little5pointsrx.com/",
    "phone": "(404) 524-4466",
    "phoneUnformatted": "+14045244466",
    "claimThisBusiness": false,
    "location": {
      "lat": 33.7675937,
      "lng": -84.3493966
    },
    "totalScore": 4.7,
    "permanentlyClosed": false,
    "temporarilyClosed": false,
    "placeId": null,
    "categories": [
      "Pharmacy"
    ],
    "fid": "0x88f506a8a9831e11:0x349471d6e98865c5",
    "cid": "3788778354380400069",
    "reviewsCount": 147,
    "imagesCount": 7,
    "imageCategories": [],
    "scrapedAt": "2025-06-22T05:01:08.817Z",
    "googleFoodUrl": null,
    "hotelAds": [],
    "openingHours": [
      {
        "day": "Monday",
        "hours": "8\u202fAM to 6\u202fPM"
      },
      {
        "day": "Tuesday",
        "hours": "8\u202fAM to 6\u202fPM"
      },
      {
        "day": "Wednesday",
        "hours": "8\u202fAM to 6\u202fPM"
      },
      {
        "day": "Thursday",
        "hours": "8\u202fAM to 6\u202fPM"
      },
      {
        "day": "Friday",
        "hours": "8\u202fAM to 6\u202fPM"
      },
      {
        "day": "Saturday",
        "hours": "9\u202fAM to 6\u202fPM"
      },
      {
        "day": "Sunday",
        "hours": "9\u202fAM to 5\u202fPM"
      }
    ],
    "peopleAlsoSearch": [],
    "placesTags": [],
    "reviewsTags": [],
    "additionalInfo": {
      "From the business": [
        {
          "Small business": true
        }
      ],
      "Accessibility": [
        {
          "Wheelchair accessible entrance": true
        },
        {
          "Wheelchair accessible parking lot": true
        }
      ],
      "Planning": [
        {
          "Quick visit": true
        }
      ],
      "Payments": [
        {
          "Credit cards": true
        },
        {
          "Debit cards": true
        },
        {
          "NFC mobile payments": true
        },
        {
          "Credit cards": true
        }
      ]
    },
    "gasPrices": [],
    "url": "https://www.google.com/maps/search/?api=1&query=Little%20Five%20Points%20Pharmacy&query_place_id=ChIJER6DqagG9YgRxWWI6dZxlDQ",
    "searchPageUrl": "https://www.google.com/maps/search/independent%20pharmacy%20Atlanta%20GA/@59.39147286325086,-145.92086524288626,12z?hl=en",
    "searchString": "independent pharmacy Atlanta GA",
    "language": "en",
    "rank": 3,
    "isAdvertisement": false,
    "imageUrl": "https://lh3.googleusercontent.com/gps-cs-s/AC9h4nr1ibf1NP7KOaKxvHD4xKrYSK6zAW29gYmXRNJcI7Ca-U046Yh8lFbLNDzxr6c2nqWBFikHfnSGVGDCwDU3KsPZ6b8IRwdhxUPQlhMNTkYiDBQUr_lGKjIY9SNx1abc1cJnw8wioA=w426-h240-k-no",
    "kgmid": "/g/1tdl2dfc",
    "classification": "independent",
    "is_independent": true,
    "is_compounding": false,
    "confidence": 0.85,
    "source": "perplexity",
    "method": "llm"
  },
  {
    "title": "Champions pharmacy & Compounding",
    "price": null,
    "categoryName": "Pharmacy",
    "address": "3886 Princeton Lakes Way #180, Atlanta, GA 30331",
    "neighborhood": "Princeton Lakes",
    "street": "3886 Princeton Lakes Way #180",
    "city": "Atlanta",
    "postalCode": "30331",
    "state": "Georgia",
    "countryCode": "US",
    "phone": "(404) 600-3122",
    "phoneUnformatted": "+14046003122",
    "claimThisBusiness": false,
    "location": {
      "lat": 33.6612905,
      "lng": -84.5137805
    },
    "totalScore": 4.6,
    "permanentlyClosed": false,
    "temporarilyClosed": false,
    "placeId": null,
    "categories": [
      "Pharmacy"
    ],
    "fid": "0x88f4e3d2c53ce6e7:0x484dbe0babc9a6bd",
    "cid": "5210029301273568957",
    "reviewsCount": 10,
    "imagesCount": 1,
    "imageCategories": [],
    "scrapedAt": "2025-06-22T05:01:08.817Z",
    "googleFoodUrl": null,
    "hotelAds": [],
    "openingHours": [
      {
        "day": "Monday",
        "hours": "10\u202fAM to 5\u202fPM"
      },
      {
        "day": "Tuesday",
        "hours": "10\u202fAM to 5\u202fPM"
      },
      {
        "day": "Wednesday",
        "hours": "10\u202fAM to 5\u202fPM"
      },
      {
        "day": "Thursday",
        "hours": "10\u202fAM to 5\u202fPM"
      },
      {
        "day": "Friday",
        "hours": "10\u202fAM to 3\u202fPM"
      },
      {
        "day": "Saturday",
        "hours": "Closed"
      },
      {
        "day": "Sunday",
        "hours": "Closed"
      }
    ],
    "peopleAlsoSearch": [],
    "placesTags": [],
    "reviewsTags": [],
    "additionalInfo": {
      "From the business": [
        {
          "Small business": true
        }
      ],
      "Service options": [
        {
          "Delivery": true
        },
        {
          "Same-day delivery": true
        }
      ],
      "Accessibility": [
        {
          "Wheelchair accessible entrance": true
        },
        {
          "Wheelchair accessible parking lot": true
        }
      ],
      "Payments": [
        {
          "Credit cards": true
        },
        {
          "Debit cards": true
        },
        {
          "NFC mobile payments": true
        },
        {
          "Credit cards": true
        }
      ]
    },
    "gasPrices": [],
    "url": "https://www.google.com/maps/search/?api=1&query=Champions%20pharmacy%20%26%20Compounding&query_place_id=ChIJ5-Y8xdLj9IgRvabJqwu-TUg",
    "searchPageUrl": "https://www.google.com/maps/search/independent%20pharmacy%20Atlanta%20GA/@59.39147286325086,-145.92086524288626,12z?hl=en",
    "searchString": "independent pharmacy Atlanta GA",
    "language": "en",
    "rank": 4,
    "isAdvertisement": false,
    "imageUrl": "https://streetviewpixels-pa.googleapis.com/v1/thumbnail?panoid=c-IXNK1KCXFU50LkDTZkKg&cb_client=search.gws-prod.gps&w=408&h=240&yaw=319.6144&pitch=0&thumbfov=100",
    "kgmid": "/g/11h8kvskmm",
    "classification": "independent",
    "is_independent": true,
    "is_compounding": true,
    "confidence": 0.9,
    "source": "perplexity",
    "method": "llm"
  },
  {
    "title": "Prime Pharmaceuticals | Atlanta's Premier Compounding Pharmacy",
    "price": null,
    "categoryName": "Pharmacy",
    "address": "5505 Peachtree Dunwoody Rd, Atlanta, GA 30342",
    "neighborhood": null,
    "street": "5505 Peachtree Dunwoody Rd",
    "city": "Atlanta",
    "postalCode": "30342",
    "state": "Georgia",
    "countryCode": "US",
    "website": "https://www.primepharmacompounding.com/",
    "phone": "(404) 250-9656",
    "phoneUnformatted": "+14042509656",
    "claimThisBusiness": false,
    "location": {
      "lat": 33.9040559,
      "lng": -84.35225
    },
    "totalScore": 5,
    "permanentlyClosed": false,
    "temporarilyClosed": false,
    "placeId": null,
    "categories": [
      "Pharmacy"
    ],
    "fid": "0x88f50932e335f18f:0xa32bca915358b595",
    "cid": "11757713977698203029",
    "reviewsCount": 9,
    "imagesCount": 8,
    "imageCategories": [],
    "scrapedAt": "2025-06-22T05:01:08.817Z",
    "googleFoodUrl": null,
    "hotelAds": [],
    "openingHours": [
      {
        "day": "Monday",
        "hours": "8\u202fAM to 4\u202fPM"
      },
      {
        "day": "Tuesday",
        "hours": "8\u202fAM to 4\u202fPM"
      },
      {
        "day": "Wednesday",
        "hours": "8\u202fAM to 4\u202fPM"
      },
      {
        "day": "Thursday",
        "hours": "8\u202fAM to 4\u202fPM"
      },
      {
        "day": "Friday",
        "hours": "8\u202fAM to 4\u202fPM"
      },
      {
        "day": "Saturday",
        "hours": "Closed"
      },
      {
        "day": "Sunday",
        "hours": "Closed"
      }
    ],
    "peopleAlsoSearch": [],
    "placesTags": [],
    "reviewsTags": [],
    "additionalInfo": {
      "Accessibility": [
        {
          "Wheelchair accessible entrance": true
        },
        {
          "Wheelchair accessible parking lot": true
        }
      ],
      "Payments": [
        {
          "Credit cards": true
        },
        {
          "Debit cards": true
        },
        {
          "NFC mobile payments": true
        },
        {
          "Credit cards": true
        }
      ]
    },
    "gasPrices": [],
    "url": "https://www.google.com/maps/search/?api=1&query=Prime%20Pharmaceuticals%20%7C%20Atlanta's%20Premier%20Compounding%20Pharmacy&query_place_id=ChIJj_E14zIJ9YgRlbVYU5HKK6M",
    "searchPageUrl": "https://www.google.com/maps/search/independent%20pharmacy%20Atlanta%20GA/@59.39147286325086,-145.92086524288626,12z?hl=en",
    "searchString": "independent pharmacy Atlanta GA",
    "language": "en",
    "rank": 5,
    "isAdvertisement": false,
    "imageUrl": "https://lh3.googleusercontent.com/gps-cs-s/AC9h4nroMN0kasvWy23j-vrmmY-8XkTMgtLKMy9jUCb6WxN4fmZdj8jMTo4cB6HsRV6eD25Kz-dEGX6Vt7Juh2LBR40SXOD29fKy41xyeWUCsKJ5bJfwdtdhnkT8LRLn9COIf-f7o_fV=w408-h272-k-no",
    "kgmid": "/g/11fk0bcmy5",
    "classification": "independent",
    "is_independent": true,
    "is_compounding": true,
    "confidence": 0.98,
    "source": "perplexity",
    "method": "llm"
  },
  {
    "title": "Trinity Pharmacy",
    "price": null,
    "categoryName": "Pharmacy",
    "address": "3565 M.L.K. Jr Dr SW APT 2, Atlanta, GA 30331",
    "neighborhood": "Adamsville",
    "street": "3565 M.L.K. Jr Dr SW APT 2",
    "city": "Atlanta",
    "postalCode": "30331",
    "state": "Georgia",
    "countryCode": "US",
    "website": "https://www.trinitypharmacyatl.com/",
    "phone": "(678) 705-5690",
    "phoneUnformatted": "+16787055690",
    "claimThisBusiness": true,
    "location": {
      "lat": 33.7592057,
      "lng": -84.5044829
    },
    "totalScore": 4.2,
    "permanentlyClosed": false,
    "temporarilyClosed": false,
    "placeId": "ChIJrUIihQsc9YgRXPHgC_yrYRQ",
    "categories": [
      "Pharmacy",
      "Pharmaceutical company"
    ],
    "fid": "0x88f51c0b852242ad:0x1461abfc0be0f15c",
    "cid": "1468644052518891868",
    "reviewsCount": 26,
    "imagesCount": 2,
    "imageCategories": [],
    "scrapedAt": "2025-06-22T05:01:08.818Z",
    "googleFoodUrl": null,
    "hotelAds": [],
    "openingHours": [
      {
        "day": "Monday",
        "hours": "10\u202fAM to 7\u202fPM"
      },
      {
        "day": "Tuesday",
        "hours": "10\u202fAM to 7\u202fPM"
      },
      {
        "day": "Wednesday",
        "hours": "10\u202fAM to 7\u202fPM"
      },
      {
        "day": "Thursday",
        "hours": "10\u202fAM to 7\u202fPM"
      },
      {
        "day": "Friday",
        "hours": "10\u202fAM to 7\u202fPM"
      },
      {
        "day": "Saturday",
        "hours": "11\u202fAM to 5\u202fPM"
      },
      {
        "day": "Sunday",
        "hours": "Closed"
      }
    ],
    "peopleAlsoSearch": [],
    "placesTags": [],
    "reviewsTags": [],
    "additionalInfo": {
      "Service options": [
        {
          "Delivery": true
        },
        {
          "In-store pickup": true
        },
        {
          "Onsite services": true
        },
        {
          "Same-day delivery": true
        }
      ],
      "Accessibility": [
        {
          "Wheelchair accessible entrance": true
        },
        {
          "Wheelchair accessible parking lot": true
        }
      ],
      "Planning": [
        {
          "Quick visit": true
        }
      ],
      "Payments": [
        {
          "Credit cards": true
        },
        {
          "Debit cards": true
        },
        {
          "NFC mobile payments": true
        },
        {
          "Credit cards": true
        }
      ]
    },
    "gasPrices": [],
    "url": "https://www.google.com/maps/search/?api=1&query=Trinity%20Pharmacy&query_place_id=ChIJrUIihQsc9YgRXPHgC_yrYRQ",
    "searchPageUrl": "https://www.google.com/maps/search/independent%20pharmacy%20Atlanta%20GA/@59.39147286325086,-145.92086524288626,12z?hl=en",
    "searchString": "independent pharmacy Atlanta GA",
    "language": "en",
    "rank": 6,
    "isAdvertisement": false,
    "imageUrl": "https://lh3.googleusercontent.com/gps-cs-s/AC9h4npIA6fLJD6A9sflHzT2lhTtPUDHfLF215R4Uvq6nWKy9YpwyyS6N-4HBlJDPOa-pHIXyMQU0DD2YE6NChxu_CchN0753oPQOOde-KfhNMITAw7W7QhO_0YXKVIUPxtWlJ7yH_fz=w408-h306-k-no",
    "kgmid": "/g/1260xrbvp",
    "classification": "hospital",
    "is_independent": false,
    "confidence": 1.0,
    "source": "rule-based"
  },
  {
    "title": "Wender & Roberts Pharmacy",
    "price": null,
    "categoryName": "Pharmacy",
    "address": "1262 W Paces Ferry Rd NW, Atlanta, GA 30327",
    "neighborhood": "West Paces Ferry/Northside",
    "street": "1262 W Paces Ferry Rd NW",
    "city": "Atlanta",
    "postalCode": "30327",
    "state": "Georgia",
    "countryCode": "US",
    "website": "https://wenderrx.com/",
    "phone": "(404) 237-7551",
    "phoneUnformatted": "+14042377551",
    "claimThisBusiness": false,
    "location": {
      "lat": 33.8481841,
      "lng": -84.428461
    },
    "totalScore": 4.3,
    "permanentlyClosed": false,
    "temporarilyClosed": false,
    "placeId": null,
    "categories": [
      "Pharmacy",
      "Drug store",
      "Gift shop",
      "Medical supply store"
    ],
    "fid": "0x88f50557e0161e25:0xd3debec6c25db011",
    "cid": "15266849547706282001",
    "reviewsCount": 73,
    "imagesCount": 12,
    "imageCategories": [],
    "scrapedAt": "2025-06-22T05:01:08.818Z",
    "googleFoodUrl": null,
    "hotelAds": [],
    "openingHours": [
      {
        "day": "Monday",
        "hours": "8\u202fAM to 7\u202fPM"
      },
      {
        "day": "Tuesday",
        "hours": "8\u202fAM to 7\u202fPM"
      },
      {
        "day": "Wednesday",
        "hours": "8\u202fAM to 7\u202fPM"
      },
      {
        "day": "Thursday",
        "hours": "8\u202fAM to 7\u202fPM"
      },
      {
        "day": "Friday",
        "hours": "8\u202fAM to 7\u202fPM"
      },
      {
        "day": "Saturday",
        "hours": "9\u202fAM to 5\u202fPM"
      },
      {
        "day": "Sunday",
        "hours": "10\u202fAM to 4\u202fPM"
      }
    ],
    "peopleAlsoSearch": [],
    "placesTags": [],
    "reviewsTags": [],
    "additionalInfo": {
      "From the business": [
        {
          "Small business": true
        }
      ],
      "Service options": [
        {
          "Delivery": true
        },
        {
          "In-store pickup": true
        },
        {
          "Same-day delivery": true
        }
      ],
      "Accessibility": [
        {
          "Wheelchair accessible entrance": true
        },
        {
          "Wheelchair accessible parking lot": true
        }
      ],
      "Planning": [
        {
          "Quick visit": true
        }
      ],
      "Payments": [
        {
          "Checks": true
        },
        {
          "Credit cards": true
        },
        {
          "Debit cards": true
        },
        {
          "NFC mobile payments": true
        },
        {
          "Credit cards": true
        }
      ]
    },
    "gasPrices": [],
    "url": "https://www.google.com/maps/search/?api=1&query=Wender%20%26%20Roberts%20Pharmacy&query_place_id=ChIJJR4W4FcF9YgREbBdwsa-3tM",
    "searchPageUrl": "https://www.google.com/maps/search/independent%20pharmacy%20Atlanta%20GA/@59.39147286325086,-145.92086524288626,12z?hl=en",
    "searchString": "independent pharmacy Atlanta GA",
    "language": "en",
    "rank": 7,
    "isAdvertisement": false,
    "imageUrl": "https://lh3.googleusercontent.com/p/AF1QipNXz31OZGW_fpdXsnnSbVK3ehjy6Zw_yWovgdVn=w408-h291-k-no",
    "kgmid": "/g/1hc49dhk7",
    "classification": "independent",
    "is_independent": true,
    "is_compounding": false,
    "confidence": 0.9,
    "source": "perplexity",
    "method": "llm"
  },
  {
    "title": "MLK Pharmacy 2.0",
    "price": null,
    "categoryName": "Pharmacy",
    "address": "2457 M.L.K. Jr Dr SW UNIT A, Atlanta, GA 30311",
    "neighborhood": "Harland Terrace",
    "street": "2457 M.L.K. Jr Dr SW UNIT A",
    "city": "Atlanta",
    "postalCode": "30311",
    "state": "Georgia",
    "countryCode": "US",
    "phone": "(678) 705-5750",
    "phoneUnformatted": "+16787055750",
    "claimThisBusiness": false,
    "location": {
      "lat": 33.7526152,
      "lng": -84.4683724
    },
    "totalScore": 5,
    "permanentlyClosed": false,
    "temporarilyClosed": false,
    "placeId": null,
    "categories": [
      "Pharmacy"
    ],
    "fid": "0x88f51d835b3d291f:0xa35436107d9dc6f5",
    "cid": "11769091170680817397",
    "reviewsCount": 6,
    "imagesCount": 5,
    "imageCategories": [],
    "scrapedAt": "2025-06-22T05:01:08.818Z",
    "googleFoodUrl": null,
    "hotelAds": [],
    "openingHours": [
      {
        "day": "Monday",
        "hours": "10\u202fAM to 6\u202fPM"
      },
      {
        "day": "Tuesday",
        "hours": "10\u202fAM to 6\u202fPM"
      },
      {
        "day": "Wednesday",
        "hours": "10\u202fAM to 6\u202fPM"
      },
      {
        "day": "Thursday",
        "hours": "10\u202fAM to 6\u202fPM"
      },
      {
        "day": "Friday",
        "hours": "10\u202fAM to 6\u202fPM"
      },
      {
        "day": "Saturday",
        "hours": "Closed"
      },
      {
        "day": "Sunday",
        "hours": "Closed"
      }
    ],
    "peopleAlsoSearch": [],
    "placesTags": [],
    "reviewsTags": [],
    "additionalInfo": {
      "From the business": [
        {
          "Small business": true
        }
      ],
      "Service options": [
        {
          "Delivery": true
        },
        {
          "Drive-through": true
        },
        {
          "In-store pickup": true
        },
        {
          "Same-day delivery": true
        }
      ],
      "Accessibility": [
        {
          "Wheelchair accessible entrance": true
        },
        {
          "Wheelchair accessible parking lot": true
        }
      ],
      "Planning": [
        {
          "Quick visit": true
        }
      ],
      "Payments": [
        {
          "Credit cards": true
        },
        {
          "Debit cards": true
        },
        {
          "NFC mobile payments": true
        },
        {
          "Credit cards": true
        }
      ]
    },
    "gasPrices": [],
    "url": "https://www.google.com/maps/search/?api=1&query=MLK%20Pharmacy%202.0&query_place_id=ChIJHyk9W4Md9YgR9cadfRA2VKM",
    "searchPageUrl": "https://www.google.com/maps/search/independent%20pharmacy%20Atlanta%20GA/@59.39147286325086,-145.92086524288626,12z?hl=en",
    "searchString": "independent pharmacy Atlanta GA",
    "language": "en",
    "rank": 8,
    "isAdvertisement": false,
    "imageUrl": "https://lh3.googleusercontent.com/p/AF1QipM2_IqPR3TtpQZkI_evwtmV5B6rMmxtSXjJ3hbj=w408-h544-k-no",
    "kgmid": "/g/11q1mbzdx0",
    "classification": "independent",
    "is_independent": true,
    "is_compounding": false,
    "confidence": 0.85,
    "source": "perplexity",
    "method": "llm"
  },
  {
    "title": "Atlanta City Compounding Pharmacy",
    "price": null,
    "categoryName": "Pharmacy",
    "address": "2212 Fellowship Rd, Tucker, GA 30084",
    "neighborhood": null,
    "street": "2212 Fellowship Rd",
    "city": "Tucker",
    "postalCode": "30084",
    "state": "Georgia",
    "countryCode": "US",
    "website": "http://www.rxacp.com/",
    "phone": "(404) 590-3785",
    "phoneUnformatted": "+14045903785",
    "claimThisBusiness": false,
    "location": {
      "lat": 33.8491956,
      "lng": -84.2184656
    },
    "totalScore": 4.2,
    "permanentlyClosed": false,
    "temporarilyClosed": false,
    "placeId": null,
    "categories": [
      "Pharmacy"
    ],
    "fid": "0x88f5067443079489:0xb65501f28e02835c",
    "cid": "13138409629199532892",
    "reviewsCount": 37,
    "imagesCount": 1,
    "imageCategories": [],
    "scrapedAt": "2025-06-22T05:01:08.818Z",
    "googleFoodUrl": null,
    "hotelAds": [],
    "openingHours": [
      {
        "day": "Monday",
        "hours": "9:30\u202fAM to 4\u202fPM"
      },
      {
        "day": "Tuesday",
        "hours": "9:30\u202fAM to 4\u202fPM"
      },
      {
        "day": "Wednesday",
        "hours": "9:30\u202fAM to 4\u202fPM"
      },
      {
        "day": "Thursday",
        "hours": "9:30\u202fAM to 4\u202fPM"
      },
      {
        "day": "Friday",
        "hours": "9:30\u202fAM to 4\u202fPM"
      },
      {
        "day": "Saturday",
        "hours": "Closed"
      },
      {
        "day": "Sunday",
        "hours": "Closed"
      }
    ],
    "peopleAlsoSearch": [],
    "placesTags": [],
    "reviewsTags": [],
    "additionalInfo": {
      "From the business": [
        {
          "Small business": true
        }
      ],
      "Service options": [
        {
          "Delivery": true
        },
        {
          "In-store pickup": true
        },
        {
          "Same-day delivery": true
        }
      ],
      "Accessibility": [
        {
          "Wheelchair accessible entrance": true
        },
        {
          "Wheelchair accessible parking lot": true
        }
      ],
      "Planning": [
        {
          "Quick visit": true
        }
      ],
      "Payments": [
        {
          "Credit cards": true
        },
        {
          "Debit cards": true
        },
        {
          "NFC mobile payments": true
        },
        {
          "Credit cards": true
        }
      ]
    },
    "gasPrices": [],
    "url": "https://www.google.com/maps/search/?api=1&query=Atlanta%20City%20Compounding%20Pharmacy&query_place_id=ChIJiZQHQ3QG9YgRXIMCjvIBVbY",
    "searchPageUrl": "https://www.google.com/maps/search/independent%20pharmacy%20Atlanta%20GA/@59.39147286325086,-145.92086524288626,12z?hl=en",
    "searchString": "independent pharmacy Atlanta GA",
    "language": "en",
    "rank": 9,
    "isAdvertisement": false,
    "imageUrl": "https://streetviewpixels-pa.googleapis.com/v1/thumbnail?panoid=4KvH8d33sdm1ethpk7FIRw&cb_client=search.gws-prod.gps&w=408&h=240&yaw=248.24765&pitch=0&thumbfov=100",
    "kgmid": "/g/1yglq035m",
    "classification": "independent",
    "is_independent": true,
    "is_compounding": true,
    "confidence": 0.95,
    "source": "perplexity",
    "method": "llm"
  },
  {
    "title": "Pavilion Compounding Pharmacy, LLC",
    "price": null,
    "categoryName": "Pharmacy",
    "address": "3200 Downwood Cir NW UNIT 210, Atlanta, GA 30327",
    "neighborhood": "Buckhead",
    "street": "3200 Downwood Cir NW UNIT 210",
    "city": "Atlanta",
    "postalCode": "30327",
    "state": "Georgia",
    "countryCode": "US",
    "website": "http://www.pavilioncompounding.com/",
    "phone": "(404) 350-5780",
    "phoneUnformatted": "+14043505780",
    "claimThisBusiness": false,
    "location": {
      "lat": 33.8418988,
      "lng": -84.4265429
    },
    "totalScore": 4.5,
    "permanentlyClosed": false,
    "temporarilyClosed": false,
    "placeId": null,
    "categories": [
      "Pharmacy",
      "Vitamin & supplements store"
    ],
    "fid": "0x88f505509e3139ef:0xafcfd1db907fc893",
    "cid": "12668575017768831123",
    "reviewsCount": 77,
    "imagesCount": 30,
    "imageCategories": [],
    "scrapedAt": "2025-06-22T05:01:08.818Z",
    "googleFoodUrl": null,
    "hotelAds": [],
    "openingHours": [
      {
        "day": "Monday",
        "hours": "9\u202fAM to 5\u202fPM"
      },
      {
        "day": "Tuesday",
        "hours": "9\u202fAM to 5\u202fPM"
      },
      {
        "day": "Wednesday",
        "hours": "9\u202fAM to 5\u202fPM"
      },
      {
        "day": "Thursday",
        "hours": "9\u202fAM to 5\u202fPM"
      },
      {
        "day": "Friday",
        "hours": "9\u202fAM to 5\u202fPM"
      },
      {
        "day": "Saturday",
        "hours": "Closed"
      },
      {
        "day": "Sunday",
        "hours": "Closed"
      }
    ],
    "peopleAlsoSearch": [],
    "placesTags": [],
    "reviewsTags": [],
    "additionalInfo": {
      "Service options": [
        {
          "Delivery": true
        },
        {
          "In-store pickup": true
        },
        {
          "In-store shopping": true
        },
        {
          "Same-day delivery": true
        },
        {
          "Portuguese": true
        }
      ],
      "Accessibility": [
        {
          "Wheelchair accessible entrance": true
        },
        {
          "Wheelchair accessible parking lot": true
        }
      ],
      "Crowd": [
        {
          "LGBTQ+ friendly": true
        },
        {
          "Transgender safespace": true
        }
      ],
      "Payments": [
        {
          "Credit cards": true
        },
        {
          "Debit cards": true
        },
        {
          "NFC mobile payments": true
        },
        {
          "Credit cards": true
        }
      ]
    },
    "gasPrices": [],
    "url": "https://www.google.com/maps/search/?api=1&query=Pavilion%20Compounding%20Pharmacy%2C%20LLC&query_place_id=ChIJ7zkxnlAF9YgRk8h_kNvRz68",
    "searchPageUrl": "https://www.google.com/maps/search/independent%20pharmacy%20Atlanta%20GA/@59.39147286325086,-145.92086524288626,12z?hl=en",
    "searchString": "independent pharmacy Atlanta GA",
    "language": "en",
    "rank": 10,
    "isAdvertisement": false,
    "imageUrl": "https://lh3.googleusercontent.com/p/AF1QipPCq_VJrrmTDb24IqfkPhNENmklqHdC8yX-XV7n=w408-h246-k-no",
    "kgmid": "/g/1tzzwbr2",
    "classification": "independent",
    "is_independent": true,
    "is_compounding": true,
    "confidence": 0.95,
    "source": "perplexity",
    "method": "llm"
  },
  {
    "title": "PerimeterRX",
    "price": null,
    "categoryName": "Pharmacy",
    "address": "5671 Peachtree Dunwoody Rd Suite 225, Atlanta, GA 30342",
    "neighborhood": "Perimeter Center",
    "street": "5671 Peachtree Dunwoody Rd Suite 225",
    "city": "Atlanta",
    "postalCode": "30342",
    "state": "Georgia",
    "countryCode": "US",
    "website": "http://www.perimeterrx.com/",
    "phone": "(470) 750-0700",
    "phoneUnformatted": "+14707500700",
    "claimThisBusiness": false,
    "location": {
      "lat": 33.9096998,
      "lng": -84.3502851
    },
    "totalScore": 4.9,
    "permanentlyClosed": false,
    "temporarilyClosed": false,
    "placeId": null,
    "categories": [
      "Pharmacy"
    ],
    "fid": "0x88f5095cc126207f:0x4f8bff3556c7a5ea",
    "cid": "5731955555313362410",
    "reviewsCount": 134,
    "imagesCount": 5,
    "imageCategories": [],
    "scrapedAt": "2025-06-22T05:01:08.818Z",
    "googleFoodUrl": null,
    "hotelAds": [],
    "openingHours": [
      {
        "day": "Monday",
        "hours": "9\u202fAM to 5\u202fPM"
      },
      {
        "day": "Tuesday",
        "hours": "9\u202fAM to 5\u202fPM"
      },
      {
        "day": "Wednesday",
        "hours": "9\u202fAM to 5\u202fPM"
      },
      {
        "day": "Thursday",
        "hours": "9\u202fAM to 5\u202fPM"
      },
      {
        "day": "Friday",
        "hours": "9\u202fAM to 5\u202fPM"
      },
      {
        "day": "Saturday",
        "hours": "Closed"
      },
      {
        "day": "Sunday",
        "hours": "Closed"
      }
    ],
    "peopleAlsoSearch": [],
    "placesTags": [],
    "reviewsTags": [],
    "additionalInfo": {
      "From the business": [
        {
          "Identifies as women-owned": true
        },
        {
          "Small business": true
        }
      ],
      "Service options": [
        {
          "Curbside pickup": true
        },
        {
          "Delivery": true
        },
        {
          "Onsite services": true
        },
        {
          "Same-day delivery": true
        }
      ],
      "Accessibility": [
        {
          "Wheelchair accessible entrance": true
        },
        {
          "Wheelchair accessible parking lot": true
        }
      ],
      "Amenities": [
        {
          "Wi-Fi": true
        },
        {
          "Free Wi-Fi": true
        }
      ],
      "Payments": [
        {
          "Credit cards": true
        }
      ]
    },
    "gasPrices": [],
    "url": "https://www.google.com/maps/search/?api=1&query=PerimeterRX&query_place_id=ChIJfyAmwVwJ9YgR6qXHVjX_i08",
    "searchPageUrl": "https://www.google.com/maps/search/independent%20pharmacy%20Atlanta%20GA/@59.39147286325086,-145.92086524288626,12z?hl=en",
    "searchString": "independent pharmacy Atlanta GA",
    "language": "en",
    "rank": 11,
    "isAdvertisement": false,
    "imageUrl": "https://lh3.googleusercontent.com/p/AF1QipN6U8Iq4XF6t1iP4D_LrRC1VRGhCX2ZwgxOWsFl=w408-h297-k-no",
    "kgmid": "/g/11rxz0_t1s",
    "classification": "independent",
    "is_independent": true,
    "is_compounding": false,
    "confidence": 0.85,
    "source": "perplexity",
    "method": "llm"
  },
  {
    "title": "Express Pharmacy",
    "price": null,
    "categoryName": "Pharmacy",
    "address": "296 Northside Dr SW, Atlanta, GA 30313",
    "neighborhood": "Downtown Atlanta",
    "street": "296 Northside Dr SW",
    "city": "Atlanta",
    "postalCode": "30313",
    "state": "Georgia",
    "countryCode": "US",
    "phone": "(404) 549-7762",
    "phoneUnformatted": "+14045497762",
    "claimThisBusiness": true,
    "location": {
      "lat": 33.7464614,
      "lng": -84.4061679
    },
    "totalScore": 4.6,
    "permanentlyClosed": false,
    "temporarilyClosed": false,
    "placeId": null,
    "categories": [
      "Pharmacy",
      "Drug store"
    ],
    "fid": "0x88f50346c910c275:0xd41e4e3ccbaed155",
    "cid": "15284740208364278101",
    "reviewsCount": 5,
    "imagesCount": 1,
    "imageCategories": [],
    "scrapedAt": "2025-06-22T05:01:08.818Z",
    "googleFoodUrl": null,
    "hotelAds": [],
    "openingHours": [
      {
        "day": "Monday",
        "hours": "9\u202fAM to 5\u202fPM"
      },
      {
        "day": "Tuesday",
        "hours": "9\u202fAM to 5\u202fPM"
      },
      {
        "day": "Wednesday",
        "hours": "9\u202fAM to 5\u202fPM"
      },
      {
        "day": "Thursday",
        "hours": "9\u202fAM to 5\u202fPM"
      },
      {
        "day": "Friday",
        "hours": "9\u202fAM to 5\u202fPM"
      },
      {
        "day": "Saturday",
        "hours": "Closed"
      },
      {
        "day": "Sunday",
        "hours": "Closed"
      }
    ],
    "peopleAlsoSearch": [],
    "placesTags": [],
    "reviewsTags": [],
    "additionalInfo": {
      "Service options": [
        {
          "Delivery": true
        },
        {
          "In-store pickup": true
        },
        {
          "Same-day delivery": true
        }
      ],
      "Accessibility": [
        {
          "Wheelchair accessible entrance": true
        },
        {
          "Wheelchair accessible parking lot": true
        }
      ],
      "Planning": [
        {
          "Quick visit": true
        }
      ],
      "Payments": [
        {
          "Credit cards": true
        },
        {
          "Debit cards": true
        },
        {
          "NFC mobile payments": true
        },
        {
          "Credit cards": true
        }
      ]
    },
    "gasPrices": [],
    "url": "https://www.google.com/maps/search/?api=1&query=Express%20Pharmacy&query_place_id=ChIJdcIQyUYD9YgRVdGuyzxOHtQ",
    "searchPageUrl": "https://www.google.com/maps/search/independent%20pharmacy%20Atlanta%20GA/@59.39147286325086,-145.92086524288626,12z?hl=en",
    "searchString": "independent pharmacy Atlanta GA",
    "language": "en",
    "rank": 12,
    "isAdvertisement": false,
    "imageUrl": "https://streetviewpixels-pa.googleapis.com/v1/thumbnail?panoid=ZH36jHy8WVb1mnLFiBUcUg&cb_client=search.gws-prod.gps&w=408&h=240&yaw=132.79169&pitch=0&thumbfov=100",
    "kgmid": "/g/11g23py6fq",
    "classification": "independent",
    "is_independent": true,
    "is_compounding": false,
    "confidence": 0.85,
    "source": "perplexity",
    "method": "llm"
  },
  {
    "title": "Tuxedo Pharmacy & Gifts",
    "price": null,
    "categoryName": "Pharmacy",
    "address": "164 W Wieuca Rd NE # 7, Atlanta, GA 30342",
    "neighborhood": "East Chastain Park",
    "street": "164 W Wieuca Rd NE # 7",
    "city": "Atlanta",
    "postalCode": "30342",
    "state": "Georgia",
    "countryCode": "US",
    "phone": "(404) 255-3022",
    "phoneUnformatted": "+14042553022",
    "claimThisBusiness": false,
    "location": {
      "lat": 33.8780227,
      "lng": -84.3815526
    },
    "totalScore": 3.8,
    "permanentlyClosed": false,
    "temporarilyClosed": false,
    "placeId": null,
    "categories": [
      "Pharmacy"
    ],
    "fid": "0x88f50f10df36ede9:0x308e22eb9520e75d",
    "cid": "3498772355728074589",
    "reviewsCount": 43,
    "imagesCount": 17,
    "imageCategories": [],
    "scrapedAt": "2025-06-22T05:01:08.818Z",
    "googleFoodUrl": null,
    "hotelAds": [],
    "openingHours": [
      {
        "day": "Monday",
        "hours": "9\u202fAM to 7\u202fPM"
      },
      {
        "day": "Tuesday",
        "hours": "9\u202fAM to 7\u202fPM"
      },
      {
        "day": "Wednesday",
        "hours": "9\u202fAM to 7\u202fPM"
      },
      {
        "day": "Thursday",
        "hours": "9\u202fAM to 7\u202fPM"
      },
      {
        "day": "Friday",
        "hours": "9\u202fAM to 7\u202fPM"
      },
      {
        "day": "Saturday",
        "hours": "9\u202fAM to 6\u202fPM"
      },
      {
        "day": "Sunday",
        "hours": "Closed"
      }
    ],
    "peopleAlsoSearch": [],
    "placesTags": [],
    "reviewsTags": [],
    "additionalInfo": {
      "From the business": [
        {
          "Identifies as women-owned": true
        },
        {
          "Small business": true
        }
      ],
      "Service options": [
        {
          "Delivery": true
        },
        {
          "In-store pickup": true
        },
        {
          "In-store shopping": true
        },
        {
          "Same-day delivery": true
        }
      ],
      "Accessibility": [
        {
          "Wheelchair accessible entrance": true
        },
        {
          "Wheelchair accessible parking lot": true
        },
        {
          "Wheelchair accessible seating": true
        }
      ],
      "Amenities": [
        {
          "Gender-neutral restroom": true
        }
      ],
      "Planning": [
        {
          "Quick visit": true
        }
      ],
      "Payments": [
        {
          "Credit cards": true
        },
        {
          "Debit cards": true
        },
        {
          "Credit cards": true
        }
      ]
    },
    "gasPrices": [],
    "url": "https://www.google.com/maps/search/?api=1&query=Tuxedo%20Pharmacy%20%26%20Gifts&query_place_id=ChIJ6e023xAP9YgRXecglesijjA",
    "searchPageUrl": "https://www.google.com/maps/search/independent%20pharmacy%20Atlanta%20GA/@59.39147286325086,-145.92086524288626,12z?hl=en",
    "searchString": "independent pharmacy Atlanta GA",
    "language": "en",
    "rank": 13,
    "isAdvertisement": false,
    "imageUrl": "https://lh3.googleusercontent.com/p/AF1QipPhvYcDWAu93FWbEjBLT-8Hj1I3mu_PrTFl9IVP=w408-h408-k-no",
    "kgmid": "/g/1td_cjft",
    "classification": "independent",
    "is_independent": true,
    "is_compounding": false,
    "confidence": 0.85,
    "source": "perplexity",
    "method": "llm"
  },
  {
    "title": "Ben Hill Pharmacy, Inc today",
    "price": null,
    "categoryName": "Pharmacy",
    "address": "3740 Campbellton Rd SW, Atlanta, GA 30331",
    "neighborhood": null,
    "street": "3740 Campbellton Rd SW",
    "city": "Atlanta",
    "postalCode": "30331",
    "state": "Georgia",
    "countryCode": "US",
    "website": "https://www.mygnp.com/pharmacies/ben-hill-pharmacy-atlanta-ga-30331/",
    "phone": "(404) 565-0252",
    "phoneUnformatted": "+14045650252",
    "claimThisBusiness": false,
    "location": {
      "lat": 33.6902106,
      "lng": -84.5107139
    },
    "totalScore": 4.7,
    "permanentlyClosed": false,
    "temporarilyClosed": false,
    "placeId": null,
    "categories": [
      "Pharmacy"
    ],
    "fid": "0x88f51def6a06aaab:0x53500b2b0e650461",
    "cid": "6003310582837871713",
    "reviewsCount": 24,
    "imagesCount": 5,
    "imageCategories": [],
    "scrapedAt": "2025-06-22T05:01:08.819Z",
    "googleFoodUrl": null,
    "hotelAds": [],
    "openingHours": [
      {
        "day": "Monday",
        "hours": "9\u202fAM to 6\u202fPM"
      },
      {
        "day": "Tuesday",
        "hours": "9\u202fAM to 6\u202fPM"
      },
      {
        "day": "Wednesday",
        "hours": "9\u202fAM to 6\u202fPM"
      },
      {
        "day": "Thursday",
        "hours": "9\u202fAM to 6\u202fPM"
      },
      {
        "day": "Friday",
        "hours": "9\u202fAM to 6\u202fPM"
      },
      {
        "day": "Saturday",
        "hours": "10\u202fAM to 2\u202fPM"
      },
      {
        "day": "Sunday",
        "hours": "Closed"
      }
    ],
    "peopleAlsoSearch": [],
    "placesTags": [],
    "reviewsTags": [],
    "additionalInfo": {
      "From the business": [
        {
          "Small business": true
        }
      ],
      "Service options": [
        {
          "Delivery": true
        },
        {
          "Same-day delivery": true
        }
      ],
      "Accessibility": [
        {
          "Wheelchair accessible entrance": true
        },
        {
          "Wheelchair accessible parking lot": true
        }
      ],
      "Planning": [
        {
          "Quick visit": true
        }
      ],
      "Payments": [
        {
          "Credit cards": true
        },
        {
          "Debit cards": true
        },
        {
          "NFC mobile payments": true
        },
        {
          "Credit cards": true
        }
      ]
    },
    "gasPrices": [],
    "url": "https://www.google.com/maps/search/?api=1&query=Ben%20Hill%20Pharmacy%2C%20Inc%20today&query_place_id=ChIJq6oGau8d9YgRYQRlDisLUFM",
    "searchPageUrl": "https://www.google.com/maps/search/independent%20pharmacy%20Atlanta%20GA/@59.39147286325086,-145.92086524288626,12z?hl=en",
    "searchString": "independent pharmacy Atlanta GA",
    "language": "en",
    "rank": 14,
    "isAdvertisement": false,
    "imageUrl": "https://lh3.googleusercontent.com/gps-cs-s/AC9h4npama9vfuaRiRcLQ2__kcgOZQCpQmKd_bWbBa9nW2b98ddwkWR96YHiGkji0-TWrMTXLz_2MNg14RraHkdkrj8wgd15AmLmmDprq2ZKjiuC8UMVTZNuJVMkLYBqxvIEI-DciDfb=w408-h544-k-no",
    "kgmid": "/g/11h5q8dfjj",
    "classification": "independent",
    "is_independent": true,
    "is_compounding": false,
    "confidence": 0.9,
    "source": "perplexity",
    "method": "llm"
  },
  {
    "title": "AHF Pharmacy - Peachtree",
    "price": null,
    "categoryName": "Pharmacy",
    "address": "1438 W Peachtree St NW, Atlanta, GA 30309",
    "neighborhood": "Midtown Atlanta",
    "street": "1438 W Peachtree St NW",
    "city": "Atlanta",
    "postalCode": "30309",
    "state": "Georgia",
    "countryCode": "US",
    "website": "https://ahfpharmacy.org/",
    "phone": "(404) 879-3990",
    "phoneUnformatted": "+14048793990",
    "claimThisBusiness": false,
    "location": {
      "lat": 33.793951,
      "lng": -84.3884128
    },
    "totalScore": 3.7,
    "permanentlyClosed": false,
    "temporarilyClosed": false,
    "placeId": null,
    "categories": [
      "Pharmacy"
    ],
    "fid": "0x88f50453e77c64ad:0xec745e5f3dcd0312",
    "cid": "17038347053401178898",
    "reviewsCount": 23,
    "imagesCount": 2,
    "imageCategories": [],
    "scrapedAt": "2025-06-22T05:01:08.819Z",
    "googleFoodUrl": null,
    "hotelAds": [],
    "openingHours": [
      {
        "day": "Monday",
        "hours": "8:30\u202fAM to 6:30\u202fPM"
      },
      {
        "day": "Tuesday",
        "hours": "8:30\u202fAM to 6:30\u202fPM"
      },
      {
        "day": "Wednesday",
        "hours": "8:30\u202fAM to 6:30\u202fPM"
      },
      {
        "day": "Thursday",
        "hours": "8:30\u202fAM to 6:30\u202fPM"
      },
      {
        "day": "Friday",
        "hours": "8:30\u202fAM to 6:30\u202fPM"
      },
      {
        "day": "Saturday",
        "hours": "Closed"
      },
      {
        "day": "Sunday",
        "hours": "Closed"
      }
    ],
    "peopleAlsoSearch": [],
    "placesTags": [],
    "reviewsTags": [],
    "additionalInfo": {
      "Service options": [
        {
          "Delivery": true
        },
        {
          "In-store shopping": true
        }
      ],
      "Accessibility": [
        {
          "Wheelchair accessible entrance": true
        },
        {
          "Wheelchair accessible parking lot": true
        }
      ],
      "Payments": [
        {
          "Credit cards": true
        },
        {
          "Credit cards": true
        }
      ]
    },
    "gasPrices": [],
    "url": "https://www.google.com/maps/search/?api=1&query=AHF%20Pharmacy%20-%20Peachtree&query_place_id=ChIJrWR851ME9YgREgPNPV9edOw",
    "searchPageUrl": "https://www.google.com/maps/search/independent%20pharmacy%20Atlanta%20GA/@59.39147286325086,-145.92086524288626,12z?hl=en",
    "searchString": "independent pharmacy Atlanta GA",
    "language": "en",
    "rank": 15,
    "isAdvertisement": false,
    "imageUrl": "https://lh3.googleusercontent.com/p/AF1QipMMR4nIXJY4Sn41DWVLJHeknFLtNpJJD9si_mfP=w426-h240-k-no",
    "kgmid": "/g/11gbkwct_r",
    "classification": "independent",
    "is_independent": true,
    "is_compounding": false,
    "confidence": 0.9,
    "source": "perplexity",
    "method": "llm"
  },
  {
    "title": "Avita Pharmacy 1046",
    "price": null,
    "categoryName": "Pharmacy",
    "address": "2140 Peachtree Rd # 232, Atlanta, GA 30309",
    "neighborhood": "Colonial Homes",
    "street": "2140 Peachtree Rd # 232",
    "city": "Atlanta",
    "postalCode": "30309",
    "state": "Georgia",
    "countryCode": "US",
    "website": "http://avitapharmacy.com/",
    "phone": "(404) 856-7080",
    "phoneUnformatted": "+14048567080",
    "claimThisBusiness": false,
    "location": {
      "lat": 33.8127588,
      "lng": -84.3936117
    },
    "totalScore": 3.2,
    "permanentlyClosed": false,
    "temporarilyClosed": false,
    "placeId": null,
    "categories": [
      "Pharmacy"
    ],
    "fid": "0x88f505f2adf60351:0xbe2e6cb06c0e4c0c",
    "cid": "13704010221117918220",
    "reviewsCount": 9,
    "imagesCount": 2,
    "imageCategories": [],
    "scrapedAt": "2025-06-22T05:01:08.819Z",
    "googleFoodUrl": null,
    "hotelAds": [],
    "openingHours": [
      {
        "day": "Monday",
        "hours": "7:30\u202fAM to 5:30\u202fPM"
      },
      {
        "day": "Tuesday",
        "hours": "7:30\u202fAM to 5:30\u202fPM"
      },
      {
        "day": "Wednesday",
        "hours": "7:30\u202fAM to 5:30\u202fPM"
      },
      {
        "day": "Thursday",
        "hours": "7:30\u202fAM to 5:30\u202fPM"
      },
      {
        "day": "Friday",
        "hours": "7:30\u202fAM to 5:30\u202fPM"
      },
      {
        "day": "Saturday",
        "hours": "Closed"
      },
      {
        "day": "Sunday",
        "hours": "Closed"
      }
    ],
    "peopleAlsoSearch": [],
    "placesTags": [],
    "reviewsTags": [],
    "additionalInfo": {
      "Service options": [
        {
          "Curbside pickup": true
        },
        {
          "Delivery": true
        },
        {
          "In-store pickup": true
        },
        {
          "Same-day delivery": true
        },
        {
          "In-store shopping": false
        },
        {
          "Onsite services": false
        }
      ],
      "Accessibility": [
        {
          "Wheelchair accessible entrance": true
        },
        {
          "Wheelchair accessible parking lot": true
        },
        {
          "Wheelchair accessible restroom": true
        },
        {
          "Wheelchair accessible seating": true
        }
      ],
      "Amenities": [
        {
          "Wi-Fi": true
        },
        {
          "Free Wi-Fi": true
        }
      ],
      "Crowd": [
        {
          "LGBTQ+ friendly": true
        },
        {
          "Transgender safespace": true
        }
      ],
      "Payments": [
        {
          "Credit cards": true
        },
        {
          "Debit cards": true
        },
        {
          "NFC mobile payments": true
        },
        {
          "Credit cards": true
        }
      ],
      "Parking": [
        {
          "Free parking lot": true
        },
        {
          "On-site parking": true
        },
        {
          "Paid parking garage": true
        }
      ]
    },
    "gasPrices": [],
    "url": "https://www.google.com/maps/search/?api=1&query=Avita%20Pharmacy%201046&query_place_id=ChIJUQP2rfIF9YgRDEwObLBsLr4",
    "searchPageUrl": "https://www.google.com/maps/search/independent%20pharmacy%20Atlanta%20GA/@59.39147286325086,-145.92086524288626,12z?hl=en",
    "searchString": "independent pharmacy Atlanta GA",
    "language": "en",
    "rank": 16,
    "isAdvertisement": false,
    "imageUrl": "https://streetviewpixels-pa.googleapis.com/v1/thumbnail?panoid=QDT-OtVt35QhohyHX-TISw&cb_client=search.gws-prod.gps&w=408&h=240&yaw=214.67241&pitch=0&thumbfov=100",
    "kgmid": "/g/11trg_1lrl",
    "classification": "independent",
    "is_independent": true,
    "is_compounding": false,
    "confidence": 0.85,
    "source": "perplexity",
    "method": "llm"
  },
  {
    "title": "Wellness Pharmacy",
    "price": null,
    "categoryName": "Pharmacy",
    "address": "1217 Metropolitan Pkwy SW, Atlanta, GA 30310",
    "neighborhood": "Adair Park",
    "street": "1217 Metropolitan Pkwy SW",
    "city": "Atlanta",
    "postalCode": "30310",
    "state": "Georgia",
    "countryCode": "US",
    "website": "http://www.wellness--pharmacy.com/",
    "phone": "(404) 600-5647",
    "phoneUnformatted": "+14046005647",
    "claimThisBusiness": false,
    "location": {
      "lat": 33.7214826,
      "lng": -84.4083719
    },
    "totalScore": 4.9,
    "permanentlyClosed": false,
    "temporarilyClosed": false,
    "placeId": null,
    "categories": [
      "Pharmacy"
    ],
    "fid": "0x88f5031b6b80ef85:0xe0578f8f8df33e52",
    "cid": "16165547234194308690",
    "reviewsCount": 125,
    "imagesCount": 12,
    "imageCategories": [],
    "scrapedAt": "2025-06-22T05:01:08.819Z",
    "googleFoodUrl": null,
    "hotelAds": [],
    "openingHours": [
      {
        "day": "Monday",
        "hours": "9\u202fAM to 7\u202fPM"
      },
      {
        "day": "Tuesday",
        "hours": "9\u202fAM to 7\u202fPM"
      },
      {
        "day": "Wednesday",
        "hours": "9\u202fAM to 7\u202fPM"
      },
      {
        "day": "Thursday",
        "hours": "9\u202fAM to 7\u202fPM"
      },
      {
        "day": "Friday",
        "hours": "9\u202fAM to 7\u202fPM"
      },
      {
        "day": "Saturday",
        "hours": "10\u202fAM to 3\u202fPM"
      },
      {
        "day": "Sunday",
        "hours": "Closed"
      }
    ],
    "peopleAlsoSearch": [],
    "placesTags": [],
    "reviewsTags": [],
    "additionalInfo": {
      "From the business": [
        {
          "Small business": true
        }
      ],
      "Service options": [
        {
          "Delivery": true
        },
        {
          "In-store pickup": true
        },
        {
          "Same-day delivery": true
        }
      ],
      "Accessibility": [
        {
          "Wheelchair accessible entrance": true
        },
        {
          "Wheelchair accessible parking lot": true
        }
      ],
      "Payments": [
        {
          "Credit cards": true
        },
        {
          "Debit cards": true
        },
        {
          "NFC mobile payments": true
        },
        {
          "Credit cards": true
        }
      ]
    },
    "gasPrices": [],
    "url": "https://www.google.com/maps/search/?api=1&query=Wellness%20Pharmacy&query_place_id=ChIJhe-AaxsD9YgRUj7zjY-PV-A",
    "searchPageUrl": "https://www.google.com/maps/search/independent%20pharmacy%20Atlanta%20GA/@59.39147286325086,-145.92086524288626,12z?hl=en",
    "searchString": "independent pharmacy Atlanta GA",
    "language": "en",
    "rank": 17,
    "isAdvertisement": false,
    "imageUrl": "https://lh3.googleusercontent.com/p/AF1QipPpzh_k2DqaVyvKYl42pqvlniv8a4eVivU3b-FP=w408-h306-k-no",
    "kgmid": "/g/11g9qkhqxc",
    "classification": "independent",
    "is_independent": true,
    "is_compounding": false,
    "confidence": 0.85,
    "source": "perplexity",
    "method": "llm"
  },
  {
    "title": "Wayfield Pharmacy Inc",
    "price": null,
    "categoryName": "Pharmacy",
    "address": "3050 M.L.K. Jr Dr SW Unit H, Atlanta, GA 30311",
    "neighborhood": "Harland Terrace",
    "street": "3050 M.L.K. Jr Dr SW Unit H",
    "city": "Atlanta",
    "postalCode": "30311",
    "state": "Georgia",
    "countryCode": "US",
    "website": "https://wayfieldpharmacy.com/",
    "phone": "(404) 699-9000",
    "phoneUnformatted": "+14046999000",
    "claimThisBusiness": true,
    "location": {
      "lat": 33.7510599,
      "lng": -84.4861628
    },
    "totalScore": 5,
    "permanentlyClosed": false,
    "temporarilyClosed": false,
    "placeId": null,
    "categories": [
      "Pharmacy"
    ],
    "fid": "0x88f51c64baaaaaab:0x3193be1d07150b4c",
    "cid": "3572407961317083980",
    "reviewsCount": 2,
    "imagesCount": 1,
    "imageCategories": [],
    "scrapedAt": "2025-06-22T05:01:08.819Z",
    "googleFoodUrl": null,
    "hotelAds": [],
    "openingHours": [],
    "peopleAlsoSearch": [],
    "placesTags": [],
    "reviewsTags": [],
    "additionalInfo": {
      "Service options": [
        {
          "Delivery": true
        }
      ],
      "Accessibility": [
        {
          "Wheelchair accessible entrance": true
        },
        {
          "Wheelchair accessible parking lot": true
        }
      ],
      "Planning": [
        {
          "Quick visit": true
        }
      ],
      "Payments": [
        {
          "Credit cards": true
        },
        {
          "Debit cards": true
        },
        {
          "NFC mobile payments": true
        },
        {
          "Credit cards": true
        }
      ]
    },
    "gasPrices": [],
    "url": "https://www.google.com/maps/search/?api=1&query=Wayfield%20Pharmacy%20Inc&query_place_id=ChIJq6qqumQc9YgRTAsVBx2-kzE",
    "searchPageUrl": "https://www.google.com/maps/search/independent%20pharmacy%20Atlanta%20GA/@59.39147286325086,-145.92086524288626,12z?hl=en",
    "searchString": "independent pharmacy Atlanta GA",
    "language": "en",
    "rank": 18,
    "isAdvertisement": false,
    "imageUrl": "https://streetviewpixels-pa.googleapis.com/v1/thumbnail?panoid=79-TPfqvEGIYLOkMbfqUCA&cb_client=search.gws-prod.gps&w=408&h=240&yaw=97.85241&pitch=0&thumbfov=100",
    "kgmid": "/g/11pdmwyxt_",
    "classification": "independent",
    "is_independent": true,
    "is_compounding": false,
    "confidence": 0.9,
    "source": "perplexity",
    "method": "llm"
  },
  {
    "title": "AHF Pharmacy - Auburn Ave",
    "price": null,
    "categoryName": "Pharmacy",
    "address": "659 Auburn Ave NE #156, Atlanta, GA 30312",
    "neighborhood": "Old Fourth Ward",
    "street": "659 Auburn Ave NE #156",
    "city": "Atlanta",
    "postalCode": "30312",
    "state": "Georgia",
    "countryCode": "US",
    "website": "https://ahfpharmacy.org/",
    "phone": "(470) 447-6471",
    "phoneUnformatted": "+14704476471",
    "claimThisBusiness": false,
    "location": {
      "lat": 33.75699,
      "lng": -84.36597
    },
    "totalScore": 5,
    "permanentlyClosed": false,
    "temporarilyClosed": false,
    "placeId": null,
    "categories": [
      "Pharmacy"
    ],
    "fid": "0x88f503f7c0304f1f:0xa1579f5f6b077350",
    "cid": "11625936195246584656",
    "reviewsCount": 1,
    "imagesCount": 3,
    "imageCategories": [],
    "scrapedAt": "2025-06-22T05:01:08.819Z",
    "googleFoodUrl": null,
    "hotelAds": [],
    "openingHours": [
      {
        "day": "Monday",
        "hours": "8\u202fAM to 1\u202fPM, 1:30 to 5:30\u202fPM"
      },
      {
        "day": "Tuesday",
        "hours": "9\u202fAM to 1\u202fPM, 1:30 to 4:30\u202fPM"
      },
      {
        "day": "Wednesday",
        "hours": "8\u202fAM to 1\u202fPM, 1:30 to 4:30\u202fPM"
      },
      {
        "day": "Thursday",
        "hours": "8\u202fAM to 1\u202fPM, 1:30 to 4:30\u202fPM"
      },
      {
        "day": "Friday",
        "hours": "8\u202fAM to 1\u202fPM, 1:30 to 4:30\u202fPM"
      },
      {
        "day": "Saturday",
        "hours": "Closed"
      },
      {
        "day": "Sunday",
        "hours": "Closed"
      }
    ],
    "peopleAlsoSearch": [],
    "placesTags": [],
    "reviewsTags": [],
    "additionalInfo": {
      "Accessibility": [
        {
          "Wheelchair accessible entrance": true
        },
        {
          "Wheelchair accessible parking lot": true
        }
      ],
      "Crowd": [
        {
          "LGBTQ+ friendly": true
        }
      ],
      "Payments": [
        {
          "Credit cards": true
        },
        {
          "Credit cards": true
        }
      ]
    },
    "gasPrices": [],
    "url": "https://www.google.com/maps/search/?api=1&query=AHF%20Pharmacy%20-%20Auburn%20Ave&query_place_id=ChIJH08wwPcD9YgRUHMHa1-fV6E",
    "searchPageUrl": "https://www.google.com/maps/search/independent%20pharmacy%20Atlanta%20GA/@59.39147286325086,-145.92086524288626,12z?hl=en",
    "searchString": "independent pharmacy Atlanta GA",
    "language": "en",
    "rank": 19,
    "isAdvertisement": false,
    "imageUrl": "https://lh3.googleusercontent.com/p/AF1QipPCYfdtr1PiWLMD4O7fDIZkuBCbtcunVpAn-2ak=w426-h240-k-no",
    "kgmid": "/g/11t279mzgt",
    "classification": "independent",
    "is_independent": true,
    "is_compounding": false,
    "confidence": 0.9,
    "source": "perplexity",
    "method": "llm"
  },
  {
    "title": "Rx Meds Pharmacy",
    "price": null,
    "categoryName": "Pharmacy",
    "address": "465 Boulevard SE # 111A, Atlanta, GA 30312",
    "neighborhood": "Grant Park",
    "street": "465 Boulevard SE # 111A",
    "city": "Atlanta",
    "postalCode": "30312",
    "state": "Georgia",
    "countryCode": "US",
    "website": "http://www.rxmedspharmacy.org/",
    "phone": "(678) 705-5968",
    "phoneUnformatted": "+16787055968",
    "claimThisBusiness": false,
    "location": {
      "lat": 33.7417149,
      "lng": -84.3685446
    },
    "totalScore": 5,
    "permanentlyClosed": false,
    "temporarilyClosed": false,
    "placeId": null,
    "categories": [
      "Pharmacy"
    ],
    "fid": "0x88f503470d3e7d09:0xbd23d5cd2c6fef",
    "cid": "53238171775561711",
    "reviewsCount": 2,
    "imagesCount": 2,
    "imageCategories": [],
    "scrapedAt": "2025-06-22T05:01:08.819Z",
    "googleFoodUrl": null,
    "hotelAds": [],
    "openingHours": [
      {
        "day": "Monday",
        "hours": "10\u202fAM to 6\u202fPM"
      },
      {
        "day": "Tuesday",
        "hours": "10\u202fAM to 6\u202fPM"
      },
      {
        "day": "Wednesday",
        "hours": "10\u202fAM to 6\u202fPM"
      },
      {
        "day": "Thursday",
        "hours": "10\u202fAM to 6\u202fPM"
      },
      {
        "day": "Friday",
        "hours": "10\u202fAM to 6\u202fPM"
      },
      {
        "day": "Saturday",
        "hours": "Closed"
      },
      {
        "day": "Sunday",
        "hours": "Closed"
      }
    ],
    "peopleAlsoSearch": [],
    "placesTags": [],
    "reviewsTags": [],
    "additionalInfo": {
      "From the business": [
        {
          "Small business": true
        }
      ],
      "Service options": [
        {
          "Delivery": true
        },
        {
          "Same-day delivery": true
        }
      ],
      "Accessibility": [
        {
          "Wheelchair accessible entrance": true
        },
        {
          "Wheelchair accessible parking lot": true
        }
      ],
      "Payments": [
        {
          "Credit cards": true
        },
        {
          "Debit cards": true
        },
        {
          "NFC mobile payments": true
        },
        {
          "Credit cards": true
        }
      ]
    },
    "gasPrices": [],
    "url": "https://www.google.com/maps/search/?api=1&query=Rx%20Meds%20Pharmacy&query_place_id=ChIJCX0-DUcD9YgR728szdUjvQA",
    "searchPageUrl": "https://www.google.com/maps/search/independent%20pharmacy%20Atlanta%20GA/@59.39147286325086,-145.92086524288626,12z?hl=en",
    "searchString": "independent pharmacy Atlanta GA",
    "language": "en",
    "rank": 20,
    "isAdvertisement": false,
    "imageUrl": "https://streetviewpixels-pa.googleapis.com/v1/thumbnail?panoid=6JXpTubbIZj4emdFszIJhQ&cb_client=search.gws-prod.gps&w=408&h=240&yaw=91.387184&pitch=0&thumbfov=100",
    "kgmid": "/g/11tdf9p__x",
    "classification": "independent",
    "is_independent": true,
    "is_compounding": false,
    "confidence": 0.85,
    "source": "perplexity",
    "method": "llm"
  }
]