[
  {
    "title": "Solano Pharmacy",
    "price": null,
    "categoryName": "Pharmacy",
    "address": "1021 Mission St, San Francisco, CA 94103",
    "neighborhood": "SoMa",
    "street": "1021 Mission St",
    "city": "San Francisco",
    "postalCode": "94103",
    "state": "California",
    "countryCode": "US",
    "website": "https://sf.solanopharmacy.com/",
    "phone": "(415) 874-9999",
    "phoneUnformatted": "+14158749999",
    "claimThisBusiness": false,
    "location": {
      "lat": 37.7804935,
      "lng": -122.409086
    },
    "totalScore": 3.8,
    "permanentlyClosed": false,
    "temporarilyClosed": false,
    "placeId": "ChIJlYpYcISAhYARk0VRP2r84lg",
    "categories": [
      "Pharmacy"
    ],
    "fid": "0x8085808470588a95:0x58e2fc6a3f514593",
    "cid": "6404959153333290387",
    "reviewsCount": 10,
    "imagesCount": 1,
    "imageCategories": [],
    "scrapedAt": "2025-06-21T19:06:29.118Z",
    "googleFoodUrl": null,
    "hotelAds": [],
    "openingHours": [
      {
        "day": "Monday",
        "hours": "9\u202fAM to 6\u202fPM"
      },
      {
        "day": "Tuesday",
        "hours": "9\u202fAM to 6\u202fPM"
      },
      {
        "day": "Wednesday",
        "hours": "9\u202fAM to 6\u202fPM"
      },
      {
        "day": "Thursday",
        "hours": "9\u202fAM to 6:30\u202fPM"
      },
      {
        "day": "Friday",
        "hours": "9\u202fAM to 6\u202fPM"
      },
      {
        "day": "Saturday",
        "hours": "9\u202fAM to 5\u202fPM"
      },
      {
        "day": "Sunday",
        "hours": "Closed"
      }
    ],
    "peopleAlsoSearch": [],
    "placesTags": [],
    "reviewsTags": [],
    "additionalInfo": {
      "From the business": [
        {
          "Small business": true
        }
      ],
      "Service options": [
        {
          "Curbside pickup": true
        },
        {
          "Delivery": true
        },
        {
          "In-store pickup": true
        }
      ],
      "Accessibility": [
        {
          "Wheelchair accessible entrance": true
        }
      ],
      "Planning": [
        {
          "Quick visit": true
        }
      ],
      "Payments": [
        {
          "Credit cards": true
        },
        {
          "Debit cards": true
        },
        {
          "NFC mobile payments": true
        },
        {
          "Credit cards": true
        }
      ]
    },
    "gasPrices": [],
    "url": "https://www.google.com/maps/search/?api=1&query=Solano%20Pharmacy&query_place_id=ChIJlYpYcISAhYARk0VRP2r84lg",
    "searchPageUrl": "https://www.google.com/maps/search/independent%20pharmacy%20San%20Francisco%20CA%20in%20San%20Francisco,%20CA/@69.21166763186608,-141.6025211145925,9z?hl=en",
    "searchString": "independent pharmacy San Francisco CA in San Francisco, CA",
    "language": "en",
    "rank": 1,
    "isAdvertisement": false,
    "imageUrl": "https://streetviewpixels-pa.googleapis.com/v1/thumbnail?panoid=RtB94QftKZ9uRHXAfiMuYA&cb_client=search.gws-prod.gps&w=408&h=240&yaw=129.95161&pitch=0&thumbfov=100",
    "kgmid": "/g/11t3scw9t9"
  },
  {
    "title": "Torgsyn Discount Pharmacy Inc",
    "price": null,
    "categoryName": "Pharmacy",
    "address": "5614 Geary Blvd, San Francisco, CA 94121",
    "neighborhood": "Central Richmond",
    "street": "5614 Geary Blvd",
    "city": "San Francisco",
    "postalCode": "94121",
    "state": "California",
    "countryCode": "US",
    "website": "https://www.torgsynrx.com/",
    "phone": "(415) 752-3737",
    "phoneUnformatted": "+14157523737",
    "claimThisBusiness": true,
    "location": {
      "lat": 37.7805398,
      "lng": -122.4797596
    },
    "totalScore": 3.8,
    "permanentlyClosed": false,
    "temporarilyClosed": false,
    "placeId": "ChIJD5o9OxCHhYARHagxJIDVDiM",
    "categories": [
      "Pharmacy"
    ],
    "fid": "0x808587103b3d9a0f:0x230ed5802431a81d",
    "cid": "2526191187341191197",
    "reviewsCount": 20,
    "imagesCount": 4,
    "imageCategories": [],
    "scrapedAt": "2025-06-21T19:06:29.119Z",
    "googleFoodUrl": null,
    "hotelAds": [],
    "openingHours": [
      {
        "day": "Monday",
        "hours": "9\u202fAM to 5\u202fPM"
      },
      {
        "day": "Tuesday",
        "hours": "9\u202fAM to 5\u202fPM"
      },
      {
        "day": "Wednesday",
        "hours": "9\u202fAM to 5\u202fPM"
      },
      {
        "day": "Thursday",
        "hours": "9\u202fAM to 5\u202fPM"
      },
      {
        "day": "Friday",
        "hours": "9\u202fAM to 5\u202fPM"
      },
      {
        "day": "Saturday",
        "hours": "9\u202fAM to 5\u202fPM"
      },
      {
        "day": "Sunday",
        "hours": "Closed"
      }
    ],
    "peopleAlsoSearch": [],
    "placesTags": [],
    "reviewsTags": [],
    "additionalInfo": {
      "Service options": [
        {
          "Delivery": true
        },
        {
          "In-store pickup": true
        }
      ],
      "Accessibility": [
        {
          "Wheelchair accessible entrance": true
        }
      ],
      "Planning": [
        {
          "Quick visit": true
        }
      ],
      "Payments": [
        {
          "Credit cards": true
        },
        {
          "Debit cards": true
        },
        {
          "NFC mobile payments": true
        },
        {
          "Credit cards": true
        }
      ]
    },
    "gasPrices": [],
    "url": "https://www.google.com/maps/search/?api=1&query=Torgsyn%20Discount%20Pharmacy%20Inc&query_place_id=ChIJD5o9OxCHhYARHagxJIDVDiM",
    "searchPageUrl": "https://www.google.com/maps/search/independent%20pharmacy%20San%20Francisco%20CA%20in%20San%20Francisco,%20CA/@69.21166763186608,-141.6025211145925,9z?hl=en",
    "searchString": "independent pharmacy San Francisco CA in San Francisco, CA",
    "language": "en",
    "rank": 2,
    "isAdvertisement": false,
    "imageUrl": "https://lh3.googleusercontent.com/gps-cs-s/AC9h4npHWpW6RbOj_xAsLhfdh1fgHzxGHD8hRBmPCVRWDKqI1YiVkDkgzrJcA2M1Sjb-1mlOZxyLSJVgZxkrByn-0CjORci6XKNK9Xpeu-S40H7zm4COzO3q92m5tdHXVNhZwhaGYATV=w408-h544-k-no",
    "kgmid": "/g/1tf5qg66"
  },
  {
    "title": "Joe's Pharmacy",
    "price": null,
    "categoryName": "Pharmacy",
    "address": "5199 Geary Blvd, San Francisco, CA 94118",
    "neighborhood": "Central Richmond",
    "street": "5199 Geary Blvd",
    "city": "San Francisco",
    "postalCode": "94118",
    "state": "California",
    "countryCode": "US",
    "phone": "(415) 751-2326",
    "phoneUnformatted": "+14157512326",
    "claimThisBusiness": true,
    "location": {
      "lat": 37.7803389,
      "lng": -122.474937
    },
    "totalScore": 4.3,
    "permanentlyClosed": false,
    "temporarilyClosed": false,
    "placeId": "ChIJlTjXMhGHhYARFhUhbDNomEc",
    "categories": [
      "Pharmacy"
    ],
    "fid": "0x8085871132d73895:0x479868336c211516",
    "cid": "5158987943219631382",
    "reviewsCount": 16,
    "imagesCount": 3,
    "imageCategories": [],
    "scrapedAt": "2025-06-21T19:06:29.119Z",
    "googleFoodUrl": null,
    "hotelAds": [],
    "openingHours": [
      {
        "day": "Monday",
        "hours": "10\u202fAM to 5\u202fPM"
      },
      {
        "day": "Tuesday",
        "hours": "10\u202fAM to 5\u202fPM"
      },
      {
        "day": "Wednesday",
        "hours": "10\u202fAM to 5\u202fPM"
      },
      {
        "day": "Thursday",
        "hours": "10\u202fAM to 5\u202fPM"
      },
      {
        "day": "Friday",
        "hours": "10\u202fAM to 5\u202fPM"
      },
      {
        "day": "Saturday",
        "hours": "10\u202fAM to 4\u202fPM"
      },
      {
        "day": "Sunday",
        "hours": "Closed"
      }
    ],
    "peopleAlsoSearch": [],
    "placesTags": [],
    "reviewsTags": [],
    "additionalInfo": {
      "Service options": [
        {
          "Delivery": true
        }
      ],
      "Accessibility": [
        {
          "Wheelchair accessible entrance": true
        }
      ],
      "Payments": [
        {
          "Credit cards": true
        },
        {
          "Debit cards": true
        },
        {
          "NFC mobile payments": true
        },
        {
          "Credit cards": true
        }
      ]
    },
    "gasPrices": [],
    "url": "https://www.google.com/maps/search/?api=1&query=Joe's%20Pharmacy&query_place_id=ChIJlTjXMhGHhYARFhUhbDNomEc",
    "searchPageUrl": "https://www.google.com/maps/search/independent%20pharmacy%20San%20Francisco%20CA%20in%20San%20Francisco,%20CA/@69.21166763186608,-141.6025211145925,9z?hl=en",
    "searchString": "independent pharmacy San Francisco CA in San Francisco, CA",
    "language": "en",
    "rank": 3,
    "isAdvertisement": false,
    "imageUrl": "https://lh3.googleusercontent.com/gps-cs-s/AC9h4nqa8oP7D_0E_5cvRB8FhxB3NEpNI1LzmhJ9etGKazDTfayGVTZMcmOVmRzYn25XVUrVpFHbj-PLcE-qvx3zjVtKsCJE0H37FPxnv94i8bdG7XQLqQ9mitozAgWpSy_L6uEGCQk=w408-h307-k-no",
    "kgmid": "/g/1wn33x6f"
  },
  {
    "title": "Castro Pharmacy",
    "price": null,
    "categoryName": "Pharmacy",
    "address": "518a Castro St, San Francisco, CA 94114",
    "neighborhood": "The Castro",
    "street": "518a Castro St",
    "city": "San Francisco",
    "postalCode": "94114",
    "state": "California",
    "countryCode": "US",
    "website": "https://ahfpharmacy.org/",
    "phone": "(415) 255-2720",
    "phoneUnformatted": "+14152552720",
    "claimThisBusiness": false,
    "location": {
      "lat": 37.7605157,
      "lng": -122.4351783
    },
    "totalScore": 4.2,
    "permanentlyClosed": false,
    "temporarilyClosed": false,
    "placeId": "ChIJHSJ9JBt-j4ARE2o3COCiJl0",
    "categories": [
      "Pharmacy"
    ],
    "fid": "0x808f7e1b247d221d:0x5d26a2e008376a13",
    "cid": "6712231377736526355",
    "reviewsCount": 16,
    "imagesCount": 10,
    "imageCategories": [],
    "scrapedAt": "2025-06-21T19:06:29.119Z",
    "googleFoodUrl": null,
    "hotelAds": [],
    "openingHours": [
      {
        "day": "Monday",
        "hours": "9\u202fAM to 7\u202fPM"
      },
      {
        "day": "Tuesday",
        "hours": "9\u202fAM to 7\u202fPM"
      },
      {
        "day": "Wednesday",
        "hours": "9\u202fAM to 7\u202fPM"
      },
      {
        "day": "Thursday",
        "hours": "9\u202fAM to 7\u202fPM"
      },
      {
        "day": "Friday",
        "hours": "9\u202fAM to 7\u202fPM"
      },
      {
        "day": "Saturday",
        "hours": "Closed"
      },
      {
        "day": "Sunday",
        "hours": "Closed"
      }
    ],
    "peopleAlsoSearch": [],
    "placesTags": [],
    "reviewsTags": [],
    "additionalInfo": {
      "Service options": [
        {
          "Delivery": true
        }
      ],
      "Accessibility": [
        {
          "Wheelchair accessible entrance": true
        },
        {
          "Wheelchair accessible parking lot": true
        }
      ],
      "Payments": [
        {
          "Credit cards": true
        },
        {
          "Debit cards": true
        },
        {
          "NFC mobile payments": true
        },
        {
          "Credit cards": true
        }
      ]
    },
    "gasPrices": [],
    "url": "https://www.google.com/maps/search/?api=1&query=Castro%20Pharmacy&query_place_id=ChIJHSJ9JBt-j4ARE2o3COCiJl0",
    "searchPageUrl": "https://www.google.com/maps/search/independent%20pharmacy%20San%20Francisco%20CA%20in%20San%20Francisco,%20CA/@69.21166763186608,-141.6025211145925,9z?hl=en",
    "searchString": "independent pharmacy San Francisco CA in San Francisco, CA",
    "language": "en",
    "rank": 4,
    "isAdvertisement": false,
    "imageUrl": "https://lh3.googleusercontent.com/gps-cs-s/AC9h4noqPdnFDjC1OTQ7I33k6XpuV6Ca9i-m5j-94_z2F0-xZKA0Go-HQAAqd8HohJ80zCkFptDxZ7FglWmJK7RQpYN3dXZpaogEH4uGbuc796iL4Z9TeFw_Iu75TifUoXt9zdLZFkU=w408-h306-k-no",
    "kgmid": "/g/1tczqlbv"
  },
  {
    "title": "Parnassus Heights Pharmacy",
    "price": null,
    "categoryName": "Pharmacy",
    "address": "350 Parnassus Ave Ste 100, San Francisco, CA 94117",
    "neighborhood": "Parnassus Heights",
    "street": "350 Parnassus Ave Ste 100",
    "city": "San Francisco",
    "postalCode": "94117",
    "state": "California",
    "countryCode": "US",
    "website": "https://parnassusheightsrx.com/",
    "phone": "(415) 564-9191",
    "phoneUnformatted": "+14155649191",
    "claimThisBusiness": false,
    "location": {
      "lat": 37.7642347,
      "lng": -122.4562335
    },
    "totalScore": 4.8,
    "permanentlyClosed": false,
    "temporarilyClosed": false,
    "placeId": "ChIJUfiUFleHhYARA0hMzaudAmM",
    "categories": [
      "Pharmacy"
    ],
    "fid": "0x808587571694f851:0x63029dabcd4c4803",
    "cid": "7134438120917583875",
    "reviewsCount": 33,
    "imagesCount": 4,
    "imageCategories": [],
    "scrapedAt": "2025-06-21T19:06:29.119Z",
    "googleFoodUrl": null,
    "hotelAds": [],
    "openingHours": [
      {
        "day": "Monday",
        "hours": "9:30\u202fAM to 5:30\u202fPM"
      },
      {
        "day": "Tuesday",
        "hours": "9:30\u202fAM to 5:30\u202fPM"
      },
      {
        "day": "Wednesday",
        "hours": "9:30\u202fAM to 5:30\u202fPM"
      },
      {
        "day": "Thursday",
        "hours": "9:30\u202fAM to 5:30\u202fPM"
      },
      {
        "day": "Friday",
        "hours": "9:30\u202fAM to 5:30\u202fPM"
      },
      {
        "day": "Saturday",
        "hours": "Closed"
      },
      {
        "day": "Sunday",
        "hours": "Closed"
      }
    ],
    "peopleAlsoSearch": [],
    "placesTags": [],
    "reviewsTags": [],
    "additionalInfo": {
      "Service options": [
        {
          "Delivery": true
        }
      ],
      "Accessibility": [
        {
          "Wheelchair accessible entrance": true
        },
        {
          "Wheelchair accessible parking lot": true
        }
      ],
      "Payments": [
        {
          "Credit cards": true
        },
        {
          "Debit cards": true
        },
        {
          "NFC mobile payments": true
        },
        {
          "Credit cards": true
        }
      ]
    },
    "gasPrices": [],
    "url": "https://www.google.com/maps/search/?api=1&query=Parnassus%20Heights%20Pharmacy&query_place_id=ChIJUfiUFleHhYARA0hMzaudAmM",
    "searchPageUrl": "https://www.google.com/maps/search/independent%20pharmacy%20San%20Francisco%20CA%20in%20San%20Francisco,%20CA/@69.21166763186608,-141.6025211145925,9z?hl=en",
    "searchString": "independent pharmacy San Francisco CA in San Francisco, CA",
    "language": "en",
    "rank": 5,
    "isAdvertisement": false,
    "imageUrl": "https://lh3.googleusercontent.com/gps-cs-s/AC9h4nrJFJc-RYp2vrDv0HPy0QeHg0Henn8aF4I6BXiWK-LoSg7DThap5uq0J1y-VHsDELG8MC7F_YaD-_nzwgpBlbNOoGo-Wny0MmrOtUSP8oRVNkBuw1T7JooThWGZpkT2vMSNOQre1Q=w426-h240-k-no",
    "kgmid": "/g/1tdv_36n"
  },
  {
    "title": "Alto Pharmacy",
    "price": null,
    "categoryName": "Pharmacy",
    "address": "1400 Tennessee St #2, San Francisco, CA 94107",
    "neighborhood": "Central Waterfront",
    "street": "1400 Tennessee St #2",
    "city": "San Francisco",
    "postalCode": "94107",
    "state": "California",
    "countryCode": "US",
    "website": "https://www.alto.com/",
    "phone": "(800) 874-5881",
    "phoneUnformatted": "+18008745881",
    "claimThisBusiness": false,
    "location": {
      "lat": 37.7538924,
      "lng": -122.3891308
    },
    "totalScore": 3.9,
    "permanentlyClosed": false,
    "temporarilyClosed": false,
    "placeId": "ChIJoTtlvrp_j4ARJ9GqTGv-bZQ",
    "categories": [
      "Pharmacy"
    ],
    "fid": "0x808f7fbabe653ba1:0x946dfe6b4caad127",
    "cid": "10695484426876014887",
    "reviewsCount": 882,
    "imagesCount": 16,
    "imageCategories": [],
    "scrapedAt": "2025-06-21T19:06:29.119Z",
    "googleFoodUrl": null,
    "hotelAds": [],
    "openingHours": [
      {
        "day": "Monday",
        "hours": "9\u202fAM to 6\u202fPM"
      },
      {
        "day": "Tuesday",
        "hours": "9\u202fAM to 6\u202fPM"
      },
      {
        "day": "Wednesday",
        "hours": "9\u202fAM to 6\u202fPM"
      },
      {
        "day": "Thursday",
        "hours": "9\u202fAM to 6\u202fPM"
      },
      {
        "day": "Friday",
        "hours": "9\u202fAM to 6\u202fPM"
      },
      {
        "day": "Saturday",
        "hours": "8\u202fAM to 4:30\u202fPM"
      },
      {
        "day": "Sunday",
        "hours": "8\u202fAM to 4:30\u202fPM"
      }
    ],
    "additionalOpeningHours": {
      "Online service hours": [
        {
          "day": "Monday",
          "hours": "6\u202fAM\u20139\u202fPM"
        },
        {
          "day": "Tuesday",
          "hours": "6\u202fAM\u20139\u202fPM"
        },
        {
          "day": "Wednesday",
          "hours": "6\u202fAM\u20139\u202fPM"
        },
        {
          "day": "Thursday",
          "hours": "6\u202fAM\u20139\u202fPM"
        },
        {
          "day": "Friday",
          "hours": "6\u202fAM\u20139\u202fPM"
        },
        {
          "day": "Saturday",
          "hours": "7\u202fAM\u20136\u202fPM"
        },
        {
          "day": "Sunday",
          "hours": "7\u202fAM\u20136\u202fPM"
        }
      ]
    },
    "peopleAlsoSearch": [],
    "placesTags": [],
    "reviewsTags": [],
    "additionalInfo": {
      "Service options": [
        {
          "Delivery": true
        },
        {
          "In-store pickup": true
        },
        {
          "Same-day delivery": true
        }
      ],
      "Accessibility": [
        {
          "Wheelchair accessible entrance": true
        }
      ],
      "Crowd": [
        {
          "LGBTQ+ friendly": true
        },
        {
          "Transgender safespace": true
        }
      ],
      "Payments": [
        {
          "Credit cards": true
        },
        {
          "Debit cards": true
        },
        {
          "NFC mobile payments": true
        },
        {
          "Credit cards": true
        }
      ]
    },
    "gasPrices": [],
    "url": "https://www.google.com/maps/search/?api=1&query=Alto%20Pharmacy&query_place_id=ChIJoTtlvrp_j4ARJ9GqTGv-bZQ",
    "searchPageUrl": "https://www.google.com/maps/search/independent%20pharmacy%20San%20Francisco%20CA%20in%20San%20Francisco,%20CA/@69.21166763186608,-141.6025211145925,9z?hl=en",
    "searchString": "independent pharmacy San Francisco CA in San Francisco, CA",
    "language": "en",
    "rank": 6,
    "isAdvertisement": false,
    "imageUrl": "https://lh3.googleusercontent.com/p/AF1QipNdlo4Ja5ykVeBX4IMKs5fF0IBeKodUnSuUsiTh=w408-h272-k-no",
    "kgmid": "/g/11bzt6jbrg"
  },
  {
    "title": "Daniel's Pharmacy",
    "price": null,
    "categoryName": "Pharmacy",
    "address": "943 Geneva Ave, San Francisco, CA 94112",
    "neighborhood": "Excelsior",
    "street": "943 Geneva Ave",
    "city": "San Francisco",
    "postalCode": "94112",
    "state": "California",
    "countryCode": "US",
    "website": "http://www.danielspharmacysf.com/",
    "phone": "(415) 584-2210",
    "phoneUnformatted": "+14155842210",
    "claimThisBusiness": false,
    "location": {
      "lat": 37.7163218,
      "lng": -122.4403456
    },
    "totalScore": 3.9,
    "permanentlyClosed": false,
    "temporarilyClosed": false,
    "placeId": "ChIJJ7ZZZZt-j4AR1SG7OV9YpMg",
    "categories": [
      "Pharmacy",
      "Drug store"
    ],
    "fid": "0x808f7e9b6559b627:0xc8a4585f39bb21d5",
    "cid": "14457777869779837397",
    "reviewsCount": 50,
    "imagesCount": 25,
    "imageCategories": [],
    "scrapedAt": "2025-06-21T19:06:29.119Z",
    "googleFoodUrl": null,
    "hotelAds": [],
    "openingHours": [
      {
        "day": "Monday",
        "hours": "9\u202fAM to 5:30\u202fPM"
      },
      {
        "day": "Tuesday",
        "hours": "9\u202fAM to 5:30\u202fPM"
      },
      {
        "day": "Wednesday",
        "hours": "9\u202fAM to 5:30\u202fPM"
      },
      {
        "day": "Thursday",
        "hours": "9\u202fAM to 5:30\u202fPM"
      },
      {
        "day": "Friday",
        "hours": "9\u202fAM to 5:30\u202fPM"
      },
      {
        "day": "Saturday",
        "hours": "10\u202fAM to 1\u202fPM"
      },
      {
        "day": "Sunday",
        "hours": "Closed"
      }
    ],
    "peopleAlsoSearch": [],
    "placesTags": [],
    "reviewsTags": [],
    "additionalInfo": {
      "From the business": [
        {
          "Small business": true
        }
      ],
      "Service options": [
        {
          "Delivery": true
        },
        {
          "In-store pickup": true
        },
        {
          "In-store shopping": true
        }
      ],
      "Accessibility": [
        {
          "Wheelchair accessible entrance": true
        }
      ],
      "Planning": [
        {
          "Quick visit": true
        }
      ],
      "Payments": [
        {
          "Credit cards": true
        },
        {
          "Debit cards": true
        },
        {
          "NFC mobile payments": true
        },
        {
          "Credit cards": true
        }
      ]
    },
    "gasPrices": [],
    "url": "https://www.google.com/maps/search/?api=1&query=Daniel's%20Pharmacy&query_place_id=ChIJJ7ZZZZt-j4AR1SG7OV9YpMg",
    "searchPageUrl": "https://www.google.com/maps/search/independent%20pharmacy%20San%20Francisco%20CA%20in%20San%20Francisco,%20CA/@69.21166763186608,-141.6025211145925,9z?hl=en",
    "searchString": "independent pharmacy San Francisco CA in San Francisco, CA",
    "language": "en",
    "rank": 7,
    "isAdvertisement": false,
    "imageUrl": "https://lh3.googleusercontent.com/gps-cs-s/AC9h4nr7UKCZYVnzdRadpWl6V9tOUqph6Pp8a2ufriHlTfT7YoRD-714sEJAhaNGrRpLO8tErinf-6CiQdRb6I6AI_hDjXAZBJCumIMdR2_e2Wo2BmwoahW9RaFfddW4V3ENNkhySZQr=w408-h306-k-no",
    "kgmid": "/g/1tzgpfz_"
  },
  {
    "title": "ScriptSite Specialty Pharmacy",
    "price": null,
    "categoryName": "Pharmacy",
    "address": "870 Market St #1028, San Francisco, CA 94102",
    "neighborhood": "Union Square",
    "street": "870 Market St #1028",
    "city": "San Francisco",
    "postalCode": "94102",
    "state": "California",
    "countryCode": "US",
    "website": "http://www.scriptsiterx.com/",
    "phone": "(855) 328-8734",
    "phoneUnformatted": "+18553288734",
    "claimThisBusiness": false,
    "location": {
      "lat": 37.7850615,
      "lng": -122.4073181
    },
    "totalScore": 3.5,
    "permanentlyClosed": false,
    "temporarilyClosed": false,
    "placeId": "ChIJyyyMio6AhYARaXWKke3USbU",
    "categories": [
      "Pharmacy"
    ],
    "fid": "0x8085808e8a8c2ccb:0xb549d4ed918a7569",
    "cid": "13063206310978942313",
    "reviewsCount": 15,
    "imagesCount": 4,
    "imageCategories": [],
    "scrapedAt": "2025-06-21T19:06:29.119Z",
    "googleFoodUrl": null,
    "hotelAds": [],
    "openingHours": [
      {
        "day": "Monday",
        "hours": "9:30\u202fAM to 5:30\u202fPM"
      },
      {
        "day": "Tuesday",
        "hours": "9:30\u202fAM to 5:30\u202fPM"
      },
      {
        "day": "Wednesday",
        "hours": "9:30\u202fAM to 5:30\u202fPM"
      },
      {
        "day": "Thursday",
        "hours": "9:30\u202fAM to 5:30\u202fPM"
      },
      {
        "day": "Friday",
        "hours": "9:30\u202fAM to 5:30\u202fPM"
      },
      {
        "day": "Saturday",
        "hours": "Closed"
      },
      {
        "day": "Sunday",
        "hours": "Closed"
      }
    ],
    "peopleAlsoSearch": [],
    "placesTags": [],
    "reviewsTags": [],
    "additionalInfo": {
      "From the business": [
        {
          "Small business": true
        }
      ],
      "Service options": [
        {
          "Delivery": true
        }
      ],
      "Accessibility": [
        {
          "Wheelchair accessible entrance": true
        }
      ],
      "Payments": [
        {
          "Credit cards": true
        },
        {
          "Debit cards": true
        },
        {
          "Credit cards": true
        }
      ]
    },
    "gasPrices": [],
    "url": "https://www.google.com/maps/search/?api=1&query=ScriptSite%20Specialty%20Pharmacy&query_place_id=ChIJyyyMio6AhYARaXWKke3USbU",
    "searchPageUrl": "https://www.google.com/maps/search/independent%20pharmacy%20San%20Francisco%20CA%20in%20San%20Francisco,%20CA/@69.21166763186608,-141.6025211145925,9z?hl=en",
    "searchString": "independent pharmacy San Francisco CA in San Francisco, CA",
    "language": "en",
    "rank": 8,
    "isAdvertisement": false,
    "imageUrl": "https://lh3.googleusercontent.com/p/AF1QipOQeOw-G_o95UTovmbHITTzfoCbrfswQ5AHKmj9=w408-h270-k-no",
    "kgmid": "/g/1tfq9g2f"
  },
  {
    "title": "Koshland Pharm: Custom Compounding Pharmacy",
    "price": null,
    "categoryName": "Pharmacy",
    "address": "301 Folsom St suite b, San Francisco, CA 94105",
    "neighborhood": "Rincon Hill",
    "street": "301 Folsom St suite b",
    "city": "San Francisco",
    "postalCode": "94105",
    "state": "California",
    "countryCode": "US",
    "website": "http://www.koshlandpharm.com/",
    "phone": "(415) 344-0600",
    "phoneUnformatted": "+14153440600",
    "claimThisBusiness": false,
    "location": {
      "lat": 37.788482,
      "lng": -122.392783
    },
    "totalScore": 4.7,
    "permanentlyClosed": false,
    "temporarilyClosed": false,
    "placeId": "ChIJhYtN4HqAhYARYXBwaSTbuQY",
    "categories": [
      "Pharmacy",
      "Vitamin & supplements store"
    ],
    "fid": "0x8085807ae04d8b85:0x6b9db2469707061",
    "cid": "484659384353321057",
    "reviewsCount": 123,
    "imagesCount": 23,
    "imageCategories": [],
    "scrapedAt": "2025-06-21T19:06:29.120Z",
    "googleFoodUrl": null,
    "hotelAds": [],
    "openingHours": [
      {
        "day": "Monday",
        "hours": "10\u202fAM to 6\u202fPM"
      },
      {
        "day": "Tuesday",
        "hours": "10\u202fAM to 6\u202fPM"
      },
      {
        "day": "Wednesday",
        "hours": "10\u202fAM to 6\u202fPM"
      },
      {
        "day": "Thursday",
        "hours": "10\u202fAM to 6\u202fPM"
      },
      {
        "day": "Friday",
        "hours": "10\u202fAM to 6\u202fPM"
      },
      {
        "day": "Saturday",
        "hours": "Closed"
      },
      {
        "day": "Sunday",
        "hours": "Closed"
      }
    ],
    "peopleAlsoSearch": [],
    "placesTags": [],
    "reviewsTags": [],
    "additionalInfo": {
      "From the business": [
        {
          "Small business": true
        }
      ],
      "Service options": [
        {
          "Delivery": true
        },
        {
          "In-store pickup": true
        },
        {
          "In-store shopping": true
        },
        {
          "Onsite services": true
        },
        {
          "Same-day delivery": true
        }
      ],
      "Accessibility": [
        {
          "Wheelchair accessible entrance": true
        }
      ],
      "Crowd": [
        {
          "LGBTQ+ friendly": true
        },
        {
          "Transgender safespace": true
        }
      ],
      "Payments": [
        {
          "Checks": true
        },
        {
          "Credit cards": true
        },
        {
          "Debit cards": true
        },
        {
          "NFC mobile payments": true
        },
        {
          "Credit cards": true
        }
      ]
    },
    "gasPrices": [],
    "url": "https://www.google.com/maps/search/?api=1&query=Koshland%20Pharm%3A%20Custom%20Compounding%20Pharmacy&query_place_id=ChIJhYtN4HqAhYARYXBwaSTbuQY",
    "searchPageUrl": "https://www.google.com/maps/search/independent%20pharmacy%20San%20Francisco%20CA%20in%20San%20Francisco,%20CA/@69.21166763186608,-141.6025211145925,9z?hl=en",
    "searchString": "independent pharmacy San Francisco CA in San Francisco, CA",
    "language": "en",
    "rank": 9,
    "isAdvertisement": false,
    "imageUrl": "https://lh3.googleusercontent.com/p/AF1QipPpxLY53O2aRuIcVr8C3ubn8YrMCBzCEg540m1a=w408-h306-k-no",
    "kgmid": "/g/1th87bwr"
  },
  {
    "title": "Golden Gate Pharmacy",
    "price": null,
    "categoryName": "Pharmacy",
    "address": "1836 Noriega St, San Francisco, CA 94122",
    "neighborhood": "Sunset District",
    "street": "1836 Noriega St",
    "city": "San Francisco",
    "postalCode": "94122",
    "state": "California",
    "countryCode": "US",
    "website": "http://goldengatepharmacy.com/",
    "phone": "(415) 661-0790",
    "phoneUnformatted": "+14156610790",
    "claimThisBusiness": false,
    "location": {
      "lat": 37.7541624,
      "lng": -122.4836741
    },
    "totalScore": 4.3,
    "permanentlyClosed": false,
    "temporarilyClosed": false,
    "placeId": "ChIJZf0npn2HhYARY1GTdC_gwb0",
    "categories": [
      "Pharmacy"
    ],
    "fid": "0x8085877da627fd65:0xbdc1e02f74935163",
    "cid": "13673456438097432931",
    "reviewsCount": 13,
    "imagesCount": 10,
    "imageCategories": [],
    "scrapedAt": "2025-06-21T19:06:29.120Z",
    "googleFoodUrl": null,
    "hotelAds": [],
    "openingHours": [
      {
        "day": "Monday",
        "hours": "9:15\u202fAM to 6\u202fPM"
      },
      {
        "day": "Tuesday",
        "hours": "9:15\u202fAM to 6\u202fPM"
      },
      {
        "day": "Wednesday",
        "hours": "9:15\u202fAM to 6\u202fPM"
      },
      {
        "day": "Thursday",
        "hours": "9:15\u202fAM to 6\u202fPM"
      },
      {
        "day": "Friday",
        "hours": "9:15\u202fAM to 6\u202fPM"
      },
      {
        "day": "Saturday",
        "hours": "9:30\u202fAM to 3\u202fPM"
      },
      {
        "day": "Sunday",
        "hours": "Closed"
      }
    ],
    "peopleAlsoSearch": [],
    "placesTags": [],
    "reviewsTags": [],
    "additionalInfo": {
      "From the business": [
        {
          "Small business": true
        }
      ],
      "Service options": [
        {
          "Delivery": true
        },
        {
          "In-store shopping": true
        },
        {
          "Onsite services": true
        }
      ],
      "Accessibility": [
        {
          "Wheelchair accessible entrance": true
        }
      ],
      "Planning": [
        {
          "Quick visit": true
        }
      ],
      "Payments": [
        {
          "Credit cards": true
        },
        {
          "Debit cards": true
        },
        {
          "NFC mobile payments": true
        },
        {
          "Credit cards": true
        }
      ]
    },
    "gasPrices": [],
    "url": "https://www.google.com/maps/search/?api=1&query=Golden%20Gate%20Pharmacy&query_place_id=ChIJZf0npn2HhYARY1GTdC_gwb0",
    "searchPageUrl": "https://www.google.com/maps/search/independent%20pharmacy%20San%20Francisco%20CA%20in%20San%20Francisco,%20CA/@69.21166763186608,-141.6025211145925,9z?hl=en",
    "searchString": "independent pharmacy San Francisco CA in San Francisco, CA",
    "language": "en",
    "rank": 10,
    "isAdvertisement": false,
    "imageUrl": "https://lh3.googleusercontent.com/p/AF1QipPbfh1L0K-Jt6B3fkTa5dILS2IySyf_ilkjPC09=w408-h306-k-no",
    "kgmid": "/g/1xgrn4s4"
  }
]