[
  {
    "title": "Compounding Specialists",
    "price": null,
    "categoryName": "Pharmacy",
    "address": "1540 Centennial Ct Unit 100, Casper, WY 82609",
    "neighborhood": null,
    "street": "1540 Centennial Ct Unit 100",
    "city": "Casper",
    "postalCode": "82609",
    "state": "Wyoming",
    "countryCode": "US",
    "website": "http://www.wyocompounding.com/",
    "phone": "(307) 333-2120",
    "phoneUnformatted": "+13073332120",
    "claimThisBusiness": false,
    "location": {
      "lat": 42.83299,
      "lng": -106.271794
    },
    "totalScore": 5,
    "permanentlyClosed": false,
    "temporarilyClosed": false,
    "placeId": null,
    "categories": [
      "Pharmacy"
    ],
    "fid": "0x8760bc7f34567079:0xbebaf45edaace2f",
    "cid": "858972868819209775",
    "reviewsCount": 20,
    "imagesCount": 3,
    "imageCategories": [],
    "scrapedAt": "2025-06-23T05:40:57.815Z",
    "googleFoodUrl": null,
    "hotelAds": [],
    "openingHours": [
      {
        "day": "Monday",
        "hours": "9\u202fAM to 5\u202fPM"
      },
      {
        "day": "Tuesday",
        "hours": "9\u202fAM to 5\u202fPM"
      },
      {
        "day": "Wednesday",
        "hours": "9\u202fAM to 5\u202fPM"
      },
      {
        "day": "Thursday",
        "hours": "9\u202fAM to 5\u202fPM"
      },
      {
        "day": "Friday",
        "hours": "9\u202fAM to 5\u202fPM"
      },
      {
        "day": "Saturday",
        "hours": "Closed"
      },
      {
        "day": "Sunday",
        "hours": "Closed"
      }
    ],
    "peopleAlsoSearch": [],
    "placesTags": [],
    "reviewsTags": [],
    "additionalInfo": {
      "From the business": [
        {
          "Small business": true
        }
      ],
      "Service options": [
        {
          "In-store shopping": true
        }
      ],
      "Accessibility": [
        {
          "Wheelchair accessible entrance": true
        },
        {
          "Wheelchair accessible parking lot": true
        }
      ],
      "Payments": [
        {
          "Credit cards": true
        },
        {
          "Debit cards": true
        },
        {
          "NFC mobile payments": true
        },
        {
          "Credit cards": true
        }
      ]
    },
    "gasPrices": [],
    "url": "https://www.google.com/maps/search/?api=1&query=Compounding%20Specialists&query_place_id=ChIJeXBWNH-8YIcRL86q7UWv6ws",
    "searchPageUrl": "https://www.google.com/maps/search/independent%20pharmacy%20in%20Casper,%20WY/@62.264056934850785,-146.20571705729628,9z?hl=en",
    "searchString": "independent pharmacy in Casper, WY",
    "language": "en",
    "rank": 1,
    "isAdvertisement": false,
    "imageUrl": "https://lh3.googleusercontent.com/p/AF1QipMuSqKFxFfgXXm9tsqAmD2GnT-QFa_btce9annj=w408-h306-k-no",
    "kgmid": "/g/1tfdzbg1",
    "classification": "independent",
    "is_independent": true,
    "is_compounding": true,
    "confidence": 0.95,
    "source": "perplexity",
    "method": "llm",
    "query_location": "in_casper_wy"
  },
  {
    "title": "Genoa Healthcare",
    "price": null,
    "categoryName": "Pharmacy",
    "address": "1430 Wilkins Cir #154, Casper, WY 82601",
    "neighborhood": null,
    "street": "1430 Wilkins Cir #154",
    "city": "Casper",
    "postalCode": "82601",
    "state": "Wyoming",
    "countryCode": "US",
    "website": "http://www.genoahealthcare.com/",
    "phone": "(307) 439-5199",
    "phoneUnformatted": "+13074395199",
    "claimThisBusiness": false,
    "location": {
      "lat": 42.866673,
      "lng": -106.3423059
    },
    "totalScore": 5,
    "permanentlyClosed": false,
    "temporarilyClosed": false,
    "placeId": "ChIJxRbvtM28YIcRkEMKHAY1xbA",
    "categories": [
      "Pharmacy"
    ],
    "fid": "0x8760bccdb4ef16c5:0xb0c535061c0a4390",
    "cid": "12737645421443826576",
    "reviewsCount": 7,
    "imagesCount": 2,
    "imageCategories": [],
    "scrapedAt": "2025-06-23T05:40:57.816Z",
    "googleFoodUrl": null,
    "hotelAds": [],
    "openingHours": [
      {
        "day": "Monday",
        "hours": "8:30\u202fAM to 5\u202fPM"
      },
      {
        "day": "Tuesday",
        "hours": "8:30\u202fAM to 5\u202fPM"
      },
      {
        "day": "Wednesday",
        "hours": "8:30\u202fAM to 5\u202fPM"
      },
      {
        "day": "Thursday",
        "hours": "8:30\u202fAM to 5\u202fPM"
      },
      {
        "day": "Friday",
        "hours": "8:30\u202fAM to 5\u202fPM"
      },
      {
        "day": "Saturday",
        "hours": "Closed"
      },
      {
        "day": "Sunday",
        "hours": "Closed"
      }
    ],
    "peopleAlsoSearch": [],
    "placesTags": [],
    "reviewsTags": [],
    "additionalInfo": {
      "Accessibility": [
        {
          "Wheelchair accessible entrance": true
        },
        {
          "Wheelchair accessible parking lot": true
        }
      ],
      "Payments": [
        {
          "Credit cards": true
        }
      ]
    },
    "gasPrices": [],
    "url": "https://www.google.com/maps/search/?api=1&query=Genoa%20Healthcare&query_place_id=ChIJxRbvtM28YIcRkEMKHAY1xbA",
    "searchPageUrl": "https://www.google.com/maps/search/independent%20pharmacy%20in%20Casper,%20WY/@62.264056934850785,-146.20571705729628,9z?hl=en",
    "searchString": "independent pharmacy in Casper, WY",
    "language": "en",
    "rank": 2,
    "isAdvertisement": false,
    "imageUrl": "https://lh3.googleusercontent.com/p/AF1QipPxZK57ODD6VESWsxwDugYGELEblJREXcNbLFf-=w408-h306-k-no",
    "kgmid": "/g/11fz96dl9l",
    "classification": "chain",
    "is_independent": false,
    "confidence": 1.0,
    "source": "rule-based"
  },
  {
    "title": "Wyoming Family Practice Pharmacy",
    "price": null,
    "categoryName": "Pharmacy",
    "address": "1522 E A St, Casper, WY 82601",
    "neighborhood": null,
    "street": "1522 E A St",
    "city": "Casper",
    "postalCode": "82601",
    "state": "Wyoming",
    "countryCode": "US",
    "website": "https://www.facebook.com/CasperFamilyPharmacy",
    "phone": "(307) 265-4446",
    "phoneUnformatted": "+13072654446",
    "claimThisBusiness": false,
    "location": {
      "lat": 42.8516419,
      "lng": -106.3048961
    },
    "totalScore": 3.8,
    "permanentlyClosed": false,
    "temporarilyClosed": false,
    "placeId": null,
    "categories": [
      "Pharmacy"
    ],
    "fid": "0x8760bc86a1191955:0x7785ee8b533051ed",
    "cid": "8612552144579482093",
    "reviewsCount": 5,
    "imagesCount": 1,
    "imageCategories": [],
    "scrapedAt": "2025-06-23T05:40:57.816Z",
    "googleFoodUrl": null,
    "hotelAds": [],
    "openingHours": [
      {
        "day": "Monday",
        "hours": "8\u202fAM to 5\u202fPM"
      },
      {
        "day": "Tuesday",
        "hours": "8\u202fAM to 5\u202fPM"
      },
      {
        "day": "Wednesday",
        "hours": "8\u202fAM to 5\u202fPM"
      },
      {
        "day": "Thursday",
        "hours": "8\u202fAM to 5\u202fPM"
      },
      {
        "day": "Friday",
        "hours": "8\u202fAM to 5\u202fPM"
      },
      {
        "day": "Saturday",
        "hours": "Closed"
      },
      {
        "day": "Sunday",
        "hours": "Closed"
      }
    ],
    "peopleAlsoSearch": [],
    "placesTags": [],
    "reviewsTags": [],
    "additionalInfo": {
      "From the business": [
        {
          "Small business": true
        }
      ],
      "Service options": [
        {
          "Curbside pickup": true
        },
        {
          "Delivery": true
        },
        {
          "In-store shopping": true
        },
        {
          "Onsite services": true
        },
        {
          "English": true
        }
      ],
      "Accessibility": [
        {
          "Wheelchair accessible entrance": true
        },
        {
          "Wheelchair accessible parking lot": true
        },
        {
          "Wheelchair accessible restroom": true
        },
        {
          "Wheelchair accessible seating": true
        }
      ],
      "Amenities": [
        {
          "Gender-neutral restroom": true
        },
        {
          "Wi-Fi": true
        },
        {
          "Free Wi-Fi": true
        }
      ],
      "Crowd": [
        {
          "LGBTQ+ friendly": true
        },
        {
          "Transgender safespace": true
        }
      ],
      "Planning": [
        {
          "Quick visit": true
        }
      ],
      "Payments": [
        {
          "Credit cards": true
        },
        {
          "Debit cards": true
        },
        {
          "Credit cards": true
        }
      ],
      "Parking": [
        {
          "Free parking lot": true
        },
        {
          "Free street parking": true
        },
        {
          "On-site parking": true
        }
      ]
    },
    "gasPrices": [],
    "url": "https://www.google.com/maps/search/?api=1&query=Wyoming%20Family%20Practice%20Pharmacy&query_place_id=ChIJVRkZoYa8YIcR7VEwU4vuhXc",
    "searchPageUrl": "https://www.google.com/maps/search/independent%20pharmacy%20in%20Casper,%20WY/@62.264056934850785,-146.20571705729628,9z?hl=en",
    "searchString": "independent pharmacy in Casper, WY",
    "language": "en",
    "rank": 3,
    "isAdvertisement": false,
    "imageUrl": "https://streetviewpixels-pa.googleapis.com/v1/thumbnail?panoid=v3WcjvumwPIjPzuFGGrUCA&cb_client=search.gws-prod.gps&w=408&h=240&yaw=304.25256&pitch=0&thumbfov=100",
    "kgmid": "/g/1vxw8rnn",
    "classification": "independent",
    "is_independent": true,
    "is_compounding": false,
    "confidence": 0.85,
    "source": "perplexity",
    "method": "llm",
    "query_location": "in_casper_wy"
  },
  {
    "title": "Ridley's Pharmacy",
    "price": null,
    "categoryName": "Pharmacy",
    "address": "300 SE Wyoming Blvd Ridley's, Casper, WY 82609",
    "neighborhood": null,
    "street": "300 SE Wyoming Blvd Ridley's",
    "city": "Casper",
    "postalCode": "82609",
    "state": "Wyoming",
    "countryCode": "US",
    "website": "https://shopridleys.com/pharmacy.php",
    "phone": "(307) 577-7062",
    "phoneUnformatted": "+13075777062",
    "claimThisBusiness": true,
    "location": {
      "lat": 42.847973,
      "lng": -106.272575
    },
    "totalScore": 4.9,
    "permanentlyClosed": false,
    "temporarilyClosed": false,
    "placeId": null,
    "categories": [
      "Pharmacy"
    ],
    "fid": "0x8760bbf454f0bbdf:0xb6695dc199d38a3d",
    "cid": "13144140073548352061",
    "reviewsCount": 7,
    "imagesCount": 1,
    "imageCategories": [],
    "scrapedAt": "2025-06-23T05:40:57.816Z",
    "googleFoodUrl": null,
    "hotelAds": [],
    "openingHours": [
      {
        "day": "Monday",
        "hours": "8\u202fAM to 8\u202fPM"
      },
      {
        "day": "Tuesday",
        "hours": "8\u202fAM to 8\u202fPM"
      },
      {
        "day": "Wednesday",
        "hours": "8\u202fAM to 8\u202fPM"
      },
      {
        "day": "Thursday",
        "hours": "8\u202fAM to 8\u202fPM"
      },
      {
        "day": "Friday",
        "hours": "8\u202fAM to 8\u202fPM"
      },
      {
        "day": "Saturday",
        "hours": "9\u202fAM to 6\u202fPM"
      },
      {
        "day": "Sunday",
        "hours": "10\u202fAM to 4\u202fPM"
      }
    ],
    "peopleAlsoSearch": [],
    "placesTags": [],
    "reviewsTags": [],
    "additionalInfo": {
      "Accessibility": [
        {
          "Wheelchair accessible entrance": true
        },
        {
          "Wheelchair accessible parking lot": true
        }
      ],
      "Planning": [
        {
          "Quick visit": true
        }
      ],
      "Payments": [
        {
          "Credit cards": true
        }
      ]
    },
    "gasPrices": [],
    "url": "https://www.google.com/maps/search/?api=1&query=Ridley's%20Pharmacy&query_place_id=ChIJ37vwVPS7YIcRPYrTmcFdabY",
    "searchPageUrl": "https://www.google.com/maps/search/independent%20pharmacy%20in%20Casper,%20WY/@62.264056934850785,-146.20571705729628,9z?hl=en",
    "searchString": "independent pharmacy in Casper, WY",
    "language": "en",
    "rank": 4,
    "isAdvertisement": false,
    "imageUrl": "https://streetviewpixels-pa.googleapis.com/v1/thumbnail?panoid=bN7dP8lt-kqVBlB_zjj_2w&cb_client=search.gws-prod.gps&w=408&h=240&yaw=250.63893&pitch=0&thumbfov=100",
    "kgmid": "/g/11p6nftj3h",
    "classification": "independent",
    "is_independent": true,
    "is_compounding": false,
    "confidence": 0.85,
    "source": "perplexity",
    "method": "llm",
    "query_location": "in_casper_wy"
  },
  {
    "title": "Smith's Pharmacy",
    "price": null,
    "categoryName": "Pharmacy",
    "address": "2405 CY Ave, Casper, WY 82604",
    "neighborhood": null,
    "street": "2405 CY Ave",
    "city": "Casper",
    "postalCode": "82604",
    "state": "Wyoming",
    "countryCode": "US",
    "website": "https://www.smithsfoodanddrug.com/rx/pharmacy/details/706/00185?cid=loc_70600185P_gmb",
    "phone": "(307) 266-6250",
    "phoneUnformatted": "+13072666250",
    "claimThisBusiness": false,
    "location": {
      "lat": 42.8278986,
      "lng": -106.3530716
    },
    "totalScore": 3.3,
    "permanentlyClosed": false,
    "temporarilyClosed": false,
    "placeId": "ChIJKwEnJqWkYIcRyk7j74nPMF8",
    "categories": [
      "Pharmacy",
      "Drug store",
      "Health counselor",
      "Home health care service"
    ],
    "fid": "0x8760a4a52627012b:0x5f30cf89efe34eca",
    "cid": "6859210423827386058",
    "reviewsCount": 39,
    "imagesCount": 9,
    "imageCategories": [],
    "scrapedAt": "2025-06-23T05:40:57.816Z",
    "googleFoodUrl": null,
    "hotelAds": [],
    "openingHours": [
      {
        "day": "Monday",
        "hours": "9\u202fAM to 1\u202fPM, 1:30 to 8\u202fPM"
      },
      {
        "day": "Tuesday",
        "hours": "9\u202fAM to 1\u202fPM, 1:30 to 8\u202fPM"
      },
      {
        "day": "Wednesday",
        "hours": "9\u202fAM to 1\u202fPM, 1:30 to 8\u202fPM"
      },
      {
        "day": "Thursday",
        "hours": "9\u202fAM to 1\u202fPM, 1:30 to 8\u202fPM"
      },
      {
        "day": "Friday",
        "hours": "9\u202fAM to 1\u202fPM, 1:30 to 8\u202fPM"
      },
      {
        "day": "Saturday",
        "hours": "9\u202fAM to 1\u202fPM, 1:30 to 6\u202fPM"
      },
      {
        "day": "Sunday",
        "hours": "10\u202fAM to 1\u202fPM, 1:30 to 5\u202fPM"
      }
    ],
    "peopleAlsoSearch": [],
    "placesTags": [],
    "reviewsTags": [],
    "additionalInfo": {
      "Service options": [
        {
          "Delivery": true
        },
        {
          "In-store pickup": true
        },
        {
          "In-store shopping": true
        },
        {
          "Same-day delivery": true
        }
      ],
      "Accessibility": [
        {
          "Wheelchair accessible entrance": true
        },
        {
          "Wheelchair accessible parking lot": true
        },
        {
          "Wheelchair accessible restroom": true
        },
        {
          "Wheelchair accessible seating": true
        }
      ],
      "Crowd": [
        {
          "LGBTQ+ friendly": true
        },
        {
          "Transgender safespace": true
        }
      ],
      "Planning": [
        {
          "Quick visit": true
        }
      ],
      "Payments": [
        {
          "Checks": true
        },
        {
          "Credit cards": true
        },
        {
          "Debit cards": true
        },
        {
          "NFC mobile payments": true
        },
        {
          "Credit cards": true
        }
      ]
    },
    "gasPrices": [],
    "url": "https://www.google.com/maps/search/?api=1&query=Smith's%20Pharmacy&query_place_id=ChIJKwEnJqWkYIcRyk7j74nPMF8",
    "searchPageUrl": "https://www.google.com/maps/search/independent%20pharmacy%20in%20Casper,%20WY/@62.264056934850785,-146.20571705729628,9z?hl=en",
    "searchString": "independent pharmacy in Casper, WY",
    "language": "en",
    "rank": 5,
    "isAdvertisement": false,
    "imageUrl": "https://lh3.googleusercontent.com/p/AF1QipMvUFwah8sXE62OvCfCcljoktSDofIj2bp9kxnA=w426-h240-k-no",
    "kgmid": "/g/1th5jytx",
    "classification": "chain",
    "is_independent": false,
    "confidence": 1.0,
    "source": "rule-based"
  },
  {
    "title": "Klinger Melissa L",
    "price": null,
    "categoryName": "Pharmacy",
    "address": "1522 E A St, Casper, WY 82601",
    "neighborhood": null,
    "street": "1522 E A St",
    "city": "Casper",
    "postalCode": "82601",
    "state": "Wyoming",
    "countryCode": "US",
    "phone": "(307) 233-6000",
    "phoneUnformatted": "+13072336000",
    "claimThisBusiness": true,
    "location": {
      "lat": 42.8519932,
      "lng": -106.3042642
    },
    "permanentlyClosed": false,
    "temporarilyClosed": false,
    "placeId": null,
    "categories": [
      "Pharmacy"
    ],
    "fid": "0x8760bc86a119197f:0x84287b50f9991866",
    "cid": "9522996999790073958",
    "reviewsCount": 0,
    "imagesCount": 1,
    "imageCategories": [],
    "scrapedAt": "2025-06-23T05:40:57.817Z",
    "googleFoodUrl": null,
    "hotelAds": [],
    "openingHours": [
      {
        "day": "Monday",
        "hours": "8\u202fAM to 6\u202fPM"
      },
      {
        "day": "Tuesday",
        "hours": "8\u202fAM to 6\u202fPM"
      },
      {
        "day": "Wednesday",
        "hours": "8\u202fAM to 6\u202fPM"
      },
      {
        "day": "Thursday",
        "hours": "8\u202fAM to 6\u202fPM"
      },
      {
        "day": "Friday",
        "hours": "8\u202fAM to 5\u202fPM"
      },
      {
        "day": "Saturday",
        "hours": "Closed"
      },
      {
        "day": "Sunday",
        "hours": "Closed"
      }
    ],
    "peopleAlsoSearch": [],
    "placesTags": [],
    "reviewsTags": [],
    "additionalInfo": {
      "Accessibility": [
        {
          "Wheelchair accessible entrance": true
        },
        {
          "Wheelchair accessible parking lot": true
        }
      ]
    },
    "gasPrices": [],
    "url": "https://www.google.com/maps/search/?api=1&query=Klinger%20Melissa%20L&query_place_id=ChIJfxkZoYa8YIcRZhiZ-VB7KIQ",
    "searchPageUrl": "https://www.google.com/maps/search/independent%20pharmacy%20in%20Casper,%20WY/@62.264056934850785,-146.20571705729628,9z?hl=en",
    "searchString": "independent pharmacy in Casper, WY",
    "language": "en",
    "rank": 6,
    "isAdvertisement": false,
    "imageUrl": "https://streetviewpixels-pa.googleapis.com/v1/thumbnail?panoid=v3WcjvumwPIjPzuFGGrUCA&cb_client=search.gws-prod.gps&w=408&h=240&yaw=21.089954&pitch=0&thumbfov=100",
    "kgmid": "/g/1tf58cmd",
    "classification": "independent",
    "is_independent": true,
    "is_compounding": false,
    "confidence": 0.85,
    "source": "perplexity",
    "method": "llm",
    "query_location": "in_casper_wy"
  },
  {
    "title": "Sam's Club Pharmacy",
    "price": "$",
    "categoryName": "Pharmacy",
    "address": "4600 E 2nd St, Casper, WY 82609",
    "neighborhood": null,
    "street": "4600 E 2nd St",
    "city": "Casper",
    "postalCode": "82609",
    "state": "Wyoming",
    "countryCode": "US",
    "website": "https://www.samsclub.com/local/pharmacy/casper-wy-sams-club/6425",
    "phone": "(307) 472-0124",
    "phoneUnformatted": "+13074720124",
    "claimThisBusiness": false,
    "location": {
      "lat": 42.8501381,
      "lng": -106.2637311
    },
    "totalScore": 4.8,
    "permanentlyClosed": false,
    "temporarilyClosed": false,
    "placeId": null,
    "categories": [
      "Pharmacy"
    ],
    "fid": "0x8760bbf78a622a27:0xabfc0323c10b0c02",
    "cid": "12392783726714227714",
    "reviewsCount": 12,
    "imagesCount": 8,
    "imageCategories": [],
    "scrapedAt": "2025-06-23T05:40:57.817Z",
    "googleFoodUrl": null,
    "hotelAds": [],
    "openingHours": [
      {
        "day": "Monday",
        "hours": "9\u202fAM to 7\u202fPM"
      },
      {
        "day": "Tuesday",
        "hours": "9\u202fAM to 7\u202fPM"
      },
      {
        "day": "Wednesday",
        "hours": "9\u202fAM to 7\u202fPM"
      },
      {
        "day": "Thursday",
        "hours": "9\u202fAM to 7\u202fPM"
      },
      {
        "day": "Friday",
        "hours": "9\u202fAM to 7\u202fPM"
      },
      {
        "day": "Saturday",
        "hours": "9\u202fAM to 6\u202fPM"
      },
      {
        "day": "Sunday",
        "hours": "Closed"
      }
    ],
    "peopleAlsoSearch": [],
    "placesTags": [],
    "reviewsTags": [],
    "additionalInfo": {
      "Service options": [
        {
          "Curbside pickup": true
        },
        {
          "Delivery": true
        },
        {
          "In-store pickup": true
        },
        {
          "In-store shopping": true
        },
        {
          "Onsite services": true
        },
        {
          "Same-day delivery": true
        }
      ],
      "Accessibility": [
        {
          "Wheelchair accessible entrance": true
        },
        {
          "Wheelchair accessible parking lot": true
        }
      ],
      "Planning": [
        {
          "Quick visit": true
        }
      ],
      "Payments": [
        {
          "Credit cards": true
        },
        {
          "Debit cards": true
        },
        {
          "Credit cards": true
        }
      ]
    },
    "gasPrices": [],
    "url": "https://www.google.com/maps/search/?api=1&query=Sam's%20Club%20Pharmacy&query_place_id=ChIJJypiive7YIcRAgwLwSMD_Ks",
    "searchPageUrl": "https://www.google.com/maps/search/independent%20pharmacy%20in%20Casper,%20WY/@62.264056934850785,-146.20571705729628,9z?hl=en",
    "searchString": "independent pharmacy in Casper, WY",
    "language": "en",
    "rank": 7,
    "isAdvertisement": false,
    "imageUrl": "https://lh3.googleusercontent.com/p/AF1QipOz7iv3WM-rM_zG8Tnt2ZbCDajqEjRZkLlaqSDy=w408-h272-k-no",
    "kgmid": "/g/11b67dwtf4",
    "classification": "chain",
    "is_independent": false,
    "is_compounding": false,
    "confidence": 0.99,
    "source": "perplexity",
    "method": "llm",
    "query_location": "in_casper_wy"
  },
  {
    "title": "Walmart Pharmacy",
    "price": "$",
    "categoryName": "Pharmacy",
    "address": "4400 E 2nd St, Casper, WY 82609",
    "neighborhood": null,
    "street": "4400 E 2nd St",
    "city": "Casper",
    "postalCode": "82609",
    "state": "Wyoming",
    "countryCode": "US",
    "website": "https://www.walmart.com/store/1617-casper-wy/pharmacy/?veh=seo_loc",
    "phone": "(307) 237-0994",
    "phoneUnformatted": "+13072370994",
    "claimThisBusiness": false,
    "location": {
      "lat": 42.850767,
      "lng": -106.2672831
    },
    "totalScore": 3.3,
    "permanentlyClosed": false,
    "temporarilyClosed": false,
    "placeId": "ChIJo_vhLPa7YIcRQM7Da5c2ISk",
    "categories": [
      "Pharmacy",
      "Herbal medicine store",
      "Medical supply store",
      "Parapharmacy",
      "Vitamin & supplements store"
    ],
    "fid": "0x8760bbf62ce1fba3:0x292136976bc3ce40",
    "cid": "2963710053762453056",
    "reviewsCount": 30,
    "imagesCount": 7,
    "imageCategories": [],
    "scrapedAt": "2025-06-23T05:40:57.817Z",
    "googleFoodUrl": null,
    "hotelAds": [],
    "openingHours": [
      {
        "day": "Monday",
        "hours": "9\u202fAM to 7\u202fPM"
      },
      {
        "day": "Tuesday",
        "hours": "9\u202fAM to 7\u202fPM"
      },
      {
        "day": "Wednesday",
        "hours": "9\u202fAM to 7\u202fPM"
      },
      {
        "day": "Thursday",
        "hours": "9\u202fAM to 7\u202fPM"
      },
      {
        "day": "Friday",
        "hours": "9\u202fAM to 7\u202fPM"
      },
      {
        "day": "Saturday",
        "hours": "9\u202fAM to 7\u202fPM"
      },
      {
        "day": "Sunday",
        "hours": "10\u202fAM to 6\u202fPM"
      }
    ],
    "peopleAlsoSearch": [],
    "placesTags": [],
    "reviewsTags": [],
    "additionalInfo": {
      "Service options": [
        {
          "Curbside pickup": true
        },
        {
          "Delivery": true
        },
        {
          "In-store pickup": true
        },
        {
          "In-store shopping": true
        },
        {
          "Onsite services": true
        }
      ],
      "Accessibility": [
        {
          "Wheelchair accessible entrance": true
        },
        {
          "Wheelchair accessible parking lot": true
        },
        {
          "Wheelchair accessible restroom": true
        }
      ],
      "Offerings": [
        {
          "Passport photos": true
        }
      ],
      "Amenities": [
        {
          "Wi-Fi": true
        },
        {
          "Free Wi-Fi": true
        }
      ],
      "Planning": [
        {
          "Quick visit": true
        }
      ],
      "Payments": [
        {
          "Credit cards": true
        },
        {
          "Debit cards": true
        },
        {
          "Credit cards": true
        }
      ]
    },
    "gasPrices": [],
    "url": "https://www.google.com/maps/search/?api=1&query=Walmart%20Pharmacy&query_place_id=ChIJo_vhLPa7YIcRQM7Da5c2ISk",
    "searchPageUrl": "https://www.google.com/maps/search/independent%20pharmacy%20in%20Casper,%20WY/@62.264056934850785,-146.20571705729628,9z?hl=en",
    "searchString": "independent pharmacy in Casper, WY",
    "language": "en",
    "rank": 8,
    "isAdvertisement": false,
    "imageUrl": "https://lh3.googleusercontent.com/p/AF1QipNm5h8cpJ1bR1p3l04dDGXpcJYt_kKBw7yTkS9F=w408-h306-k-no",
    "kgmid": "/g/1hd_44n7y",
    "classification": "chain",
    "is_independent": false,
    "confidence": 1.0,
    "source": "rule-based"
  },
  {
    "title": "Ridley's Pharmacy #1132",
    "price": null,
    "categoryName": "Pharmacy",
    "address": "300 Wyoming Blvd, Casper, WY 82609",
    "neighborhood": null,
    "street": "300 Wyoming Blvd",
    "city": "Casper",
    "postalCode": "82609",
    "state": "Wyoming",
    "countryCode": "US",
    "phone": "(307) 577-7060",
    "phoneUnformatted": "+13075777060",
    "claimThisBusiness": false,
    "location": {
      "lat": 42.8531749,
      "lng": -106.2707658
    },
    "totalScore": 5,
    "permanentlyClosed": false,
    "temporarilyClosed": false,
    "placeId": null,
    "categories": [
      "Pharmacy",
      "Medical clinic"
    ],
    "fid": "0x8760bc0bcd2165df:0x20ad63d6c48e4039",
    "cid": "2354647954256445497",
    "reviewsCount": 2,
    "imagesCount": 1,
    "imageCategories": [],
    "scrapedAt": "2025-06-23T05:40:57.817Z",
    "googleFoodUrl": null,
    "hotelAds": [],
    "openingHours": [
      {
        "day": "Monday",
        "hours": "8\u202fAM to 8\u202fPM"
      },
      {
        "day": "Tuesday",
        "hours": "8\u202fAM to 8\u202fPM"
      },
      {
        "day": "Wednesday",
        "hours": "8\u202fAM to 8\u202fPM"
      },
      {
        "day": "Thursday",
        "hours": "8\u202fAM to 8\u202fPM"
      },
      {
        "day": "Friday",
        "hours": "8\u202fAM to 8\u202fPM"
      },
      {
        "day": "Saturday",
        "hours": "9\u202fAM to 6\u202fPM"
      },
      {
        "day": "Sunday",
        "hours": "10\u202fAM to 4\u202fPM"
      }
    ],
    "peopleAlsoSearch": [],
    "placesTags": [],
    "reviewsTags": [],
    "additionalInfo": {
      "Accessibility": [
        {
          "Wheelchair accessible entrance": true
        },
        {
          "Wheelchair accessible parking lot": true
        },
        {
          "Wheelchair accessible restroom": true
        }
      ],
      "Amenities": [
        {
          "Restroom": true
        }
      ],
      "Payments": [
        {
          "Credit cards": true
        }
      ]
    },
    "gasPrices": [],
    "url": "https://www.google.com/maps/search/?api=1&query=Ridley's%20Pharmacy%20%231132&query_place_id=ChIJ32UhzQu8YIcROUCOxNZjrSA",
    "searchPageUrl": "https://www.google.com/maps/search/independent%20pharmacy%20in%20Casper,%20WY/@62.264056934850785,-146.20571705729628,9z?hl=en",
    "searchString": "independent pharmacy in Casper, WY",
    "language": "en",
    "rank": 9,
    "isAdvertisement": false,
    "imageUrl": "https://streetviewpixels-pa.googleapis.com/v1/thumbnail?panoid=vUQYBz0Fyv64dc6Aby930Q&cb_client=search.gws-prod.gps&w=408&h=240&yaw=181.24026&pitch=0&thumbfov=100",
    "kgmid": "/g/11qn63_n9z",
    "classification": "chain",
    "is_independent": false,
    "is_compounding": false,
    "confidence": 0.95,
    "source": "perplexity",
    "method": "llm",
    "query_location": "in_casper_wy"
  },
  {
    "title": "Albertsons Pharmacy",
    "price": "$$",
    "categoryName": "Pharmacy",
    "address": "2625 E 2nd St, Casper, WY 82609",
    "neighborhood": null,
    "street": "2625 E 2nd St",
    "city": "Casper",
    "postalCode": "82609",
    "state": "Wyoming",
    "countryCode": "US",
    "website": "https://local.pharmacy.albertsons.com/wy/casper/2625-e-2nd-st.html",
    "phone": "(307) 234-7159",
    "phoneUnformatted": "+13072347159",
    "claimThisBusiness": false,
    "location": {
      "lat": 42.8478638,
      "lng": -106.2925797
    },
    "totalScore": 3.2,
    "permanentlyClosed": false,
    "temporarilyClosed": false,
    "placeId": "ChIJ-z1jo3i8YIcRqreVrNSlFG0",
    "categories": [
      "Pharmacy",
      "Drug store",
      "Vitamin & supplements store"
    ],
    "fid": "0x8760bc78a3633dfb:0x6d14a5d4ac95b7aa",
    "cid": "7860089582515500970",
    "reviewsCount": 20,
    "imagesCount": 4,
    "imageCategories": [],
    "scrapedAt": "2025-06-23T05:40:57.817Z",
    "googleFoodUrl": null,
    "hotelAds": [],
    "openingHours": [
      {
        "day": "Monday",
        "hours": "8\u202fAM to 1:30\u202fPM, 2 to 8\u202fPM"
      },
      {
        "day": "Tuesday",
        "hours": "8\u202fAM to 1:30\u202fPM, 2 to 8\u202fPM"
      },
      {
        "day": "Wednesday",
        "hours": "8\u202fAM to 1:30\u202fPM, 2 to 8\u202fPM"
      },
      {
        "day": "Thursday",
        "hours": "8\u202fAM to 1:30\u202fPM, 2 to 8\u202fPM"
      },
      {
        "day": "Friday",
        "hours": "8\u202fAM to 1:30\u202fPM, 2 to 8\u202fPM"
      },
      {
        "day": "Saturday",
        "hours": "9\u202fAM to 1:30\u202fPM, 2 to 6\u202fPM"
      },
      {
        "day": "Sunday",
        "hours": "10\u202fAM to 1:30\u202fPM, 2 to 4\u202fPM"
      }
    ],
    "peopleAlsoSearch": [],
    "placesTags": [],
    "reviewsTags": [],
    "additionalInfo": {
      "Service options": [
        {
          "Delivery": true
        },
        {
          "In-store pickup": true
        },
        {
          "In-store shopping": true
        },
        {
          "Same-day delivery": true
        }
      ],
      "Accessibility": [
        {
          "Wheelchair accessible entrance": true
        },
        {
          "Wheelchair accessible parking lot": true
        }
      ],
      "Crowd": [
        {
          "LGBTQ+ friendly": true
        }
      ],
      "Planning": [
        {
          "Appointment required": true
        },
        {
          "Quick visit": true
        }
      ],
      "Payments": [
        {
          "Checks": true
        },
        {
          "Debit cards": true
        },
        {
          "Credit cards": true
        }
      ]
    },
    "gasPrices": [],
    "url": "https://www.google.com/maps/search/?api=1&query=Albertsons%20Pharmacy&query_place_id=ChIJ-z1jo3i8YIcRqreVrNSlFG0",
    "searchPageUrl": "https://www.google.com/maps/search/independent%20pharmacy%20in%20Casper,%20WY/@62.264056934850785,-146.20571705729628,9z?hl=en",
    "searchString": "independent pharmacy in Casper, WY",
    "language": "en",
    "rank": 10,
    "isAdvertisement": false,
    "imageUrl": "https://lh3.googleusercontent.com/p/AF1QipM6layQxd9Q1JOJuIltTI1Ho5cX6p4u1Jyd1rj_=w426-h240-k-no",
    "kgmid": "/g/113fjj392",
    "classification": "chain",
    "is_independent": false,
    "confidence": 1.0,
    "source": "rule-based"
  }
]