[
  {
    "title": "Gompers Pharmacy",
    "price": null,
    "categoryName": "Pharmacy",
    "address": "2202 Chapline St, Wheeling, WV 26003",
    "neighborhood": null,
    "street": "2202 Chapline St",
    "city": "Wheeling",
    "postalCode": "26003",
    "state": "West Virginia",
    "countryCode": "US",
    "website": "http://www.gomperspharmacy.com/",
    "phone": "(304) 234-0002",
    "phoneUnformatted": "+13042340002",
    "claimThisBusiness": true,
    "location": {
      "lat": 40.0594557,
      "lng": -80.7226567
    },
    "totalScore": 4.2,
    "permanentlyClosed": false,
    "temporarilyClosed": false,
    "placeId": null,
    "categories": [
      "Pharmacy"
    ],
    "fid": "0x8835da2a126845e5:0x9a3d1d5f93007e58",
    "cid": "11114071751745633880",
    "reviewsCount": 35,
    "imagesCount": 1,
    "imageCategories": [],
    "scrapedAt": "2025-06-23T05:32:25.072Z",
    "googleFoodUrl": null,
    "hotelAds": [],
    "openingHours": [
      {
        "day": "Monday",
        "hours": "10\u202fAM to 6\u202fPM"
      },
      {
        "day": "Tuesday",
        "hours": "10\u202fAM to 6\u202fPM"
      },
      {
        "day": "Wednesday",
        "hours": "10\u202fAM to 6\u202fPM"
      },
      {
        "day": "Thursday",
        "hours": "10\u202fAM to 6\u202fPM"
      },
      {
        "day": "Friday",
        "hours": "10\u202fAM to 6\u202fPM"
      },
      {
        "day": "Saturday",
        "hours": "10\u202fAM to 1\u202fPM"
      },
      {
        "day": "Sunday",
        "hours": "Closed"
      }
    ],
    "peopleAlsoSearch": [],
    "placesTags": [],
    "reviewsTags": [],
    "additionalInfo": {
      "Service options": [
        {
          "Delivery": true
        },
        {
          "Drive-through": true
        },
        {
          "Same-day delivery": true
        }
      ],
      "Accessibility": [
        {
          "Wheelchair accessible entrance": true
        },
        {
          "Wheelchair accessible parking lot": true
        }
      ],
      "Planning": [
        {
          "Quick visit": true
        }
      ],
      "Payments": [
        {
          "Credit cards": true
        },
        {
          "Debit cards": true
        },
        {
          "Credit cards": true
        }
      ]
    },
    "gasPrices": [],
    "url": "https://www.google.com/maps/search/?api=1&query=Gompers%20Pharmacy&query_place_id=ChIJ5UVoEiraNYgRWH4Ak18dPZo",
    "searchPageUrl": "https://www.google.com/maps/search/independent%20pharmacy%20in%20Wheeling,%20WV/@48.27430768932854,-108.6496533711355,8z?hl=en",
    "searchString": "independent pharmacy in Wheeling, WV",
    "language": "en",
    "rank": 1,
    "isAdvertisement": false,
    "imageUrl": "https://streetviewpixels-pa.googleapis.com/v1/thumbnail?panoid=oQL-4xLQTcDvHev4cEGRiw&cb_client=search.gws-prod.gps&w=408&h=240&yaw=104.61106&pitch=0&thumbfov=100",
    "kgmid": "/g/1tj80mt8",
    "classification": "independent",
    "is_independent": true,
    "is_compounding": false,
    "confidence": 0.9,
    "source": "perplexity",
    "method": "llm",
    "query_location": "in_wheeling_wv"
  },
  {
    "title": "Elm Grove Pharmacy",
    "price": null,
    "categoryName": "Pharmacy",
    "address": "102 E Bethlehem Blvd, Wheeling, WV 26003",
    "neighborhood": "Elm Grove",
    "street": "102 E Bethlehem Blvd",
    "city": "Wheeling",
    "postalCode": "26003",
    "state": "West Virginia",
    "countryCode": "US",
    "website": "http://www.elmgrovepharmacy.com/?utm_source=google&utm_medium=wix_google_business_profile&utm_campaign=105846218683496235",
    "phone": "(304) 242-1500",
    "phoneUnformatted": "+13042421500",
    "claimThisBusiness": false,
    "location": {
      "lat": 40.043408,
      "lng": -80.658888
    },
    "totalScore": 4.1,
    "permanentlyClosed": false,
    "temporarilyClosed": false,
    "placeId": null,
    "categories": [
      "Pharmacy"
    ],
    "fid": "0x8835db0bf2f7367f:0x2bcf272dab758297",
    "cid": "3156784940913623703",
    "reviewsCount": 16,
    "imagesCount": 1,
    "imageCategories": [],
    "scrapedAt": "2025-06-23T05:32:25.073Z",
    "googleFoodUrl": null,
    "hotelAds": [],
    "openingHours": [
      {
        "day": "Monday",
        "hours": "9\u202fAM to 6\u202fPM"
      },
      {
        "day": "Tuesday",
        "hours": "9\u202fAM to 6\u202fPM"
      },
      {
        "day": "Wednesday",
        "hours": "9\u202fAM to 5\u202fPM"
      },
      {
        "day": "Thursday",
        "hours": "9\u202fAM to 5\u202fPM"
      },
      {
        "day": "Friday",
        "hours": "9\u202fAM to 6\u202fPM"
      },
      {
        "day": "Saturday",
        "hours": "9\u202fAM to 1\u202fPM"
      },
      {
        "day": "Sunday",
        "hours": "Closed"
      }
    ],
    "peopleAlsoSearch": [],
    "placesTags": [],
    "reviewsTags": [],
    "additionalInfo": {
      "From the business": [
        {
          "Small business": true
        }
      ],
      "Service options": [
        {
          "Drive-through": true
        },
        {
          "In-store pickup": true
        }
      ],
      "Accessibility": [
        {
          "Wheelchair accessible entrance": true
        },
        {
          "Wheelchair accessible parking lot": true
        }
      ],
      "Planning": [
        {
          "Quick visit": true
        }
      ],
      "Payments": [
        {
          "Credit cards": true
        },
        {
          "Debit cards": true
        },
        {
          "NFC mobile payments": true
        },
        {
          "Credit cards": true
        }
      ]
    },
    "gasPrices": [],
    "url": "https://www.google.com/maps/search/?api=1&query=Elm%20Grove%20Pharmacy&query_place_id=ChIJfzb38gvbNYgRl4J1qy0nzys",
    "searchPageUrl": "https://www.google.com/maps/search/independent%20pharmacy%20in%20Wheeling,%20WV/@48.27430768932854,-108.6496533711355,8z?hl=en",
    "searchString": "independent pharmacy in Wheeling, WV",
    "language": "en",
    "rank": 2,
    "isAdvertisement": false,
    "imageUrl": "https://streetviewpixels-pa.googleapis.com/v1/thumbnail?panoid=chgdr-74osHUGnKSomXfRA&cb_client=search.gws-prod.gps&w=408&h=240&yaw=266.48187&pitch=0&thumbfov=100",
    "kgmid": "/g/1thmlnfc",
    "classification": "independent",
    "is_independent": true,
    "is_compounding": false,
    "confidence": 0.9,
    "source": "perplexity",
    "method": "llm",
    "query_location": "in_wheeling_wv"
  },
  {
    "title": "Medical Park Pharmacy",
    "price": null,
    "categoryName": "Pharmacy",
    "address": "1 Medical Park Rd, Wheeling, WV 26003",
    "neighborhood": null,
    "street": "1 Medical Park Rd",
    "city": "Wheeling",
    "postalCode": "26003",
    "state": "West Virginia",
    "countryCode": "US",
    "website": "https://wheelinghospital.org/services/PublicPharmacy/",
    "phone": "(304) 243-3388",
    "phoneUnformatted": "+13042433388",
    "claimThisBusiness": true,
    "location": {
      "lat": 40.059072,
      "lng": -80.685052
    },
    "totalScore": 4.4,
    "permanentlyClosed": false,
    "temporarilyClosed": false,
    "placeId": null,
    "categories": [
      "Pharmacy"
    ],
    "fid": "0x8835da53ac6525b9:0x3f98574a9851c0db",
    "cid": "4582508598744170715",
    "reviewsCount": 9,
    "imagesCount": 1,
    "imageCategories": [],
    "scrapedAt": "2025-06-23T05:32:53.609Z",
    "googleFoodUrl": null,
    "hotelAds": [],
    "openingHours": [
      {
        "day": "Monday",
        "hours": "7\u202fAM to 9\u202fPM"
      },
      {
        "day": "Tuesday",
        "hours": "7\u202fAM to 9\u202fPM"
      },
      {
        "day": "Wednesday",
        "hours": "7\u202fAM to 9\u202fPM"
      },
      {
        "day": "Thursday",
        "hours": "7\u202fAM to 9\u202fPM"
      },
      {
        "day": "Friday",
        "hours": "7\u202fAM to 9\u202fPM"
      },
      {
        "day": "Saturday",
        "hours": "10\u202fAM to 8\u202fPM"
      },
      {
        "day": "Sunday",
        "hours": "10\u202fAM to 8\u202fPM"
      }
    ],
    "peopleAlsoSearch": [],
    "placesTags": [],
    "reviewsTags": [],
    "additionalInfo": {
      "Accessibility": [
        {
          "Wheelchair accessible entrance": true
        },
        {
          "Wheelchair accessible parking lot": true
        }
      ],
      "Payments": [
        {
          "Credit cards": true
        },
        {
          "Debit cards": true
        },
        {
          "NFC mobile payments": true
        },
        {
          "Credit cards": true
        }
      ]
    },
    "gasPrices": [],
    "url": "https://www.google.com/maps/search/?api=1&query=Medical%20Park%20Pharmacy&query_place_id=ChIJuSVlrFPaNYgR28BRmEpXmD8",
    "searchPageUrl": "https://www.google.com/maps/search/independent%20pharmacy%20in%20Wheeling,%20WV/@56.64892519166337,-169.4900814092578,12z?hl=en",
    "searchString": "independent pharmacy in Wheeling, WV",
    "language": "en",
    "rank": 2,
    "isAdvertisement": false,
    "imageUrl": "https://streetviewpixels-pa.googleapis.com/v1/thumbnail?panoid=zgZPrC62sYGJjtoANwIPpw&cb_client=search.gws-prod.gps&w=408&h=240&yaw=163.27928&pitch=0&thumbfov=100",
    "kgmid": "/g/1tvq4smd",
    "classification": "hospital",
    "is_independent": false,
    "is_compounding": false,
    "confidence": 0.98,
    "source": "perplexity",
    "method": "llm",
    "query_location": "in_wheeling_wv"
  },
  {
    "title": "Med Rx",
    "price": null,
    "categoryName": "Pharmacy",
    "address": "620 National Rd Suite 400, Wheeling, WV 26003",
    "neighborhood": null,
    "street": "620 National Rd Suite 400",
    "city": "Wheeling",
    "postalCode": "26003",
    "state": "West Virginia",
    "countryCode": "US",
    "website": "https://www.mygnp.com/pharmacies/med-rx-wheeling-wv-26003/?utm_source=google&utm_medium=local&utm_campaign=localmaps&utm_content=5009801",
    "phone": "(304) 232-4984",
    "phoneUnformatted": "+13042324984",
    "claimThisBusiness": false,
    "location": {
      "lat": 40.0750768,
      "lng": -80.7047651
    },
    "totalScore": 4.8,
    "permanentlyClosed": false,
    "temporarilyClosed": false,
    "placeId": null,
    "categories": [
      "Pharmacy",
      "Drug store"
    ],
    "fid": "0x8835da3e82dd1809:0xf2b2ff2a49d2f13c",
    "cid": "17488320860125327676",
    "reviewsCount": 31,
    "imagesCount": 4,
    "imageCategories": [],
    "scrapedAt": "2025-06-23T05:32:53.609Z",
    "googleFoodUrl": null,
    "hotelAds": [],
    "openingHours": [
      {
        "day": "Monday",
        "hours": "8\u202fAM to 5\u202fPM"
      },
      {
        "day": "Tuesday",
        "hours": "8\u202fAM to 5\u202fPM"
      },
      {
        "day": "Wednesday",
        "hours": "8\u202fAM to 5\u202fPM"
      },
      {
        "day": "Thursday",
        "hours": "8\u202fAM to 5\u202fPM"
      },
      {
        "day": "Friday",
        "hours": "8\u202fAM to 5\u202fPM"
      },
      {
        "day": "Saturday",
        "hours": "9\u202fAM to 2\u202fPM"
      },
      {
        "day": "Sunday",
        "hours": "Closed"
      }
    ],
    "peopleAlsoSearch": [],
    "placesTags": [],
    "reviewsTags": [],
    "additionalInfo": {
      "Service options": [
        {
          "Delivery": true
        },
        {
          "In-store pickup": true
        },
        {
          "In-store shopping": true
        },
        {
          "Onsite services": true
        }
      ],
      "Accessibility": [
        {
          "Wheelchair accessible entrance": true
        },
        {
          "Wheelchair accessible parking lot": true
        }
      ],
      "Planning": [
        {
          "Quick visit": true
        }
      ],
      "Payments": [
        {
          "Credit cards": true
        },
        {
          "Debit cards": true
        },
        {
          "NFC mobile payments": true
        },
        {
          "Credit cards": true
        }
      ]
    },
    "gasPrices": [],
    "url": "https://www.google.com/maps/search/?api=1&query=Med%20Rx&query_place_id=ChIJCRjdgj7aNYgRPPHSSSr_svI",
    "searchPageUrl": "https://www.google.com/maps/search/independent%20pharmacy%20in%20Wheeling,%20WV/@56.64892519166337,-169.4900814092578,12z?hl=en",
    "searchString": "independent pharmacy in Wheeling, WV",
    "language": "en",
    "rank": 3,
    "isAdvertisement": false,
    "imageUrl": "https://lh3.googleusercontent.com/gps-cs-s/AC9h4nrxR16B-ufRhx-TL_gA4Ngy2om6_49fxBf74mA_Js9qyggLeR7nEV6ZL4GSJcehaG1pPUthyOpPEQaviUk1u6mEtyIRV7uDeCeLuatU3XIk4Yk02Rf28v772NudsHhj06MGbI-4Pg=w426-h240-k-no",
    "kgmid": "/g/1xgrnljw",
    "classification": "independent",
    "is_independent": true,
    "is_compounding": false,
    "confidence": 0.85,
    "source": "perplexity",
    "method": "llm",
    "query_location": "in_wheeling_wv"
  },
  {
    "title": "CVS Pharmacy",
    "price": null,
    "categoryName": "Pharmacy",
    "address": "842 National Rd, Wheeling, WV 26003",
    "neighborhood": "Woodsdale",
    "street": "842 National Rd",
    "city": "Wheeling",
    "postalCode": "26003",
    "state": "West Virginia",
    "countryCode": "US",
    "website": "https://www.cvs.com/store-locator/wheeling-wv-pharmacies/842-national-rd-wheeling-wv-26003/storeid=6278?WT.mc_id=LS_GOOGLE_RX_6278",
    "phone": "(304) 232-3410",
    "phoneUnformatted": "+13042323410",
    "claimThisBusiness": false,
    "location": {
      "lat": 40.0761422,
      "lng": -80.6954159
    },
    "totalScore": 3.8,
    "permanentlyClosed": false,
    "temporarilyClosed": false,
    "placeId": "ChIJD3mcwEHaNYgRV2qCzrqJxrA",
    "categories": [
      "Pharmacy"
    ],
    "fid": "0x8835da41c09c790f:0xb0c689bace826a57",
    "cid": "12738020031485602391",
    "reviewsCount": 11,
    "imagesCount": 7,
    "imageCategories": [],
    "scrapedAt": "2025-06-23T05:33:12.385Z",
    "googleFoodUrl": null,
    "hotelAds": [],
    "openingHours": [
      {
        "day": "Monday",
        "hours": "8\u202fAM to 12:30\u202fPM, 1 to 8\u202fPM"
      },
      {
        "day": "Tuesday",
        "hours": "8\u202fAM to 12:30\u202fPM, 1 to 8\u202fPM"
      },
      {
        "day": "Wednesday",
        "hours": "8\u202fAM to 12:30\u202fPM, 1 to 8\u202fPM"
      },
      {
        "day": "Thursday",
        "hours": "8\u202fAM to 12:30\u202fPM, 1 to 8\u202fPM"
      },
      {
        "day": "Friday",
        "hours": "8\u202fAM to 12:30\u202fPM, 1 to 8\u202fPM"
      },
      {
        "day": "Saturday",
        "hours": "9\u202fAM to 12:30\u202fPM, 1 to 6\u202fPM"
      },
      {
        "day": "Sunday",
        "hours": "10\u202fAM to 12:30\u202fPM, 1 to 6\u202fPM"
      }
    ],
    "peopleAlsoSearch": [],
    "placesTags": [],
    "reviewsTags": [],
    "additionalInfo": {
      "Service options": [
        {
          "Delivery": true
        },
        {
          "Drive-through": true
        },
        {
          "In-store pickup": true
        },
        {
          "In-store shopping": true
        }
      ],
      "Accessibility": [
        {
          "Wheelchair accessible entrance": true
        },
        {
          "Wheelchair accessible parking lot": true
        }
      ],
      "Offerings": [
        {
          "Medication disposal": true
        },
        {
          "Naloxone": true
        },
        {
          "Passport photos": true
        }
      ],
      "Crowd": [
        {
          "LGBTQ+ friendly": true
        },
        {
          "Transgender safespace": true
        }
      ],
      "Planning": [
        {
          "Quick visit": true
        }
      ],
      "Payments": [
        {
          "Credit cards": true
        },
        {
          "Debit cards": true
        },
        {
          "NFC mobile payments": true
        },
        {
          "SNAP/EBT": true
        },
        {
          "Credit cards": true
        }
      ]
    },
    "gasPrices": [],
    "url": "https://www.google.com/maps/search/?api=1&query=CVS%20Pharmacy&query_place_id=ChIJD3mcwEHaNYgRV2qCzrqJxrA",
    "searchPageUrl": "https://www.google.com/maps/search/independent%20pharmacy%20in%20Wheeling,%20WV/@39.68245004733214,-86.48607177164843,8z?hl=en",
    "searchString": "independent pharmacy in Wheeling, WV",
    "language": "en",
    "rank": 5,
    "isAdvertisement": false,
    "imageUrl": "https://lh3.googleusercontent.com/p/AF1QipPkmAbG3Z3SncwHLSn9H93v3oUuEOIcrFB1VYZi=w408-h272-k-no",
    "kgmid": "/g/11c489sb3n",
    "classification": "chain",
    "is_independent": false,
    "confidence": 1.0,
    "source": "rule-based"
  },
  {
    "title": "Walgreens Pharmacy",
    "description": "Drugstore chain with health & beauty aids, prescriptions & photo services, plus mini-mart basics.",
    "price": null,
    "categoryName": "Pharmacy",
    "address": "111 Kruger St, Wheeling, WV 26003",
    "neighborhood": "Elm Grove",
    "street": "111 Kruger St",
    "city": "Wheeling",
    "postalCode": "26003",
    "state": "West Virginia",
    "countryCode": "US",
    "website": "https://www.walgreens.com/locator/walgreens-111+kruger+st-wheeling-wv-26003/id=17319",
    "phone": "(304) 242-0273",
    "phoneUnformatted": "+13042420273",
    "claimThisBusiness": false,
    "location": {
      "lat": 40.0427106,
      "lng": -80.6572594
    },
    "totalScore": 3.5,
    "permanentlyClosed": false,
    "temporarilyClosed": false,
    "placeId": "ChIJvY2uYBTbNYgRYC7ixvNQ6WQ",
    "categories": [
      "Pharmacy"
    ],
    "fid": "0x8835db1460ae8dbd:0x64e950f3c6e22e60",
    "cid": "7271432081310363232",
    "reviewsCount": 60,
    "imagesCount": 5,
    "imageCategories": [],
    "scrapedAt": "2025-06-23T05:33:12.385Z",
    "googleFoodUrl": null,
    "hotelAds": [],
    "openingHours": [
      {
        "day": "Monday",
        "hours": "9\u202fAM to 1:30\u202fPM, 2 to 9\u202fPM"
      },
      {
        "day": "Tuesday",
        "hours": "9\u202fAM to 1:30\u202fPM, 2 to 9\u202fPM"
      },
      {
        "day": "Wednesday",
        "hours": "9\u202fAM to 1:30\u202fPM, 2 to 9\u202fPM"
      },
      {
        "day": "Thursday",
        "hours": "9\u202fAM to 1:30\u202fPM, 2 to 9\u202fPM"
      },
      {
        "day": "Friday",
        "hours": "9\u202fAM to 1:30\u202fPM, 2 to 9\u202fPM"
      },
      {
        "day": "Saturday",
        "hours": "9\u202fAM to 1:30\u202fPM, 2 to 6\u202fPM"
      },
      {
        "day": "Sunday",
        "hours": "10\u202fAM to 1:30\u202fPM, 2 to 6\u202fPM"
      }
    ],
    "additionalOpeningHours": {
      "Drive through": [
        {
          "day": "Monday",
          "hours": "9\u202fAM\u20131:30\u202fPM"
        },
        {
          "day": "Tuesday",
          "hours": "9\u202fAM\u20131:30\u202fPM"
        },
        {
          "day": "Wednesday",
          "hours": "9\u202fAM\u20131:30\u202fPM"
        },
        {
          "day": "Thursday",
          "hours": "9\u202fAM\u20131:30\u202fPM"
        },
        {
          "day": "Friday",
          "hours": "9\u202fAM\u20131:30\u202fPM"
        },
        {
          "day": "Saturday",
          "hours": "9\u202fAM\u20131:30\u202fPM"
        },
        {
          "day": "Sunday",
          "hours": "10\u202fAM\u20131:30\u202fPM"
        }
      ]
    },
    "peopleAlsoSearch": [],
    "placesTags": [],
    "reviewsTags": [],
    "additionalInfo": {
      "Service options": [
        {
          "Curbside pickup": true
        },
        {
          "Drive-through": true
        },
        {
          "In-store pickup": true
        },
        {
          "Onsite services": true
        }
      ],
      "Accessibility": [
        {
          "Wheelchair accessible entrance": true
        },
        {
          "Wheelchair accessible parking lot": true
        }
      ],
      "Offerings": [
        {
          "Passport photos": true
        }
      ],
      "Planning": [
        {
          "Quick visit": true
        }
      ],
      "Payments": [
        {
          "Credit cards": true
        },
        {
          "NFC mobile payments": true
        }
      ]
    },
    "gasPrices": [],
    "url": "https://www.google.com/maps/search/?api=1&query=Walgreens%20Pharmacy&query_place_id=ChIJvY2uYBTbNYgRYC7ixvNQ6WQ",
    "searchPageUrl": "https://www.google.com/maps/search/independent%20pharmacy%20in%20Wheeling,%20WV/@39.68245004733214,-86.48607177164843,8z?hl=en",
    "searchString": "independent pharmacy in Wheeling, WV",
    "language": "en",
    "rank": 6,
    "isAdvertisement": false,
    "imageUrl": "https://lh3.googleusercontent.com/gps-cs-s/AC9h4npAu-EkZ3gAIvoEuIJiye-umGkhe_FXJMyW4XUoiTKU2lLwsxp73BSl_38OQE6VAw9JXRUNNcCxRbn2fdfNxdtXiR2NxQFLCKI8JW4sEdBi7gCO0fomj4hCwqJU5QpCdyHHTgs=w426-h240-k-no",
    "kgmid": "/g/11j2f69gqc",
    "classification": "chain",
    "is_independent": false,
    "confidence": 1.0,
    "source": "rule-based"
  },
  {
    "title": "Kroger Pharmacy",
    "price": "$$",
    "categoryName": "Pharmacy",
    "address": "200 Mount Dechantal Rd, Wheeling, WV 26003",
    "neighborhood": null,
    "street": "200 Mount Dechantal Rd",
    "city": "Wheeling",
    "postalCode": "26003",
    "state": "West Virginia",
    "countryCode": "US",
    "website": "https://www.kroger.com/rx/pharmacy/details/016/00562?cid=loc_01600562P_gmb",
    "phone": "(304) 233-5485",
    "phoneUnformatted": "+13042335485",
    "claimThisBusiness": false,
    "location": {
      "lat": 40.0737796,
      "lng": -80.6996943
    },
    "totalScore": 3.4,
    "permanentlyClosed": false,
    "temporarilyClosed": false,
    "placeId": "ChIJNZK3XT_aNYgRXqIV2moOGqU",
    "categories": [
      "Pharmacy",
      "Drug store",
      "Health counselor",
      "Home health care service"
    ],
    "fid": "0x8835da3f5db79235:0xa51a0e6ada15a25e",
    "cid": "11896837217740759646",
    "reviewsCount": 19,
    "imagesCount": 14,
    "imageCategories": [],
    "scrapedAt": "2025-06-23T05:33:12.385Z",
    "googleFoodUrl": null,
    "hotelAds": [],
    "openingHours": [
      {
        "day": "Monday",
        "hours": "8\u202fAM to 1\u202fPM, 1:30 to 8\u202fPM"
      },
      {
        "day": "Tuesday",
        "hours": "8\u202fAM to 1\u202fPM, 1:30 to 8\u202fPM"
      },
      {
        "day": "Wednesday",
        "hours": "8\u202fAM to 1\u202fPM, 1:30 to 8\u202fPM"
      },
      {
        "day": "Thursday",
        "hours": "8\u202fAM to 1\u202fPM, 1:30 to 8\u202fPM"
      },
      {
        "day": "Friday",
        "hours": "8\u202fAM to 1\u202fPM, 1:30 to 8\u202fPM"
      },
      {
        "day": "Saturday",
        "hours": "9\u202fAM to 1\u202fPM, 1:30 to 6\u202fPM"
      },
      {
        "day": "Sunday",
        "hours": "10\u202fAM to 1\u202fPM, 1:30 to 5\u202fPM"
      }
    ],
    "peopleAlsoSearch": [],
    "placesTags": [],
    "reviewsTags": [],
    "additionalInfo": {
      "Service options": [
        {
          "Curbside pickup": true
        },
        {
          "Delivery": true
        },
        {
          "In-store pickup": true
        },
        {
          "In-store shopping": true
        },
        {
          "Same-day delivery": true
        }
      ],
      "Accessibility": [
        {
          "Wheelchair accessible entrance": true
        },
        {
          "Wheelchair accessible parking lot": true
        },
        {
          "Wheelchair accessible restroom": true
        },
        {
          "Wheelchair accessible seating": true
        }
      ],
      "Offerings": [
        {
          "Passport photos": true
        }
      ],
      "Crowd": [
        {
          "LGBTQ+ friendly": true
        },
        {
          "Transgender safespace": true
        }
      ],
      "Planning": [
        {
          "Quick visit": true
        }
      ],
      "Payments": [
        {
          "Checks": true
        },
        {
          "Credit cards": true
        },
        {
          "Debit cards": true
        },
        {
          "NFC mobile payments": true
        },
        {
          "Credit cards": true
        }
      ]
    },
    "gasPrices": [],
    "url": "https://www.google.com/maps/search/?api=1&query=Kroger%20Pharmacy&query_place_id=ChIJNZK3XT_aNYgRXqIV2moOGqU",
    "searchPageUrl": "https://www.google.com/maps/search/independent%20pharmacy%20in%20Wheeling,%20WV/@39.68245004733214,-86.48607177164843,8z?hl=en",
    "searchString": "independent pharmacy in Wheeling, WV",
    "language": "en",
    "rank": 7,
    "isAdvertisement": false,
    "imageUrl": "https://lh3.googleusercontent.com/p/AF1QipPabBHKFJZjR0ZZ5bjKwQWT_JJ0VaB19_6OMmQR=w426-h240-k-no",
    "kgmid": "/g/1tfh_7k8",
    "classification": "chain",
    "is_independent": false,
    "confidence": 1.0,
    "source": "rule-based"
  },
  {
    "title": "CVS",
    "description": "Drugstore chain selling a variety of beauty & health products, plus some grocery & household items.",
    "price": null,
    "categoryName": "Drug store",
    "address": "842 National Rd, Wheeling, WV 26003",
    "neighborhood": null,
    "street": "842 National Rd",
    "city": "Wheeling",
    "postalCode": "26003",
    "state": "West Virginia",
    "countryCode": "US",
    "website": "https://www.cvs.com/store-locator/wheeling-wv-pharmacies/842-national-rd-wheeling-wv-26003/storeid=6278?WT.mc_id=LS_GOOGLE_FS_6278",
    "phone": "(304) 232-3410",
    "phoneUnformatted": "+13042323410",
    "claimThisBusiness": false,
    "location": {
      "lat": 40.0759499,
      "lng": -80.6953963
    },
    "locatedIn": "CVS Pharmacy",
    "totalScore": 2.7,
    "permanentlyClosed": false,
    "temporarilyClosed": false,
    "placeId": "ChIJU4U0xUHaNYgRDBSnYI7Qda4",
    "categories": [
      "Drug store",
      "Beauty supply store",
      "Beer store",
      "Convenience store",
      "Cosmetics store",
      "Greeting card shop",
      "Liquor store",
      "Perfume store",
      "Stationery store",
      "Vitamin & supplements store"
    ],
    "fid": "0x8835da41c5348553:0xae75d08e60a7140c",
    "cid": "12571183244800103436",
    "reviewsCount": 56,
    "imagesCount": 9,
    "imageCategories": [],
    "scrapedAt": "2025-06-23T05:33:39.803Z",
    "googleFoodUrl": null,
    "hotelAds": [],
    "openingHours": [
      {
        "day": "Monday",
        "hours": "7\u202fAM to 12\u202fAM"
      },
      {
        "day": "Tuesday",
        "hours": "7\u202fAM to 12\u202fAM"
      },
      {
        "day": "Wednesday",
        "hours": "7\u202fAM to 12\u202fAM"
      },
      {
        "day": "Thursday",
        "hours": "7\u202fAM to 12\u202fAM"
      },
      {
        "day": "Friday",
        "hours": "7\u202fAM to 12\u202fAM"
      },
      {
        "day": "Saturday",
        "hours": "7\u202fAM to 12\u202fAM"
      },
      {
        "day": "Sunday",
        "hours": "8\u202fAM to 10\u202fPM"
      }
    ],
    "additionalOpeningHours": {
      "CVS Pharmacy": [
        {
          "day": "Monday",
          "hours": "8\u202fAM\u201312:30\u202fPM"
        },
        {
          "day": "Tuesday",
          "hours": "8\u202fAM\u201312:30\u202fPM"
        },
        {
          "day": "Wednesday",
          "hours": "8\u202fAM\u201312:30\u202fPM"
        },
        {
          "day": "Thursday",
          "hours": "8\u202fAM\u201312:30\u202fPM"
        },
        {
          "day": "Friday",
          "hours": "8\u202fAM\u201312:30\u202fPM"
        },
        {
          "day": "Saturday",
          "hours": "9\u202fAM\u201312:30\u202fPM"
        },
        {
          "day": "Sunday",
          "hours": "10\u202fAM\u201312:30\u202fPM"
        }
      ],
      "CVS Photo": [
        {
          "day": "Monday",
          "hours": "7\u202fAM\u201312\u202fAM"
        },
        {
          "day": "Tuesday",
          "hours": "7\u202fAM\u201312\u202fAM"
        },
        {
          "day": "Wednesday",
          "hours": "7\u202fAM\u201312\u202fAM"
        },
        {
          "day": "Thursday",
          "hours": "7\u202fAM\u201312\u202fAM"
        },
        {
          "day": "Friday",
          "hours": "7\u202fAM\u201312\u202fAM"
        },
        {
          "day": "Saturday",
          "hours": "7\u202fAM\u201312\u202fAM"
        },
        {
          "day": "Sunday",
          "hours": "8\u202fAM\u201310\u202fPM"
        }
      ],
      "LibertyX Bitcoin ATM": [
        {
          "day": "Monday",
          "hours": "8\u202fAM\u201310\u202fPM"
        },
        {
          "day": "Tuesday",
          "hours": "8\u202fAM\u201310\u202fPM"
        },
        {
          "day": "Wednesday",
          "hours": "8\u202fAM\u201310\u202fPM"
        },
        {
          "day": "Thursday",
          "hours": "8\u202fAM\u201310\u202fPM"
        },
        {
          "day": "Friday",
          "hours": "8\u202fAM\u201310\u202fPM"
        },
        {
          "day": "Saturday",
          "hours": "8\u202fAM\u201310\u202fPM"
        },
        {
          "day": "Sunday",
          "hours": "8\u202fAM\u201310\u202fPM"
        }
      ]
    },
    "peopleAlsoSearch": [],
    "placesTags": [],
    "reviewsTags": [],
    "additionalInfo": {
      "Service options": [
        {
          "Delivery": true
        },
        {
          "Drive-through": true
        },
        {
          "In-store pickup": true
        },
        {
          "In-store shopping": true
        },
        {
          "Same-day delivery": false
        }
      ],
      "Accessibility": [
        {
          "Wheelchair accessible entrance": true
        },
        {
          "Wheelchair accessible parking lot": true
        }
      ],
      "Offerings": [
        {
          "Passport photos": true
        }
      ],
      "Crowd": [
        {
          "LGBTQ+ friendly": true
        },
        {
          "Transgender safespace": true
        }
      ],
      "Planning": [
        {
          "Quick visit": true
        }
      ],
      "Payments": [
        {
          "Credit cards": true
        },
        {
          "Debit cards": true
        },
        {
          "Credit cards": true
        }
      ]
    },
    "gasPrices": [],
    "url": "https://www.google.com/maps/search/?api=1&query=CVS&query_place_id=ChIJU4U0xUHaNYgRDBSnYI7Qda4",
    "searchPageUrl": "https://www.google.com/maps/search/independent%20pharmacy%20in%20Wheeling,%20WV/@71.29595084097066,-156.56290792837981,9z?hl=en",
    "searchString": "independent pharmacy in Wheeling, WV",
    "language": "en",
    "rank": 4,
    "isAdvertisement": false,
    "imageUrl": "https://lh3.googleusercontent.com/p/AF1QipMyx12F9KcUXYFnpOOSkmAYjtaikfviNsrQbmc8=w408-h272-k-no",
    "kgmid": "/g/1tfh59ls",
    "classification": "chain",
    "is_independent": false,
    "confidence": 1.0,
    "source": "rule-based"
  },
  {
    "title": "Kedvon Pharmacy",
    "price": null,
    "categoryName": "Pharmacy",
    "address": "56 S Milwaukee Ave, Wheeling, IL 60090",
    "neighborhood": null,
    "street": "56 S Milwaukee Ave",
    "city": "Wheeling",
    "postalCode": "60090",
    "state": "Illinois",
    "countryCode": "US",
    "website": "https://www.kedvonpharmacy.com/",
    "phone": "(847) 459-0001",
    "phoneUnformatted": "+18474590001",
    "claimThisBusiness": false,
    "location": {
      "lat": 42.1389,
      "lng": -87.9079
    },
    "totalScore": 3.5,
    "permanentlyClosed": false,
    "temporarilyClosed": false,
    "placeId": null,
    "categories": [
      "Pharmacy"
    ],
    "fid": "0x880fbeccc60b68df:0xf5a0812f1e14015",
    "cid": "1106205535933382677",
    "reviewsCount": 89,
    "imagesCount": 28,
    "imageCategories": [],
    "scrapedAt": "2025-06-23T05:34:15.265Z",
    "googleFoodUrl": null,
    "hotelAds": [],
    "openingHours": [
      {
        "day": "Monday",
        "hours": "10\u202fAM to 6\u202fPM"
      },
      {
        "day": "Tuesday",
        "hours": "10\u202fAM to 6\u202fPM"
      },
      {
        "day": "Wednesday",
        "hours": "10\u202fAM to 6\u202fPM"
      },
      {
        "day": "Thursday",
        "hours": "10\u202fAM to 6\u202fPM"
      },
      {
        "day": "Friday",
        "hours": "10\u202fAM to 6\u202fPM"
      },
      {
        "day": "Saturday",
        "hours": "10\u202fAM to 2\u202fPM"
      },
      {
        "day": "Sunday",
        "hours": "Closed"
      }
    ],
    "additionalOpeningHours": {
      "Lunch": [
        {
          "day": "Monday",
          "hours": "1:30\u20132\u202fPM"
        },
        {
          "day": "Tuesday",
          "hours": "1:30\u20132\u202fPM"
        },
        {
          "day": "Wednesday",
          "hours": "1:30\u20132\u202fPM"
        },
        {
          "day": "Thursday",
          "hours": "1:30\u20132\u202fPM"
        },
        {
          "day": "Friday",
          "hours": "1:30\u20132\u202fPM"
        },
        {
          "day": "Saturday",
          "hours": "Closed"
        },
        {
          "day": "Sunday",
          "hours": "Closed"
        }
      ]
    },
    "peopleAlsoSearch": [],
    "placesTags": [],
    "reviewsTags": [],
    "additionalInfo": {
      "From the business": [
        {
          "Small business": true
        }
      ],
      "Service options": [
        {
          "Delivery": true
        },
        {
          "In-store pickup": true
        },
        {
          "In-store shopping": true
        },
        {
          "Same-day delivery": true
        },
        {
          "Arabic": true
        }
      ],
      "Accessibility": [
        {
          "Wheelchair accessible entrance": true
        },
        {
          "Wheelchair accessible parking lot": true
        }
      ],
      "Planning": [
        {
          "Quick visit": true
        }
      ],
      "Payments": [
        {
          "Credit cards": true
        },
        {
          "Debit cards": true
        },
        {
          "NFC mobile payments": true
        },
        {
          "Credit cards": true
        }
      ]
    },
    "gasPrices": [],
    "url": "https://www.google.com/maps/search/?api=1&query=Kedvon%20Pharmacy&query_place_id=ChIJ32gLxsy-D4gRFUDh8RIIWg8",
    "searchPageUrl": "https://www.google.com/maps/search/independent%20pharmacy%20in%20Wheeling,%20WV/@39.68245004733214,-92.81852365721616,8z?hl=en",
    "searchString": "independent pharmacy in Wheeling, WV",
    "language": "en",
    "rank": 7,
    "isAdvertisement": false,
    "imageUrl": "https://lh3.googleusercontent.com/gps-cs-s/AC9h4noWtPOFRBEO0Z5piBpm4Lc82r5bhcyhK3p-427MZVZP-FQQZX5ZokTknA8PX_eh-CRh84rIhLVARMxQ4yt2Mp-TtMo-Mjq11HXG3CKpHrjReyxBsPz2lxdoxfPzadGHdCCSu1E9=w408-h306-k-no",
    "kgmid": "/g/11cn3jlcyb",
    "classification": "independent",
    "is_independent": true,
    "is_compounding": false,
    "confidence": 0.9,
    "source": "perplexity",
    "method": "llm",
    "query_location": "in_wheeling_wv"
  },
  {
    "title": "West Virginia Independent Pharmacy Association",
    "price": null,
    "categoryName": "Pharmacy",
    "address": "2017 Quarrier St, Charleston, WV 25311, United States",
    "neighborhood": null,
    "street": "2017 Quarrier St",
    "city": "Charleston",
    "postalCode": "25311",
    "state": "West Virginia",
    "countryCode": "US",
    "website": "https://www.wvipa.org/",
    "phone": "+1 304-654-4214",
    "phoneUnformatted": "+13046544214",
    "claimThisBusiness": false,
    "location": {
      "lat": 38.3358948,
      "lng": -81.6091951
    },
    "totalScore": 5,
    "permanentlyClosed": false,
    "temporarilyClosed": false,
    "placeId": "ChIJ-WQN5KMsT4gR227FkX3lAo0",
    "categories": [
      "Pharmacy"
    ],
    "fid": "0x884f2ca3e40d64f9:0x8d02e57d91c56edb",
    "cid": "10160936036780568283",
    "reviewsCount": 4,
    "imagesCount": 2,
    "imageCategories": [],
    "scrapedAt": "2025-06-23T05:34:21.051Z",
    "googleFoodUrl": null,
    "hotelAds": [],
    "openingHours": [
      {
        "day": "Monday",
        "hours": "9\u202fAM to 5\u202fPM"
      },
      {
        "day": "Tuesday",
        "hours": "9\u202fAM to 5\u202fPM"
      },
      {
        "day": "Wednesday",
        "hours": "9\u202fAM to 5\u202fPM"
      },
      {
        "day": "Thursday",
        "hours": "9\u202fAM to 5\u202fPM"
      },
      {
        "day": "Friday",
        "hours": "9\u202fAM to 5\u202fPM"
      },
      {
        "day": "Saturday",
        "hours": "Closed"
      },
      {
        "day": "Sunday",
        "hours": "Closed"
      }
    ],
    "peopleAlsoSearch": [],
    "placesTags": [],
    "reviewsTags": [],
    "additionalInfo": {
      "Accessibility": [
        {
          "Wheelchair-accessible car park": true
        },
        {
          "Wheelchair-accessible entrance": true
        }
      ],
      "Payments": [
        {
          "Credit cards": true
        }
      ]
    },
    "gasPrices": [],
    "url": "https://www.google.com/maps/search/?api=1&query=West%20Virginia%20Independent%20Pharmacy%20Association&query_place_id=ChIJ-WQN5KMsT4gR227FkX3lAo0",
    "searchPageUrl": "https://www.google.com/maps/search/independent%20pharmacy%20in%20Wheeling,%20WV/@36.81849750000001,-83.31984582886456,8z?hl=en",
    "searchString": "independent pharmacy in Wheeling, WV",
    "language": "en",
    "rank": 1,
    "isAdvertisement": false,
    "imageUrl": "https://lh3.googleusercontent.com/p/AF1QipNWp9bQGPlZmbsJq99qKuc74Kc_JMqwPnRoVC_q=w408-h408-k-no",
    "kgmid": "/g/11fk0bmzkz",
    "classification": "hospital",
    "is_independent": false,
    "confidence": 1.0,
    "source": "rule-based"
  }
]