[
  {
    "title": "Marshall Pharmacy",
    "price": null,
    "categoryName": "Pharmacy",
    "address": "1600 Medical Center Dr, Huntington, WV 25701",
    "neighborhood": null,
    "street": "1600 Medical Center Dr",
    "city": "Huntington",
    "postalCode": "25701",
    "state": "West Virginia",
    "countryCode": "US",
    "website": "http://www.marshallhealth.org/pharmacy",
    "phone": "(304) 691-6879",
    "phoneUnformatted": "+13046916879",
    "claimThisBusiness": false,
    "location": {
      "lat": 38.4091563,
      "lng": -82.426795
    },
    "totalScore": 3.4,
    "permanentlyClosed": false,
    "temporarilyClosed": false,
    "placeId": null,
    "categories": [
      "Pharmacy"
    ],
    "fid": "0x8846082a1b5c0587:0x9da9999bd8b65f37",
    "cid": "11360780429653598007",
    "reviewsCount": 50,
    "imagesCount": 3,
    "imageCategories": [],
    "scrapedAt": "2025-06-23T05:28:59.722Z",
    "googleFoodUrl": null,
    "hotelAds": [],
    "openingHours": [
      {
        "day": "Monday",
        "hours": "Open 24 hours"
      },
      {
        "day": "Tuesday",
        "hours": "Open 24 hours"
      },
      {
        "day": "Wednesday",
        "hours": "Open 24 hours"
      },
      {
        "day": "Thursday",
        "hours": "Open 24 hours"
      },
      {
        "day": "Friday",
        "hours": "Open 24 hours"
      },
      {
        "day": "Saturday",
        "hours": "Open 24 hours"
      },
      {
        "day": "Sunday",
        "hours": "Open 24 hours"
      }
    ],
    "peopleAlsoSearch": [],
    "placesTags": [],
    "reviewsTags": [],
    "additionalInfo": {
      "Service options": [
        {
          "In-store pickup": true
        },
        {
          "In-store shopping": true
        }
      ],
      "Accessibility": [
        {
          "Wheelchair accessible entrance": true
        },
        {
          "Wheelchair accessible parking lot": true
        }
      ],
      "Amenities": [
        {
          "Wi-Fi": true
        },
        {
          "Free Wi-Fi": true
        }
      ],
      "Payments": [
        {
          "Credit cards": true
        }
      ]
    },
    "gasPrices": [],
    "url": "https://www.google.com/maps/search/?api=1&query=Marshall%20Pharmacy&query_place_id=ChIJhwVcGyoIRogRN1-22JuZqZ0",
    "searchPageUrl": "https://www.google.com/maps/search/independent%20pharmacy%20in%20Huntington,%20WV/@31.09059240533574,-89.6522977144323,8z?hl=en",
    "searchString": "independent pharmacy in Huntington, WV",
    "language": "en",
    "rank": 1,
    "isAdvertisement": false,
    "imageUrl": "https://lh3.googleusercontent.com/p/AF1QipMy1lPlim3vAV7lALTrYEKPSO-5PDAVtFZpoC_o=w408-h256-k-no",
    "kgmid": "/g/11bv33nm0_",
    "classification": "hospital",
    "is_independent": false,
    "is_compounding": false,
    "confidence": 0.98,
    "source": "perplexity",
    "method": "llm",
    "query_location": "in_huntington_wv"
  },
  {
    "title": "Valley Health - Pharmacy Huntington",
    "price": null,
    "categoryName": "Pharmacy",
    "address": "1301 Hal Greer Boulevard Department F, Huntington, WV 25701",
    "neighborhood": null,
    "street": "1301 Hal Greer Boulevard Department F",
    "city": "Huntington",
    "postalCode": "25701",
    "state": "West Virginia",
    "countryCode": "US",
    "website": "https://www.valleyhealth.org/locations/huntington/?utm_source=google&utm_medium=organic&utm_campaign=gbp-main",
    "phone": "(304) 399-3355",
    "phoneUnformatted": "+13043993355",
    "claimThisBusiness": false,
    "location": {
      "lat": 38.4104504,
      "lng": -82.4288755
    },
    "totalScore": 5,
    "permanentlyClosed": false,
    "temporarilyClosed": false,
    "placeId": "ChIJwQobWioIRogR2wpIcpzHKp4",
    "categories": [
      "Pharmacy"
    ],
    "fid": "0x8846082a5a1b0ac1:0x9e2ac79c72480adb",
    "cid": "11397141281760611035",
    "reviewsCount": 4,
    "imagesCount": 1,
    "imageCategories": [],
    "scrapedAt": "2025-06-23T05:28:59.724Z",
    "googleFoodUrl": null,
    "hotelAds": [],
    "openingHours": [
      {
        "day": "Monday",
        "hours": "8:30\u202fAM to 12\u202fPM, 1 to 7\u202fPM"
      },
      {
        "day": "Tuesday",
        "hours": "8:30\u202fAM to 12\u202fPM, 1 to 7\u202fPM"
      },
      {
        "day": "Wednesday",
        "hours": "8:30\u202fAM to 12\u202fPM, 1 to 7\u202fPM"
      },
      {
        "day": "Thursday",
        "hours": "8:30\u202fAM to 12\u202fPM, 1 to 7\u202fPM"
      },
      {
        "day": "Friday",
        "hours": "8:30\u202fAM to 12\u202fPM, 1 to 7\u202fPM"
      },
      {
        "day": "Saturday",
        "hours": "Closed"
      },
      {
        "day": "Sunday",
        "hours": "Closed"
      }
    ],
    "peopleAlsoSearch": [],
    "placesTags": [],
    "reviewsTags": [],
    "additionalInfo": {
      "Service options": [
        {
          "In-store shopping": true
        }
      ],
      "Accessibility": [
        {
          "Wheelchair accessible entrance": true
        },
        {
          "Wheelchair accessible parking lot": true
        }
      ],
      "Payments": [
        {
          "Credit cards": true
        },
        {
          "Debit cards": true
        },
        {
          "NFC mobile payments": true
        },
        {
          "Credit cards": true
        }
      ]
    },
    "gasPrices": [],
    "url": "https://www.google.com/maps/search/?api=1&query=Valley%20Health%20-%20Pharmacy%20Huntington&query_place_id=ChIJwQobWioIRogR2wpIcpzHKp4",
    "searchPageUrl": "https://www.google.com/maps/search/independent%20pharmacy%20in%20Huntington,%20WV/@31.09059240533574,-89.6522977144323,8z?hl=en",
    "searchString": "independent pharmacy in Huntington, WV",
    "language": "en",
    "rank": 2,
    "isAdvertisement": false,
    "imageUrl": "https://streetviewpixels-pa.googleapis.com/v1/thumbnail?panoid=-qaqjOsWBPBXON3Vz6tnbQ&cb_client=search.gws-prod.gps&w=408&h=240&yaw=255.30246&pitch=0&thumbfov=100",
    "kgmid": "/g/11hbl4cvck",
    "classification": "hospital",
    "is_independent": false,
    "confidence": 1.0,
    "source": "rule-based"
  },
  {
    "title": "The Medicine Shoppe Pharmacy",
    "price": null,
    "categoryName": "Pharmacy",
    "address": "2402 Adams Ave, Huntington, WV 25704",
    "neighborhood": null,
    "street": "2402 Adams Ave",
    "city": "Huntington",
    "postalCode": "25704",
    "state": "West Virginia",
    "countryCode": "US",
    "website": "http://www.medicineshoppe.com/pharmacy-locations/west%20virginia/huntington%20adams%20avenue/home",
    "phone": "(304) 429-6716",
    "phoneUnformatted": "+13044296716",
    "claimThisBusiness": true,
    "location": {
      "lat": 38.408066,
      "lng": -82.495278
    },
    "totalScore": 4.4,
    "permanentlyClosed": false,
    "temporarilyClosed": false,
    "placeId": "ChIJR8jQyODhRYgRbvWv_cCCjeo",
    "categories": [
      "Pharmacy"
    ],
    "fid": "0x8845e1e0c8d0c847:0xea8d82c0fdaff56e",
    "cid": "16901308741992838510",
    "reviewsCount": 22,
    "imagesCount": 1,
    "imageCategories": [],
    "scrapedAt": "2025-06-23T05:28:59.724Z",
    "googleFoodUrl": null,
    "hotelAds": [],
    "openingHours": [
      {
        "day": "Monday",
        "hours": "9:30\u202fAM to 6\u202fPM"
      },
      {
        "day": "Tuesday",
        "hours": "9:30\u202fAM to 6\u202fPM"
      },
      {
        "day": "Wednesday",
        "hours": "9:30\u202fAM to 6\u202fPM"
      },
      {
        "day": "Thursday",
        "hours": "9:30\u202fAM to 6\u202fPM"
      },
      {
        "day": "Friday",
        "hours": "9:30\u202fAM to 6\u202fPM"
      },
      {
        "day": "Saturday",
        "hours": "9:30\u202fAM to 1\u202fPM"
      },
      {
        "day": "Sunday",
        "hours": "Closed"
      }
    ],
    "peopleAlsoSearch": [],
    "placesTags": [],
    "reviewsTags": [],
    "additionalInfo": {
      "Accessibility": [
        {
          "Wheelchair accessible entrance": true
        },
        {
          "Wheelchair accessible parking lot": true
        }
      ],
      "Planning": [
        {
          "Quick visit": true
        }
      ],
      "Payments": [
        {
          "Credit cards": true
        },
        {
          "Debit cards": true
        },
        {
          "NFC mobile payments": true
        },
        {
          "Credit cards": true
        }
      ]
    },
    "gasPrices": [],
    "url": "https://www.google.com/maps/search/?api=1&query=The%20Medicine%20Shoppe%20Pharmacy&query_place_id=ChIJR8jQyODhRYgRbvWv_cCCjeo",
    "searchPageUrl": "https://www.google.com/maps/search/independent%20pharmacy%20in%20Huntington,%20WV/@31.09059240533574,-89.6522977144323,8z?hl=en",
    "searchString": "independent pharmacy in Huntington, WV",
    "language": "en",
    "rank": 3,
    "isAdvertisement": false,
    "imageUrl": "https://streetviewpixels-pa.googleapis.com/v1/thumbnail?panoid=byqaLyy29Ycrfuw_lr5_xQ&cb_client=search.gws-prod.gps&w=408&h=240&yaw=340.4526&pitch=0&thumbfov=100",
    "kgmid": "/g/1tfl0x60",
    "classification": "chain",
    "is_independent": false,
    "confidence": 1.0,
    "source": "rule-based"
  },
  {
    "title": "Medicap Pharmacy",
    "price": null,
    "categoryName": "Pharmacy",
    "address": "4352 5th Street Rd, Huntington, WV 25701",
    "neighborhood": null,
    "street": "4352 5th Street Rd",
    "city": "Huntington",
    "postalCode": "25701",
    "state": "West Virginia",
    "countryCode": "US",
    "website": "https://huntingtonmedicap.com/",
    "phone": "(304) 523-5003",
    "phoneUnformatted": "+13045235003",
    "claimThisBusiness": false,
    "location": {
      "lat": 38.346621,
      "lng": -82.451482
    },
    "totalScore": 4.5,
    "permanentlyClosed": false,
    "temporarilyClosed": false,
    "placeId": "ChIJLTy4epXjRYgRLw6qfiRUMxY",
    "categories": [
      "Pharmacy"
    ],
    "fid": "0x8845e3957ab83c2d:0x163354247eaa0e2f",
    "cid": "1599714808367287855",
    "reviewsCount": 18,
    "imagesCount": 19,
    "imageCategories": [],
    "scrapedAt": "2025-06-23T05:28:59.725Z",
    "googleFoodUrl": null,
    "hotelAds": [],
    "openingHours": [
      {
        "day": "Monday",
        "hours": "9\u202fAM to 6\u202fPM"
      },
      {
        "day": "Tuesday",
        "hours": "9\u202fAM to 6\u202fPM"
      },
      {
        "day": "Wednesday",
        "hours": "9\u202fAM to 6\u202fPM"
      },
      {
        "day": "Thursday",
        "hours": "9\u202fAM to 6\u202fPM"
      },
      {
        "day": "Friday",
        "hours": "9\u202fAM to 6\u202fPM"
      },
      {
        "day": "Saturday",
        "hours": "9\u202fAM to 1\u202fPM"
      },
      {
        "day": "Sunday",
        "hours": "Closed"
      }
    ],
    "peopleAlsoSearch": [],
    "placesTags": [],
    "reviewsTags": [],
    "additionalInfo": {
      "Service options": [
        {
          "Curbside pickup": true
        },
        {
          "Delivery": true
        },
        {
          "Drive-through": true
        },
        {
          "In-store pickup": true
        },
        {
          "In-store shopping": true
        },
        {
          "Same-day delivery": true
        }
      ],
      "Accessibility": [
        {
          "Wheelchair accessible entrance": true
        },
        {
          "Wheelchair accessible parking lot": true
        },
        {
          "Wheelchair accessible restroom": false
        }
      ],
      "Planning": [
        {
          "Quick visit": true
        }
      ],
      "Payments": [
        {
          "Checks": true
        },
        {
          "Credit cards": true
        },
        {
          "Debit cards": true
        },
        {
          "NFC mobile payments": true
        },
        {
          "Credit cards": true
        }
      ],
      "Parking": [
        {
          "Free parking lot": true
        },
        {
          "On-site parking": true
        }
      ]
    },
    "gasPrices": [],
    "url": "https://www.google.com/maps/search/?api=1&query=Medicap%20Pharmacy&query_place_id=ChIJLTy4epXjRYgRLw6qfiRUMxY",
    "searchPageUrl": "https://www.google.com/maps/search/independent%20pharmacy%20in%20Huntington,%20WV/@31.09059240533574,-89.6522977144323,8z?hl=en",
    "searchString": "independent pharmacy in Huntington, WV",
    "language": "en",
    "rank": 4,
    "isAdvertisement": false,
    "imageUrl": "https://lh3.googleusercontent.com/p/AF1QipMRglpMgU0W6FikCrmw87rcVRdCVFiBNOfQ0u9O=w408-h544-k-no",
    "kgmid": "/g/1tdfjcdb",
    "classification": "chain",
    "is_independent": false,
    "confidence": 1.0,
    "source": "rule-based"
  },
  {
    "title": "Valley Health - Pharmacy East Huntington",
    "price": null,
    "categoryName": "Pharmacy",
    "address": "3377 US-60 Department F, Huntington, WV 25705",
    "neighborhood": null,
    "street": "3377 US-60 Department F",
    "city": "Huntington",
    "postalCode": "25705",
    "state": "West Virginia",
    "countryCode": "US",
    "website": "https://www.valleyhealth.org/locations/east-huntington/?utm_source=google&utm_medium=organic&utm_campaign=gbp-main",
    "phone": "(304) 525-4112",
    "phoneUnformatted": "+13045254112",
    "claimThisBusiness": false,
    "location": {
      "lat": 38.4105696,
      "lng": -82.3728117
    },
    "totalScore": 4.5,
    "permanentlyClosed": false,
    "temporarilyClosed": false,
    "placeId": "ChIJQwC0NfEHRogReFemQs6ASl4",
    "categories": [
      "Pharmacy"
    ],
    "fid": "0x884607f135b40043:0x5e4a80ce42a65778",
    "cid": "6794384611211630456",
    "reviewsCount": 10,
    "imagesCount": 3,
    "imageCategories": [],
    "scrapedAt": "2025-06-23T05:28:59.725Z",
    "googleFoodUrl": null,
    "hotelAds": [],
    "openingHours": [
      {
        "day": "Monday",
        "hours": "8:30\u202fAM to 7\u202fPM"
      },
      {
        "day": "Tuesday",
        "hours": "8:30\u202fAM to 7\u202fPM"
      },
      {
        "day": "Wednesday",
        "hours": "8:30\u202fAM to 7\u202fPM"
      },
      {
        "day": "Thursday",
        "hours": "8:30\u202fAM to 7\u202fPM"
      },
      {
        "day": "Friday",
        "hours": "8:30\u202fAM to 7\u202fPM"
      },
      {
        "day": "Saturday",
        "hours": "Closed"
      },
      {
        "day": "Sunday",
        "hours": "Closed"
      }
    ],
    "peopleAlsoSearch": [],
    "placesTags": [],
    "reviewsTags": [],
    "additionalInfo": {
      "Service options": [
        {
          "In-store shopping": true
        },
        {
          "Same-day delivery": false
        }
      ],
      "Accessibility": [
        {
          "Wheelchair accessible parking lot": true
        }
      ],
      "Payments": [
        {
          "Debit cards": true
        },
        {
          "NFC mobile payments": true
        },
        {
          "Credit cards": true
        }
      ]
    },
    "gasPrices": [],
    "url": "https://www.google.com/maps/search/?api=1&query=Valley%20Health%20-%20Pharmacy%20East%20Huntington&query_place_id=ChIJQwC0NfEHRogReFemQs6ASl4",
    "searchPageUrl": "https://www.google.com/maps/search/independent%20pharmacy%20in%20Huntington,%20WV/@31.09059240533574,-89.6522977144323,8z?hl=en",
    "searchString": "independent pharmacy in Huntington, WV",
    "language": "en",
    "rank": 5,
    "isAdvertisement": false,
    "imageUrl": "https://lh3.googleusercontent.com/gps-cs-s/AC9h4nrU83FeQ1T0Z-xBwYv1RHrj8ZdYoUGKR0PDfM4nXvOK8eF65vtPsMWVn9k5AyI9f_jynqnULlxSy7M8b0auH-Stf7su6SHLrwl7X_HF59H2CPiti-MK-lTQ9B5o-U1GsFx1EphvNA=w408-h725-k-no",
    "kgmid": "/g/1thkxywg",
    "classification": "hospital",
    "is_independent": false,
    "confidence": 1.0,
    "source": "rule-based"
  },
  {
    "title": "PharMerica \u2013 Huntington, WV",
    "price": null,
    "categoryName": "Pharmacy",
    "address": "78 Perrywinkle Lane, Huntington, WV 25702",
    "neighborhood": null,
    "street": "78 Perrywinkle Lane",
    "city": "Huntington",
    "postalCode": "25702",
    "state": "West Virginia",
    "countryCode": "US",
    "website": "http://www.pharmerica.com/",
    "phone": "(800) 785-5850",
    "phoneUnformatted": "+18007855850",
    "claimThisBusiness": false,
    "location": {
      "lat": 38.4271529,
      "lng": -82.292618
    },
    "permanentlyClosed": false,
    "temporarilyClosed": false,
    "placeId": "ChIJ11VaQM8ARogR_eOFxx6VdKw",
    "categories": [
      "Pharmacy"
    ],
    "fid": "0x884600cf405a55d7:0xac74951ec785e3fd",
    "cid": "12426721231251039229",
    "reviewsCount": 0,
    "imagesCount": 1,
    "imageCategories": [],
    "scrapedAt": "2025-06-23T05:28:59.725Z",
    "googleFoodUrl": null,
    "hotelAds": [],
    "openingHours": [],
    "peopleAlsoSearch": [],
    "placesTags": [],
    "reviewsTags": [],
    "additionalInfo": {
      "Accessibility": [
        {
          "Wheelchair accessible entrance": true
        },
        {
          "Wheelchair accessible parking lot": true
        }
      ]
    },
    "gasPrices": [],
    "url": "https://www.google.com/maps/search/?api=1&query=PharMerica%20%E2%80%93%20Huntington%2C%20WV&query_place_id=ChIJ11VaQM8ARogR_eOFxx6VdKw",
    "searchPageUrl": "https://www.google.com/maps/search/independent%20pharmacy%20in%20Huntington,%20WV/@31.09059240533574,-89.6522977144323,8z?hl=en",
    "searchString": "independent pharmacy in Huntington, WV",
    "language": "en",
    "rank": 6,
    "isAdvertisement": false,
    "imageUrl": "https://streetviewpixels-pa.googleapis.com/v1/thumbnail?panoid=79-jQLlyG9Mb7qLs6pyDRg&cb_client=search.gws-prod.gps&w=408&h=240&yaw=33.782757&pitch=0&thumbfov=100",
    "kgmid": "/g/11c3s8k60q",
    "classification": "chain",
    "is_independent": false,
    "confidence": 1.0,
    "source": "rule-based"
  },
  {
    "title": "Medical Arts Pharmacy",
    "price": null,
    "categoryName": "Pharmacy",
    "address": "949 6th Ave, Huntington, WV 25701",
    "neighborhood": null,
    "street": "949 6th Ave",
    "city": "Huntington",
    "postalCode": "25701",
    "state": "West Virginia",
    "countryCode": "US",
    "phone": "(304) 529-7141",
    "phoneUnformatted": "+13045297141",
    "claimThisBusiness": true,
    "location": {
      "lat": 38.4181597,
      "lng": -82.4415444
    },
    "totalScore": 4.4,
    "permanentlyClosed": false,
    "temporarilyClosed": false,
    "placeId": null,
    "categories": [
      "Pharmacy",
      "Orthotics & prosthetics service"
    ],
    "fid": "0x884609d068411dc3:0x2f8ce2ed8108abb0",
    "cid": "3426362926222060464",
    "reviewsCount": 41,
    "imagesCount": 4,
    "imageCategories": [],
    "scrapedAt": "2025-06-23T05:28:59.725Z",
    "googleFoodUrl": null,
    "hotelAds": [],
    "openingHours": [
      {
        "day": "Monday",
        "hours": "9\u202fAM to 5\u202fPM"
      },
      {
        "day": "Tuesday",
        "hours": "9\u202fAM to 5\u202fPM"
      },
      {
        "day": "Wednesday",
        "hours": "9\u202fAM to 5\u202fPM"
      },
      {
        "day": "Thursday",
        "hours": "9\u202fAM to 5\u202fPM"
      },
      {
        "day": "Friday",
        "hours": "9\u202fAM to 5\u202fPM"
      },
      {
        "day": "Saturday",
        "hours": "9\u202fAM to 1\u202fPM"
      },
      {
        "day": "Sunday",
        "hours": "Closed"
      }
    ],
    "peopleAlsoSearch": [],
    "placesTags": [],
    "reviewsTags": [],
    "additionalInfo": {
      "Service options": [
        {
          "Delivery": true
        },
        {
          "Same-day delivery": true
        }
      ],
      "Accessibility": [
        {
          "Wheelchair accessible entrance": true
        },
        {
          "Wheelchair accessible parking lot": true
        }
      ],
      "Planning": [
        {
          "Quick visit": true
        }
      ],
      "Payments": [
        {
          "Credit cards": true
        },
        {
          "Debit cards": true
        },
        {
          "NFC mobile payments": true
        },
        {
          "Credit cards": true
        }
      ]
    },
    "gasPrices": [],
    "url": "https://www.google.com/maps/search/?api=1&query=Medical%20Arts%20Pharmacy&query_place_id=ChIJwx1BaNAJRogRsKsIge3ijC8",
    "searchPageUrl": "https://www.google.com/maps/search/independent%20pharmacy%20in%20Huntington,%20WV/@31.09059240533574,-89.6522977144323,8z?hl=en",
    "searchString": "independent pharmacy in Huntington, WV",
    "language": "en",
    "rank": 7,
    "isAdvertisement": false,
    "imageUrl": "https://lh3.googleusercontent.com/gps-cs-s/AC9h4nqGF6Jg5fRUJ5tAy28wv-U6cnBG1-EuOSlpLZZMbztzOfPdWb_aDV92nnkyKCK2oFINh0Y2tA2n0EjSwDVQooDdTaWTrMzYrVQEKgB35i5piYFEuUkriPUVklFd1HCB0b8oCUAmaw=w408-h544-k-no",
    "kgmid": "/g/1tjy25ns",
    "classification": "independent",
    "is_independent": true,
    "is_compounding": false,
    "confidence": 0.85,
    "source": "perplexity",
    "method": "llm",
    "query_location": "in_huntington_wv"
  },
  {
    "title": "Genoa Healthcare",
    "price": null,
    "categoryName": "Pharmacy",
    "address": "55 Donohoe Dr, Huntington, WV 25705",
    "neighborhood": null,
    "street": "55 Donohoe Dr",
    "city": "Huntington",
    "postalCode": null,
    "state": "West Virginia",
    "countryCode": "US",
    "website": "https://www.genoahealthcare.com/",
    "phone": "(304) 840-0991",
    "phoneUnformatted": "+13048400991",
    "claimThisBusiness": false,
    "location": {
      "lat": 38.4104796,
      "lng": -82.3737218
    },
    "totalScore": 5,
    "permanentlyClosed": false,
    "temporarilyClosed": false,
    "placeId": "ChIJP0W4JAAHRogRtn4MgjIn8ys",
    "categories": [
      "Pharmacy"
    ],
    "fid": "0x8846070024b8453f:0x2bf32732820c7eb6",
    "cid": "3166918060855295670",
    "reviewsCount": 10,
    "imagesCount": 1,
    "imageCategories": [],
    "scrapedAt": "2025-06-23T05:28:59.725Z",
    "googleFoodUrl": null,
    "hotelAds": [],
    "openingHours": [
      {
        "day": "Monday",
        "hours": "8:30\u202fAM to 5\u202fPM"
      },
      {
        "day": "Tuesday",
        "hours": "8:30\u202fAM to 5\u202fPM"
      },
      {
        "day": "Wednesday",
        "hours": "8:30\u202fAM to 5\u202fPM"
      },
      {
        "day": "Thursday",
        "hours": "8:30\u202fAM to 5\u202fPM"
      },
      {
        "day": "Friday",
        "hours": "8:30\u202fAM to 5\u202fPM"
      },
      {
        "day": "Saturday",
        "hours": "Closed"
      },
      {
        "day": "Sunday",
        "hours": "Closed"
      }
    ],
    "peopleAlsoSearch": [],
    "placesTags": [],
    "reviewsTags": [],
    "additionalInfo": {
      "Accessibility": [
        {
          "Wheelchair accessible entrance": true
        },
        {
          "Wheelchair accessible parking lot": true
        }
      ],
      "Payments": [
        {
          "Credit cards": true
        }
      ]
    },
    "gasPrices": [],
    "url": "https://www.google.com/maps/search/?api=1&query=Genoa%20Healthcare&query_place_id=ChIJP0W4JAAHRogRtn4MgjIn8ys",
    "searchPageUrl": "https://www.google.com/maps/search/independent%20pharmacy%20in%20Huntington,%20WV/@31.09059240533574,-89.6522977144323,8z?hl=en",
    "searchString": "independent pharmacy in Huntington, WV",
    "language": "en",
    "rank": 8,
    "isAdvertisement": false,
    "imageUrl": "https://streetviewpixels-pa.googleapis.com/v1/thumbnail?panoid=nAL1QilGi-kUWDKkGtUIYA&cb_client=search.gws-prod.gps&w=408&h=240&yaw=2.8205295&pitch=0&thumbfov=100",
    "kgmid": "/g/11h2hf_jds",
    "classification": "chain",
    "is_independent": false,
    "confidence": 1.0,
    "source": "rule-based"
  },
  {
    "title": "The Pharmacy @ HIMG",
    "price": null,
    "categoryName": "Pharmacy",
    "address": "5170 US-60 #150, Huntington, WV 25705",
    "neighborhood": null,
    "street": "5170 US-60 #150",
    "city": "Huntington",
    "postalCode": "25705",
    "state": "West Virginia",
    "countryCode": "US",
    "website": "http://www.uhswv.com/",
    "phone": "(304) 399-3784",
    "phoneUnformatted": "+13043993784",
    "claimThisBusiness": false,
    "location": {
      "lat": 38.4150274,
      "lng": -82.3451203
    },
    "totalScore": 3.7,
    "permanentlyClosed": false,
    "temporarilyClosed": false,
    "placeId": null,
    "categories": [
      "Pharmacy"
    ],
    "fid": "0x88460779c16ef5af:0x8f968fd9750c84f8",
    "cid": "10346615358064723192",
    "reviewsCount": 10,
    "imagesCount": 3,
    "imageCategories": [],
    "scrapedAt": "2025-06-23T05:28:59.726Z",
    "googleFoodUrl": null,
    "hotelAds": [],
    "openingHours": [
      {
        "day": "Monday",
        "hours": "8:30\u202fAM to 5\u202fPM"
      },
      {
        "day": "Tuesday",
        "hours": "8:30\u202fAM to 5\u202fPM"
      },
      {
        "day": "Wednesday",
        "hours": "8:30\u202fAM to 5\u202fPM"
      },
      {
        "day": "Thursday",
        "hours": "8:30\u202fAM to 5\u202fPM"
      },
      {
        "day": "Friday",
        "hours": "8:30\u202fAM to 5\u202fPM"
      },
      {
        "day": "Saturday",
        "hours": "Closed"
      },
      {
        "day": "Sunday",
        "hours": "Closed"
      }
    ],
    "peopleAlsoSearch": [],
    "placesTags": [],
    "reviewsTags": [],
    "additionalInfo": {
      "From the business": [
        {
          "Small business": true
        }
      ],
      "Service options": [
        {
          "Drive-through": true
        },
        {
          "Onsite services": true
        }
      ],
      "Accessibility": [
        {
          "Wheelchair accessible entrance": true
        },
        {
          "Wheelchair accessible parking lot": true
        }
      ],
      "Offerings": [
        {
          "Medication disposal": true
        }
      ],
      "Amenities": [
        {
          "Wi-Fi": true
        },
        {
          "Free Wi-Fi": true
        }
      ],
      "Planning": [
        {
          "Quick visit": true
        }
      ],
      "Payments": [
        {
          "Credit cards": true
        },
        {
          "Debit cards": true
        },
        {
          "NFC mobile payments": true
        },
        {
          "Credit cards": true
        }
      ]
    },
    "gasPrices": [],
    "url": "https://www.google.com/maps/search/?api=1&query=The%20Pharmacy%20%40%20HIMG&query_place_id=ChIJr_VuwXkHRogR-IQMddmPlo8",
    "searchPageUrl": "https://www.google.com/maps/search/independent%20pharmacy%20in%20Huntington,%20WV/@31.09059240533574,-89.6522977144323,8z?hl=en",
    "searchString": "independent pharmacy in Huntington, WV",
    "language": "en",
    "rank": 9,
    "isAdvertisement": false,
    "imageUrl": "https://lh3.googleusercontent.com/p/AF1QipPssVK0_vKk9w-NczHM15AxjSNe_s2B_GgyeiKw=w464-h240-k-no",
    "kgmid": "/g/11bbrj3k0h",
    "classification": "hospital",
    "is_independent": false,
    "is_compounding": false,
    "confidence": 0.95,
    "source": "perplexity",
    "method": "llm",
    "query_location": "in_huntington_wv"
  },
  {
    "title": "Medical Park Pharmacy-HR",
    "price": null,
    "categoryName": "Pharmacy",
    "address": "4118 5th Street Rd, Huntington, WV 25701",
    "neighborhood": null,
    "street": "4118 5th Street Rd",
    "city": "Huntington",
    "postalCode": "25701",
    "state": "West Virginia",
    "countryCode": "US",
    "phone": "(304) 529-3784",
    "phoneUnformatted": "+13045293784",
    "claimThisBusiness": true,
    "location": {
      "lat": 38.3526881,
      "lng": -82.4526943
    },
    "permanentlyClosed": false,
    "temporarilyClosed": false,
    "placeId": null,
    "categories": [
      "Pharmacy"
    ],
    "fid": "0x88460779c17a855d:0x9582fb5c89279610",
    "cid": "10773449633480283664",
    "reviewsCount": 0,
    "imagesCount": 1,
    "imageCategories": [],
    "scrapedAt": "2025-06-23T05:28:59.726Z",
    "googleFoodUrl": null,
    "hotelAds": [],
    "openingHours": [],
    "peopleAlsoSearch": [],
    "placesTags": [],
    "reviewsTags": [],
    "additionalInfo": {
      "Accessibility": [
        {
          "Wheelchair accessible entrance": true
        },
        {
          "Wheelchair accessible parking lot": true
        }
      ],
      "Payments": [
        {
          "Credit cards": true
        }
      ]
    },
    "gasPrices": [],
    "url": "https://www.google.com/maps/search/?api=1&query=Medical%20Park%20Pharmacy-HR&query_place_id=ChIJXYV6wXkHRogREJYniVz7gpU",
    "searchPageUrl": "https://www.google.com/maps/search/independent%20pharmacy%20in%20Huntington,%20WV/@31.09059240533574,-89.6522977144323,8z?hl=en",
    "searchString": "independent pharmacy in Huntington, WV",
    "language": "en",
    "rank": 10,
    "isAdvertisement": false,
    "imageUrl": "https://streetviewpixels-pa.googleapis.com/v1/thumbnail?panoid=wfipD61xEU4D01-K1UbU-Q&cb_client=search.gws-prod.gps&w=408&h=240&yaw=80.35383&pitch=0&thumbfov=100",
    "kgmid": "/g/1tfzslzx",
    "classification": "independent",
    "is_independent": true,
    "is_compounding": false,
    "confidence": 0.8,
    "source": "perplexity",
    "method": "llm",
    "query_location": "in_huntington_wv"
  }
]